{"status":true,"message":"","result":[{"server_id":9,"name":"Uncletopia | Atlanta | 1 | All Maps","name_short":"atl-1","host":"atl-1.us.uncletopia.com","port":27015,"enabled":true,"region":"us-east","cc":"us","latitude":33.753746,"longitude":-84.38633,"reserved":0,"last_update":"0001-01-01T00:00:00Z","name_a2s":"Uncletopia | Atlanta | 1 | All Maps","protocol":17,"map":"cp_dustbowl","folder":"tf","game":"Team Fortress","app_id":440,"player_count":24,"max_players":24,"Bots":0,"server_type":"Dedicated","server_os":"Linux","password":true,"vac":true,"version":"7757534","steam_id":85568392924469982,"keywords":["cp","nocrits","nodmgspread","uncletopia"],"game_id":440,"stv_port":27016,"stv_name":"Uncletopia | Atlanta | 1 | All Maps | STV","players":[{"user_id":132,"name":"DDMM5008","steam_id":76561198013373274,"connected_time":2737000000000,"state":"active","ping":83},{"user_id":151,"name":"sad_hours","steam_id":76561199069031952,"connected_time":1571000000000,"state":"active","ping":82},{"user_id":167,"name":"s","steam_id":76561199196967125,"connected_time":313000000000,"state":"active","ping":56},{"user_id":152,"name":"Epifiny","steam_id":76561198027958086,"connected_time":1562000000000,"state":"active","ping":82},{"user_id":130,"name":"SomeScuffedKid","steam_id":76561198086113234,"connected_time":3149000000000,"state":"active","ping":83},{"user_id":147,"name":"Walmart Employee","steam_id":76561198840373909,"connected_time":2170000000000,"state":"active","ping":70},{"user_id":136,"name":"ShiYor","steam_id":76561199117260032,"connected_time":2645000000000,"state":"active","ping":128},{"user_id":154,"name":"The Pope","steam_id":76561198313560302,"connected_time":1450000000000,"state":"active","ping":39},{"user_id":122,"name":"Carl, Good to see you","steam_id":76561198070574075,"connected_time":3700000000000,"state":"active","ping":55},{"user_id":161,"name":"Gumit","steam_id":76561198208126512,"connected_time":1225000000000,"state":"active","ping":71},{"user_id":129,"name":"Doomagedden","steam_id":76561198272589475,"connected_time":3244000000000,"state":"active","ping":69},{"user_id":159,"name":"OpenDown","steam_id":76561198064132688,"connected_time":1301000000000,"state":"active","ping":81},{"user_id":86,"name":"Roc","steam_id":76561197988484579,"connected_time":6197000000000,"state":"active","ping":72},{"user_id":143,"name":"r0zemary","steam_id":76561198128494897,"connected_time":2373000000000,"state":"active","ping":76},{"user_id":139,"name":"ATL1 | on my hunting trip","steam_id":76561198315341646,"connected_time":2614000000000,"state":"active","ping":74},{"user_id":169,"name":"Towns","steam_id":76561198984662863,"connected_time":113000000000,"state":"active","ping":59},{"user_id":165,"name":"Yeoman","steam_id":76561198049472346,"connected_time":873000000000,"state":"active","ping":74},{"user_id":168,"name":"Zenabie","steam_id":76561198088372680,"connected_time":245000000000,"state":"active","ping":97},{"user_id":166,"name":"butterthoughts","steam_id":76561198025120284,"connected_time":501000000000,"state":"active","ping":75},{"user_id":164,"name":"Tom Hot Dog Truck","steam_id":76561198044696803,"connected_time":1109000000000,"state":"active","ping":74},{"user_id":141,"name":"Nonsense will NOT be tolerated","steam_id":76561198020092031,"connected_time":2569000000000,"state":"active","ping":88},{"user_id":102,"name":"HavocGDI","steam_id":76561199388371914,"connected_time":5048000000000,"state":"active","ping":100},{"user_id":150,"name":"TheTiredMario","steam_id":76561199062425739,"connected_time":1609000000000,"state":"active","ping":53},{"user_id":66,"name":"L-BOLT","steam_id":76561198200688349,"connected_time":8270000000000,"state":"active","ping":66}]},{"server_id":104,"name":"Uncletopia | Atlanta | 2 | All Maps","name_short":"atl-2","host":"atl-1.us.uncletopia.com","port":27025,"enabled":true,"region":"us-east","cc":"us","latitude":33.753746,"longitude":-84.38633,"reserved":0,"last_update":"0001-01-01T00:00:00Z","name_a2s":"Uncletopia | Atlanta | 2 | All Maps","protocol":17,"map":"koth_lakeside_final","folder":"tf","game":"Team Fortress","app_id":440,"player_count":0,"max_players":24,"Bots":0,"server_type":"Dedicated","server_os":"Linux","password":true,"vac":true,"version":"7757534","steam_id":85568392924469983,"keywords":["cp","nocrits","nodmgspread","uncletopia"],"game_id":440,"stv_port":27026,"stv_name":"Uncletopia | Atlanta | 2 | All Maps | STV","players":null},{"server_id":400,"name":"Uncletopia | Atlanta | 3 | Community","name_short":"atl-3","host":"atl-1.us.uncletopia.com","port":27035,"enabled":true,"region":"us-east","cc":"us","latitude":33.753746,"longitude":-84.38633,"reserved":0,"last_update":"0001-01-01T00:00:00Z","name_a2s":"Uncletopia | Atlanta | 3 | Community","protocol":17,"map":"workshop/koth_trenchfoot_b1a.ugc731436616","folder":"tf","game":"Team Fortress","app_id":440,"player_count":0,"max_players":24,"Bots":0,"server_type":"Dedicated","server_os":"Linux","password":true,"vac":true,"version":"7757534","steam_id":85568392924515187,"keywords":["cp","nocrits","nodmgspread","uncletopia"],"game_id":440,"stv_port":27036,"stv_name":"Uncletopia | Atlanta | 3 | Community | STV","players":null},{"server_id":401,"name":"Uncletopia | Atlanta | 4 | No Payload","name_short":"atl-4","host":"atl-1.us.uncletopia.com","port":27045,"enabled":true,"region":"us-east","cc":"us","latitude":33.753746,"longitude":-84.38633,"reserved":0,"last_update":"0001-01-01T00:00:00Z","name_a2s":"","protocol":0,"map":"","folder":"","game":"","app_id":0,"player_count":0,"max_players":0,"Bots":0,"server_type":"","server_os":"","password":false,"vac":false,"version":"","steam_id":0,"keywords":null,"game_id":0,"stv_port":0,"stv_name":"","players":null},{"server_id":2,"name":"Uncletopia | Chicago | 1 | All Maps","name_short":"chi-1","host":"chi-1.us.uncletopia.com","port":27015,"enabled":true,"region":"us-central","cc":"us","latitude":41.881832,"longitude":-87.62318,"reserved":0,"last_update":"0001-01-01T00:00:00Z","name_a2s":"Uncletopia | Chicago | 1 | All Maps","protocol":17,"map":"koth_highpass","folder":"tf","game":"Team Fortress","app_id":440,"player_count":0,"max_players":24,"Bots":0,"server_type":"Dedicated","server_os":"Linux","password":true,"vac":true,"version":"7757534","steam_id":85568392924469984,"keywords":["cp","nocrits","nodmgspread","uncletopia"],"game_id":440,"stv_port":27016,"stv_name":"Uncletopia | Chicago | 1 | All Maps | STV","players":null},{"server_id":106,"name":"Uncletopia | Chicago | 2 | All Maps","name_short":"chi-2","host":"chi-1.us.uncletopia.com","port":27025,"enabled":true,"region":"us-central","cc":"us","latitude":41.881832,"longitude":-87.62318,"reserved":0,"last_update":"0001-01-01T00:00:00Z","name_a2s":"Uncletopia | Chicago | 2 | All Maps","protocol":17,"map":"cp_snakewater_final1","folder":"tf","game":"Team Fortress","app_id":440,"player_count":24,"max_players":24,"Bots":0,"server_type":"Dedicated","server_os":"Linux","password":true,"vac":true,"version":"7757534","steam_id":85568392924469985,"keywords":["cp","nocrits","nodmgspread","uncletopia"],"game_id":440,"stv_port":27026,"stv_name":"Uncletopia | Chicago | 2 | All Maps | STV","players":[{"user_id":280,"name":"Coffee with a Stranger","steam_id":76561198307422313,"connected_time":1586000000000,"state":"active","ping":72},{"user_id":302,"name":"egg","steam_id":76561198004065704,"connected_time":164000000000,"state":"active","ping":88},{"user_id":257,"name":"horny jail","steam_id":76561199402473517,"connected_time":3616000000000,"state":"active","ping":89},{"user_id":301,"name":"emor_e (they/them)","steam_id":76561198025541632,"connected_time":446000000000,"state":"active","ping":60},{"user_id":274,"name":"Admiral Crumbs","steam_id":76561198108791583,"connected_time":2065000000000,"state":"active","ping":64},{"user_id":291,"name":"TwistedTurk","steam_id":76561198082047119,"connected_time":745000000000,"state":"active","ping":67},{"user_id":279,"name":"jorjor wells","steam_id":76561199073429082,"connected_time":1601000000000,"state":"active","ping":61},{"user_id":304,"name":"Bobby","steam_id":76561198164004939,"connected_time":141000000000,"state":"active","ping":120},{"user_id":282,"name":"Nolan","steam_id":76561198169648081,"connected_time":1558000000000,"state":"active","ping":84},{"user_id":237,"name":"Flamin' Hot Cheetos","steam_id":76561198358757709,"connected_time":4804000000000,"state":"active","ping":97},{"user_id":153,"name":"Ajax","steam_id":76561197962240140,"connected_time":12179000000000,"state":"active","ping":69},{"user_id":160,"name":"WatchWill","steam_id":76561198157237945,"connected_time":11285000000000,"state":"active","ping":82},{"user_id":266,"name":"glitch","steam_id":76561197979495589,"connected_time":2758000000000,"state":"active","ping":72},{"user_id":288,"name":"Dabbledornk","steam_id":76561198065241300,"connected_time":1250000000000,"state":"active","ping":60},{"user_id":305,"name":"Menachem","steam_id":76561198041226420,"connected_time":123000000000,"state":"active","ping":49},{"user_id":286,"name":"Magik","steam_id":76561198115443354,"connected_time":1356000000000,"state":"active","ping":45},{"user_id":283,"name":"Lanky Kong","steam_id":76561198142455488,"connected_time":1554000000000,"state":"active","ping":60},{"user_id":306,"name":"ribbonborn","steam_id":76561198001195423,"connected_time":121000000000,"state":"active","ping":97},{"user_id":259,"name":"shadow6","steam_id":76561197979807910,"connected_time":3570000000000,"state":"active","ping":86},{"user_id":244,"name":"Cuttle's Fish","steam_id":76561198280483257,"connected_time":4223000000000,"state":"active","ping":53},{"user_id":270,"name":"Mike Arsfast","steam_id":76561198839205387,"connected_time":2526000000000,"state":"active","ping":68},{"user_id":284,"name":"Rick Beato","steam_id":76561199080451611,"connected_time":1541000000000,"state":"active","ping":74},{"user_id":263,"name":"Monsterjessy","steam_id":76561198035630985,"connected_time":2999000000000,"state":"active","ping":60},{"user_id":300,"name":"Cooldude_15","steam_id":76561198346713382,"connected_time":617000000000,"state":"active","ping":45}]},{"server_id":402,"name":"Uncletopia | Chicago | 3 | All Maps","name_short":"chi-3","host":"chi-1.us.uncletopia.com","port":27035,"enabled":true,"region":"us-central","cc":"us","latitude":41.881832,"longitude":-87.62318,"reserved":0,"last_update":"0001-01-01T00:00:00Z","name_a2s":"Uncletopia | Chicago | 3 | All Maps","protocol":17,"map":"koth_highpass","folder":"tf","game":"Team Fortress","app_id":440,"player_count":0,"max_players":24,"Bots":0,"server_type":"Dedicated","server_os":"Linux","password":true,"vac":true,"version":"7757534","steam_id":85568392924515191,"keywords":["cp","nocrits","nodmgspread","uncletopia"],"game_id":440,"stv_port":27036,"stv_name":"Uncletopia | Chicago | 3 | All Maps | STV","players":null},{"server_id":403,"name":"Uncletopia | Chicago | 4 | All Maps","name_short":"chi-4","host":"chi-1.us.uncletopia.com","port":27045,"enabled":true,"region":"us-central","cc":"us","latitude":41.881832,"longitude":-87.62318,"reserved":0,"last_update":"0001-01-01T00:00:00Z","name_a2s":"Uncletopia | Chicago | 4 | All Maps","protocol":17,"map":"koth_lakeside_final","folder":"tf","game":"Team Fortress","app_id":440,"player_count":0,"max_players":24,"Bots":0,"server_type":"Dedicated","server_os":"Linux","password":true,"vac":true,"version":"7757534","steam_id":85568392924515193,"keywords":["cp","nocrits","nodmgspread","uncletopia"],"game_id":440,"stv_port":27046,"stv_name":"Uncletopia | Chicago | 4 | All Maps | STV","players":null},{"server_id":36,"name":"Uncletopia | Chicago | 5 | All Maps","name_short":"chi-5","host":"chi-2.us.uncletopia.com","port":27015,"enabled":true,"region":"us-central","cc":"us","latitude":41.881832,"longitude":-87.62318,"reserved":0,"last_update":"0001-01-01T00:00:00Z","name_a2s":"Uncletopia | Chicago | 5 | All Maps","protocol":17,"map":"koth_cascade","folder":"tf","game":"Team Fortress","app_id":440,"player_count":0,"max_players":24,"Bots":0,"server_type":"Dedicated","server_os":"Linux","password":true,"vac":true,"version":"7757534","steam_id":85568392924866362,"keywords":["cp","nocrits","nodmgspread","uncletopia"],"game_id":440,"stv_port":27016,"stv_name":"Uncletopia | Chicago | 5 | All Maps | STV","players":null},{"server_id":37,"name":"Uncletopia | Chicago | 6 | All Maps","name_short":"chi-6","host":"chi-2.us.uncletopia.com","port":27025,"enabled":true,"region":"us-central","cc":"us","latitude":41.881832,"longitude":-87.62318,"reserved":0,"last_update":"0001-01-01T00:00:00Z","name_a2s":"Uncletopia | Chicago | 6 | All Maps","protocol":17,"map":"cp_altitude","folder":"tf","game":"Team Fortress","app_id":440,"player_count":0,"max_players":24,"Bots":0,"server_type":"Dedicated","server_os":"Linux","password":true,"vac":true,"version":"7757534","steam_id":85568392924866363,"keywords":["cp","nocrits","nodmgspread","uncletopia"],"game_id":440,"stv_port":27026,"stv_name":"Uncletopia | Chicago | 6 | All Maps | STV","players":null},{"server_id":38,"name":"Uncletopia | Chicago | 7 | Stopwatch Beta","name_short":"chi-7","host":"chi-2.us.uncletopia.com","port":27035,"enabled":true,"region":"us-central","cc":"us","latitude":41.881832,"longitude":-87.62318,"reserved":0,"last_update":"0001-01-01T00:00:00Z","name_a2s":"Uncletopia | Chicago | 7 | Stopwatch Beta","protocol":17,"map":"pl_barnblitz","folder":"tf","game":"Team Fortress","app_id":440,"player_count":0,"max_players":24,"Bots":0,"server_type":"Dedicated","server_os":"Linux","password":true,"vac":true,"version":"7757534","steam_id":85568392924866364,"keywords":["nocrits","nodmgspread","payload","uncletopia"],"game_id":440,"stv_port":27036,"stv_name":"Uncletopia | Chicago | 7 | Stopwatch Beta | STV","players":null},{"server_id":39,"name":"Uncletopia | Chicago | 8 | Community","name_short":"chi-8","host":"chi-2.us.uncletopia.com","port":27045,"enabled":true,"region":"us-central","cc":"us","latitude":41.881832,"longitude":-87.62318,"reserved":0,"last_update":"0001-01-01T00:00:00Z","name_a2s":"Uncletopia | Chicago | 8 | Community","protocol":17,"map":"workshop/koth_slaughter_rc1.ugc1712845210","folder":"tf","game":"Team Fortress","app_id":440,"player_count":0,"max_players":24,"Bots":0,"server_type":"Dedicated","server_os":"Linux","password":true,"vac":true,"version":"7757534","steam_id":85568392924866365,"keywords":["cp","nocrits","nodmgspread","uncletopia"],"game_id":440,"stv_port":27046,"stv_name":"Uncletopia | Chicago | 8 | Community | STV","players":null},{"server_id":8,"name":"Uncletopia | Dallas | 1 | All Maps","name_short":"dal-1","host":"dal-1.us.uncletopia.com","port":27015,"enabled":true,"region":"us-central","cc":"us","latitude":32.779167,"longitude":-96.80889,"reserved":0,"last_update":"0001-01-01T00:00:00Z","name_a2s":"Uncletopia | Dallas | 1 | All Maps","protocol":17,"map":"pl_pier","folder":"tf","game":"Team Fortress","app_id":440,"player_count":24,"max_players":24,"Bots":0,"server_type":"Dedicated","server_os":"Linux","password":true,"vac":true,"version":"7757534","steam_id":85568392924469986,"keywords":["nocrits","nodmgspread","payload","uncletopia"],"game_id":440,"stv_port":27016,"stv_name":"Uncletopia | Dallas | 1 | All Maps | STV","players":[{"user_id":274,"name":"RavenEmpress","steam_id":76561198954259711,"connected_time":885000000000,"state":"active","ping":99},{"user_id":276,"name":"Bunchie","steam_id":76561198011549808,"connected_time":759000000000,"state":"active","ping":40},{"user_id":231,"name":"The Engie","steam_id":76561198049418537,"connected_time":4204000000000,"state":"active","ping":58},{"user_id":295,"name":"Tyler\u0026Fingers","steam_id":76561198085154485,"connected_time":163000000000,"state":"active","ping":93},{"user_id":282,"name":"chanoc","steam_id":76561198026734746,"connected_time":603000000000,"state":"active","ping":84},{"user_id":278,"name":"jirafa nefasta","steam_id":76561199107482851,"connected_time":724000000000,"state":"active","ping":124},{"user_id":279,"name":"raduski","steam_id":76561198795699119,"connected_time":722000000000,"state":"active","ping":75},{"user_id":292,"name":"blueberry","steam_id":76561199246298237,"connected_time":323000000000,"state":"active","ping":88},{"user_id":206,"name":"Quiet","steam_id":76561198119175817,"connected_time":6725000000000,"state":"active","ping":62},{"user_id":281,"name":"CitrusFizz","steam_id":76561198071157189,"connected_time":639000000000,"state":"active","ping":107},{"user_id":288,"name":"mineblast99","steam_id":76561199065648954,"connected_time":484000000000,"state":"active","ping":79},{"user_id":294,"name":"‚òºBarracuda‚òº","steam_id":76561198013022083,"connected_time":230000000000,"state":"active","ping":49},{"user_id":268,"name":"Shadowstone67","steam_id":76561198199459430,"connected_time":1312000000000,"state":"active","ping":74},{"user_id":264,"name":"APOTATO","steam_id":76561198118199858,"connected_time":1480000000000,"state":"active","ping":61},{"user_id":285,"name":"Starry","steam_id":76561199096646760,"connected_time":573000000000,"state":"active","ping":72},{"user_id":265,"name":"ballin ft.","steam_id":76561198822069026,"connected_time":1448000000000,"state":"active","ping":112},{"user_id":234,"name":"Viseper","steam_id":76561198862147017,"connected_time":4053000000000,"state":"active","ping":114},{"user_id":286,"name":"Tlaloc","steam_id":76561198375215983,"connected_time":568000000000,"state":"active","ping":123},{"user_id":226,"name":"Prof. Eggnog","steam_id":76561198193389166,"connected_time":4838000000000,"state":"active","ping":157},{"user_id":290,"name":"Xelon","steam_id":76561199446100128,"connected_time":424000000000,"state":"active","ping":101},{"user_id":261,"name":"ReddMudd","steam_id":76561198044586406,"connected_time":1926000000000,"state":"active","ping":51},{"user_id":293,"name":"peeto","steam_id":76561198193013228,"connected_time":286000000000,"state":"active","ping":61},{"user_id":269,"name":"Brain Magic","steam_id":76561198010201477,"connected_time":1132000000000,"state":"active","ping":81},{"user_id":252,"name":"Quiver Cakes ._.","steam_id":76561198243155576,"connected_time":2910000000000,"state":"active","ping":75}]},{"server_id":108,"name":"Uncletopia | Dallas | 2 | All Maps","name_short":"dal-2","host":"dal-1.us.uncletopia.com","port":27025,"enabled":true,"region":"us-central","cc":"us","latitude":32.779167,"longitude":-96.80889,"reserved":0,"last_update":"0001-01-01T00:00:00Z","name_a2s":"Uncletopia | Dallas | 2 | All Maps","protocol":17,"map":"pl_borneo","folder":"tf","game":"Team Fortress","app_id":440,"player_count":24,"max_players":24,"Bots":0,"server_type":"Dedicated","server_os":"Linux","password":true,"vac":true,"version":"7757534","steam_id":85568392924469988,"keywords":["nocrits","nodmgspread","payload","uncletopia"],"game_id":440,"stv_port":27026,"stv_name":"Uncletopia | Dallas | 2 | All Maps | STV","players":[{"user_id":142,"name":"alldogsgotoheaven2fan","steam_id":76561199085931379,"connected_time":315000000000,"state":"active","ping":74},{"user_id":135,"name":"DocLucky","steam_id":76561199093899249,"connected_time":622000000000,"state":"active","ping":162},{"user_id":134,"name":"bleh","steam_id":76561198398383076,"connected_time":893000000000,"state":"active","ping":140},{"user_id":91,"name":"momb","steam_id":76561198142234038,"connected_time":3591000000000,"state":"active","ping":84},{"user_id":111,"name":"Kid named download","steam_id":76561199192074448,"connected_time":2372000000000,"state":"active","ping":96},{"user_id":141,"name":"SnaggzHaki","steam_id":76561198065282605,"connected_time":405000000000,"state":"active","ping":71},{"user_id":28,"name":"kasp","steam_id":76561198263271697,"connected_time":6865000000000,"state":"active","ping":62},{"user_id":151,"name":"Coffee_Addict@Home","steam_id":76561198297673004,"connected_time":154000000000,"state":"active","ping":85},{"user_id":143,"name":"Mac-Matt","steam_id":76561198271899377,"connected_time":310000000000,"state":"active","ping":83},{"user_id":103,"name":"nunienun","steam_id":76561199129965576,"connected_time":2833000000000,"state":"active","ping":74},{"user_id":110,"name":"NUKAHOLIC","steam_id":76561198095051652,"connected_time":2487000000000,"state":"active","ping":35},{"user_id":144,"name":"The Moon","steam_id":76561198082926682,"connected_time":274000000000,"state":"active","ping":89},{"user_id":137,"name":"N'wah","steam_id":76561198066297673,"connected_time":593000000000,"state":"active","ping":105},{"user_id":67,"name":"your obscenely fat schnoz","steam_id":76561198322956099,"connected_time":5033000000000,"state":"active","ping":62},{"user_id":152,"name":"M@verick","steam_id":76561198006363519,"connected_time":147000000000,"state":"active","ping":91},{"user_id":145,"name":"LemonPoppyMuffin","steam_id":76561198044813750,"connected_time":270000000000,"state":"active","ping":67},{"user_id":120,"name":"oinkpig234","steam_id":76561198883733811,"connected_time":2046000000000,"state":"active","ping":57},{"user_id":117,"name":"shadow elite","steam_id":76561198165212575,"connected_time":2171000000000,"state":"active","ping":97},{"user_id":153,"name":"Jared In Target","steam_id":76561198372449718,"connected_time":19000000000,"state":"active","ping":39},{"user_id":47,"name":"LEGACYYYYYYYYYYYYYYYYYYYYYY","steam_id":76561198172421881,"connected_time":6091000000000,"state":"active","ping":75},{"user_id":149,"name":"Si1entSn1pa","steam_id":76561198170095479,"connected_time":229000000000,"state":"active","ping":92},{"user_id":133,"name":"greenpeace","steam_id":76561197983221708,"connected_time":954000000000,"state":"active","ping":92},{"user_id":150,"name":"4 BITS","steam_id":76561198426439765,"connected_time":222000000000,"state":"active","ping":87},{"user_id":107,"name":"sentry turret","steam_id":76561198327057433,"connected_time":2740000000000,"state":"active","ping":95}]},{"server_id":5,"name":"Uncletopia | Frankfurt | 1 | All Maps","name_short":"frk-1","host":"frk-1.de.uncletopia.com","port":27015,"enabled":true,"region":"eu","cc":"de","latitude":50.110924,"longitude":8.682127,"reserved":0,"last_update":"0001-01-01T00:00:00Z","name_a2s":"Uncletopia | Frankfurt | 1 | All Maps","protocol":17,"map":"cp_sunshine","folder":"tf","game":"Team Fortress","app_id":440,"player_count":24,"max_players":24,"Bots":0,"server_type":"Dedicated","server_os":"Linux","password":true,"vac":true,"version":"7757534","steam_id":85568392924469989,"keywords":["cp","nocrits","nodmgspread","uncletopia"],"game_id":440,"stv_port":27016,"stv_name":"Uncletopia | Frankfurt | 1 | All Maps | STV","players":[{"user_id":503,"name":"Cosmonaut","steam_id":76561198239514504,"connected_time":2010000000000,"state":"active","ping":78},{"user_id":514,"name":"Pilorcio","steam_id":76561198036862688,"connected_time":1747000000000,"state":"active","ping":70},{"user_id":506,"name":"cinny","steam_id":76561198832112629,"connected_time":1997000000000,"state":"active","ping":74},{"user_id":527,"name":"F","steam_id":76561199149462792,"connected_time":698000000000,"state":"active","ping":67},{"user_id":496,"name":"[HOL] Solringen","steam_id":76561198003584681,"connected_time":3180000000000,"state":"active","ping":71},{"user_id":511,"name":"Franticlamp","steam_id":76561198339698995,"connected_time":1985000000000,"state":"active","ping":74},{"user_id":519,"name":"Digital Love","steam_id":76561198048250715,"connected_time":1134000000000,"state":"active","ping":60},{"user_id":528,"name":"etc","steam_id":76561197998394797,"connected_time":642000000000,"state":"active","ping":57},{"user_id":502,"name":"Soerlssoelss√∂en","steam_id":76561197993060585,"connected_time":2425000000000,"state":"active","ping":76},{"user_id":531,"name":"Wodnyan","steam_id":76561198147243794,"connected_time":470000000000,"state":"active","ping":88},{"user_id":426,"name":"SPONGE","steam_id":76561198040933472,"connected_time":6689000000000,"state":"active","ping":63},{"user_id":524,"name":"Ptahotep","steam_id":76561198008708645,"connected_time":890000000000,"state":"active","ping":64},{"user_id":526,"name":"Stabbyratbag","steam_id":76561198119531916,"connected_time":751000000000,"state":"active","ping":56},{"user_id":515,"name":"player","steam_id":76561198054474684,"connected_time":1681000000000,"state":"active","ping":75},{"user_id":522,"name":"Raymus","steam_id":76561198021330407,"connected_time":1029000000000,"state":"active","ping":45},{"user_id":523,"name":"Blaze-A-Glory!","steam_id":76561198133623363,"connected_time":918000000000,"state":"active","ping":82},{"user_id":505,"name":"UCC bock","steam_id":76561198971554341,"connected_time":2008000000000,"state":"active","ping":63},{"user_id":533,"name":"kloada","steam_id":76561198082113271,"connected_time":349000000000,"state":"active","ping":73},{"user_id":482,"name":"Hegyi tah√≥ F2P","steam_id":76561199219150356,"connected_time":3499000000000,"state":"active","ping":72},{"user_id":516,"name":"Mr.Schnittlauch","steam_id":76561198295868113,"connected_time":1306000000000,"state":"active","ping":62},{"user_id":510,"name":"angel","steam_id":76561198121408313,"connected_time":1993000000000,"state":"active","ping":76},{"user_id":530,"name":"Woa","steam_id":76561198345683201,"connected_time":564000000000,"state":"active","ping":55},{"user_id":459,"name":"Littleyoshifan","steam_id":76561198445491045,"connected_time":4995000000000,"state":"active","ping":55},{"user_id":491,"name":"hourglass","steam_id":76561198166613799,"connected_time":3212000000000,"state":"active","ping":86}]},{"server_id":110,"name":"Uncletopia | Frankfurt | 2 | All Maps","name_short":"frk-2","host":"frk-1.de.uncletopia.com","port":27025,"enabled":true,"region":"eu","cc":"de","latitude":50.110924,"longitude":8.682127,"reserved":0,"last_update":"0001-01-01T00:00:00Z","name_a2s":"Uncletopia | Frankfurt | 2 | All Maps","protocol":17,"map":"pl_badwater","folder":"tf","game":"Team Fortress","app_id":440,"player_count":24,"max_players":24,"Bots":0,"server_type":"Dedicated","server_os":"Linux","password":true,"vac":true,"version":"7757534","steam_id":85568392924469990,"keywords":["nocrits","nodmgspread","payload","uncletopia"],"game_id":440,"stv_port":27026,"stv_name":"Uncletopia | Frankfurt | 2 | All Maps | STV","players":[{"user_id":57,"name":"jtchil","steam_id":76561199122144404,"connected_time":813000000000,"state":"active","ping":175},{"user_id":20,"name":"soppaset√§ | trade.tf","steam_id":76561198800563349,"connected_time":3019000000000,"state":"active","ping":91},{"user_id":22,"name":"Robsu235","steam_id":76561198387475345,"connected_time":2928000000000,"state":"active","ping":105},{"user_id":50,"name":"Spieller","steam_id":76561198057197847,"connected_time":1424000000000,"state":"active","ping":70},{"user_id":47,"name":"result","steam_id":76561198269200388,"connected_time":1634000000000,"state":"active","ping":75},{"user_id":60,"name":"keen zoomer","steam_id":76561198281647082,"connected_time":285000000000,"state":"active","ping":95},{"user_id":27,"name":"PadrePockets","steam_id":76561197993251606,"connected_time":2511000000000,"state":"active","ping":133},{"user_id":28,"name":"Klifton","steam_id":76561198803743443,"connected_time":2471000000000,"state":"active","ping":75},{"user_id":29,"name":"Dehydrated","steam_id":76561198970587989,"connected_time":2437000000000,"state":"active","ping":77},{"user_id":30,"name":"Healix","steam_id":76561198130270161,"connected_time":2430000000000,"state":"active","ping":48},{"user_id":55,"name":"Chinese censorship Bureau","steam_id":76561198397898616,"connected_time":1270000000000,"state":"active","ping":48},{"user_id":32,"name":"DO NOT REDEEM","steam_id":76561198079277466,"connected_time":2332000000000,"state":"active","ping":60},{"user_id":51,"name":"Ooze","steam_id":76561198039642637,"connected_time":1421000000000,"state":"active","ping":69},{"user_id":59,"name":"tzeentch enjoyer","steam_id":76561199147345765,"connected_time":516000000000,"state":"active","ping":84},{"user_id":35,"name":"Rodia","steam_id":76561197968293161,"connected_time":2103000000000,"state":"active","ping":72},{"user_id":36,"name":"ldshwt","steam_id":76561198090364357,"connected_time":2052000000000,"state":"active","ping":45},{"user_id":61,"name":"Peter Cipher","steam_id":76561198078944963,"connected_time":212000000000,"state":"active","ping":59},{"user_id":38,"name":"Lexiss","steam_id":76561198086211346,"connected_time":2040000000000,"state":"active","ping":67},{"user_id":39,"name":"Gibbed_GIBus30","steam_id":76561199272782484,"connected_time":2017000000000,"state":"active","ping":60},{"user_id":40,"name":"Bolton Freeman","steam_id":76561198096196978,"connected_time":1952000000000,"state":"active","ping":74},{"user_id":46,"name":"Earthman","steam_id":76561198137424821,"connected_time":1665000000000,"state":"active","ping":60},{"user_id":52,"name":"Malik794","steam_id":76561198967164437,"connected_time":1413000000000,"state":"active","ping":103},{"user_id":53,"name":"joe","steam_id":76561198026484403,"connected_time":1407000000000,"state":"active","ping":69},{"user_id":54,"name":"Silva_mlon","steam_id":76561199310242047,"connected_time":1391000000000,"state":"active","ping":73}]},{"server_id":308,"name":"Uncletopia | Frankfurt | 3 | All Maps","name_short":"frk-3","host":"frk-1.de.uncletopia.com","port":27035,"enabled":true,"region":"eu","cc":"de","latitude":50.110924,"longitude":8.682127,"reserved":0,"last_update":"0001-01-01T00:00:00Z","name_a2s":"Uncletopia | Frankfurt | 3 | All Maps","protocol":17,"map":"pl_badwater","folder":"tf","game":"Team Fortress","app_id":440,"player_count":5,"max_players":24,"Bots":0,"server_type":"Dedicated","server_os":"Linux","password":true,"vac":true,"version":"7757534","steam_id":85568392924504274,"keywords":["nocrits","nodmgspread","payload","uncletopia"],"game_id":440,"stv_port":27036,"stv_name":"Uncletopia | Frankfurt | 3 | All Maps | STV","players":[{"user_id":52,"name":"Patrik Gamer cz","steam_id":76561198321328570,"connected_time":1239000000000,"state":"active","ping":87},{"user_id":53,"name":"hynamarcel1106","steam_id":76561199106895172,"connected_time":1080000000000,"state":"active","ping":67},{"user_id":55,"name":"S164","steam_id":76561198802694108,"connected_time":169000000000,"state":"active","ping":71},{"user_id":56,"name":"Talkkari","steam_id":76561198025327723,"connected_time":73000000000,"state":"active","ping":51},{"user_id":57,"name":"blurst of times","steam_id":76561197972325640,"connected_time":35000000000,"state":"active","ping":47}]},{"server_id":309,"name":"Uncletopia | Frankfurt | 4 | All Maps","name_short":"frk-4","host":"frk-1.de.uncletopia.com","port":27045,"enabled":true,"region":"eu","cc":"de","latitude":50.110924,"longitude":8.682127,"reserved":0,"last_update":"0001-01-01T00:00:00Z","name_a2s":"Uncletopia | Frankfurt | 4 | All Maps","protocol":17,"map":"pl_snowycoast","folder":"tf","game":"Team Fortress","app_id":440,"player_count":0,"max_players":24,"Bots":0,"server_type":"Dedicated","server_os":"Linux","password":true,"vac":true,"version":"7757534","steam_id":85568392924504275,"keywords":["nocrits","nodmgspread","payload","uncletopia"],"game_id":440,"stv_port":27046,"stv_name":"Uncletopia | Frankfurt | 4 | All Maps | STV","players":null},{"server_id":310,"name":"Uncletopia | Frankfurt | 5 | All Maps","name_short":"frk-5","host":"frk-1.de.uncletopia.com","port":27055,"enabled":true,"region":"eu","cc":"de","latitude":50.110924,"longitude":8.682127,"reserved":0,"last_update":"0001-01-01T00:00:00Z","name_a2s":"Uncletopia | Frankfurt | 5 | All Maps","protocol":17,"map":"koth_lakeside_final","folder":"tf","game":"Team Fortress","app_id":440,"player_count":0,"max_players":24,"Bots":0,"server_type":"Dedicated","server_os":"Linux","password":true,"vac":true,"version":"7757534","steam_id":85568392924504277,"keywords":["cp","nocrits","nodmgspread","uncletopia"],"game_id":440,"stv_port":27056,"stv_name":"Uncletopia | Frankfurt | 5 | All Maps | STV","players":null},{"server_id":311,"name":"Uncletopia | Frankfurt | 6 | All Maps","name_short":"frk-6","host":"frk-1.de.uncletopia.com","port":27065,"enabled":true,"region":"eu","cc":"de","latitude":50.110924,"longitude":8.682127,"reserved":0,"last_update":"0001-01-01T00:00:00Z","name_a2s":"Uncletopia | Frankfurt | 6 | All Maps","protocol":17,"map":"pl_thundermountain","folder":"tf","game":"Team Fortress","app_id":440,"player_count":24,"max_players":24,"Bots":0,"server_type":"Dedicated","server_os":"Linux","password":true,"vac":true,"version":"7757534","steam_id":85568392924504278,"keywords":["nocrits","nodmgspread","payload","uncletopia"],"game_id":440,"stv_port":27066,"stv_name":"Uncletopia | Frankfurt | 6 | All Maps | STV","players":[{"user_id":532,"name":"Penis Contortionist","steam_id":76561198073663784,"connected_time":519000000000,"state":"active","ping":52},{"user_id":537,"name":"Destinys","steam_id":76561198056132894,"connected_time":102000000000,"state":"active","ping":57},{"user_id":492,"name":"MRLOLENO","steam_id":76561198450911838,"connected_time":2294000000000,"state":"active","ping":65},{"user_id":534,"name":"sam-","steam_id":76561198013770973,"connected_time":299000000000,"state":"active","ping":73},{"user_id":524,"name":"policeman baby god","steam_id":76561199149307190,"connected_time":1262000000000,"state":"active","ping":75},{"user_id":455,"name":"Burpman","steam_id":76561198022897937,"connected_time":2829000000000,"state":"active","ping":61},{"user_id":536,"name":"wtabs","steam_id":76561198831766743,"connected_time":182000000000,"state":"active","ping":92},{"user_id":510,"name":"Wubbles","steam_id":76561197970314906,"connected_time":1787000000000,"state":"active","ping":67},{"user_id":456,"name":"Big Trader","steam_id":76561197992364667,"connected_time":2805000000000,"state":"active","ping":75},{"user_id":530,"name":"Rafalexis","steam_id":76561198055792457,"connected_time":953000000000,"state":"active","ping":69},{"user_id":525,"name":"DiscoTraveler","steam_id":76561199240168088,"connected_time":1254000000000,"state":"active","ping":129},{"user_id":490,"name":"Fran","steam_id":76561199070516960,"connected_time":2345000000000,"state":"active","ping":66},{"user_id":531,"name":"BRICK TOP","steam_id":76561198014366715,"connected_time":611000000000,"state":"active","ping":60},{"user_id":437,"name":"casius","steam_id":76561197998361649,"connected_time":3257000000000,"state":"active","ping":183},{"user_id":528,"name":"ROCKER","steam_id":76561198088696340,"connected_time":1022000000000,"state":"active","ping":66},{"user_id":496,"name":"Owenter","steam_id":76561198083201886,"connected_time":2205000000000,"state":"active","ping":49},{"user_id":533,"name":"Acanda","steam_id":76561198123246537,"connected_time":377000000000,"state":"active","ping":54},{"user_id":515,"name":"jerf(god i want estrogen)","steam_id":76561199213901239,"connected_time":1733000000000,"state":"active","ping":60},{"user_id":535,"name":"Trench_Hands","steam_id":76561198063348835,"connected_time":279000000000,"state":"active","ping":79},{"user_id":519,"name":"Mussolini","steam_id":76561198218384865,"connected_time":1532000000000,"state":"active","ping":102},{"user_id":458,"name":"zek","steam_id":76561198862763731,"connected_time":2792000000000,"state":"active","ping":60},{"user_id":486,"name":"Bob McBobington","steam_id":76561198094991513,"connected_time":2403000000000,"state":"active","ping":183},{"user_id":520,"name":"Carry Krypl","steam_id":76561198136938121,"connected_time":1510000000000,"state":"active","ping":57},{"user_id":460,"name":"pablo","steam_id":76561198002913482,"connected_time":2779000000000,"state":"active","ping":106}]},{"server_id":23,"name":"Uncletopia | Frankfurt | 7 | Stopwatch Beta","name_short":"frk-7","host":"frk-1.de.uncletopia.com","port":27075,"enabled":true,"region":"eu","cc":"de","latitude":50.110924,"longitude":8.682127,"reserved":0,"last_update":"0001-01-01T00:00:00Z","name_a2s":"Uncletopia | Frankfurt | 7 | Stopwatch Beta","protocol":17,"map":"workshop/koth_ramjam_rc1.ugc459778887","folder":"tf","game":"Team Fortress","app_id":440,"player_count":0,"max_players":24,"Bots":0,"server_type":"Dedicated","server_os":"Linux","password":true,"vac":true,"version":"7757534","steam_id":85568392924742827,"keywords":["cp","nocrits","nodmgspread","uncletopia"],"game_id":440,"stv_port":27076,"stv_name":"Uncletopia | Frankfurt | 7 | Stopwatch Beta | STV","players":null},{"server_id":24,"name":"Uncletopia | Frankfurt | 8 | Community","name_short":"frk-8","host":"frk-1.de.uncletopia.com","port":27085,"enabled":true,"region":"eu","cc":"de","latitude":50.110924,"longitude":8.682127,"reserved":0,"last_update":"0001-01-01T00:00:00Z","name_a2s":"Uncletopia | Frankfurt | 8 | Community","protocol":17,"map":"workshop/pl_barnblitz_pro7.ugc582280235","folder":"tf","game":"Team Fortress","app_id":440,"player_count":23,"max_players":24,"Bots":0,"server_type":"Dedicated","server_os":"Linux","password":true,"vac":true,"version":"7757534","steam_id":85568392924742828,"keywords":["nocrits","nodmgspread","payload","uncletopia"],"game_id":440,"stv_port":27086,"stv_name":"Uncletopia | Frankfurt | 8 | Community | STV","players":[{"user_id":256,"name":"Benzo Fury","steam_id":76561198025259336,"connected_time":1594000000000,"state":"spawning","ping":44},{"user_id":242,"name":"„ÉÜ„Ç§„É´„Çπ","steam_id":76561198022403271,"connected_time":2092000000000,"state":"active","ping":41},{"user_id":272,"name":"PizzaPete123","steam_id":76561198089478290,"connected_time":67000000000,"state":"active","ping":56},{"user_id":270,"name":"Cathedra","steam_id":76561198430227030,"connected_time":419000000000,"state":"active","ping":51},{"user_id":277,"name":"Irbynx","steam_id":76561197980421195,"connected_time":27000000000,"state":"active","ping":83},{"user_id":259,"name":"SHADOW WIZARD MONEY GANG","steam_id":76561198179324075,"connected_time":1402000000000,"state":"active","ping":68},{"user_id":269,"name":"static","steam_id":76561198836825741,"connected_time":549000000000,"state":"active","ping":56},{"user_id":271,"name":"Wir suchen dich!","steam_id":76561198307613521,"connected_time":218000000000,"state":"active","ping":46},{"user_id":273,"name":"REal Clark","steam_id":76561198015054084,"connected_time":49000000000,"state":"active","ping":65},{"user_id":268,"name":"Piquesque","steam_id":76561198286763046,"connected_time":598000000000,"state":"spawning","ping":98},{"user_id":266,"name":"Topme","steam_id":76561198091734693,"connected_time":779000000000,"state":"active","ping":77},{"user_id":278,"name":"Drekad√≥ttir","steam_id":76561198119979169,"connected_time":23000000000,"state":"active","ping":354},{"user_id":263,"name":"Tywhip","steam_id":76561199207545191,"connected_time":1057000000000,"state":"active","ping":58},{"user_id":274,"name":"You slumber","steam_id":76561198344639692,"connected_time":47000000000,"state":"spawning","ping":130},{"user_id":232,"name":"benibachi","steam_id":76561198190816499,"connected_time":2974000000000,"state":"active","ping":62},{"user_id":275,"name":"kotamine","steam_id":76561198068907991,"connected_time":40000000000,"state":"active","ping":424},{"user_id":111,"name":"78","steam_id":76561198208328357,"connected_time":11312000000000,"state":"active","ping":78},{"user_id":199,"name":"Fat Pigeon","steam_id":76561198817940142,"connected_time":5602000000000,"state":"active","ping":46},{"user_id":227,"name":"the AWP player","steam_id":76561198054047446,"connected_time":3484000000000,"state":"active","ping":60},{"user_id":276,"name":"wicked","steam_id":76561198164376035,"connected_time":39000000000,"state":"active","ping":73},{"user_id":258,"name":"‚òûLaZe‚òú","steam_id":76561198202191400,"connected_time":1587000000000,"state":"active","ping":62},{"user_id":141,"name":"wasps","steam_id":76561198049485054,"connected_time":9113000000000,"state":"active","ping":75},{"user_id":225,"name":"acuifex","steam_id":76561198106266513,"connected_time":3507000000000,"state":"active","ping":78}]},{"server_id":202,"name":"Uncletopia | Hong Kong | 1 | All Maps","name_short":"hgk-1","host":"hgk-1.hk.uncletopia.com","port":27015,"enabled":true,"region":"asia","cc":"hk","latitude":22.302711,"longitude":114.177216,"reserved":0,"last_update":"0001-01-01T00:00:00Z","name_a2s":"Uncletopia | Hong Kong | 1 | All Maps","protocol":17,"map":"koth_highpass","folder":"tf","game":"Team Fortress","app_id":440,"player_count":0,"max_players":24,"Bots":0,"server_type":"Dedicated","server_os":"Linux","password":true,"vac":true,"version":"7757534","steam_id":85568392924494504,"keywords":["cp","nocrits","nodmgspread","uncletopia"],"game_id":440,"stv_port":27016,"stv_name":"Uncletopia | Hong Kong | 1 | All Maps | STV","players":null},{"server_id":1,"name":"Uncletopia | Los Angeles | 1 | All Maps","name_short":"lax-1","host":"lax-1.us.uncletopia.com","port":27015,"enabled":true,"region":"us-west","cc":"us","latitude":33.94279,"longitude":-118.41004,"reserved":0,"last_update":"0001-01-01T00:00:00Z","name_a2s":"Uncletopia | Los Angeles | 1 | All Maps","protocol":17,"map":"koth_lakeside_final","folder":"tf","game":"Team Fortress","app_id":440,"player_count":0,"max_players":24,"Bots":0,"server_type":"Dedicated","server_os":"Linux","password":true,"vac":true,"version":"7757534","steam_id":85568392924469991,"keywords":["cp","nocrits","nodmgspread","uncletopia"],"game_id":440,"stv_port":27016,"stv_name":"Uncletopia | Los Angeles | 1 | All Maps | STV","players":null},{"server_id":112,"name":"Uncletopia | Los Angeles | 2 | All Maps","name_short":"lax-2","host":"lax-1.us.uncletopia.com","port":27025,"enabled":true,"region":"us-west","cc":"us","latitude":33.94279,"longitude":-118.41004,"reserved":0,"last_update":"0001-01-01T00:00:00Z","name_a2s":"Uncletopia | Los Angeles | 2 | All Maps","protocol":17,"map":"pl_badwater","folder":"tf","game":"Team Fortress","app_id":440,"player_count":0,"max_players":24,"Bots":0,"server_type":"Dedicated","server_os":"Linux","password":true,"vac":true,"version":"7757534","steam_id":85568392924469992,"keywords":["nocrits","nodmgspread","payload","uncletopia"],"game_id":440,"stv_port":27026,"stv_name":"Uncletopia | Los Angeles | 2 | All Maps | STV","players":null},{"server_id":324,"name":"Uncletopia | Los Angeles | 3 | All Maps","name_short":"lax-3","host":"lax-1.us.uncletopia.com","port":27035,"enabled":true,"region":"us-west","cc":"us","latitude":33.94279,"longitude":-118.41004,"reserved":0,"last_update":"0001-01-01T00:00:00Z","name_a2s":"Uncletopia | Los Angeles | 3 | All Maps","protocol":17,"map":"pl_barnblitz","folder":"tf","game":"Team Fortress","app_id":440,"player_count":0,"max_players":24,"Bots":0,"server_type":"Dedicated","server_os":"Linux","password":true,"vac":true,"version":"7757534","steam_id":85568392924510198,"keywords":["nocrits","nodmgspread","payload","uncletopia"],"game_id":440,"stv_port":27036,"stv_name":"Uncletopia | Los Angeles | 3 | All Maps | STV","players":null},{"server_id":25,"name":"Uncletopia | Los Angeles | 4 | Stopwatch Beta","name_short":"lax-4","host":"lax-1.us.uncletopia.com","port":27045,"enabled":true,"region":"us-west","cc":"us","latitude":33.94279,"longitude":-118.41004,"reserved":0,"last_update":"0001-01-01T00:00:00Z","name_a2s":"Uncletopia | Los Angeles | 4 | Stopwatch Beta","protocol":17,"map":"pl_swiftwater_final1","folder":"tf","game":"Team Fortress","app_id":440,"player_count":0,"max_players":24,"Bots":0,"server_type":"Dedicated","server_os":"Linux","password":true,"vac":true,"version":"7757534","steam_id":85568392924510199,"keywords":["nocrits","nodmgspread","payload","uncletopia"],"game_id":440,"stv_port":27046,"stv_name":"Uncletopia | Los Angeles | 4 | Stopwatch Beta | STV","players":null},{"server_id":11,"name":"Uncletopia | London | 1 | All Maps","name_short":"lon-1","host":"lon-1.uk.uncletopia.com","port":27015,"enabled":true,"region":"eu","cc":"gb","latitude":51.509865,"longitude":-0.118092,"reserved":0,"last_update":"0001-01-01T00:00:00Z","name_a2s":"Uncletopia | London | 1 | All Maps","protocol":17,"map":"koth_viaduct","folder":"tf","game":"Team Fortress","app_id":440,"player_count":24,"max_players":24,"Bots":0,"server_type":"Dedicated","server_os":"Linux","password":true,"vac":true,"version":"7757534","steam_id":85568392924367362,"keywords":["cp","nocrits","nodmgspread","uncletopia"],"game_id":440,"stv_port":27016,"stv_name":"Uncletopia | London | 1 | All Maps | STV","players":[{"user_id":127,"name":"Ixsus\u003c3","steam_id":76561198094756869,"connected_time":4642000000000,"state":"active","ping":56},{"user_id":172,"name":"sex havin'","steam_id":76561198169857427,"connected_time":1172000000000,"state":"active","ping":72},{"user_id":190,"name":"Caerot","steam_id":76561198839000676,"connected_time":792000000000,"state":"active","ping":73},{"user_id":185,"name":"1+2+3=?","steam_id":76561198195494842,"connected_time":896000000000,"state":"active","ping":103},{"user_id":129,"name":"duane allman (real)","steam_id":76561198059699043,"connected_time":4569000000000,"state":"active","ping":82},{"user_id":148,"name":"????","steam_id":76561198043601838,"connected_time":3547000000000,"state":"active","ping":60},{"user_id":122,"name":"ciliorkun18","steam_id":76561198228942500,"connected_time":4759000000000,"state":"active","ping":90},{"user_id":174,"name":"NuGs","steam_id":76561198305550934,"connected_time":1090000000000,"state":"active","ping":51},{"user_id":151,"name":"DocTwoEight","steam_id":76561198153488940,"connected_time":3214000000000,"state":"active","ping":78},{"user_id":152,"name":"Circular","steam_id":76561198001536710,"connected_time":3206000000000,"state":"active","ping":45},{"user_id":175,"name":"plazma","steam_id":76561198886594048,"connected_time":1072000000000,"state":"active","ping":113},{"user_id":134,"name":"Phee","steam_id":76561198014317211,"connected_time":4411000000000,"state":"active","ping":66},{"user_id":189,"name":"ü¶ê Tust ü¶ê","steam_id":76561198045694677,"connected_time":832000000000,"state":"active","ping":44},{"user_id":191,"name":"Bloody","steam_id":76561198005754592,"connected_time":772000000000,"state":"active","ping":69},{"user_id":192,"name":"Space","steam_id":76561198021572167,"connected_time":768000000000,"state":"active","ping":48},{"user_id":178,"name":"Roger Slippers","steam_id":76561198188642265,"connected_time":1036000000000,"state":"active","ping":52},{"user_id":188,"name":"Sorky","steam_id":76561198007502339,"connected_time":841000000000,"state":"active","ping":73},{"user_id":196,"name":"Atlas","steam_id":76561198072189527,"connected_time":513000000000,"state":"active","ping":72},{"user_id":182,"name":"gamer gaming","steam_id":76561198348260195,"connected_time":975000000000,"state":"active","ping":87},{"user_id":195,"name":"Gimli","steam_id":76561198004149706,"connected_time":586000000000,"state":"active","ping":63},{"user_id":186,"name":"Birdseye","steam_id":76561198025852216,"connected_time":868000000000,"state":"active","ping":50},{"user_id":194,"name":"Fus in Boots","steam_id":76561198053897722,"connected_time":716000000000,"state":"active","ping":51},{"user_id":193,"name":"Cabbch","steam_id":76561198045955679,"connected_time":740000000000,"state":"active","ping":57},{"user_id":145,"name":"Teleporter (jessie)","steam_id":76561198063093802,"connected_time":3709000000000,"state":"active","ping":46}]},{"server_id":114,"name":"Uncletopia | London | 2 | All Maps","name_short":"lon-2","host":"lon-1.uk.uncletopia.com","port":27025,"enabled":true,"region":"eu","cc":"gb","latitude":51.509865,"longitude":-0.118092,"reserved":0,"last_update":"0001-01-01T00:00:00Z","name_a2s":"Uncletopia | London | 2 | All Maps","protocol":17,"map":"pl_snowycoast","folder":"tf","game":"Team Fortress","app_id":440,"player_count":24,"max_players":24,"Bots":0,"server_type":"Dedicated","server_os":"Linux","password":true,"vac":true,"version":"7757534","steam_id":85568392924470941,"keywords":["nocrits","nodmgspread","payload","uncletopia"],"game_id":440,"stv_port":27026,"stv_name":"Uncletopia | London | 2 | All Maps | STV","players":[{"user_id":499,"name":"Joy","steam_id":76561198155314925,"connected_time":44000000000,"state":"active","ping":54},{"user_id":221,"name":"Zerfesh","steam_id":76561198117534358,"connected_time":16912000000000,"state":"active","ping":97},{"user_id":442,"name":"pizza time","steam_id":76561199015899793,"connected_time":2755000000000,"state":"active","ping":53},{"user_id":466,"name":"Per√§miehen√§","steam_id":76561197968945306,"connected_time":1393000000000,"state":"active","ping":68},{"user_id":491,"name":"Swedish Vegan","steam_id":76561198042775020,"connected_time":310000000000,"state":"active","ping":73},{"user_id":492,"name":"roblan11","steam_id":76561198066839258,"connected_time":280000000000,"state":"active","ping":51},{"user_id":465,"name":"Ablativus","steam_id":76561198025698470,"connected_time":1494000000000,"state":"active","ping":74},{"user_id":469,"name":"[No Class]","steam_id":76561199019412162,"connected_time":1298000000000,"state":"active","ping":45},{"user_id":459,"name":"FUKTARD2005","steam_id":76561198839121591,"connected_time":1861000000000,"state":"active","ping":61},{"user_id":431,"name":"JOK'R","steam_id":76561198140741944,"connected_time":3653000000000,"state":"active","ping":140},{"user_id":485,"name":"The Bushman","steam_id":76561198152576682,"connected_time":510000000000,"state":"active","ping":81},{"user_id":493,"name":"g0th.kveen","steam_id":76561197994492154,"connected_time":264000000000,"state":"active","ping":82},{"user_id":494,"name":"Uncle Terry","steam_id":76561198396415736,"connected_time":260000000000,"state":"active","ping":54},{"user_id":488,"name":"texory","steam_id":76561198060339391,"connected_time":347000000000,"state":"active","ping":56},{"user_id":479,"name":"tm","steam_id":76561198256619964,"connected_time":973000000000,"state":"active","ping":87},{"user_id":474,"name":"The Waddle Theorists","steam_id":76561198148074472,"connected_time":1107000000000,"state":"active","ping":46},{"user_id":405,"name":"buko","steam_id":76561198349648942,"connected_time":5007000000000,"state":"active","ping":80},{"user_id":495,"name":"Rask","steam_id":76561198052934944,"connected_time":257000000000,"state":"active","ping":101},{"user_id":475,"name":"POG","steam_id":76561198147277460,"connected_time":1106000000000,"state":"active","ping":64},{"user_id":482,"name":"look at this guy","steam_id":76561198163244605,"connected_time":824000000000,"state":"active","ping":75},{"user_id":477,"name":"tempura dumpy","steam_id":76561198023211417,"connected_time":1074000000000,"state":"active","ping":47},{"user_id":480,"name":"Skinny101","steam_id":76561197985599360,"connected_time":966000000000,"state":"active","ping":59},{"user_id":478,"name":"Gameing4\u003c3","steam_id":76561198879748233,"connected_time":1068000000000,"state":"active","ping":63},{"user_id":496,"name":"oultimosuicida","steam_id":76561198051429942,"connected_time":233000000000,"state":"active","ping":85}]},{"server_id":320,"name":"Uncletopia | London | 3 | All Maps","name_short":"lon-3","host":"lon-1.uk.uncletopia.com","port":27035,"enabled":true,"region":"eu","cc":"gb","latitude":51.509865,"longitude":-0.118092,"reserved":0,"last_update":"0001-01-01T00:00:00Z","name_a2s":"Uncletopia | London | 3 | All Maps","protocol":17,"map":"koth_viaduct","folder":"tf","game":"Team Fortress","app_id":440,"player_count":0,"max_players":24,"Bots":0,"server_type":"Dedicated","server_os":"Linux","password":true,"vac":true,"version":"7757534","steam_id":85568392924510192,"keywords":["cp","nocrits","nodmgspread","uncletopia"],"game_id":440,"stv_port":27036,"stv_name":"Uncletopia | London | 3 | All Maps | STV","players":null},{"server_id":321,"name":"Uncletopia | London | 4 | All Maps","name_short":"lon-4","host":"lon-1.uk.uncletopia.com","port":27045,"enabled":true,"region":"eu","cc":"gb","latitude":51.509865,"longitude":-0.118092,"reserved":0,"last_update":"0001-01-01T00:00:00Z","name_a2s":"Uncletopia | London | 4 | All Maps","protocol":17,"map":"koth_cascade","folder":"tf","game":"Team Fortress","app_id":440,"player_count":0,"max_players":24,"Bots":0,"server_type":"Dedicated","server_os":"Linux","password":true,"vac":true,"version":"7757534","steam_id":85568392924510193,"keywords":["cp","nocrits","nodmgspread","uncletopia"],"game_id":440,"stv_port":27046,"stv_name":"Uncletopia | London | 4 | All Maps | STV","players":null},{"server_id":21,"name":"Uncletopia | London | 5 | All Maps","name_short":"lon-5","host":"lon-1.uk.uncletopia.com","port":27055,"enabled":true,"region":"eu","cc":"gb","latitude":51.509865,"longitude":-0.118092,"reserved":0,"last_update":"0001-01-01T00:00:00Z","name_a2s":"Uncletopia | London | 5 | All Maps","protocol":17,"map":"pl_barnblitz","folder":"tf","game":"Team Fortress","app_id":440,"player_count":24,"max_players":24,"Bots":0,"server_type":"Dedicated","server_os":"Linux","password":true,"vac":true,"version":"7757534","steam_id":85568392924742829,"keywords":["nocrits","nodmgspread","payload","uncletopia"],"game_id":440,"stv_port":27056,"stv_name":"Uncletopia | London | 5 | All Maps | STV","players":[{"user_id":107,"name":"Waltcha","steam_id":76561198007691468,"connected_time":1441000000000,"state":"active","ping":67},{"user_id":122,"name":"Topia","steam_id":76561198163571788,"connected_time":642000000000,"state":"active","ping":92},{"user_id":120,"name":"balkanpresident","steam_id":76561199137677645,"connected_time":788000000000,"state":"active","ping":111},{"user_id":125,"name":"possiblename","steam_id":76561199064350902,"connected_time":546000000000,"state":"active","ping":108},{"user_id":104,"name":"Washburne","steam_id":76561198032810579,"connected_time":1608000000000,"state":"active","ping":49},{"user_id":132,"name":"i5","steam_id":76561198212702751,"connected_time":162000000000,"state":"active","ping":88},{"user_id":130,"name":"silicon based life form","steam_id":76561199127121346,"connected_time":336000000000,"state":"active","ping":55},{"user_id":80,"name":"sareena","steam_id":76561198810194062,"connected_time":3338000000000,"state":"active","ping":74},{"user_id":128,"name":"Eosson","steam_id":76561198108642113,"connected_time":386000000000,"state":"active","ping":179},{"user_id":70,"name":"boofing prozac","steam_id":76561198851157897,"connected_time":3948000000000,"state":"active","ping":62},{"user_id":115,"name":"Axord","steam_id":76561199289652176,"connected_time":824000000000,"state":"active","ping":68},{"user_id":127,"name":"BROOMSTER","steam_id":76561198344833818,"connected_time":455000000000,"state":"active","ping":63},{"user_id":105,"name":"still dont have the gibus","steam_id":76561199403752637,"connected_time":1603000000000,"state":"active","ping":54},{"user_id":117,"name":"hidden_games","steam_id":76561198149683392,"connected_time":812000000000,"state":"active","ping":105},{"user_id":88,"name":"Fancy","steam_id":76561198350658462,"connected_time":3068000000000,"state":"active","ping":85},{"user_id":96,"name":"beheading video from 2009","steam_id":76561198834897089,"connected_time":2502000000000,"state":"active","ping":68},{"user_id":106,"name":"Paulie 'Walnuts' Atreides","steam_id":76561198146194820,"connected_time":1572000000000,"state":"active","ping":59},{"user_id":131,"name":"The 4th Doctor","steam_id":76561198191516706,"connected_time":244000000000,"state":"active","ping":68},{"user_id":118,"name":"After8","steam_id":76561198090750865,"connected_time":809000000000,"state":"active","ping":75},{"user_id":74,"name":"Cosmetic brain","steam_id":76561198055936410,"connected_time":3479000000000,"state":"active","ping":88},{"user_id":119,"name":"hora","steam_id":76561198404470526,"connected_time":808000000000,"state":"active","ping":86},{"user_id":103,"name":"KAZAM | Tervez","steam_id":76561198045459068,"connected_time":1624000000000,"state":"active","ping":85},{"user_id":121,"name":"wiping theorist","steam_id":76561198058012525,"connected_time":728000000000,"state":"active","ping":87},{"user_id":124,"name":"painting4","steam_id":76561198067554256,"connected_time":599000000000,"state":"active","ping":46}]},{"server_id":22,"name":"Uncletopia | London | 6 | All Maps","name_short":"lon-6","host":"lon-1.uk.uncletopia.com","port":27065,"enabled":true,"region":"eu","cc":"gb","latitude":51.509865,"longitude":-0.118092,"reserved":0,"last_update":"0001-01-01T00:00:00Z","name_a2s":"Uncletopia | London | 6 | All Maps","protocol":17,"map":"pl_upward","folder":"tf","game":"Team Fortress","app_id":440,"player_count":1,"max_players":24,"Bots":0,"server_type":"Dedicated","server_os":"Linux","password":true,"vac":true,"version":"7757534","steam_id":85568392924742830,"keywords":["nocrits","nodmgspread","payload","uncletopia"],"game_id":440,"stv_port":27066,"stv_name":"Uncletopia | London | 6 | All Maps | STV","players":[{"user_id":11,"name":"MadTopHat","steam_id":76561198417045146,"connected_time":89000000000,"state":"active","ping":73}]},{"server_id":40,"name":"Uncletopia | London | 7 | No Payload","name_short":"lon-7","host":"lon-1.uk.uncletopia.com","port":27075,"enabled":true,"region":"eu","cc":"gb","latitude":51.509865,"longitude":-0.118092,"reserved":0,"last_update":"0001-01-01T00:00:00Z","name_a2s":"Uncletopia | London | 7 | No Payload","protocol":17,"map":"koth_lakeside_final","folder":"tf","game":"Team Fortress","app_id":440,"player_count":0,"max_players":24,"Bots":0,"server_type":"Dedicated","server_os":"Linux","password":true,"vac":true,"version":"7757534","steam_id":85568392924964314,"keywords":["cp","nocrits","nodmgspread","uncletopia"],"game_id":440,"stv_port":27076,"stv_name":"Uncletopia | London | 7 | No Payload | STV","players":null},{"server_id":41,"name":"Uncletopia | London | 8 | Community","name_short":"lon-8","host":"lon-1.uk.uncletopia.com","port":27085,"enabled":true,"region":"eu","cc":"gb","latitude":51.509865,"longitude":-0.118092,"reserved":0,"last_update":"0001-01-01T00:00:00Z","name_a2s":"Uncletopia | London | 8 | Community","protocol":17,"map":"workshop/cp_glassworks_rc6a.ugc454118349","folder":"tf","game":"Team Fortress","app_id":440,"player_count":0,"max_players":24,"Bots":0,"server_type":"Dedicated","server_os":"Linux","password":true,"vac":true,"version":"7757534","steam_id":85568392924964315,"keywords":["cp","nocrits","nodmgspread","uncletopia"],"game_id":440,"stv_port":27086,"stv_name":"Uncletopia | London | 8 | Community | STV","players":null},{"server_id":300,"name":"Uncletopia | Montr√©al | 1 | All Maps","name_short":"mtl-1","host":"mtl-1.ca.uncletopia.com","port":27015,"enabled":true,"region":"us-east","cc":"ca","latitude":45.50889,"longitude":-73.56167,"reserved":0,"last_update":"0001-01-01T00:00:00Z","name_a2s":"Uncletopia | Montr√©al | 1 | All Maps","protocol":17,"map":"cp_process_final","folder":"tf","game":"Team Fortress","app_id":440,"player_count":0,"max_players":24,"Bots":0,"server_type":"Dedicated","server_os":"Linux","password":true,"vac":true,"version":"7757534","steam_id":85568392924500087,"keywords":["cp","nocrits","nodmgspread","uncletopia"],"game_id":440,"stv_port":27016,"stv_name":"Uncletopia | Montr√©al | 1 | All Maps | STV","players":null},{"server_id":301,"name":"Uncletopia | Montr√©al | 2 | All Maps","name_short":"mtl-2","host":"mtl-1.ca.uncletopia.com","port":27025,"enabled":true,"region":"us-east","cc":"ca","latitude":45.50889,"longitude":-73.56167,"reserved":0,"last_update":"0001-01-01T00:00:00Z","name_a2s":"Uncletopia | Montr√©al | 2 | All Maps","protocol":17,"map":"pl_snowycoast","folder":"tf","game":"Team Fortress","app_id":440,"player_count":0,"max_players":24,"Bots":0,"server_type":"Dedicated","server_os":"Linux","password":true,"vac":true,"version":"7757534","steam_id":85568392924500088,"keywords":["nocrits","nodmgspread","payload","uncletopia"],"game_id":440,"stv_port":27026,"stv_name":"Uncletopia | Montr√©al | 2 | All Maps | STV","players":null},{"server_id":302,"name":"Uncletopia | Montr√©al | 3 | All Maps","name_short":"mtl-3","host":"mtl-1.ca.uncletopia.com","port":27035,"enabled":true,"region":"us-east","cc":"ca","latitude":45.50889,"longitude":-73.56167,"reserved":0,"last_update":"0001-01-01T00:00:00Z","name_a2s":"Uncletopia | Montr√©al | 3 | All Maps","protocol":17,"map":"pl_swiftwater_final1","folder":"tf","game":"Team Fortress","app_id":440,"player_count":0,"max_players":24,"Bots":0,"server_type":"Dedicated","server_os":"Linux","password":true,"vac":true,"version":"7757534","steam_id":85568392924500089,"keywords":["nocrits","nodmgspread","payload","uncletopia"],"game_id":440,"stv_port":27036,"stv_name":"Uncletopia | Montr√©al | 3 | All Maps | STV","players":null},{"server_id":303,"name":"Uncletopia | Montr√©al | 4 | No Payload","name_short":"mtl-4","host":"mtl-1.ca.uncletopia.com","port":27045,"enabled":true,"region":"us-east","cc":"ca","latitude":45.50889,"longitude":-73.56167,"reserved":0,"last_update":"0001-01-01T00:00:00Z","name_a2s":"Uncletopia | Montr√©al | 4 | No Payload","protocol":17,"map":"pl_pier","folder":"tf","game":"Team Fortress","app_id":440,"player_count":0,"max_players":24,"Bots":0,"server_type":"Dedicated","server_os":"Linux","password":true,"vac":true,"version":"7757534","steam_id":85568392924500090,"keywords":["nocrits","nodmgspread","payload","uncletopia"],"game_id":440,"stv_port":27046,"stv_name":"Uncletopia | Montr√©al | 4 | No Payload | STV","players":null},{"server_id":13,"name":"Uncletopia | New York City | 1 | All Maps","name_short":"nyc-1","host":"nyc-1.us.uncletopia.com","port":27015,"enabled":true,"region":"us-east","cc":"us","latitude":40.73061,"longitude":-73.93524,"reserved":0,"last_update":"0001-01-01T00:00:00Z","name_a2s":"Uncletopia | New York City | 1 | All Maps","protocol":17,"map":"pl_borneo","folder":"tf","game":"Team Fortress","app_id":440,"player_count":24,"max_players":24,"Bots":0,"server_type":"Dedicated","server_os":"Linux","password":true,"vac":true,"version":"7757534","steam_id":85568392924469993,"keywords":["nocrits","nodmgspread","payload","uncletopia"],"game_id":440,"stv_port":27016,"stv_name":"Uncletopia | New York City | 1 | All Maps | STV","players":[{"user_id":21,"name":"45 Cent","steam_id":76561198048690188,"connected_time":4667000000000,"state":"active","ping":52},{"user_id":48,"name":"Waffle Wannabe","steam_id":76561198064510650,"connected_time":1724000000000,"state":"active","ping":42},{"user_id":64,"name":"rice white","steam_id":76561198320732910,"connected_time":368000000000,"state":"active","ping":62},{"user_id":71,"name":"wùëíùëívil","steam_id":76561198081260791,"connected_time":18000000000,"state":"active","ping":131},{"user_id":58,"name":"ReefersPuffs","steam_id":76561199203739539,"connected_time":968000000000,"state":"active","ping":69},{"user_id":47,"name":"Trusty","steam_id":76561198035444237,"connected_time":1796000000000,"state":"active","ping":58},{"user_id":65,"name":"LittleWave10","steam_id":76561199112566671,"connected_time":309000000000,"state":"active","ping":172},{"user_id":56,"name":"Donkski","steam_id":76561198406895347,"connected_time":1111000000000,"state":"active","ping":90},{"user_id":29,"name":"a 1930s robber","steam_id":76561198125237406,"connected_time":3028000000000,"state":"active","ping":63},{"user_id":30,"name":"cheapdisplay","steam_id":76561199206448493,"connected_time":2965000000000,"state":"active","ping":61},{"user_id":66,"name":"Truffleoil","steam_id":76561198114689041,"connected_time":245000000000,"state":"active","ping":57},{"user_id":57,"name":"Sentry Gun (Maple!)","steam_id":76561199315167502,"connected_time":1110000000000,"state":"active","ping":62},{"user_id":72,"name":"floppy muppet","steam_id":76561198003076261,"connected_time":12000000000,"state":"active","ping":92},{"user_id":68,"name":"The Empire Ant","steam_id":76561198082466790,"connected_time":182000000000,"state":"active","ping":127},{"user_id":35,"name":"PyroEagle","steam_id":76561198296434231,"connected_time":2829000000000,"state":"active","ping":89},{"user_id":69,"name":"Seru","steam_id":76561199219827214,"connected_time":177000000000,"state":"active","ping":75},{"user_id":53,"name":"Scab Collector","steam_id":76561198346425545,"connected_time":1330000000000,"state":"active","ping":70},{"user_id":42,"name":"white ray","steam_id":76561198026664629,"connected_time":2450000000000,"state":"active","ping":52},{"user_id":70,"name":"Qeb","steam_id":76561198205527368,"connected_time":172000000000,"state":"active","ping":74},{"user_id":49,"name":"your local forecast","steam_id":76561198042243083,"connected_time":1720000000000,"state":"active","ping":45},{"user_id":41,"name":"Venezia","steam_id":76561197994107407,"connected_time":2555000000000,"state":"active","ping":46},{"user_id":44,"name":"Arcader","steam_id":76561198109860110,"connected_time":2368000000000,"state":"active","ping":134},{"user_id":52,"name":"The Doc K","steam_id":76561198035695029,"connected_time":1406000000000,"state":"active","ping":85},{"user_id":61,"name":"ThePacBruno","steam_id":76561198046084545,"connected_time":764000000000,"state":"active","ping":178}]},{"server_id":14,"name":"Uncletopia | New York City | 2 | All Maps","name_short":"nyc-2","host":"nyc-1.us.uncletopia.com","port":27025,"enabled":true,"region":"us-east","cc":"us","latitude":40.73061,"longitude":-73.93524,"reserved":0,"last_update":"0001-01-01T00:00:00Z","name_a2s":"Uncletopia | New York City | 2 | All Maps","protocol":17,"map":"pl_swiftwater_final1","folder":"tf","game":"Team Fortress","app_id":440,"player_count":24,"max_players":24,"Bots":0,"server_type":"Dedicated","server_os":"Linux","password":true,"vac":true,"version":"7757534","steam_id":85568392924469994,"keywords":["nocrits","nodmgspread","payload","uncletopia"],"game_id":440,"stv_port":27026,"stv_name":"Uncletopia | New York City | 2 | All Maps | STV","players":[{"user_id":236,"name":"Tails The Fox uwu","steam_id":76561198999384275,"connected_time":159000000000,"state":"active","ping":176},{"user_id":210,"name":"Lin","steam_id":76561198143746480,"connected_time":1728000000000,"state":"active","ping":127},{"user_id":221,"name":"„Äê caden / karma „Äë","steam_id":76561198072276429,"connected_time":841000000000,"state":"active","ping":88},{"user_id":237,"name":"kametro4","steam_id":76561198835430429,"connected_time":142000000000,"state":"active","ping":81},{"user_id":222,"name":"Roleversal","steam_id":76561199144594059,"connected_time":839000000000,"state":"active","ping":77},{"user_id":233,"name":"JerlBays","steam_id":76561198096773292,"connected_time":464000000000,"state":"active","ping":65},{"user_id":218,"name":"lukethepumpkin","steam_id":76561198204158335,"connected_time":1041000000000,"state":"active","ping":56},{"user_id":212,"name":"Take the L","steam_id":76561198379223875,"connected_time":1669000000000,"state":"active","ping":83},{"user_id":238,"name":"man behind the slaughter (F2P)","steam_id":76561198854070384,"connected_time":111000000000,"state":"active","ping":111},{"user_id":180,"name":"Mystery","steam_id":76561199385233153,"connected_time":5047000000000,"state":"active","ping":42},{"user_id":234,"name":"Jamie(^_^)","steam_id":76561198835286379,"connected_time":421000000000,"state":"active","ping":82},{"user_id":225,"name":"TranspoLord","steam_id":76561198214576887,"connected_time":792000000000,"state":"active","ping":95},{"user_id":223,"name":"Defiant Statement.","steam_id":76561199101373436,"connected_time":835000000000,"state":"active","ping":69},{"user_id":229,"name":"IronGhostQc","steam_id":76561198011451615,"connected_time":620000000000,"state":"active","ping":58},{"user_id":227,"name":"Charlie","steam_id":76561198798127908,"connected_time":674000000000,"state":"active","ping":76},{"user_id":228,"name":"Titus Tyrwitt","steam_id":76561197990779673,"connected_time":673000000000,"state":"active","ping":71},{"user_id":215,"name":"chonkymonky","steam_id":76561198079012896,"connected_time":1413000000000,"state":"active","ping":117},{"user_id":200,"name":"HATEWORK.","steam_id":76561198286792807,"connected_time":3272000000000,"state":"active","ping":98},{"user_id":230,"name":"AADDAAMM","steam_id":76561198068584852,"connected_time":589000000000,"state":"active","ping":61},{"user_id":231,"name":"a table","steam_id":76561198158461279,"connected_time":525000000000,"state":"active","ping":66},{"user_id":184,"name":"Daddys Home","steam_id":76561198034702011,"connected_time":4871000000000,"state":"active","ping":66},{"user_id":232,"name":"pokemonplatinumfanatic30003003","steam_id":76561198058826136,"connected_time":509000000000,"state":"active","ping":99},{"user_id":177,"name":"Personal Growth Arc","steam_id":76561198128489359,"connected_time":5157000000000,"state":"active","ping":120},{"user_id":235,"name":"Code","steam_id":76561198121528534,"connected_time":382000000000,"state":"active","ping":64}]},{"server_id":15,"name":"Uncletopia | New York City | 3 | Stopwatch Beta","name_short":"nyc-3","host":"nyc-1.us.uncletopia.com","port":27035,"enabled":true,"region":"us-east","cc":"us","latitude":40.73061,"longitude":-73.93524,"reserved":0,"last_update":"0001-01-01T00:00:00Z","name_a2s":"Uncletopia | New York City | 3 | Stopwatch Beta","protocol":17,"map":"pl_upward","folder":"tf","game":"Team Fortress","app_id":440,"player_count":0,"max_players":24,"Bots":0,"server_type":"Dedicated","server_os":"Linux","password":true,"vac":true,"version":"7757534","steam_id":85568392924742820,"keywords":["nocrits","nodmgspread","payload","uncletopia"],"game_id":440,"stv_port":27036,"stv_name":"Uncletopia | New York City | 3 | Stopwatch Beta | STV","players":null},{"server_id":16,"name":"Uncletopia | New York City | 4 | Community","name_short":"nyc-4","host":"nyc-1.us.uncletopia.com","port":27045,"enabled":true,"region":"us-east","cc":"us","latitude":40.73061,"longitude":-73.93524,"reserved":0,"last_update":"0001-01-01T00:00:00Z","name_a2s":"Uncletopia | New York City | 4 | Community","protocol":17,"map":"pl_swiftwater_final1","folder":"tf","game":"Team Fortress","app_id":440,"player_count":0,"max_players":24,"Bots":0,"server_type":"Dedicated","server_os":"Linux","password":true,"vac":true,"version":"7757534","steam_id":85568392924742821,"keywords":["nocrits","nodmgspread","payload","uncletopia"],"game_id":440,"stv_port":27046,"stv_name":"Uncletopia | New York City | 4 | Community | STV","players":null},{"server_id":142,"name":"Uncletopia | S√£o Paulo | 1 | All Maps","name_short":"sao-1","host":"sao-1.br.uncletopia.com","port":27015,"enabled":true,"region":"sa","cc":"br","latitude":-23.533773,"longitude":-46.62529,"reserved":0,"last_update":"0001-01-01T00:00:00Z","name_a2s":"Uncletopia | S√£o Paulo | 1 | All Maps","protocol":17,"map":"koth_lakeside_final","folder":"tf","game":"Team Fortress","app_id":440,"player_count":0,"max_players":24,"Bots":0,"server_type":"Dedicated","server_os":"Linux","password":true,"vac":true,"version":"7757534","steam_id":85568392924469996,"keywords":["cp","nocrits","nodmgspread","uncletopia"],"game_id":440,"stv_port":27016,"stv_name":"Uncletopia | S√£o Paulo | 1 | All Maps | STV","players":null},{"server_id":143,"name":"Uncletopia | S√£o Paulo | 2 | All Maps","name_short":"sao-2","host":"sao-2.br.uncletopia.com","port":27015,"enabled":true,"region":"sa","cc":"br","latitude":-23.533773,"longitude":-46.62529,"reserved":0,"last_update":"0001-01-01T00:00:00Z","name_a2s":"Uncletopia | S√£o Paulo | 2 | All Maps","protocol":17,"map":"pl_frontier_final","folder":"tf","game":"Team Fortress","app_id":440,"player_count":0,"max_players":24,"Bots":0,"server_type":"Dedicated","server_os":"Linux","password":true,"vac":true,"version":"7757534","steam_id":85568392924485349,"keywords":["nocrits","nodmgspread","payload","uncletopia"],"game_id":440,"stv_port":27016,"stv_name":"Uncletopia | S√£o Paulo | 2 | All Maps | STV","players":null},{"server_id":7,"name":"Uncletopia | Seattle | 1 | All Maps","name_short":"sea-1","host":"sea-1.us.uncletopia.com","port":27015,"enabled":true,"region":"us-west","cc":"us","latitude":47.608013,"longitude":-122.33517,"reserved":0,"last_update":"0001-01-01T00:00:00Z","name_a2s":"Uncletopia | Seattle | 1 | All Maps","protocol":17,"map":"pl_borneo","folder":"tf","game":"Team Fortress","app_id":440,"player_count":24,"max_players":24,"Bots":0,"server_type":"Dedicated","server_os":"Linux","password":true,"vac":true,"version":"7757534","steam_id":85568392924469997,"keywords":["nocrits","nodmgspread","payload","uncletopia"],"game_id":440,"stv_port":27016,"stv_name":"Uncletopia | Seattle | 1 | All Maps | STV","players":[{"user_id":188,"name":"fancyfreak","steam_id":76561198326466375,"connected_time":3945000000000,"state":"active","ping":79},{"user_id":256,"name":"a footnote in sounding history","steam_id":76561198063064857,"connected_time":49000000000,"state":"active","ping":120},{"user_id":139,"name":"Ëä±„ÅÆÊ¥æÊâã„Å™Èºª","steam_id":76561198042735130,"connected_time":7191000000000,"state":"active","ping":57},{"user_id":255,"name":"Keamy","steam_id":76561199471434875,"connected_time":109000000000,"state":"active","ping":32},{"user_id":242,"name":"Lonestar827","steam_id":76561198035533639,"connected_time":1122000000000,"state":"active","ping":57},{"user_id":252,"name":"Classic Muzz","steam_id":76561198835514043,"connected_time":308000000000,"state":"active","ping":79},{"user_id":239,"name":"shy guy","steam_id":76561198151246059,"connected_time":1239000000000,"state":"active","ping":70},{"user_id":243,"name":"Morattab","steam_id":76561199467853508,"connected_time":1024000000000,"state":"active","ping":52},{"user_id":202,"name":"MagicalBoyChan","steam_id":76561198024776873,"connected_time":2523000000000,"state":"active","ping":72},{"user_id":236,"name":"Mignyanne :3","steam_id":76561198048754056,"connected_time":1618000000000,"state":"active","ping":66},{"user_id":241,"name":"SnailYT","steam_id":76561198332040385,"connected_time":1179000000000,"state":"active","ping":64},{"user_id":119,"name":"=7Cav=SGT.Smith.V","steam_id":76561198104044042,"connected_time":8791000000000,"state":"active","ping":120},{"user_id":150,"name":"Tommy Pickles (Very Cool)","steam_id":76561198391261463,"connected_time":6019000000000,"state":"active","ping":97},{"user_id":178,"name":"Survivor 101","steam_id":76561198310822778,"connected_time":4562000000000,"state":"active","ping":124},{"user_id":253,"name":"McSpazatron","steam_id":76561198955942148,"connected_time":307000000000,"state":"active","ping":65},{"user_id":230,"name":"STONE COLD","steam_id":76561198041643833,"connected_time":1813000000000,"state":"active","ping":119},{"user_id":120,"name":"mrzoozilla","steam_id":76561198153236532,"connected_time":8755000000000,"state":"active","ping":119},{"user_id":246,"name":"rustyorion","steam_id":76561198439186347,"connected_time":992000000000,"state":"active","ping":51},{"user_id":251,"name":"Daz","steam_id":76561198041431938,"connected_time":311000000000,"state":"active","ping":121},{"user_id":203,"name":"meato","steam_id":76561198390846566,"connected_time":2414000000000,"state":"active","ping":116},{"user_id":232,"name":"carrotcake","steam_id":76561198030997761,"connected_time":1810000000000,"state":"active","ping":92},{"user_id":163,"name":"weegeebad","steam_id":76561198280841437,"connected_time":5604000000000,"state":"active","ping":123},{"user_id":233,"name":"oregon","steam_id":76561198264293084,"connected_time":1808000000000,"state":"active","ping":130},{"user_id":254,"name":"Mr8bittripper","steam_id":76561198133894229,"connected_time":298000000000,"state":"active","ping":44}]},{"server_id":119,"name":"Uncletopia | Seattle | 2 | All Maps","name_short":"sea-2","host":"sea-1.us.uncletopia.com","port":27025,"enabled":true,"region":"us-west","cc":"us","latitude":47.608013,"longitude":-122.33517,"reserved":0,"last_update":"0001-01-01T00:00:00Z","name_a2s":"Uncletopia | Seattle | 2 | All Maps","protocol":17,"map":"cp_mountainlab","folder":"tf","game":"Team Fortress","app_id":440,"player_count":0,"max_players":24,"Bots":0,"server_type":"Dedicated","server_os":"Linux","password":true,"vac":true,"version":"7757534","steam_id":85568392924469998,"keywords":["cp","nocrits","nodmgspread","uncletopia"],"game_id":440,"stv_port":27026,"stv_name":"Uncletopia | Seattle | 2 | All Maps | STV","players":null},{"server_id":406,"name":"Uncletopia | Seattle | 3 | Stopwatch Beta","name_short":"sea-3","host":"sea-1.us.uncletopia.com","port":27035,"enabled":true,"region":"us-west","cc":"us","latitude":47.608013,"longitude":-122.33517,"reserved":0,"last_update":"0001-01-01T00:00:00Z","name_a2s":"Uncletopia | Seattle | 3 | Stopwatch Beta","protocol":17,"map":"cp_dustbowl","folder":"tf","game":"Team Fortress","app_id":440,"player_count":0,"max_players":24,"Bots":0,"server_type":"Dedicated","server_os":"Linux","password":true,"vac":true,"version":"7757534","steam_id":85568392924515217,"keywords":["cp","nocrits","nodmgspread","uncletopia"],"game_id":440,"stv_port":27036,"stv_name":"Uncletopia | Seattle | 3 | Stopwatch Beta | STV","players":null},{"server_id":17,"name":"Uncletopia | San Francisco | 1 | All Maps","name_short":"sfo-1","host":"sfo-1.us.uncletopia.com","port":27015,"enabled":true,"region":"us-west","cc":"us","latitude":37.77397,"longitude":-122.4313,"reserved":0,"last_update":"0001-01-01T00:00:00Z","name_a2s":"Uncletopia | San Francisco | 1 | All Maps","protocol":17,"map":"cp_snakewater_final1","folder":"tf","game":"Team Fortress","app_id":440,"player_count":0,"max_players":24,"Bots":0,"server_type":"Dedicated","server_os":"Linux","password":true,"vac":true,"version":"7757534","steam_id":85568392924469999,"keywords":["cp","nocrits","nodmgspread","uncletopia"],"game_id":440,"stv_port":27016,"stv_name":"Uncletopia | San Francisco | 1 | All Maps | STV","players":null},{"server_id":18,"name":"Uncletopia | San Francisco | 2 | All Maps","name_short":"sfo-2","host":"sfo-1.us.uncletopia.com","port":27025,"enabled":true,"region":"us-west","cc":"us","latitude":37.77397,"longitude":-122.4313,"reserved":0,"last_update":"0001-01-01T00:00:00Z","name_a2s":"Uncletopia | San Francisco | 2 | All Maps","protocol":17,"map":"koth_highpass","folder":"tf","game":"Team Fortress","app_id":440,"player_count":0,"max_players":24,"Bots":0,"server_type":"Dedicated","server_os":"Linux","password":true,"vac":true,"version":"7757534","steam_id":85568392924470000,"keywords":["cp","nocrits","nodmgspread","uncletopia"],"game_id":440,"stv_port":27026,"stv_name":"Uncletopia | San Francisco | 2 | All Maps | STV","players":null},{"server_id":19,"name":"Uncletopia | San Francisco | 3 | Stopwatch Beta","name_short":"sfo-3","host":"sfo-1.us.uncletopia.com","port":27035,"enabled":true,"region":"us-west","cc":"us","latitude":37.77397,"longitude":-122.4313,"reserved":0,"last_update":"0001-01-01T00:00:00Z","name_a2s":"Uncletopia | San Francisco | 3 | Stopwatch Beta","protocol":17,"map":"koth_lakeside_final","folder":"tf","game":"Team Fortress","app_id":440,"player_count":0,"max_players":24,"Bots":0,"server_type":"Dedicated","server_os":"Linux","password":true,"vac":true,"version":"7757534","steam_id":85568392924742824,"keywords":["cp","nocrits","nodmgspread","uncletopia"],"game_id":440,"stv_port":27036,"stv_name":"Uncletopia | San Francisco | 3 | Stopwatch Beta | STV","players":null},{"server_id":20,"name":"Uncletopia | San Francisco | 4 | Community","name_short":"sfo-4","host":"sfo-1.us.uncletopia.com","port":27045,"enabled":true,"region":"us-west","cc":"us","latitude":37.77397,"longitude":-122.4313,"reserved":0,"last_update":"0001-01-01T00:00:00Z","name_a2s":"Uncletopia | San Francisco | 4 | Community","protocol":17,"map":"cp_altitude","folder":"tf","game":"Team Fortress","app_id":440,"player_count":0,"max_players":24,"Bots":0,"server_type":"Dedicated","server_os":"Linux","password":true,"vac":true,"version":"7757534","steam_id":85568392924742826,"keywords":["cp","nocrits","nodmgspread","uncletopia"],"game_id":440,"stv_port":27046,"stv_name":"Uncletopia | San Francisco | 4 | Community | STV","players":null},{"server_id":141,"name":"Uncletopia | Sydney | 1 | All Maps","name_short":"syd-1","host":"syd-1.au.uncletopia.com","port":27015,"enabled":true,"region":"au","cc":"au","latitude":-33.865143,"longitude":151.2099,"reserved":0,"last_update":"0001-01-01T00:00:00Z","name_a2s":"Uncletopia | Sydney | 1 | All Maps","protocol":17,"map":"cp_sunshine","folder":"tf","game":"Team Fortress","app_id":440,"player_count":0,"max_players":24,"Bots":0,"server_type":"Dedicated","server_os":"Linux","password":true,"vac":true,"version":"7757534","steam_id":85568392924470001,"keywords":["cp","nocrits","nodmgspread","uncletopia"],"game_id":440,"stv_port":27016,"stv_name":"Uncletopia | Sydney | 1 | All Maps | STV","players":null},{"server_id":123,"name":"Uncletopia | Sydney | 2 | All Maps","name_short":"syd-2","host":"syd-1.au.uncletopia.com","port":27025,"enabled":true,"region":"au","cc":"au","latitude":-33.865143,"longitude":151.2099,"reserved":0,"last_update":"0001-01-01T00:00:00Z","name_a2s":"Uncletopia | Sydney | 2 | All Maps","protocol":17,"map":"cp_process_final","folder":"tf","game":"Team Fortress","app_id":440,"player_count":0,"max_players":24,"Bots":0,"server_type":"Dedicated","server_os":"Linux","password":true,"vac":true,"version":"7757534","steam_id":85568392924470002,"keywords":["cp","nocrits","nodmgspread","uncletopia"],"game_id":440,"stv_port":27026,"stv_name":"Uncletopia | Sydney | 2 | All Maps | STV","players":null},{"server_id":395,"name":"Uncletopia | Sydney | 3 | All Maps","name_short":"syd-3","host":"syd-1.au.uncletopia.com","port":27035,"enabled":true,"region":"au","cc":"au","latitude":-33.865143,"longitude":151.2099,"reserved":0,"last_update":"0001-01-01T00:00:00Z","name_a2s":"Uncletopia | Sydney | 3 | All Maps","protocol":17,"map":"koth_badlands","folder":"tf","game":"Team Fortress","app_id":440,"player_count":0,"max_players":24,"Bots":0,"server_type":"Dedicated","server_os":"Linux","password":true,"vac":true,"version":"7757534","steam_id":85568392925194467,"keywords":["cp","nocrits","nodmgspread","uncletopia"],"game_id":440,"stv_port":27036,"stv_name":"Uncletopia | Sydney | 3 | All Maps | STV","players":null},{"server_id":396,"name":"Uncletopia | Sydney | 4 | All Maps","name_short":"syd-4","host":"syd-1.au.uncletopia.com","port":27045,"enabled":true,"region":"au","cc":"au","latitude":-33.865143,"longitude":151.2099,"reserved":0,"last_update":"0001-01-01T00:00:00Z","name_a2s":"Uncletopia | Sydney | 4 | All Maps","protocol":17,"map":"koth_highpass","folder":"tf","game":"Team Fortress","app_id":440,"player_count":0,"max_players":24,"Bots":0,"server_type":"Dedicated","server_os":"Linux","password":true,"vac":true,"version":"7757534","steam_id":85568392925397958,"keywords":["cp","nocrits","nodmgspread","uncletopia"],"game_id":440,"stv_port":27046,"stv_name":"Uncletopia | Sydney | 4 | All Maps | STV","players":null},{"server_id":58,"name":"Uncletopia | Sydney | 5 | Stopwatch Beta","name_short":"syd-5","host":"syd-1.au.uncletopia.com","port":27055,"enabled":true,"region":"au","cc":"au","latitude":-33.865143,"longitude":151.2099,"reserved":0,"last_update":"0001-01-01T00:00:00Z","name_a2s":"Uncletopia | Sydney | 5 | Stopwatch Beta","protocol":17,"map":"koth_cascade","folder":"tf","game":"Team Fortress","app_id":440,"player_count":0,"max_players":24,"Bots":0,"server_type":"Dedicated","server_os":"Linux","password":true,"vac":true,"version":"7757534","steam_id":85568392925397959,"keywords":["cp","nocrits","nodmgspread","uncletopia"],"game_id":440,"stv_port":27056,"stv_name":"Uncletopia | Sydney | 5 | Stopwatch Beta | STV","players":null},{"server_id":59,"name":"Uncletopia | Sydney | 6 | Community","name_short":"syd-6","host":"syd-1.au.uncletopia.com","port":27065,"enabled":true,"region":"au","cc":"au","latitude":-33.865143,"longitude":151.2099,"reserved":0,"last_update":"0001-01-01T00:00:00Z","name_a2s":"Uncletopia | Sydney | 6 | Community","protocol":17,"map":"workshop/pl_eruption_b9a.ugc2807898013","folder":"tf","game":"Team Fortress","app_id":440,"player_count":0,"max_players":24,"Bots":0,"server_type":"Dedicated","server_os":"Linux","password":true,"vac":true,"version":"7757534","steam_id":85568392925397960,"keywords":["nocrits","nodmgspread","payload","uncletopia"],"game_id":440,"stv_port":27066,"stv_name":"Uncletopia | Sydney | 6 | Community | STV","players":null},{"server_id":49,"name":"Uncletopia | Warsaw | 1 | All Maps","name_short":"waw-1","host":"waw-1.pl.uncletopia.com","port":27015,"enabled":true,"region":"eu","cc":"pl","latitude":52.2297,"longitude":21.017532,"reserved":0,"last_update":"0001-01-01T00:00:00Z","name_a2s":"","protocol":0,"map":"","folder":"","game":"","app_id":0,"player_count":0,"max_players":0,"Bots":0,"server_type":"","server_os":"","password":false,"vac":false,"version":"","steam_id":0,"keywords":null,"game_id":0,"stv_port":0,"stv_name":"","players":null},{"server_id":50,"name":"Uncletopia | Warsaw | 2 | All Maps","name_short":"waw-2","host":"waw-1.pl.uncletopia.com","port":27025,"enabled":true,"region":"eu","cc":"pl","latitude":52.2297,"longitude":21.017532,"reserved":0,"last_update":"0001-01-01T00:00:00Z","name_a2s":"Uncletopia | Warsaw | 2 | All Maps","protocol":17,"map":"koth_viaduct","folder":"tf","game":"Team Fortress","app_id":440,"player_count":0,"max_players":24,"Bots":0,"server_type":"Dedicated","server_os":"Linux","password":true,"vac":true,"version":"7757534","steam_id":85568392925397851,"keywords":["cp","nocrits","nodmgspread","uncletopia"],"game_id":440,"stv_port":27026,"stv_name":"Uncletopia | Warsaw | 2 | All Maps | STV","players":null},{"server_id":51,"name":"Uncletopia | Warsaw | 3 | All Maps","name_short":"waw-3","host":"waw-1.pl.uncletopia.com","port":27035,"enabled":true,"region":"eu","cc":"pl","latitude":52.2297,"longitude":21.017532,"reserved":0,"last_update":"0001-01-01T00:00:00Z","name_a2s":"Uncletopia | Warsaw | 3 | All Maps","protocol":17,"map":"cp_mountainlab","folder":"tf","game":"Team Fortress","app_id":440,"player_count":4,"max_players":24,"Bots":0,"server_type":"Dedicated","server_os":"Linux","password":true,"vac":true,"version":"7757534","steam_id":85568392925397852,"keywords":["cp","nocrits","nodmgspread","uncletopia"],"game_id":440,"stv_port":27036,"stv_name":"Uncletopia | Warsaw | 3 | All Maps | STV","players":[{"user_id":109,"name":"LenoN","steam_id":76561199020873043,"connected_time":30000000000,"state":"active","ping":73},{"user_id":108,"name":"Gabby","steam_id":76561198396290786,"connected_time":188000000000,"state":"active","ping":88},{"user_id":102,"name":"Ludde Flor","steam_id":76561198374707938,"connected_time":356000000000,"state":"active","ping":108},{"user_id":107,"name":"nightmare brb","steam_id":76561199311059122,"connected_time":298000000000,"state":"active","ping":153}]},{"server_id":52,"name":"Uncletopia | Warsaw | 4 | All Maps","name_short":"waw-4","host":"waw-1.pl.uncletopia.com","port":27045,"enabled":true,"region":"eu","cc":"pl","latitude":52.2297,"longitude":21.017532,"reserved":0,"last_update":"0001-01-01T00:00:00Z","name_a2s":"Uncletopia | Warsaw | 4 | All Maps","protocol":17,"map":"koth_lakeside_final","folder":"tf","game":"Team Fortress","app_id":440,"player_count":0,"max_players":24,"Bots":0,"server_type":"Dedicated","server_os":"Linux","password":true,"vac":true,"version":"7757534","steam_id":85568392925397853,"keywords":["cp","nocrits","nodmgspread","uncletopia"],"game_id":440,"stv_port":27046,"stv_name":"Uncletopia | Warsaw | 4 | All Maps | STV","players":null},{"server_id":53,"name":"Uncletopia | Warsaw | 5 | Stopwatch Beta","name_short":"waw-5","host":"waw-1.pl.uncletopia.com","port":27055,"enabled":true,"region":"eu","cc":"pl","latitude":52.2297,"longitude":21.017532,"reserved":0,"last_update":"0001-01-01T00:00:00Z","name_a2s":"Uncletopia | Warsaw | 5 | Stopwatch Beta","protocol":17,"map":"pl_borneo","folder":"tf","game":"Team Fortress","app_id":440,"player_count":2,"max_players":24,"Bots":0,"server_type":"Dedicated","server_os":"Linux","password":true,"vac":true,"version":"7757534","steam_id":85568392925397854,"keywords":["nocrits","nodmgspread","payload","uncletopia"],"game_id":440,"stv_port":27056,"stv_name":"Uncletopia | Warsaw | 5 | Stopwatch Beta | STV","players":[{"user_id":4,"name":"fireinfazo","steam_id":76561199092048966,"connected_time":222000000000,"state":"active","ping":61},{"user_id":5,"name":"Giorno Bovana","steam_id":76561199231145195,"connected_time":153000000000,"state":"active","ping":63}]},{"server_id":54,"name":"Uncletopia | Warsaw | 6 | Community","name_short":"waw-6","host":"waw-1.pl.uncletopia.com","port":27065,"enabled":true,"region":"eu","cc":"pl","latitude":52.2297,"longitude":21.017532,"reserved":0,"last_update":"0001-01-01T00:00:00Z","name_a2s":"Uncletopia | Warsaw | 6 | Community","protocol":17,"map":"workshop/koth_kemptown_rc1.ugc767410655","folder":"tf","game":"Team Fortress","app_id":440,"player_count":0,"max_players":24,"Bots":0,"server_type":"Dedicated","server_os":"Linux","password":true,"vac":true,"version":"7757534","steam_id":85568392925397856,"keywords":["cp","nocrits","nodmgspread","uncletopia"],"game_id":440,"stv_port":27066,"stv_name":"Uncletopia | Warsaw | 6 | Community | STV","players":null}]}