{"status":true,"message":"","result":[{"server_id":9,"name":"Uncletopia | Atlanta | 1 | All Maps","name_short":"atl-1","host":"atl-1.us.uncletopia.com","port":27015,"enabled":true,"region":"us-east","cc":"us","latitude":33.753746,"longitude":-84.38633,"reserved":0,"last_update":"0001-01-01T00:00:00Z","name_a2s":"Uncletopia | Atlanta | 1 | All Maps","protocol":17,"map":"pl_snowycoast","folder":"tf","game":"Team Fortress","app_id":440,"player_count":24,"max_players":24,"Bots":0,"server_type":"Dedicated","server_os":"Linux","password":true,"vac":true,"version":"7742253","steam_id":85568392924469982,"keywords":["nocrits","nodmgspread","payload","uncletopia"],"game_id":440,"stv_port":27016,"stv_name":"Uncletopia | Atlanta | 1 | All Maps | STV","players":[{"user_id":575,"name":"layabout","steam_id":76561198130892117,"connected_time":6591000000000,"state":"active","ping":61},{"user_id":592,"name":"FemboyNate","steam_id":76561198146636410,"connected_time":4776000000000,"state":"active","ping":74},{"user_id":628,"name":"‚òô Corrupt ‚ùß","steam_id":76561197977631915,"connected_time":618000000000,"state":"active","ping":65},{"user_id":635,"name":"ATL1 | Psionic Box","steam_id":76561198151019322,"connected_time":120000000000,"state":"active","ping":75},{"user_id":617,"name":"Envidia","steam_id":76561198141640643,"connected_time":2180000000000,"state":"active","ping":114},{"user_id":609,"name":"lker","steam_id":76561197976975075,"connected_time":3440000000000,"state":"active","ping":36},{"user_id":503,"name":"Limbo_Darkness","steam_id":76561198127411819,"connected_time":12586000000000,"state":"active","ping":62},{"user_id":611,"name":"com lag","steam_id":76561198019019392,"connected_time":3354000000000,"state":"active","ping":63},{"user_id":604,"name":"ATL1 | Krissy","steam_id":76561197960848174,"connected_time":3831000000000,"state":"active","ping":74},{"user_id":629,"name":"hyeon @74.97 Hz","steam_id":76561198246700372,"connected_time":430000000000,"state":"active","ping":60},{"user_id":591,"name":"Flint","steam_id":76561198066547582,"connected_time":4903000000000,"state":"active","ping":109},{"user_id":600,"name":"Rizzasaurus Rex","steam_id":76561198927517471,"connected_time":4018000000000,"state":"active","ping":51},{"user_id":594,"name":"ATL6 Le4n!!!","steam_id":76561198045522596,"connected_time":4770000000000,"state":"active","ping":72},{"user_id":622,"name":"Caoticaos","steam_id":76561198114800227,"connected_time":1703000000000,"state":"active","ping":115},{"user_id":626,"name":"ATL1 | Kramer","steam_id":76561198083595936,"connected_time":1687000000000,"state":"active","ping":85},{"user_id":601,"name":"big goku","steam_id":76561198206864612,"connected_time":4015000000000,"state":"active","ping":70},{"user_id":625,"name":"MOTORTREND TRUCK OF THE YEAR","steam_id":76561198077654131,"connected_time":1694000000000,"state":"active","ping":70},{"user_id":603,"name":"Nyle","steam_id":76561198045652639,"connected_time":3874000000000,"state":"active","ping":123},{"user_id":521,"name":"ATL1 | to4st","steam_id":76561198981009008,"connected_time":11097000000000,"state":"active","ping":71},{"user_id":630,"name":"‚ô°Alyx‚ô°","steam_id":76561198024303978,"connected_time":316000000000,"state":"active","ping":62},{"user_id":632,"name":"trans rights","steam_id":76561198044183038,"connected_time":242000000000,"state":"active","ping":52},{"user_id":539,"name":"ATL1 | eish","steam_id":76561198089463603,"connected_time":9809000000000,"state":"active","ping":131},{"user_id":633,"name":"chexo4","steam_id":76561198150532531,"connected_time":241000000000,"state":"active","ping":55},{"user_id":634,"name":"floofy","steam_id":76561198389769098,"connected_time":240000000000,"state":"active","ping":87}]},{"server_id":400,"name":"Uncletopia | Atlanta | 3 | Stopwatch Beta","name_short":"atl-3","host":"atl-1.us.uncletopia.com","port":27035,"enabled":true,"region":"us-east","cc":"us","latitude":33.753746,"longitude":-84.38633,"reserved":0,"last_update":"0001-01-01T00:00:00Z","name_a2s":"Uncletopia | Atlanta | 3 | Stopwatch Beta","protocol":17,"map":"workshop/cp_process_f11.ugc2302948105","folder":"tf","game":"Team Fortress","app_id":440,"player_count":0,"max_players":24,"Bots":0,"server_type":"Dedicated","server_os":"Linux","password":true,"vac":true,"version":"7742253","steam_id":85568392924515187,"keywords":["cp","nocrits","nodmgspread","uncletopia"],"game_id":440,"stv_port":27036,"stv_name":"Uncletopia | Atlanta | 3 | Stopwatch Beta | STV","players":null},{"server_id":401,"name":"Uncletopia | Atlanta | 4 | No Payload","name_short":"atl-4","host":"atl-1.us.uncletopia.com","port":27045,"enabled":true,"region":"us-east","cc":"us","latitude":33.753746,"longitude":-84.38633,"reserved":0,"last_update":"0001-01-01T00:00:00Z","name_a2s":"Uncletopia | Atlanta | 4 | No Payload","protocol":17,"map":"pl_pier","folder":"tf","game":"Team Fortress","app_id":440,"player_count":0,"max_players":24,"Bots":0,"server_type":"Dedicated","server_os":"Linux","password":true,"vac":true,"version":"7723704","steam_id":85568392924515188,"keywords":["nocrits","nodmgspread","payload","uncletopia"],"game_id":440,"stv_port":27046,"stv_name":"Uncletopia | Atlanta | 4 | No Payload | STV","players":null},{"server_id":2,"name":"Uncletopia | Chicago | 1 | All Maps","name_short":"chi-1","host":"chi-1.us.uncletopia.com","port":27015,"enabled":true,"region":"us-central","cc":"us","latitude":41.881832,"longitude":-87.62318,"reserved":0,"last_update":"0001-01-01T00:00:00Z","name_a2s":"Uncletopia | Chicago | 1 | All Maps","protocol":17,"map":"pl_swiftwater_final1","folder":"tf","game":"Team Fortress","app_id":440,"player_count":24,"max_players":24,"Bots":0,"server_type":"Dedicated","server_os":"Linux","password":true,"vac":true,"version":"7742253","steam_id":85568392924469984,"keywords":["nocrits","nodmgspread","payload","uncletopia"],"game_id":440,"stv_port":27016,"stv_name":"Uncletopia | Chicago | 1 | All Maps | STV","players":[{"user_id":555,"name":"Schizo","steam_id":76561198125095908,"connected_time":1536000000000,"state":"active","ping":82},{"user_id":556,"name":"Your Local Queer Librarian","steam_id":76561198013077080,"connected_time":1535000000000,"state":"active","ping":51},{"user_id":544,"name":"Santa's Gay Porn Stunt Double","steam_id":76561198844362758,"connected_time":2467000000000,"state":"active","ping":57},{"user_id":532,"name":"Miner2495","steam_id":76561198445904523,"connected_time":3359000000000,"state":"active","ping":62},{"user_id":559,"name":"SharkBryce","steam_id":76561198374861321,"connected_time":1528000000000,"state":"active","ping":87},{"user_id":494,"name":"not a hornet","steam_id":76561198201259645,"connected_time":5008000000000,"state":"active","ping":74},{"user_id":564,"name":"sleepy","steam_id":76561198450003554,"connected_time":1155000000000,"state":"active","ping":69},{"user_id":566,"name":"bingle","steam_id":76561198359413453,"connected_time":1081000000000,"state":"active","ping":76},{"user_id":567,"name":"i'll have what you're having","steam_id":76561198035337657,"connected_time":1077000000000,"state":"active","ping":64},{"user_id":469,"name":"[slug]","steam_id":76561197989592178,"connected_time":7280000000000,"state":"active","ping":67},{"user_id":558,"name":"The destroyer of foreskin","steam_id":76561198135275966,"connected_time":1531000000000,"state":"active","ping":73},{"user_id":571,"name":"totalhipstercrusher","steam_id":76561198061738700,"connected_time":101000000000,"state":"active","ping":74},{"user_id":560,"name":"Valkyrie","steam_id":76561198100144288,"connected_time":1528000000000,"state":"active","ping":77},{"user_id":561,"name":"SirScrotum","steam_id":76561198816008615,"connected_time":1527000000000,"state":"active","ping":70},{"user_id":538,"name":"radicalising santa's elves","steam_id":76561198063064857,"connected_time":3074000000000,"state":"active","ping":67},{"user_id":553,"name":"StonedGiant","steam_id":76561197984386932,"connected_time":1629000000000,"state":"active","ping":56},{"user_id":568,"name":"Heisengirth","steam_id":76561198321521526,"connected_time":563000000000,"state":"active","ping":77},{"user_id":499,"name":"Aristotle Voulton","steam_id":76561198100174923,"connected_time":4902000000000,"state":"active","ping":66},{"user_id":570,"name":"Astori√¶!","steam_id":76561199090168858,"connected_time":241000000000,"state":"active","ping":61},{"user_id":530,"name":"Skeleton Hotel","steam_id":76561198041704727,"connected_time":3811000000000,"state":"active","ping":59},{"user_id":563,"name":"TheFlyingRaptor","steam_id":76561198961669220,"connected_time":1288000000000,"state":"active","ping":72},{"user_id":543,"name":"aphexjh","steam_id":76561197985854658,"connected_time":2478000000000,"state":"active","ping":55},{"user_id":549,"name":"IM HERE FOR BP","steam_id":76561198067231684,"connected_time":2086000000000,"state":"active","ping":94},{"user_id":541,"name":"Iggy","steam_id":76561198059602545,"connected_time":2596000000000,"state":"active","ping":51}]},{"server_id":106,"name":"Uncletopia | Chicago | 2 | All Maps","name_short":"chi-2","host":"chi-1.us.uncletopia.com","port":27025,"enabled":true,"region":"us-central","cc":"us","latitude":41.881832,"longitude":-87.62318,"reserved":0,"last_update":"0001-01-01T00:00:00Z","name_a2s":"Uncletopia | Chicago | 2 | All Maps","protocol":17,"map":"pl_snowycoast","folder":"tf","game":"Team Fortress","app_id":440,"player_count":24,"max_players":24,"Bots":0,"server_type":"Dedicated","server_os":"Linux","password":true,"vac":true,"version":"7742253","steam_id":85568392924469985,"keywords":["nocrits","nodmgspread","payload","uncletopia"],"game_id":440,"stv_port":27026,"stv_name":"Uncletopia | Chicago | 2 | All Maps | STV","players":[{"user_id":650,"name":"Luna_Saintclaire","steam_id":76561198114131224,"connected_time":307000000000,"state":"active","ping":61},{"user_id":631,"name":"Vision Spiya","steam_id":76561198095923905,"connected_time":1756000000000,"state":"active","ping":46},{"user_id":643,"name":"Chicanery Grindset","steam_id":76561198282965733,"connected_time":1009000000000,"state":"active","ping":60},{"user_id":651,"name":"Ken","steam_id":76561198233988068,"connected_time":278000000000,"state":"active","ping":64},{"user_id":607,"name":"James","steam_id":76561198081313916,"connected_time":2461000000000,"state":"active","ping":73},{"user_id":652,"name":"callum","steam_id":76561198070918366,"connected_time":7000000000,"state":"spawning","ping":75},{"user_id":604,"name":"8hu","steam_id":76561198095415292,"connected_time":2665000000000,"state":"active","ping":66},{"user_id":629,"name":"tim-","steam_id":76561199119101315,"connected_time":1815000000000,"state":"active","ping":67},{"user_id":638,"name":"dzcreeper","steam_id":76561198072250723,"connected_time":1316000000000,"state":"active","ping":81},{"user_id":594,"name":"Shaper Loks","steam_id":76561198207958144,"connected_time":3715000000000,"state":"active","ping":56},{"user_id":609,"name":"Rockgraham101","steam_id":76561198171740458,"connected_time":2425000000000,"state":"active","ping":83},{"user_id":641,"name":"Rudy","steam_id":76561198013456828,"connected_time":1087000000000,"state":"active","ping":58},{"user_id":653,"name":"OneFestiveCorvid","steam_id":76561199012953221,"connected_time":6000000000,"state":"spawning","ping":183},{"user_id":614,"name":"Apetometrist","steam_id":76561198045391635,"connected_time":2136000000000,"state":"active","ping":47},{"user_id":630,"name":"Jesus","steam_id":76561198018890911,"connected_time":1803000000000,"state":"active","ping":76},{"user_id":649,"name":"Glep","steam_id":76561199112781337,"connected_time":640000000000,"state":"active","ping":87},{"user_id":617,"name":"Mateo :-)","steam_id":76561199084303314,"connected_time":2078000000000,"state":"active","ping":124},{"user_id":619,"name":"Herr M√ºller","steam_id":76561198064876829,"connected_time":2051000000000,"state":"active","ping":88},{"user_id":623,"name":"This Isn't a Portal Gun...","steam_id":76561198045821773,"connected_time":1974000000000,"state":"active","ping":61},{"user_id":621,"name":"i suffer from ligma","steam_id":76561199158496518,"connected_time":2033000000000,"state":"active","ping":79},{"user_id":645,"name":"hyperledz","steam_id":76561198807917808,"connected_time":830000000000,"state":"active","ping":61},{"user_id":625,"name":"https://www.dmv.ca.gov/portal/","steam_id":76561198207253121,"connected_time":1914000000000,"state":"active","ping":89},{"user_id":636,"name":"Coupon","steam_id":76561198111947598,"connected_time":1418000000000,"state":"active","ping":96},{"user_id":648,"name":"DJ Spit","steam_id":76561198186637025,"connected_time":675000000000,"state":"active","ping":72}]},{"server_id":402,"name":"Uncletopia | Chicago | 3 | All Maps","name_short":"chi-3","host":"chi-1.us.uncletopia.com","port":27035,"enabled":true,"region":"us-central","cc":"us","latitude":41.881832,"longitude":-87.62318,"reserved":0,"last_update":"0001-01-01T00:00:00Z","name_a2s":"Uncletopia | Chicago | 3 | All Maps","protocol":17,"map":"koth_viaduct","folder":"tf","game":"Team Fortress","app_id":440,"player_count":24,"max_players":24,"Bots":0,"server_type":"Dedicated","server_os":"Linux","password":true,"vac":true,"version":"7742253","steam_id":85568392924515191,"keywords":["cp","nocrits","nodmgspread","uncletopia"],"game_id":440,"stv_port":27036,"stv_name":"Uncletopia | Chicago | 3 | All Maps | STV","players":[{"user_id":357,"name":"Gian","steam_id":76561198041434512,"connected_time":2337000000000,"state":"active","ping":110},{"user_id":393,"name":"Trevorticus","steam_id":76561198220211669,"connected_time":101000000000,"state":"active","ping":68},{"user_id":311,"name":"boofgall319","steam_id":76561199122095813,"connected_time":4664000000000,"state":"active","ping":70},{"user_id":383,"name":"Fimbulvetr","steam_id":76561198108264202,"connected_time":347000000000,"state":"active","ping":56},{"user_id":352,"name":"Ludidas","steam_id":76561198156272124,"connected_time":2654000000000,"state":"active","ping":47},{"user_id":335,"name":"Tienne","steam_id":76561198359050265,"connected_time":3057000000000,"state":"active","ping":46},{"user_id":381,"name":"Critscare","steam_id":76561198087712508,"connected_time":359000000000,"state":"active","ping":42},{"user_id":376,"name":"Thurricane","steam_id":76561198410724666,"connected_time":794000000000,"state":"active","ping":68},{"user_id":385,"name":"eryn üó∫","steam_id":76561198004433070,"connected_time":325000000000,"state":"active","ping":83},{"user_id":298,"name":"Bee_Pirate","steam_id":76561199000599111,"connected_time":5712000000000,"state":"active","ping":93},{"user_id":264,"name":"aisu","steam_id":76561198043768507,"connected_time":7405000000000,"state":"active","ping":69},{"user_id":358,"name":"Navigatxr","steam_id":76561199185153789,"connected_time":2205000000000,"state":"active","ping":90},{"user_id":392,"name":"Inevitable","steam_id":76561198210050169,"connected_time":132000000000,"state":"active","ping":68},{"user_id":371,"name":"bench","steam_id":76561198055339968,"connected_time":1280000000000,"state":"active","ping":78},{"user_id":384,"name":"The Muffin Man","steam_id":76561199088286427,"connected_time":344000000000,"state":"active","ping":80},{"user_id":313,"name":"Scok","steam_id":76561198079991614,"connected_time":4624000000000,"state":"active","ping":91},{"user_id":391,"name":"Powerblade","steam_id":76561198907627754,"connected_time":192000000000,"state":"active","ping":85},{"user_id":386,"name":"BookBurner23","steam_id":76561198034771185,"connected_time":313000000000,"state":"active","ping":65},{"user_id":373,"name":"RaddahRaddah","steam_id":76561198194462829,"connected_time":1030000000000,"state":"active","ping":57},{"user_id":387,"name":"Jizo","steam_id":76561198038080028,"connected_time":276000000000,"state":"active","ping":59},{"user_id":394,"name":"lil bro","steam_id":76561198031675881,"connected_time":33000000000,"state":"active","ping":65},{"user_id":390,"name":"The Notorious RBG","steam_id":76561198014275148,"connected_time":208000000000,"state":"active","ping":78},{"user_id":377,"name":"NeoNova6107","steam_id":76561198158186864,"connected_time":676000000000,"state":"active","ping":82},{"user_id":346,"name":"Mail Delivery","steam_id":76561198290046318,"connected_time":2907000000000,"state":"active","ping":62}]},{"server_id":403,"name":"Uncletopia | Chicago | 4 | All Maps","name_short":"chi-4","host":"chi-1.us.uncletopia.com","port":27045,"enabled":true,"region":"us-central","cc":"us","latitude":41.881832,"longitude":-87.62318,"reserved":0,"last_update":"0001-01-01T00:00:00Z","name_a2s":"Uncletopia | Chicago | 4 | All Maps","protocol":17,"map":"cp_sunshine","folder":"tf","game":"Team Fortress","app_id":440,"player_count":24,"max_players":24,"Bots":0,"server_type":"Dedicated","server_os":"Linux","password":true,"vac":true,"version":"7742253","steam_id":85568392924515193,"keywords":["cp","nocrits","nodmgspread","uncletopia"],"game_id":440,"stv_port":27046,"stv_name":"Uncletopia | Chicago | 4 | All Maps | STV","players":[{"user_id":650,"name":"BrownMemeSter","steam_id":76561198113745020,"connected_time":517000000000,"state":"active","ping":62},{"user_id":651,"name":"esog","steam_id":76561198250069226,"connected_time":513000000000,"state":"active","ping":69},{"user_id":629,"name":"Fever Dreams","steam_id":76561198116614620,"connected_time":2905000000000,"state":"active","ping":68},{"user_id":652,"name":"moonage72","steam_id":76561199187008629,"connected_time":498000000000,"state":"active","ping":60},{"user_id":608,"name":"Queen Frau the Round","steam_id":76561197999942134,"connected_time":3709000000000,"state":"active","ping":43},{"user_id":653,"name":"scrump","steam_id":76561198105497994,"connected_time":484000000000,"state":"active","ping":75},{"user_id":654,"name":"Tesco Glizzy","steam_id":76561198153085632,"connected_time":446000000000,"state":"active","ping":63},{"user_id":647,"name":"Spirosity","steam_id":76561198013485753,"connected_time":590000000000,"state":"active","ping":67},{"user_id":604,"name":"Simply G","steam_id":76561199221934609,"connected_time":3893000000000,"state":"active","ping":111},{"user_id":646,"name":"8core","steam_id":76561198131163454,"connected_time":834000000000,"state":"active","ping":84},{"user_id":667,"name":"Rainbow","steam_id":76561199036658795,"connected_time":38000000000,"state":"spawning","ping":74},{"user_id":625,"name":"ShadBad","steam_id":76561198248287390,"connected_time":3240000000000,"state":"active","ping":100},{"user_id":631,"name":"daniella ^w^","steam_id":76561198368663825,"connected_time":2878000000000,"state":"active","ping":82},{"user_id":656,"name":"Not_Luke_Again","steam_id":76561198180891187,"connected_time":423000000000,"state":"active","ping":70},{"user_id":640,"name":"Rukks","steam_id":76561197993918954,"connected_time":1603000000000,"state":"active","ping":67},{"user_id":612,"name":"ReynoldsWrap","steam_id":76561198319920033,"connected_time":3683000000000,"state":"active","ping":66},{"user_id":662,"name":"Strangelove","steam_id":76561198353773611,"connected_time":345000000000,"state":"active","ping":81},{"user_id":609,"name":"Hameas","steam_id":76561198195620918,"connected_time":3706000000000,"state":"active","ping":112},{"user_id":615,"name":"Money Collector","steam_id":76561198046249467,"connected_time":3661000000000,"state":"active","ping":49},{"user_id":666,"name":"Chesh","steam_id":76561197990316722,"connected_time":190000000000,"state":"active","ping":79},{"user_id":659,"name":"TheChickenChuck","steam_id":76561199192686708,"connected_time":393000000000,"state":"active","ping":92},{"user_id":663,"name":"Adawnby","steam_id":76561198103057295,"connected_time":332000000000,"state":"active","ping":83},{"user_id":664,"name":"esoobac","steam_id":76561198010370396,"connected_time":314000000000,"state":"active","ping":47},{"user_id":645,"name":"sly1","steam_id":76561198049014977,"connected_time":1066000000000,"state":"active","ping":69}]},{"server_id":36,"name":"Uncletopia | Chicago | 5 | All Maps","name_short":"chi-5","host":"chi-2.us.uncletopia.com","port":27015,"enabled":true,"region":"us-central","cc":"us","latitude":41.881832,"longitude":-87.62318,"reserved":0,"last_update":"0001-01-01T00:00:00Z","name_a2s":"Uncletopia | Chicago | 5 | All Maps","protocol":17,"map":"pl_pier","folder":"tf","game":"Team Fortress","app_id":440,"player_count":0,"max_players":24,"Bots":0,"server_type":"Dedicated","server_os":"Linux","password":true,"vac":true,"version":"7742253","steam_id":85568392924866362,"keywords":["nocrits","nodmgspread","payload","uncletopia"],"game_id":440,"stv_port":27016,"stv_name":"Uncletopia | Chicago | 5 | All Maps | STV","players":null},{"server_id":37,"name":"Uncletopia | Chicago | 6 | All Maps","name_short":"chi-6","host":"chi-2.us.uncletopia.com","port":27025,"enabled":true,"region":"us-central","cc":"us","latitude":41.881832,"longitude":-87.62318,"reserved":0,"last_update":"0001-01-01T00:00:00Z","name_a2s":"Uncletopia | Chicago | 6 | All Maps","protocol":17,"map":"pl_hoodoo_final","folder":"tf","game":"Team Fortress","app_id":440,"player_count":24,"max_players":24,"Bots":0,"server_type":"Dedicated","server_os":"Linux","password":true,"vac":true,"version":"7742253","steam_id":85568392924866363,"keywords":["nocrits","nodmgspread","payload","uncletopia"],"game_id":440,"stv_port":27026,"stv_name":"Uncletopia | Chicago | 6 | All Maps | STV","players":[{"user_id":238,"name":"Sharmat","steam_id":76561198103492042,"connected_time":3168000000000,"state":"active","ping":74},{"user_id":207,"name":"GreekGoat_Coffee","steam_id":76561198129331088,"connected_time":4217000000000,"state":"active","ping":44},{"user_id":266,"name":"KEEN","steam_id":76561197988436984,"connected_time":970000000000,"state":"active","ping":62},{"user_id":256,"name":"kick buttowski","steam_id":76561198331141369,"connected_time":1385000000000,"state":"active","ping":60},{"user_id":224,"name":"maS","steam_id":76561198033846407,"connected_time":3771000000000,"state":"active","ping":40},{"user_id":257,"name":"Marc Antony","steam_id":76561198011366517,"connected_time":1256000000000,"state":"active","ping":58},{"user_id":260,"name":"Varth Dader","steam_id":76561198134195099,"connected_time":1144000000000,"state":"active","ping":70},{"user_id":258,"name":"AlphaTwo3","steam_id":76561198034696854,"connected_time":1247000000000,"state":"active","ping":56},{"user_id":254,"name":"The Lonely Croc","steam_id":76561198123241396,"connected_time":1609000000000,"state":"active","ping":77},{"user_id":264,"name":"Nightfall","steam_id":76561198169718867,"connected_time":1003000000000,"state":"active","ping":117},{"user_id":239,"name":"hyperthermic","steam_id":76561198384238790,"connected_time":3164000000000,"state":"active","ping":66},{"user_id":261,"name":"Room","steam_id":76561199174579733,"connected_time":1139000000000,"state":"active","ping":78},{"user_id":268,"name":"SKIN IS WHERE THE FLAVOR IS","steam_id":76561198115842661,"connected_time":734000000000,"state":"active","ping":67},{"user_id":263,"name":"ApertureCity","steam_id":76561198004153607,"connected_time":1044000000000,"state":"active","ping":73},{"user_id":274,"name":"Sen","steam_id":76561198038686030,"connected_time":489000000000,"state":"active","ping":73},{"user_id":249,"name":"Round King","steam_id":76561198273185290,"connected_time":2811000000000,"state":"active","ping":96},{"user_id":271,"name":"DreamKiller","steam_id":76561198028580715,"connected_time":589000000000,"state":"active","ping":138},{"user_id":227,"name":"Hoxatron","steam_id":76561198136288818,"connected_time":3724000000000,"state":"active","ping":74},{"user_id":246,"name":"Bodacious Meat","steam_id":76561198058742270,"connected_time":2970000000000,"state":"active","ping":51},{"user_id":276,"name":"Ace Chromatica","steam_id":76561198042211131,"connected_time":147000000000,"state":"active","ping":50},{"user_id":230,"name":"Bottle","steam_id":76561198044031558,"connected_time":3654000000000,"state":"active","ping":65},{"user_id":267,"name":"Pierce","steam_id":76561198043747953,"connected_time":940000000000,"state":"active","ping":60},{"user_id":273,"name":"Stoopnagle","steam_id":76561198011942560,"connected_time":562000000000,"state":"active","ping":80},{"user_id":177,"name":"Space‚≠êTaffy","steam_id":76561198002271720,"connected_time":6182000000000,"state":"active","ping":65}]},{"server_id":38,"name":"Uncletopia | Chicago | 7 | Stopwatch Beta","name_short":"chi-7","host":"chi-2.us.uncletopia.com","port":27035,"enabled":true,"region":"us-central","cc":"us","latitude":41.881832,"longitude":-87.62318,"reserved":0,"last_update":"0001-01-01T00:00:00Z","name_a2s":"Uncletopia | Chicago | 7 | Stopwatch Beta","protocol":17,"map":"workshop/koth_ashville_final.ugc2130459942","folder":"tf","game":"Team Fortress","app_id":440,"player_count":8,"max_players":24,"Bots":0,"server_type":"Dedicated","server_os":"Linux","password":true,"vac":true,"version":"7742253","steam_id":85568392924866364,"keywords":["cp","nocrits","nodmgspread","uncletopia"],"game_id":440,"stv_port":27036,"stv_name":"Uncletopia | Chicago | 7 | Stopwatch Beta | STV","players":[{"user_id":36,"name":"illious","steam_id":76561198169925494,"connected_time":3492000000000,"state":"active","ping":70},{"user_id":37,"name":"KoolBucky","steam_id":76561198147927648,"connected_time":3473000000000,"state":"active","ping":88},{"user_id":38,"name":"LinkFromDaPast","steam_id":76561198211437197,"connected_time":2604000000000,"state":"active","ping":71},{"user_id":39,"name":"chadhenry610","steam_id":76561199453383832,"connected_time":2283000000000,"state":"active","ping":97},{"user_id":40,"name":"6Dnine","steam_id":76561198955884070,"connected_time":1783000000000,"state":"active","ping":99},{"user_id":41,"name":"Stop Tryharding :(","steam_id":76561199130074444,"connected_time":1378000000000,"state":"active","ping":70},{"user_id":42,"name":"Snow‚òÜ","steam_id":76561198031290573,"connected_time":903000000000,"state":"active","ping":57},{"user_id":46,"name":"Turbocat","steam_id":76561198145431353,"connected_time":60000000000,"state":"active","ping":53}]},{"server_id":39,"name":"Uncletopia | Chicago | 8 | Community","name_short":"chi-8","host":"chi-2.us.uncletopia.com","port":27045,"enabled":true,"region":"us-central","cc":"us","latitude":41.881832,"longitude":-87.62318,"reserved":0,"last_update":"0001-01-01T00:00:00Z","name_a2s":"Uncletopia | Chicago | 8 | Community","protocol":17,"map":"workshop/cp_logjam_rc12.ugc454812035","folder":"tf","game":"Team Fortress","app_id":440,"player_count":0,"max_players":24,"Bots":0,"server_type":"Dedicated","server_os":"Linux","password":true,"vac":true,"version":"7742253","steam_id":85568392924866365,"keywords":["cp","nocrits","nodmgspread","uncletopia"],"game_id":440,"stv_port":27046,"stv_name":"Uncletopia | Chicago | 8 | Community | STV","players":null},{"server_id":8,"name":"Uncletopia | Dallas | 1 | All Maps","name_short":"dal-1","host":"dal-1.us.uncletopia.com","port":27015,"enabled":true,"region":"us-central","cc":"us","latitude":32.779167,"longitude":-96.80889,"reserved":0,"last_update":"0001-01-01T00:00:00Z","name_a2s":"Uncletopia | Dallas | 1 | All Maps","protocol":17,"map":"pl_badwater","folder":"tf","game":"Team Fortress","app_id":440,"player_count":20,"max_players":24,"Bots":0,"server_type":"Dedicated","server_os":"Linux","password":true,"vac":true,"version":"7742253","steam_id":85568392924469986,"keywords":["nocrits","nodmgspread","payload","uncletopia"],"game_id":440,"stv_port":27016,"stv_name":"Uncletopia | Dallas | 1 | All Maps | STV","players":[{"user_id":503,"name":"pinglefingle","steam_id":76561198216580197,"connected_time":3634000000000,"state":"active","ping":47},{"user_id":552,"name":"XNAERINN","steam_id":76561198821785172,"connected_time":716000000000,"state":"active","ping":78},{"user_id":554,"name":"E","steam_id":76561198238236044,"connected_time":643000000000,"state":"active","ping":65},{"user_id":476,"name":"A Gamer [F2P]","steam_id":76561198138712892,"connected_time":5554000000000,"state":"active","ping":37},{"user_id":551,"name":"MF JERM","steam_id":76561199082395493,"connected_time":790000000000,"state":"active","ping":51},{"user_id":496,"name":"Ballista","steam_id":76561197983182562,"connected_time":4057000000000,"state":"active","ping":46},{"user_id":564,"name":"ChipperGunslinger","steam_id":76561199100483140,"connected_time":52000000000,"state":"active","ping":60},{"user_id":566,"name":"I am made of paper","steam_id":76561199173608286,"connected_time":17000000000,"state":"active","ping":49},{"user_id":559,"name":"eelmealdeal","steam_id":76561198852928422,"connected_time":205000000000,"state":"active","ping":65},{"user_id":558,"name":"aphip","steam_id":76561198084621244,"connected_time":392000000000,"state":"active","ping":74},{"user_id":530,"name":"cheetaz","steam_id":76561198224614084,"connected_time":2244000000000,"state":"active","ping":76},{"user_id":545,"name":"remedu","steam_id":76561198005152587,"connected_time":1542000000000,"state":"active","ping":38},{"user_id":536,"name":"Joocebox","steam_id":76561198259997021,"connected_time":1871000000000,"state":"active","ping":75},{"user_id":435,"name":"G. Howard Dee","steam_id":76561198058382812,"connected_time":8885000000000,"state":"active","ping":62},{"user_id":531,"name":"Tommy da bird","steam_id":76561198136340711,"connected_time":2205000000000,"state":"active","ping":116},{"user_id":543,"name":"King Benis","steam_id":76561198012938481,"connected_time":1668000000000,"state":"active","ping":51},{"user_id":556,"name":"Nature's Cruelest Mistake","steam_id":76561198055163570,"connected_time":584000000000,"state":"active","ping":59},{"user_id":529,"name":"Anthid","steam_id":76561198074493797,"connected_time":2285000000000,"state":"active","ping":48},{"user_id":562,"name":"wizardheap","steam_id":76561198085951272,"connected_time":135000000000,"state":"active","ping":60},{"user_id":507,"name":"Jarate Jihadi","steam_id":76561197999837455,"connected_time":3425000000000,"state":"active","ping":72}]},{"server_id":108,"name":"Uncletopia | Dallas | 2 | All Maps","name_short":"dal-2","host":"dal-1.us.uncletopia.com","port":27025,"enabled":true,"region":"us-central","cc":"us","latitude":32.779167,"longitude":-96.80889,"reserved":0,"last_update":"0001-01-01T00:00:00Z","name_a2s":"Uncletopia | Dallas | 2 | All Maps","protocol":17,"map":"pl_pier","folder":"tf","game":"Team Fortress","app_id":440,"player_count":20,"max_players":24,"Bots":0,"server_type":"Dedicated","server_os":"Linux","password":true,"vac":true,"version":"7742253","steam_id":85568392924469988,"keywords":["nocrits","nodmgspread","payload","uncletopia"],"game_id":440,"stv_port":27026,"stv_name":"Uncletopia | Dallas | 2 | All Maps | STV","players":[{"user_id":618,"name":"SaulMan","steam_id":76561198131929494,"connected_time":99000000000,"state":"active","ping":64},{"user_id":612,"name":"Bean0914","steam_id":76561198261906023,"connected_time":349000000000,"state":"active","ping":93},{"user_id":614,"name":"Analander","steam_id":76561198051970128,"connected_time":165000000000,"state":"active","ping":58},{"user_id":615,"name":"Tcmano","steam_id":76561198057233847,"connected_time":149000000000,"state":"active","ping":76},{"user_id":616,"name":"pp","steam_id":76561198396247454,"connected_time":142000000000,"state":"active","ping":75},{"user_id":617,"name":"Sniper Monkey","steam_id":76561198334511480,"connected_time":137000000000,"state":"active","ping":63},{"user_id":619,"name":"Agent Bowtie","steam_id":76561198175839279,"connected_time":67000000000,"state":"active","ping":51},{"user_id":570,"name":"Logan601 #savetf2","steam_id":76561198263116731,"connected_time":3332000000000,"state":"active","ping":77},{"user_id":606,"name":"Oxbell","steam_id":76561198448173562,"connected_time":798000000000,"state":"active","ping":86},{"user_id":620,"name":"turveyy","steam_id":76561198283507975,"connected_time":54000000000,"state":"active","ping":92},{"user_id":546,"name":"Platinum","steam_id":76561198052463484,"connected_time":5630000000000,"state":"active","ping":102},{"user_id":621,"name":"spinach","steam_id":76561198166632959,"connected_time":54000000000,"state":"active","ping":77},{"user_id":622,"name":"grape","steam_id":76561198150447896,"connected_time":38000000000,"state":"active","ping":79},{"user_id":623,"name":"Keegan kid","steam_id":76561198254833029,"connected_time":36000000000,"state":"active","ping":65},{"user_id":540,"name":"LeFunnyMan","steam_id":76561199081645289,"connected_time":5999000000000,"state":"active","ping":54},{"user_id":624,"name":"baja blatsune miku","steam_id":76561198402783260,"connected_time":3000000000,"state":"spawning","ping":86},{"user_id":605,"name":"HyperOrange|#SaveTF2","steam_id":76561198068071327,"connected_time":817000000000,"state":"active","ping":82},{"user_id":582,"name":"GKX2004","steam_id":76561197968078240,"connected_time":2610000000000,"state":"active","ping":88},{"user_id":583,"name":"BlueSpy","steam_id":76561198134707089,"connected_time":2607000000000,"state":"active","ping":88},{"user_id":601,"name":"Dank Ghost","steam_id":76561198400690889,"connected_time":1175000000000,"state":"active","ping":72}]},{"server_id":5,"name":"Uncletopia | Frankfurt | 1 | All Maps","name_short":"frk-1","host":"frk-1.de.uncletopia.com","port":27015,"enabled":true,"region":"eu","cc":"de","latitude":50.110924,"longitude":8.682127,"reserved":0,"last_update":"0001-01-01T00:00:00Z","name_a2s":"Uncletopia | Frankfurt | 1 | All Maps","protocol":17,"map":"koth_cascade","folder":"tf","game":"Team Fortress","app_id":440,"player_count":0,"max_players":24,"Bots":0,"server_type":"Dedicated","server_os":"Linux","password":true,"vac":true,"version":"7742253","steam_id":85568392924469989,"keywords":["cp","nocrits","nodmgspread","uncletopia"],"game_id":440,"stv_port":27016,"stv_name":"Uncletopia | Frankfurt | 1 | All Maps | STV","players":null},{"server_id":110,"name":"Uncletopia | Frankfurt | 2 | All Maps","name_short":"frk-2","host":"frk-1.de.uncletopia.com","port":27025,"enabled":true,"region":"eu","cc":"de","latitude":50.110924,"longitude":8.682127,"reserved":0,"last_update":"0001-01-01T00:00:00Z","name_a2s":"Uncletopia | Frankfurt | 2 | All Maps","protocol":17,"map":"cp_process_final","folder":"tf","game":"Team Fortress","app_id":440,"player_count":0,"max_players":24,"Bots":0,"server_type":"Dedicated","server_os":"Linux","password":true,"vac":true,"version":"7742253","steam_id":85568392924469990,"keywords":["cp","nocrits","nodmgspread","uncletopia"],"game_id":440,"stv_port":27026,"stv_name":"Uncletopia | Frankfurt | 2 | All Maps | STV","players":null},{"server_id":308,"name":"Uncletopia | Frankfurt | 3 | All Maps","name_short":"frk-3","host":"frk-1.de.uncletopia.com","port":27035,"enabled":true,"region":"eu","cc":"de","latitude":50.110924,"longitude":8.682127,"reserved":0,"last_update":"0001-01-01T00:00:00Z","name_a2s":"Uncletopia | Frankfurt | 3 | All Maps","protocol":17,"map":"cp_snakewater_final1","folder":"tf","game":"Team Fortress","app_id":440,"player_count":0,"max_players":24,"Bots":0,"server_type":"Dedicated","server_os":"Linux","password":true,"vac":true,"version":"7742253","steam_id":85568392924504274,"keywords":["cp","nocrits","nodmgspread","uncletopia"],"game_id":440,"stv_port":27036,"stv_name":"Uncletopia | Frankfurt | 3 | All Maps | STV","players":null},{"server_id":309,"name":"Uncletopia | Frankfurt | 4 | All Maps","name_short":"frk-4","host":"frk-1.de.uncletopia.com","port":27045,"enabled":true,"region":"eu","cc":"de","latitude":50.110924,"longitude":8.682127,"reserved":0,"last_update":"0001-01-01T00:00:00Z","name_a2s":"Uncletopia | Frankfurt | 4 | All Maps","protocol":17,"map":"pl_snowycoast","folder":"tf","game":"Team Fortress","app_id":440,"player_count":0,"max_players":24,"Bots":0,"server_type":"Dedicated","server_os":"Linux","password":true,"vac":true,"version":"7742253","steam_id":85568392924504275,"keywords":["nocrits","nodmgspread","payload","uncletopia"],"game_id":440,"stv_port":27046,"stv_name":"Uncletopia | Frankfurt | 4 | All Maps | STV","players":null},{"server_id":310,"name":"Uncletopia | Frankfurt | 5 | All Maps","name_short":"frk-5","host":"frk-1.de.uncletopia.com","port":27055,"enabled":true,"region":"eu","cc":"de","latitude":50.110924,"longitude":8.682127,"reserved":0,"last_update":"0001-01-01T00:00:00Z","name_a2s":"Uncletopia | Frankfurt | 5 | All Maps","protocol":17,"map":"pl_pier","folder":"tf","game":"Team Fortress","app_id":440,"player_count":19,"max_players":24,"Bots":0,"server_type":"Dedicated","server_os":"Linux","password":true,"vac":true,"version":"7742253","steam_id":85568392924504277,"keywords":["nocrits","nodmgspread","payload","uncletopia"],"game_id":440,"stv_port":27056,"stv_name":"Uncletopia | Frankfurt | 5 | All Maps | STV","players":[{"user_id":736,"name":"DREADNAWGHT","steam_id":76561198000973506,"connected_time":67000000000,"state":"spawning","ping":65},{"user_id":733,"name":"Kalastajaeemeli","steam_id":76561198038848365,"connected_time":281000000000,"state":"active","ping":85},{"user_id":662,"name":"Minimi","steam_id":76561198873850443,"connected_time":6738000000000,"state":"active","ping":62},{"user_id":728,"name":"yuki","steam_id":76561198178754705,"connected_time":565000000000,"state":"active","ping":52},{"user_id":725,"name":"Sneaky boi","steam_id":76561199195985387,"connected_time":880000000000,"state":"active","ping":83},{"user_id":732,"name":"Mega Saturn","steam_id":76561198024750500,"connected_time":335000000000,"state":"active","ping":96},{"user_id":731,"name":"Pingutaro","steam_id":76561198112803718,"connected_time":457000000000,"state":"active","ping":72},{"user_id":734,"name":"Drunk Scottish Spyclops","steam_id":76561198019409997,"connected_time":172000000000,"state":"active","ping":57},{"user_id":711,"name":"Pirateer","steam_id":76561198017114970,"connected_time":2136000000000,"state":"active","ping":50},{"user_id":723,"name":"Flip","steam_id":76561198012142254,"connected_time":1087000000000,"state":"active","ping":56},{"user_id":713,"name":"dogfush79","steam_id":76561198013612846,"connected_time":2068000000000,"state":"active","ping":78},{"user_id":718,"name":"Sarip","steam_id":76561198113330438,"connected_time":1489000000000,"state":"active","ping":58},{"user_id":722,"name":"Cumbustible Punda #SaveTF2","steam_id":76561197974274677,"connected_time":1114000000000,"state":"active","ping":53},{"user_id":704,"name":"sam-","steam_id":76561198013770973,"connected_time":2548000000000,"state":"active","ping":74},{"user_id":735,"name":"Tzeentch","steam_id":76561198038862347,"connected_time":144000000000,"state":"active","ping":69},{"user_id":637,"name":"thomas :-)","steam_id":76561198355097756,"connected_time":9811000000000,"state":"active","ping":60},{"user_id":653,"name":"Grand Wizard","steam_id":76561199414716848,"connected_time":7351000000000,"state":"active","ping":75},{"user_id":727,"name":"–•–ª–µ–±—É—à–µ–∫","steam_id":76561198827655325,"connected_time":826000000000,"state":"active","ping":148},{"user_id":706,"name":"ItsJeffTF2","steam_id":76561199119088881,"connected_time":2448000000000,"state":"active","ping":163}]},{"server_id":311,"name":"Uncletopia | Frankfurt | 6 | All Maps","name_short":"frk-6","host":"frk-1.de.uncletopia.com","port":27065,"enabled":true,"region":"eu","cc":"de","latitude":50.110924,"longitude":8.682127,"reserved":0,"last_update":"0001-01-01T00:00:00Z","name_a2s":"Uncletopia | Frankfurt | 6 | All Maps","protocol":17,"map":"cp_process_final","folder":"tf","game":"Team Fortress","app_id":440,"player_count":0,"max_players":24,"Bots":0,"server_type":"Dedicated","server_os":"Linux","password":true,"vac":true,"version":"7742253","steam_id":85568392924504278,"keywords":["cp","nocrits","nodmgspread","uncletopia"],"game_id":440,"stv_port":27066,"stv_name":"Uncletopia | Frankfurt | 6 | All Maps | STV","players":null},{"server_id":23,"name":"Uncletopia | Frankfurt | 7 | Stopwatch Beta","name_short":"frk-7","host":"frk-1.de.uncletopia.com","port":27075,"enabled":true,"region":"eu","cc":"de","latitude":50.110924,"longitude":8.682127,"reserved":0,"last_update":"0001-01-01T00:00:00Z","name_a2s":"Uncletopia | Frankfurt | 7 | Stopwatch Beta","protocol":17,"map":"pl_badwater","folder":"tf","game":"Team Fortress","app_id":440,"player_count":0,"max_players":24,"Bots":0,"server_type":"Dedicated","server_os":"Linux","password":true,"vac":true,"version":"7742253","steam_id":85568392924742827,"keywords":["nocrits","nodmgspread","payload","uncletopia"],"game_id":440,"stv_port":27076,"stv_name":"Uncletopia | Frankfurt | 7 | Stopwatch Beta | STV","players":null},{"server_id":24,"name":"Uncletopia | Frankfurt | 8 | Community","name_short":"frk-8","host":"frk-1.de.uncletopia.com","port":27085,"enabled":true,"region":"eu","cc":"de","latitude":50.110924,"longitude":8.682127,"reserved":0,"last_update":"0001-01-01T00:00:00Z","name_a2s":"Uncletopia | Frankfurt | 8 | Community","protocol":17,"map":"workshop/pl_vigil_rc9.ugc1266210012","folder":"tf","game":"Team Fortress","app_id":440,"player_count":0,"max_players":24,"Bots":0,"server_type":"Dedicated","server_os":"Linux","password":true,"vac":true,"version":"7742253","steam_id":85568392924742828,"keywords":["nocrits","nodmgspread","payload","uncletopia"],"game_id":440,"stv_port":27086,"stv_name":"Uncletopia | Frankfurt | 8 | Community | STV","players":null},{"server_id":202,"name":"Uncletopia | Hong Kong | 1 | All Maps","name_short":"hgk-1","host":"hgk-1.hk.uncletopia.com","port":27015,"enabled":true,"region":"asia","cc":"hk","latitude":22.302711,"longitude":114.177216,"reserved":0,"last_update":"0001-01-01T00:00:00Z","name_a2s":"Uncletopia | Hong Kong | 1 | All Maps","protocol":17,"map":"pl_borneo","folder":"tf","game":"Team Fortress","app_id":440,"player_count":24,"max_players":24,"Bots":0,"server_type":"Dedicated","server_os":"Linux","password":true,"vac":true,"version":"7742253","steam_id":85568392924494504,"keywords":["nocrits","nodmgspread","payload","uncletopia"],"game_id":440,"stv_port":27016,"stv_name":"Uncletopia | Hong Kong | 1 | All Maps | STV","players":[{"user_id":95,"name":"p1st0n","steam_id":76561198992723983,"connected_time":942000000000,"state":"active","ping":93},{"user_id":91,"name":"ÂØπ‰∏çËµ∑,Ëøô‰∏™Áî®Êà∑‰∏çÂ≠òÂú®","steam_id":76561199073796475,"connected_time":1304000000000,"state":"active","ping":115},{"user_id":59,"name":"qb","steam_id":76561198412329672,"connected_time":3229000000000,"state":"active","ping":95},{"user_id":99,"name":"alphakennybuddy","steam_id":76561199219625644,"connected_time":732000000000,"state":"active","ping":112},{"user_id":111,"name":"Dr. Plonker","steam_id":76561199056960214,"connected_time":14000000000,"state":"active","ping":131},{"user_id":100,"name":"gob lin","steam_id":76561198379597982,"connected_time":695000000000,"state":"active","ping":94},{"user_id":97,"name":"lettuce at 58p","steam_id":76561199401283123,"connected_time":770000000000,"state":"active","ping":92},{"user_id":66,"name":"neth","steam_id":76561198217995369,"connected_time":2936000000000,"state":"active","ping":69},{"user_id":67,"name":"ketsu","steam_id":76561197966171554,"connected_time":2844000000000,"state":"active","ping":106},{"user_id":19,"name":"screaming sniper","steam_id":76561199085568674,"connected_time":6019000000000,"state":"active","ping":67},{"user_id":89,"name":"\"SKS\"","steam_id":76561198187995386,"connected_time":1399000000000,"state":"active","ping":79},{"user_id":98,"name":"prod.nxstvl","steam_id":76561198964234253,"connected_time":742000000000,"state":"active","ping":70},{"user_id":75,"name":"The Cake is a lie","steam_id":76561198190738610,"connected_time":1961000000000,"state":"active","ping":103},{"user_id":76,"name":"momosneakeradventure","steam_id":76561199046440440,"connected_time":1910000000000,"state":"active","ping":41},{"user_id":105,"name":"Cringey Weeb","steam_id":76561198885579560,"connected_time":500000000000,"state":"active","ping":65},{"user_id":102,"name":"‰ªôÂ•≥Â§¥Â≠ê‰∫éË∞¶","steam_id":76561199031075505,"connected_time":574000000000,"state":"active","ping":95},{"user_id":79,"name":"bad at everything","steam_id":76561199378524169,"connected_time":1814000000000,"state":"active","ping":118},{"user_id":84,"name":"defultbot(jk)","steam_id":76561199216945880,"connected_time":1566000000000,"state":"active","ping":121},{"user_id":104,"name":"RarePlanet","steam_id":76561198139971538,"connected_time":540000000000,"state":"active","ping":68},{"user_id":96,"name":"Noyour","steam_id":76561198323259830,"connected_time":830000000000,"state":"active","ping":109},{"user_id":86,"name":"Zacy","steam_id":76561198114841670,"connected_time":1516000000000,"state":"active","ping":67},{"user_id":90,"name":"derek.patriarca30","steam_id":76561199427230206,"connected_time":1344000000000,"state":"active","ping":64},{"user_id":108,"name":"clori","steam_id":76561199146847474,"connected_time":175000000000,"state":"active","ping":76},{"user_id":109,"name":"JayJ","steam_id":76561198324008555,"connected_time":173000000000,"state":"active","ping":69}]},{"server_id":1,"name":"Uncletopia | Los Angeles | 1 | All Maps","name_short":"lax-1","host":"lax-1.us.uncletopia.com","port":27015,"enabled":true,"region":"us-west","cc":"us","latitude":33.94279,"longitude":-118.41004,"reserved":0,"last_update":"0001-01-01T00:00:00Z","name_a2s":"Uncletopia | Los Angeles | 1 | All Maps","protocol":17,"map":"pl_snowycoast","folder":"tf","game":"Team Fortress","app_id":440,"player_count":24,"max_players":24,"Bots":0,"server_type":"Dedicated","server_os":"Linux","password":true,"vac":true,"version":"7742253","steam_id":85568392924469991,"keywords":["nocrits","nodmgspread","payload","uncletopia"],"game_id":440,"stv_port":27016,"stv_name":"Uncletopia | Los Angeles | 1 | All Maps | STV","players":[{"user_id":520,"name":"ggrieger","steam_id":76561198066918125,"connected_time":189000000000,"state":"active","ping":101},{"user_id":511,"name":"brutal","steam_id":76561199122497648,"connected_time":571000000000,"state":"active","ping":57},{"user_id":517,"name":"MR.meeseeks","steam_id":76561198294943420,"connected_time":368000000000,"state":"active","ping":109},{"user_id":412,"name":"Edstroyer","steam_id":76561198186877082,"connected_time":7813000000000,"state":"active","ping":64},{"user_id":504,"name":"3.dlc","steam_id":76561198234377776,"connected_time":763000000000,"state":"active","ping":49},{"user_id":502,"name":"RandomInternaut","steam_id":76561199209011968,"connected_time":840000000000,"state":"active","ping":151},{"user_id":516,"name":"Moonflower ‚ú¶","steam_id":76561198191782483,"connected_time":405000000000,"state":"active","ping":54},{"user_id":498,"name":"a man with a pan","steam_id":76561198838214873,"connected_time":904000000000,"state":"active","ping":131},{"user_id":521,"name":"playa","steam_id":76561199245670274,"connected_time":177000000000,"state":"active","ping":50},{"user_id":509,"name":"DAMN. reco","steam_id":76561198177700859,"connected_time":635000000000,"state":"active","ping":194},{"user_id":489,"name":"corbenis","steam_id":76561199012442511,"connected_time":2405000000000,"state":"active","ping":58},{"user_id":514,"name":"qt wavyz","steam_id":76561199060668138,"connected_time":482000000000,"state":"active","ping":95},{"user_id":406,"name":"Drakon","steam_id":76561198078210822,"connected_time":8197000000000,"state":"active","ping":59},{"user_id":507,"name":"d!eing pigs Wh3n?","steam_id":76561198963410515,"connected_time":654000000000,"state":"active","ping":106},{"user_id":499,"name":"Ferret","steam_id":76561199071136530,"connected_time":896000000000,"state":"active","ping":75},{"user_id":515,"name":"FiddyFoMike","steam_id":76561198057072581,"connected_time":437000000000,"state":"active","ping":56},{"user_id":508,"name":"Kylar","steam_id":76561198196979431,"connected_time":645000000000,"state":"active","ping":69},{"user_id":518,"name":"[chef] iron","steam_id":76561197970888616,"connected_time":312000000000,"state":"active","ping":89},{"user_id":512,"name":"Micah","steam_id":76561198006837982,"connected_time":571000000000,"state":"active","ping":114},{"user_id":522,"name":"eggs","steam_id":76561199058319534,"connected_time":133000000000,"state":"active","ping":108},{"user_id":523,"name":"ChickenKnight","steam_id":76561198244527526,"connected_time":124000000000,"state":"active","ping":67},{"user_id":524,"name":"KaleidoscopeOk7981","steam_id":76561198110449520,"connected_time":70000000000,"state":"active","ping":96},{"user_id":526,"name":"Frongus","steam_id":76561197979056451,"connected_time":8000000000,"state":"spawning","ping":261},{"user_id":527,"name":"S p a f f y","steam_id":76561198047892151,"connected_time":3000000000,"state":"spawning","ping":64}]},{"server_id":112,"name":"Uncletopia | Los Angeles | 2 | All Maps","name_short":"lax-2","host":"lax-1.us.uncletopia.com","port":27025,"enabled":true,"region":"us-west","cc":"us","latitude":33.94279,"longitude":-118.41004,"reserved":0,"last_update":"0001-01-01T00:00:00Z","name_a2s":"Uncletopia | Los Angeles | 2 | All Maps","protocol":17,"map":"koth_highpass","folder":"tf","game":"Team Fortress","app_id":440,"player_count":0,"max_players":24,"Bots":0,"server_type":"Dedicated","server_os":"Linux","password":true,"vac":true,"version":"7742253","steam_id":85568392924469992,"keywords":["cp","nocrits","nodmgspread","uncletopia"],"game_id":440,"stv_port":27026,"stv_name":"Uncletopia | Los Angeles | 2 | All Maps | STV","players":null},{"server_id":324,"name":"Uncletopia | Los Angeles | 3 | All Maps","name_short":"lax-3","host":"lax-1.us.uncletopia.com","port":27035,"enabled":true,"region":"us-west","cc":"us","latitude":33.94279,"longitude":-118.41004,"reserved":0,"last_update":"0001-01-01T00:00:00Z","name_a2s":"Uncletopia | Los Angeles | 3 | All Maps","protocol":17,"map":"pl_badwater","folder":"tf","game":"Team Fortress","app_id":440,"player_count":24,"max_players":24,"Bots":0,"server_type":"Dedicated","server_os":"Linux","password":true,"vac":true,"version":"7742253","steam_id":85568392924510198,"keywords":["nocrits","nodmgspread","payload","uncletopia"],"game_id":440,"stv_port":27036,"stv_name":"Uncletopia | Los Angeles | 3 | All Maps | STV","players":[{"user_id":27,"name":"Captin_Ciyro","steam_id":76561198861899909,"connected_time":2577000000000,"state":"active","ping":57},{"user_id":29,"name":"WELCOME TO WARIO WORLD!!!","steam_id":76561199118711243,"connected_time":2431000000000,"state":"active","ping":57},{"user_id":30,"name":"Bandanadee#SaveTF2","steam_id":76561199014194373,"connected_time":2430000000000,"state":"active","ping":126},{"user_id":31,"name":"hoodieguy","steam_id":76561199086050172,"connected_time":2341000000000,"state":"active","ping":89},{"user_id":36,"name":"Panzerschreck Bath Water","steam_id":76561198178133625,"connected_time":2107000000000,"state":"active","ping":31},{"user_id":37,"name":"Waffle Wannabe","steam_id":76561198064510650,"connected_time":2089000000000,"state":"active","ping":108},{"user_id":44,"name":"DocDankDandy","steam_id":76561197999440195,"connected_time":1228000000000,"state":"active","ping":31},{"user_id":58,"name":"Dusty","steam_id":76561198428625179,"connected_time":142000000000,"state":"active","ping":67},{"user_id":39,"name":"Loreknight","steam_id":76561198121158364,"connected_time":1702000000000,"state":"active","ping":75},{"user_id":41,"name":"RailRunner66","steam_id":76561198053779091,"connected_time":1622000000000,"state":"active","ping":101},{"user_id":42,"name":"xlesz","steam_id":76561199020119161,"connected_time":1558000000000,"state":"active","ping":45},{"user_id":49,"name":"Owl_eyes","steam_id":76561198066199203,"connected_time":433000000000,"state":"active","ping":51},{"user_id":45,"name":"sora","steam_id":76561198094256973,"connected_time":1205000000000,"state":"active","ping":60},{"user_id":46,"name":"CatLord","steam_id":76561198873807317,"connected_time":653000000000,"state":"active","ping":81},{"user_id":47,"name":"Drive-By-Fish-Guy","steam_id":76561198105513652,"connected_time":637000000000,"state":"active","ping":59},{"user_id":48,"name":"a festive sooley","steam_id":76561198134500189,"connected_time":550000000000,"state":"active","ping":104},{"user_id":50,"name":"Vimjamin","steam_id":76561198021231435,"connected_time":305000000000,"state":"active","ping":57},{"user_id":51,"name":"[‚ò©] Subasio","steam_id":76561198064766174,"connected_time":291000000000,"state":"active","ping":96},{"user_id":52,"name":"Noelle Holiday","steam_id":76561198359994674,"connected_time":286000000000,"state":"active","ping":97},{"user_id":53,"name":"troylcarter","steam_id":76561197984065094,"connected_time":226000000000,"state":"active","ping":97},{"user_id":54,"name":"[DATS‚û°] Sugar Meowth","steam_id":76561197995251793,"connected_time":203000000000,"state":"active","ping":66},{"user_id":59,"name":"Pork Belly","steam_id":76561198053003142,"connected_time":37000000000,"state":"active","ping":51},{"user_id":56,"name":"_hi_","steam_id":76561198065339248,"connected_time":171000000000,"state":"active","ping":57},{"user_id":60,"name":"SuaveFrenchman","steam_id":76561198043762683,"connected_time":18000000000,"state":"active","ping":95}]},{"server_id":25,"name":"Uncletopia | Los Angeles | 4 | Stopwatch Beta","name_short":"lax-4","host":"lax-1.us.uncletopia.com","port":27045,"enabled":true,"region":"us-west","cc":"us","latitude":33.94279,"longitude":-118.41004,"reserved":0,"last_update":"0001-01-01T00:00:00Z","name_a2s":"Uncletopia | Los Angeles | 4 | Stopwatch Beta","protocol":17,"map":"pl_upward","folder":"tf","game":"Team Fortress","app_id":440,"player_count":0,"max_players":24,"Bots":0,"server_type":"Dedicated","server_os":"Linux","password":true,"vac":true,"version":"7742253","steam_id":85568392924510199,"keywords":["nocrits","nodmgspread","payload","uncletopia"],"game_id":440,"stv_port":27046,"stv_name":"Uncletopia | Los Angeles | 4 | Stopwatch Beta | STV","players":null},{"server_id":11,"name":"Uncletopia | London | 1 | All Maps","name_short":"lon-1","host":"lon-1.uk.uncletopia.com","port":27015,"enabled":true,"region":"eu","cc":"gb","latitude":51.509865,"longitude":-0.118092,"reserved":0,"last_update":"0001-01-01T00:00:00Z","name_a2s":"Uncletopia | London | 1 | All Maps","protocol":17,"map":"pl_upward","folder":"tf","game":"Team Fortress","app_id":440,"player_count":0,"max_players":24,"Bots":0,"server_type":"Dedicated","server_os":"Linux","password":true,"vac":true,"version":"7742253","steam_id":85568392924367362,"keywords":["nocrits","nodmgspread","payload","uncletopia"],"game_id":440,"stv_port":27016,"stv_name":"Uncletopia | London | 1 | All Maps | STV","players":null},{"server_id":114,"name":"Uncletopia | London | 2 | All Maps","name_short":"lon-2","host":"lon-1.uk.uncletopia.com","port":27025,"enabled":true,"region":"eu","cc":"gb","latitude":51.509865,"longitude":-0.118092,"reserved":0,"last_update":"0001-01-01T00:00:00Z","name_a2s":"Uncletopia | London | 2 | All Maps","protocol":17,"map":"cp_sunshine","folder":"tf","game":"Team Fortress","app_id":440,"player_count":0,"max_players":24,"Bots":0,"server_type":"Dedicated","server_os":"Linux","password":true,"vac":true,"version":"7742253","steam_id":85568392924470941,"keywords":["cp","nocrits","nodmgspread","uncletopia"],"game_id":440,"stv_port":27026,"stv_name":"Uncletopia | London | 2 | All Maps | STV","players":null},{"server_id":320,"name":"Uncletopia | London | 3 | All Maps","name_short":"lon-3","host":"lon-1.uk.uncletopia.com","port":27035,"enabled":true,"region":"eu","cc":"gb","latitude":51.509865,"longitude":-0.118092,"reserved":0,"last_update":"0001-01-01T00:00:00Z","name_a2s":"Uncletopia | London | 3 | All Maps","protocol":17,"map":"koth_cascade","folder":"tf","game":"Team Fortress","app_id":440,"player_count":0,"max_players":24,"Bots":0,"server_type":"Dedicated","server_os":"Linux","password":true,"vac":true,"version":"7742253","steam_id":85568392924510192,"keywords":["cp","nocrits","nodmgspread","uncletopia"],"game_id":440,"stv_port":27036,"stv_name":"Uncletopia | London | 3 | All Maps | STV","players":null},{"server_id":321,"name":"Uncletopia | London | 4 | All Maps","name_short":"lon-4","host":"lon-1.uk.uncletopia.com","port":27045,"enabled":true,"region":"eu","cc":"gb","latitude":51.509865,"longitude":-0.118092,"reserved":0,"last_update":"0001-01-01T00:00:00Z","name_a2s":"Uncletopia | London | 4 | All Maps","protocol":17,"map":"cp_mountainlab","folder":"tf","game":"Team Fortress","app_id":440,"player_count":0,"max_players":24,"Bots":0,"server_type":"Dedicated","server_os":"Linux","password":true,"vac":true,"version":"7742253","steam_id":85568392924510193,"keywords":["cp","nocrits","nodmgspread","uncletopia"],"game_id":440,"stv_port":27046,"stv_name":"Uncletopia | London | 4 | All Maps | STV","players":null},{"server_id":21,"name":"Uncletopia | London | 5 | All Maps","name_short":"lon-5","host":"lon-1.uk.uncletopia.com","port":27055,"enabled":true,"region":"eu","cc":"gb","latitude":51.509865,"longitude":-0.118092,"reserved":0,"last_update":"0001-01-01T00:00:00Z","name_a2s":"Uncletopia | London | 5 | All Maps","protocol":17,"map":"koth_cascade","folder":"tf","game":"Team Fortress","app_id":440,"player_count":0,"max_players":24,"Bots":0,"server_type":"Dedicated","server_os":"Linux","password":true,"vac":true,"version":"7742253","steam_id":85568392924742829,"keywords":["cp","nocrits","nodmgspread","uncletopia"],"game_id":440,"stv_port":27056,"stv_name":"Uncletopia | London | 5 | All Maps | STV","players":null},{"server_id":22,"name":"Uncletopia | London | 6 | All Maps","name_short":"lon-6","host":"lon-1.uk.uncletopia.com","port":27065,"enabled":true,"region":"eu","cc":"gb","latitude":51.509865,"longitude":-0.118092,"reserved":0,"last_update":"0001-01-01T00:00:00Z","name_a2s":"Uncletopia | London | 6 | All Maps","protocol":17,"map":"koth_lakeside_final","folder":"tf","game":"Team Fortress","app_id":440,"player_count":0,"max_players":24,"Bots":0,"server_type":"Dedicated","server_os":"Linux","password":true,"vac":true,"version":"7742253","steam_id":85568392924742830,"keywords":["cp","nocrits","nodmgspread","uncletopia"],"game_id":440,"stv_port":27066,"stv_name":"Uncletopia | London | 6 | All Maps | STV","players":null},{"server_id":40,"name":"Uncletopia | London | 7 | No Payload","name_short":"lon-7","host":"lon-1.uk.uncletopia.com","port":27075,"enabled":true,"region":"eu","cc":"gb","latitude":51.509865,"longitude":-0.118092,"reserved":0,"last_update":"0001-01-01T00:00:00Z","name_a2s":"Uncletopia | London | 7 | No Payload","protocol":17,"map":"plr_bananabay","folder":"tf","game":"Team Fortress","app_id":440,"player_count":0,"max_players":24,"Bots":0,"server_type":"Dedicated","server_os":"Linux","password":true,"vac":true,"version":"7742253","steam_id":85568392924964314,"keywords":["nocrits","nodmgspread","payload","uncletopia"],"game_id":440,"stv_port":27076,"stv_name":"Uncletopia | London | 7 | No Payload | STV","players":null},{"server_id":41,"name":"Uncletopia | London | 8 | Community","name_short":"lon-8","host":"lon-1.uk.uncletopia.com","port":27085,"enabled":true,"region":"eu","cc":"gb","latitude":51.509865,"longitude":-0.118092,"reserved":0,"last_update":"0001-01-01T00:00:00Z","name_a2s":"Uncletopia | London | 8 | Community","protocol":17,"map":"workshop/koth_ramjam_rc1.ugc459778887","folder":"tf","game":"Team Fortress","app_id":440,"player_count":0,"max_players":24,"Bots":0,"server_type":"Dedicated","server_os":"Linux","password":true,"vac":true,"version":"7742253","steam_id":85568392924964315,"keywords":["cp","nocrits","nodmgspread","uncletopia"],"game_id":440,"stv_port":27086,"stv_name":"Uncletopia | London | 8 | Community | STV","players":null},{"server_id":300,"name":"Uncletopia | Montr√©al | 1 | All Maps","name_short":"mtl-1","host":"mtl-1.ca.uncletopia.com","port":27015,"enabled":true,"region":"us-east","cc":"ca","latitude":45.50889,"longitude":-73.56167,"reserved":0,"last_update":"0001-01-01T00:00:00Z","name_a2s":"Uncletopia | Montr√©al | 1 | All Maps","protocol":17,"map":"koth_viaduct","folder":"tf","game":"Team Fortress","app_id":440,"player_count":0,"max_players":24,"Bots":0,"server_type":"Dedicated","server_os":"Linux","password":true,"vac":true,"version":"7742253","steam_id":85568392924500087,"keywords":["cp","nocrits","nodmgspread","uncletopia"],"game_id":440,"stv_port":27016,"stv_name":"Uncletopia | Montr√©al | 1 | All Maps | STV","players":null},{"server_id":301,"name":"Uncletopia | Montr√©al | 2 | All Maps","name_short":"mtl-2","host":"mtl-1.ca.uncletopia.com","port":27025,"enabled":true,"region":"us-east","cc":"ca","latitude":45.50889,"longitude":-73.56167,"reserved":0,"last_update":"0001-01-01T00:00:00Z","name_a2s":"Uncletopia | Montr√©al | 2 | All Maps","protocol":17,"map":"pl_barnblitz","folder":"tf","game":"Team Fortress","app_id":440,"player_count":0,"max_players":24,"Bots":0,"server_type":"Dedicated","server_os":"Linux","password":true,"vac":true,"version":"7742253","steam_id":85568392924500088,"keywords":["nocrits","nodmgspread","payload","uncletopia"],"game_id":440,"stv_port":27026,"stv_name":"Uncletopia | Montr√©al | 2 | All Maps | STV","players":null},{"server_id":302,"name":"Uncletopia | Montr√©al | 3 | All Maps","name_short":"mtl-3","host":"mtl-1.ca.uncletopia.com","port":27035,"enabled":true,"region":"us-east","cc":"ca","latitude":45.50889,"longitude":-73.56167,"reserved":0,"last_update":"0001-01-01T00:00:00Z","name_a2s":"Uncletopia | Montr√©al | 3 | All Maps","protocol":17,"map":"pl_badwater","folder":"tf","game":"Team Fortress","app_id":440,"player_count":2,"max_players":24,"Bots":0,"server_type":"Dedicated","server_os":"Linux","password":true,"vac":true,"version":"7742253","steam_id":85568392924500089,"keywords":["nocrits","nodmgspread","payload","uncletopia"],"game_id":440,"stv_port":27036,"stv_name":"Uncletopia | Montr√©al | 3 | All Maps | STV","players":[{"user_id":19,"name":"Stretched Dawg","steam_id":76561198986285600,"connected_time":1527000000000,"state":"active","ping":90},{"user_id":20,"name":"Buttery","steam_id":76561198318466233,"connected_time":1417000000000,"state":"active","ping":73}]},{"server_id":303,"name":"Uncletopia | Montr√©al | 4 | No Payload","name_short":"mtl-4","host":"mtl-1.ca.uncletopia.com","port":27045,"enabled":true,"region":"us-east","cc":"ca","latitude":45.50889,"longitude":-73.56167,"reserved":0,"last_update":"0001-01-01T00:00:00Z","name_a2s":"Uncletopia | Montr√©al | 4 | No Payload","protocol":17,"map":"ctf_well","folder":"tf","game":"Team Fortress","app_id":440,"player_count":1,"max_players":24,"Bots":0,"server_type":"Dedicated","server_os":"Linux","password":true,"vac":true,"version":"7742253","steam_id":85568392924500090,"keywords":["ctf","nocrits","nodmgspread","uncletopia"],"game_id":440,"stv_port":27046,"stv_name":"Uncletopia | Montr√©al | 4 | No Payload | STV","players":[{"user_id":7,"name":"Cool Bobby","steam_id":76561199086682761,"connected_time":23000000000,"state":"active","ping":52}]},{"server_id":13,"name":"Uncletopia | New York City | 1 | All Maps","name_short":"nyc-1","host":"nyc-1.us.uncletopia.com","port":27015,"enabled":true,"region":"us-east","cc":"us","latitude":40.73061,"longitude":-73.93524,"reserved":0,"last_update":"0001-01-01T00:00:00Z","name_a2s":"Uncletopia | New York City | 1 | All Maps","protocol":17,"map":"pl_swiftwater_final1","folder":"tf","game":"Team Fortress","app_id":440,"player_count":24,"max_players":24,"Bots":0,"server_type":"Dedicated","server_os":"Linux","password":true,"vac":true,"version":"7742253","steam_id":85568392924469993,"keywords":["nocrits","nodmgspread","payload","uncletopia"],"game_id":440,"stv_port":27016,"stv_name":"Uncletopia | New York City | 1 | All Maps | STV","players":[{"user_id":576,"name":"Rhutebeer","steam_id":76561198018302761,"connected_time":7423000000000,"state":"active","ping":94},{"user_id":620,"name":"xXBigWingmanFanXx","steam_id":76561198067904392,"connected_time":4409000000000,"state":"active","ping":54},{"user_id":654,"name":"Aegis","steam_id":76561198272052750,"connected_time":2469000000000,"state":"active","ping":76},{"user_id":675,"name":"Mr.TrashyPirate","steam_id":76561198281063103,"connected_time":644000000000,"state":"active","ping":47},{"user_id":655,"name":"ShaqtusHD","steam_id":76561199138286233,"connected_time":2415000000000,"state":"active","ping":52},{"user_id":623,"name":"Trashy Gamer","steam_id":76561198980879504,"connected_time":4089000000000,"state":"active","ping":65},{"user_id":672,"name":"Brass beast heavy","steam_id":76561198274197623,"connected_time":715000000000,"state":"active","ping":135},{"user_id":676,"name":"Goblin","steam_id":76561198338245497,"connected_time":631000000000,"state":"active","ping":67},{"user_id":671,"name":"Samsiel","steam_id":76561198094134951,"connected_time":889000000000,"state":"active","ping":89},{"user_id":660,"name":"Nobody","steam_id":76561198160544586,"connected_time":2349000000000,"state":"active","ping":76},{"user_id":656,"name":"substance","steam_id":76561198050103868,"connected_time":2411000000000,"state":"active","ping":107},{"user_id":677,"name":"sweaterfan","steam_id":76561199389567214,"connected_time":626000000000,"state":"active","ping":62},{"user_id":668,"name":"Ronin Grinch","steam_id":76561198041439581,"connected_time":1681000000000,"state":"active","ping":45},{"user_id":678,"name":"Connnnair","steam_id":76561198156075754,"connected_time":602000000000,"state":"active","ping":76},{"user_id":669,"name":"BADLANDS CHUGS","steam_id":76561198129028971,"connected_time":1669000000000,"state":"active","ping":57},{"user_id":679,"name":"thatguy_luigi","steam_id":76561198968055462,"connected_time":74000000000,"state":"active","ping":466},{"user_id":670,"name":"hello","steam_id":76561198063595962,"connected_time":1504000000000,"state":"active","ping":147},{"user_id":661,"name":"rayn","steam_id":76561198147701239,"connected_time":2330000000000,"state":"active","ping":71},{"user_id":607,"name":"gertchy","steam_id":76561199111932529,"connected_time":5451000000000,"state":"active","ping":51},{"user_id":662,"name":"MrLeftTurn","steam_id":76561198856743969,"connected_time":2323000000000,"state":"active","ping":148},{"user_id":653,"name":"Chicken Bake","steam_id":76561198045366628,"connected_time":2551000000000,"state":"active","ping":57},{"user_id":665,"name":"Felix","steam_id":76561198054196389,"connected_time":2209000000000,"state":"active","ping":71},{"user_id":680,"name":"kid squid","steam_id":76561198167016289,"connected_time":68000000000,"state":"active","ping":60},{"user_id":666,"name":"Mr. Squidward","steam_id":76561198103821671,"connected_time":2095000000000,"state":"active","ping":56}]},{"server_id":14,"name":"Uncletopia | New York City | 2 | All Maps","name_short":"nyc-2","host":"nyc-1.us.uncletopia.com","port":27025,"enabled":true,"region":"us-east","cc":"us","latitude":40.73061,"longitude":-73.93524,"reserved":0,"last_update":"0001-01-01T00:00:00Z","name_a2s":"Uncletopia | New York City | 2 | All Maps","protocol":17,"map":"cp_dustbowl","folder":"tf","game":"Team Fortress","app_id":440,"player_count":24,"max_players":24,"Bots":0,"server_type":"Dedicated","server_os":"Linux","password":true,"vac":true,"version":"7742253","steam_id":85568392924469994,"keywords":["cp","nocrits","nodmgspread","uncletopia"],"game_id":440,"stv_port":27026,"stv_name":"Uncletopia | New York City | 2 | All Maps | STV","players":[{"user_id":33,"name":"wowisthatleo","steam_id":76561199020860911,"connected_time":11132000000000,"state":"active","ping":173},{"user_id":164,"name":"playing hard-on at 2x speed","steam_id":76561198812086921,"connected_time":1713000000000,"state":"active","ping":46},{"user_id":188,"name":"Mcfighter2","steam_id":76561198168073956,"connected_time":452000000000,"state":"active","ping":68},{"user_id":126,"name":"Phillip Jeffries","steam_id":76561198064052174,"connected_time":4943000000000,"state":"active","ping":57},{"user_id":191,"name":"Bootstrap","steam_id":76561199110353614,"connected_time":140000000000,"state":"active","ping":105},{"user_id":172,"name":"Lots0","steam_id":76561198043143145,"connected_time":1533000000000,"state":"active","ping":106},{"user_id":156,"name":"Chechens Spotted","steam_id":76561199028910893,"connected_time":2951000000000,"state":"active","ping":70},{"user_id":186,"name":"Otterrific","steam_id":76561198401947855,"connected_time":503000000000,"state":"active","ping":121},{"user_id":133,"name":"GROKERDUL","steam_id":76561198004573649,"connected_time":4280000000000,"state":"active","ping":55},{"user_id":180,"name":"Ghost Deini","steam_id":76561198063336720,"connected_time":1392000000000,"state":"active","ping":78},{"user_id":174,"name":"BigOrca54","steam_id":76561198181360271,"connected_time":1492000000000,"state":"active","ping":68},{"user_id":177,"name":"ULTRAHORRAN","steam_id":76561198126029630,"connected_time":1453000000000,"state":"active","ping":60},{"user_id":176,"name":"Gigabars","steam_id":76561198119267479,"connected_time":1465000000000,"state":"active","ping":84},{"user_id":161,"name":"Onpwnage","steam_id":76561198011775345,"connected_time":2335000000000,"state":"active","ping":121},{"user_id":142,"name":"Gurgles","steam_id":76561198326693796,"connected_time":3914000000000,"state":"active","ping":95},{"user_id":187,"name":"cari","steam_id":76561198101993323,"connected_time":497000000000,"state":"active","ping":64},{"user_id":170,"name":"Tom","steam_id":76561198126800063,"connected_time":1622000000000,"state":"active","ping":114},{"user_id":143,"name":"kickitlikedonavon","steam_id":76561198083149538,"connected_time":3910000000000,"state":"active","ping":118},{"user_id":73,"name":"Monsterjessy","steam_id":76561198035630985,"connected_time":8769000000000,"state":"active","ping":71},{"user_id":189,"name":"jammy nutrient boy genius","steam_id":76561198165086917,"connected_time":368000000000,"state":"active","ping":79},{"user_id":178,"name":"Irunman","steam_id":76561198058243536,"connected_time":1447000000000,"state":"active","ping":56},{"user_id":185,"name":"plutonium isotope","steam_id":76561198319442494,"connected_time":631000000000,"state":"active","ping":111},{"user_id":190,"name":"Pistol Freeman","steam_id":76561198026818915,"connected_time":145000000000,"state":"active","ping":71},{"user_id":181,"name":"mini stop","steam_id":76561197981516336,"connected_time":1356000000000,"state":"active","ping":45}]},{"server_id":15,"name":"Uncletopia | New York City | 3 | Stopwatch Beta","name_short":"nyc-3","host":"nyc-1.us.uncletopia.com","port":27035,"enabled":true,"region":"us-east","cc":"us","latitude":40.73061,"longitude":-73.93524,"reserved":0,"last_update":"0001-01-01T00:00:00Z","name_a2s":"Uncletopia | New York City | 3 | Stopwatch Beta","protocol":17,"map":"workshop/cp_process_f11.ugc2302948105","folder":"tf","game":"Team Fortress","app_id":440,"player_count":0,"max_players":24,"Bots":0,"server_type":"Dedicated","server_os":"Linux","password":true,"vac":true,"version":"7742253","steam_id":85568392924742820,"keywords":["cp","nocrits","nodmgspread","uncletopia"],"game_id":440,"stv_port":27036,"stv_name":"Uncletopia | New York City | 3 | Stopwatch Beta | STV","players":null},{"server_id":16,"name":"Uncletopia | New York City | 4 | Community","name_short":"nyc-4","host":"nyc-1.us.uncletopia.com","port":27045,"enabled":true,"region":"us-east","cc":"us","latitude":40.73061,"longitude":-73.93524,"reserved":0,"last_update":"0001-01-01T00:00:00Z","name_a2s":"Uncletopia | New York City | 4 | Community","protocol":17,"map":"workshop/pl_cactuscanyon_redux_rc4b.ugc2579644293","folder":"tf","game":"Team Fortress","app_id":440,"player_count":0,"max_players":24,"Bots":0,"server_type":"Dedicated","server_os":"Linux","password":true,"vac":true,"version":"7742253","steam_id":85568392924742821,"keywords":["nocrits","nodmgspread","payload","uncletopia"],"game_id":440,"stv_port":27046,"stv_name":"Uncletopia | New York City | 4 | Community | STV","players":null},{"server_id":142,"name":"Uncletopia | S√£o Paulo | 1 | All Maps","name_short":"sao-1","host":"sao-1.br.uncletopia.com","port":27015,"enabled":true,"region":"sa","cc":"br","latitude":-23.533773,"longitude":-46.62529,"reserved":0,"last_update":"0001-01-01T00:00:00Z","name_a2s":"Uncletopia | S√£o Paulo | 1 | All Maps","protocol":17,"map":"koth_viaduct","folder":"tf","game":"Team Fortress","app_id":440,"player_count":0,"max_players":24,"Bots":0,"server_type":"Dedicated","server_os":"Linux","password":true,"vac":true,"version":"7742253","steam_id":85568392924469996,"keywords":["cp","nocrits","nodmgspread","uncletopia"],"game_id":440,"stv_port":27016,"stv_name":"Uncletopia | S√£o Paulo | 1 | All Maps | STV","players":null},{"server_id":143,"name":"Uncletopia | S√£o Paulo | 2 | All Maps","name_short":"sao-2","host":"sao-2.br.uncletopia.com","port":27015,"enabled":true,"region":"sa","cc":"br","latitude":-23.533773,"longitude":-46.62529,"reserved":0,"last_update":"0001-01-01T00:00:00Z","name_a2s":"Uncletopia | S√£o Paulo | 2 | All Maps","protocol":17,"map":"koth_cascade","folder":"tf","game":"Team Fortress","app_id":440,"player_count":0,"max_players":24,"Bots":0,"server_type":"Dedicated","server_os":"Linux","password":true,"vac":true,"version":"7742253","steam_id":85568392924485349,"keywords":["cp","nocrits","nodmgspread","uncletopia"],"game_id":440,"stv_port":27016,"stv_name":"Uncletopia | S√£o Paulo | 2 | All Maps | STV","players":null},{"server_id":7,"name":"Uncletopia | Seattle | 1 | All Maps","name_short":"sea-1","host":"sea-1.us.uncletopia.com","port":27015,"enabled":true,"region":"us-west","cc":"us","latitude":47.608013,"longitude":-122.33517,"reserved":0,"last_update":"0001-01-01T00:00:00Z","name_a2s":"Uncletopia | Seattle | 1 | All Maps","protocol":17,"map":"pl_rumford_event","folder":"tf","game":"Team Fortress","app_id":440,"player_count":24,"max_players":24,"Bots":0,"server_type":"Dedicated","server_os":"Linux","password":true,"vac":true,"version":"7742253","steam_id":85568392924469997,"keywords":["nocrits","nodmgspread","payload","uncletopia"],"game_id":440,"stv_port":27016,"stv_name":"Uncletopia | Seattle | 1 | All Maps | STV","players":[{"user_id":774,"name":"Liquid Gold","steam_id":76561198347510093,"connected_time":701000000000,"state":"active","ping":52},{"user_id":530,"name":"Tom H.A.N.X","steam_id":76561198061064737,"connected_time":17301000000000,"state":"active","ping":51},{"user_id":666,"name":"Aardappel","steam_id":76561198030894676,"connected_time":10696000000000,"state":"active","ping":69},{"user_id":773,"name":"GoofyWitDaSketti","steam_id":76561198167871675,"connected_time":739000000000,"state":"active","ping":82},{"user_id":751,"name":"El Gato Paranoico","steam_id":76561198116567116,"connected_time":3518000000000,"state":"active","ping":120},{"user_id":763,"name":"shane","steam_id":76561198060491451,"connected_time":2208000000000,"state":"active","ping":95},{"user_id":767,"name":"Enemy Infant Tree","steam_id":76561198027175418,"connected_time":1853000000000,"state":"active","ping":130},{"user_id":761,"name":"lavender","steam_id":76561199069518286,"connected_time":2778000000000,"state":"active","ping":73},{"user_id":719,"name":"Fh","steam_id":76561198000903511,"connected_time":6453000000000,"state":"active","ping":74},{"user_id":733,"name":"T√ºCold","steam_id":76561198111278197,"connected_time":5111000000000,"state":"active","ping":60},{"user_id":775,"name":"William P. Ennis","steam_id":76561198073464877,"connected_time":602000000000,"state":"active","ping":104},{"user_id":741,"name":"Sweets","steam_id":76561198998446307,"connected_time":4230000000000,"state":"active","ping":68},{"user_id":722,"name":"me and the bestie!!!","steam_id":76561198149683030,"connected_time":6383000000000,"state":"active","ping":70},{"user_id":764,"name":"Sniff","steam_id":76561198010270922,"connected_time":1947000000000,"state":"active","ping":46},{"user_id":762,"name":"17","steam_id":76561198095480838,"connected_time":2416000000000,"state":"active","ping":45},{"user_id":758,"name":"dearender","steam_id":76561199427644498,"connected_time":2994000000000,"state":"active","ping":57},{"user_id":772,"name":"fwoov","steam_id":76561198129166260,"connected_time":757000000000,"state":"active","ping":76},{"user_id":770,"name":"FireQuiz","steam_id":76561198107357249,"connected_time":1425000000000,"state":"active","ping":57},{"user_id":776,"name":"Amateur Glaswegian","steam_id":76561198030851956,"connected_time":574000000000,"state":"active","ping":50},{"user_id":760,"name":"MCman","steam_id":76561198412110305,"connected_time":2796000000000,"state":"active","ping":79},{"user_id":778,"name":"broob swaggger","steam_id":76561198318168646,"connected_time":561000000000,"state":"active","ping":111},{"user_id":756,"name":"skyler white of tf2","steam_id":76561198131166135,"connected_time":3381000000000,"state":"active","ping":44},{"user_id":779,"name":"PorgyPork","steam_id":76561198824399078,"connected_time":508000000000,"state":"active","ping":58},{"user_id":781,"name":"Number28","steam_id":76561198315018819,"connected_time":63000000000,"state":"active","ping":85}]},{"server_id":119,"name":"Uncletopia | Seattle | 2 | All Maps","name_short":"sea-2","host":"sea-1.us.uncletopia.com","port":27025,"enabled":true,"region":"us-west","cc":"us","latitude":47.608013,"longitude":-122.33517,"reserved":0,"last_update":"0001-01-01T00:00:00Z","name_a2s":"Uncletopia | Seattle | 2 | All Maps","protocol":17,"map":"pl_frontier_final","folder":"tf","game":"Team Fortress","app_id":440,"player_count":21,"max_players":24,"Bots":0,"server_type":"Dedicated","server_os":"Linux","password":true,"vac":true,"version":"7742253","steam_id":85568392924469998,"keywords":["nocrits","nodmgspread","payload","uncletopia"],"game_id":440,"stv_port":27026,"stv_name":"Uncletopia | Seattle | 2 | All Maps | STV","players":[{"user_id":503,"name":"TheBold","steam_id":76561199194787298,"connected_time":251000000000,"state":"active","ping":59},{"user_id":473,"name":"Dargoos","steam_id":76561198366212046,"connected_time":2775000000000,"state":"active","ping":78},{"user_id":436,"name":"ORANGE","steam_id":76561198000401769,"connected_time":5200000000000,"state":"active","ping":46},{"user_id":455,"name":"MagicSooup","steam_id":76561198988280325,"connected_time":4114000000000,"state":"active","ping":63},{"user_id":500,"name":"Seagoll","steam_id":76561198017953606,"connected_time":760000000000,"state":"active","ping":58},{"user_id":504,"name":"smashwinger","steam_id":76561198170837103,"connected_time":241000000000,"state":"active","ping":77},{"user_id":509,"name":"Pasta","steam_id":76561198170042173,"connected_time":86000000000,"state":"active","ping":124},{"user_id":505,"name":"Fudge406","steam_id":76561199233287536,"connected_time":228000000000,"state":"active","ping":88},{"user_id":506,"name":"76561198212421513","steam_id":76561198212421513,"connected_time":189000000000,"state":"active","ping":76},{"user_id":510,"name":"HandyHerbcock","steam_id":76561198074648416,"connected_time":50000000000,"state":"active","ping":63},{"user_id":460,"name":"Luigi (real)","steam_id":76561198412322703,"connected_time":3944000000000,"state":"active","ping":108},{"user_id":507,"name":"Trip","steam_id":76561199018961051,"connected_time":128000000000,"state":"active","ping":105},{"user_id":508,"name":"la loveiathenne","steam_id":76561198046394237,"connected_time":125000000000,"state":"active","ping":45},{"user_id":511,"name":"KingTinkerer","steam_id":76561198226856548,"connected_time":44000000000,"state":"active","ping":59},{"user_id":416,"name":"Scrumfel Nutz","steam_id":76561198123286409,"connected_time":6126000000000,"state":"active","ping":52},{"user_id":456,"name":"42","steam_id":76561198043965184,"connected_time":4043000000000,"state":"active","ping":64},{"user_id":512,"name":"STEPHENCOrNeJo","steam_id":76561199201539598,"connected_time":44000000000,"state":"active","ping":167},{"user_id":513,"name":"hamdrinker985","steam_id":76561199241807676,"connected_time":8000000000,"state":"spawning","ping":58},{"user_id":433,"name":"Anderswo","steam_id":76561198253224241,"connected_time":5539000000000,"state":"active","ping":41},{"user_id":450,"name":"rock gaming","steam_id":76561199402868311,"connected_time":4497000000000,"state":"active","ping":77},{"user_id":475,"name":"Birdman743","steam_id":76561198799636748,"connected_time":2722000000000,"state":"active","ping":52}]},{"server_id":406,"name":"Uncletopia | Seattle | 3 | Stopwatch Beta","name_short":"sea-3","host":"sea-1.us.uncletopia.com","port":27035,"enabled":true,"region":"us-west","cc":"us","latitude":47.608013,"longitude":-122.33517,"reserved":0,"last_update":"0001-01-01T00:00:00Z","name_a2s":"Uncletopia | Seattle | 3 | Stopwatch Beta","protocol":17,"map":"workshop/koth_bagel_rc5.ugc2514036946","folder":"tf","game":"Team Fortress","app_id":440,"player_count":0,"max_players":24,"Bots":0,"server_type":"Dedicated","server_os":"Linux","password":true,"vac":true,"version":"7742253","steam_id":85568392924515217,"keywords":["cp","nocrits","nodmgspread","uncletopia"],"game_id":440,"stv_port":27036,"stv_name":"Uncletopia | Seattle | 3 | Stopwatch Beta | STV","players":null},{"server_id":17,"name":"Uncletopia | San Francisco | 1 | All Maps","name_short":"sfo-1","host":"sfo-1.us.uncletopia.com","port":27015,"enabled":true,"region":"us-west","cc":"us","latitude":37.77397,"longitude":-122.4313,"reserved":0,"last_update":"0001-01-01T00:00:00Z","name_a2s":"Uncletopia | San Francisco | 1 | All Maps","protocol":17,"map":"pl_thundermountain","folder":"tf","game":"Team Fortress","app_id":440,"player_count":24,"max_players":24,"Bots":0,"server_type":"Dedicated","server_os":"Linux","password":true,"vac":true,"version":"7742253","steam_id":85568392924469999,"keywords":["nocrits","nodmgspread","payload","uncletopia"],"game_id":440,"stv_port":27016,"stv_name":"Uncletopia | San Francisco | 1 | All Maps | STV","players":[{"user_id":75,"name":"What time is it?","steam_id":76561198011675372,"connected_time":4563000000000,"state":"connecting","ping":90},{"user_id":128,"name":"Koyota","steam_id":76561198069878114,"connected_time":1151000000000,"state":"connecting","ping":71},{"user_id":103,"name":"Mignyanne :3","steam_id":76561198048754056,"connected_time":2991000000000,"state":"connecting","ping":59},{"user_id":122,"name":"itsudatte","steam_id":76561198048992536,"connected_time":1882000000000,"state":"connecting","ping":120},{"user_id":143,"name":"UwU","steam_id":76561198076935150,"connected_time":20000000000,"state":"connecting","ping":65},{"user_id":141,"name":"trashboat","steam_id":76561199067882406,"connected_time":324000000000,"state":"connecting","ping":77},{"user_id":137,"name":"Murrdogg","steam_id":76561198210491188,"connected_time":527000000000,"state":"connecting","ping":131},{"user_id":121,"name":"heeme","steam_id":76561198146241989,"connected_time":2006000000000,"state":"connecting","ping":127},{"user_id":134,"name":"herp derp ‚òï","steam_id":76561198047646956,"connected_time":805000000000,"state":"connecting","ping":81},{"user_id":131,"name":"fig floor","steam_id":76561198133360797,"connected_time":1025000000000,"state":"connecting","ping":83},{"user_id":73,"name":"Goonther","steam_id":76561198170128009,"connected_time":4678000000000,"state":"connecting","ping":71},{"user_id":142,"name":"I love Demoman","steam_id":76561199042568405,"connected_time":249000000000,"state":"connecting","ping":65},{"user_id":105,"name":"jjbers","steam_id":76561198293094802,"connected_time":2974000000000,"state":"connecting","ping":164},{"user_id":132,"name":"thoughtographic","steam_id":76561198123607452,"connected_time":1018000000000,"state":"connecting","ping":79},{"user_id":91,"name":"Local","steam_id":76561198069537437,"connected_time":3693000000000,"state":"connecting","ping":70},{"user_id":125,"name":"jungus","steam_id":76561198129862008,"connected_time":1439000000000,"state":"connecting","ping":79},{"user_id":127,"name":"Battery_Included","steam_id":76561198067164431,"connected_time":1209000000000,"state":"connecting","ping":79},{"user_id":102,"name":"sara","steam_id":76561198283462369,"connected_time":3071000000000,"state":"connecting","ping":78},{"user_id":123,"name":"ToughGuy311","steam_id":76561198131458027,"connected_time":1819000000000,"state":"connecting","ping":150}]},{"server_id":18,"name":"Uncletopia | San Francisco | 2 | All Maps","name_short":"sfo-2","host":"sfo-1.us.uncletopia.com","port":27025,"enabled":true,"region":"us-west","cc":"us","latitude":37.77397,"longitude":-122.4313,"reserved":0,"last_update":"0001-01-01T00:00:00Z","name_a2s":"Uncletopia | San Francisco | 2 | All Maps","protocol":17,"map":"koth_viaduct","folder":"tf","game":"Team Fortress","app_id":440,"player_count":0,"max_players":24,"Bots":0,"server_type":"Dedicated","server_os":"Linux","password":true,"vac":true,"version":"7742253","steam_id":85568392924470000,"keywords":["cp","nocrits","nodmgspread","uncletopia"],"game_id":440,"stv_port":27026,"stv_name":"Uncletopia | San Francisco | 2 | All Maps | STV","players":null},{"server_id":19,"name":"Uncletopia | San Francisco | 3 | Stopwatch Beta","name_short":"sfo-3","host":"sfo-1.us.uncletopia.com","port":27035,"enabled":true,"region":"us-west","cc":"us","latitude":37.77397,"longitude":-122.4313,"reserved":0,"last_update":"0001-01-01T00:00:00Z","name_a2s":"Uncletopia | San Francisco | 3 | Stopwatch Beta","protocol":17,"map":"workshop/pl_badwater_pro_v12.ugc2142942074","folder":"tf","game":"Team Fortress","app_id":440,"player_count":0,"max_players":24,"Bots":0,"server_type":"Dedicated","server_os":"Linux","password":true,"vac":true,"version":"7742253","steam_id":85568392924742824,"keywords":["nocrits","nodmgspread","payload","uncletopia"],"game_id":440,"stv_port":27036,"stv_name":"Uncletopia | San Francisco | 3 | Stopwatch Beta | STV","players":null},{"server_id":20,"name":"Uncletopia | San Francisco | 4 | Community","name_short":"sfo-4","host":"sfo-1.us.uncletopia.com","port":27045,"enabled":true,"region":"us-west","cc":"us","latitude":37.77397,"longitude":-122.4313,"reserved":0,"last_update":"0001-01-01T00:00:00Z","name_a2s":"Uncletopia | San Francisco | 4 | Community","protocol":17,"map":"workshop/rd_asteroid_redux_rc9.ugc2154902912","folder":"tf","game":"Team Fortress","app_id":440,"player_count":0,"max_players":24,"Bots":0,"server_type":"Dedicated","server_os":"Linux","password":true,"vac":true,"version":"7742253","steam_id":85568392924742826,"keywords":["beta","nocrits","nodmgspread","rd","uncletopia"],"game_id":440,"stv_port":27046,"stv_name":"Uncletopia | San Francisco | 4 | Community | STV","players":null},{"server_id":141,"name":"Uncletopia | Sydney | 1 | All Maps","name_short":"syd-1","host":"syd-1.au.uncletopia.com","port":27015,"enabled":true,"region":"au","cc":"au","latitude":-33.865143,"longitude":151.2099,"reserved":0,"last_update":"0001-01-01T00:00:00Z","name_a2s":"Uncletopia | Sydney | 1 | All Maps","protocol":17,"map":"koth_lakeside_final","folder":"tf","game":"Team Fortress","app_id":440,"player_count":5,"max_players":24,"Bots":0,"server_type":"Dedicated","server_os":"Linux","password":true,"vac":true,"version":"7742253","steam_id":85568392924470001,"keywords":["cp","nocrits","nodmgspread","uncletopia"],"game_id":440,"stv_port":27016,"stv_name":"Uncletopia | Sydney | 1 | All Maps | STV","players":[{"user_id":17,"name":"Branko","steam_id":76561199262196710,"connected_time":337000000000,"state":"active","ping":42},{"user_id":18,"name":"ree boy","steam_id":76561199024189820,"connected_time":331000000000,"state":"active","ping":78},{"user_id":19,"name":"MR Martian","steam_id":76561198157854561,"connected_time":253000000000,"state":"active","ping":89},{"user_id":21,"name":"Skyboi","steam_id":76561199017211623,"connected_time":58000000000,"state":"active","ping":70},{"user_id":22,"name":"zeaphg","steam_id":76561199014878539,"connected_time":46000000000,"state":"active","ping":70}]},{"server_id":123,"name":"Uncletopia | Sydney | 2 | All Maps","name_short":"syd-2","host":"syd-1.au.uncletopia.com","port":27025,"enabled":true,"region":"au","cc":"au","latitude":-33.865143,"longitude":151.2099,"reserved":0,"last_update":"0001-01-01T00:00:00Z","name_a2s":"Uncletopia | Sydney | 2 | All Maps","protocol":17,"map":"koth_harvest_final","folder":"tf","game":"Team Fortress","app_id":440,"player_count":21,"max_players":24,"Bots":0,"server_type":"Dedicated","server_os":"Linux","password":true,"vac":true,"version":"7742253","steam_id":85568392924470002,"keywords":["cp","nocrits","nodmgspread","uncletopia"],"game_id":440,"stv_port":27026,"stv_name":"Uncletopia | Sydney | 2 | All Maps | STV","players":[{"user_id":305,"name":"Smeecko","steam_id":76561198024602273,"connected_time":4733000000000,"state":"active","ping":49},{"user_id":344,"name":"Bamooxa","steam_id":76561198067160709,"connected_time":1006000000000,"state":"active","ping":80},{"user_id":334,"name":"kcajnosbod","steam_id":76561198400431574,"connected_time":1742000000000,"state":"active","ping":61},{"user_id":345,"name":"Stayfucking1.5metresaway","steam_id":76561198070569251,"connected_time":939000000000,"state":"active","ping":64},{"user_id":362,"name":"Tnttoad","steam_id":76561198297360775,"connected_time":35000000000,"state":"active","ping":40},{"user_id":291,"name":"oldboy (2003) is a good film","steam_id":76561199057568663,"connected_time":5509000000000,"state":"active","ping":58},{"user_id":355,"name":"GENESIS","steam_id":76561198302670452,"connected_time":533000000000,"state":"active","ping":54},{"user_id":270,"name":"Local Trash Expert","steam_id":76561198145598622,"connected_time":6657000000000,"state":"active","ping":75},{"user_id":336,"name":"Beeftrod","steam_id":76561198045351949,"connected_time":1643000000000,"state":"active","ping":59},{"user_id":337,"name":"Van","steam_id":76561198027324852,"connected_time":1642000000000,"state":"active","ping":73},{"user_id":328,"name":"Maestro[FmJ]","steam_id":76561197996842734,"connected_time":2286000000000,"state":"active","ping":59},{"user_id":285,"name":"doctor morbin' (real)","steam_id":76561199365241695,"connected_time":5849000000000,"state":"active","ping":120},{"user_id":358,"name":"Vicci","steam_id":76561198045723808,"connected_time":351000000000,"state":"active","ping":43},{"user_id":354,"name":"Bin","steam_id":76561199117653318,"connected_time":668000000000,"state":"active","ping":61},{"user_id":348,"name":"Owlenstein‚Ñ¢","steam_id":76561198093983826,"connected_time":907000000000,"state":"active","ping":110},{"user_id":324,"name":"nojnosbod11","steam_id":76561199176012151,"connected_time":2582000000000,"state":"active","ping":57},{"user_id":317,"name":"old chunk of coal","steam_id":76561197990537324,"connected_time":3472000000000,"state":"active","ping":110},{"user_id":323,"name":"crack","steam_id":76561198077370413,"connected_time":2788000000000,"state":"active","ping":59},{"user_id":361,"name":"Working Hero","steam_id":76561198338857002,"connected_time":82000000000,"state":"active","ping":37},{"user_id":360,"name":"whiteshaq","steam_id":76561198131988811,"connected_time":97000000000,"state":"active","ping":84},{"user_id":351,"name":"rich","steam_id":76561198003594944,"connected_time":837000000000,"state":"active","ping":53}]},{"server_id":395,"name":"Uncletopia | Sydney | 3 | All Maps","name_short":"syd-3","host":"syd-1.au.uncletopia.com","port":27035,"enabled":true,"region":"au","cc":"au","latitude":-33.865143,"longitude":151.2099,"reserved":0,"last_update":"0001-01-01T00:00:00Z","name_a2s":"Uncletopia | Sydney | 3 | All Maps","protocol":17,"map":"koth_viaduct","folder":"tf","game":"Team Fortress","app_id":440,"player_count":0,"max_players":24,"Bots":0,"server_type":"Dedicated","server_os":"Linux","password":true,"vac":true,"version":"7742253","steam_id":85568392925194467,"keywords":["cp","nocrits","nodmgspread","uncletopia"],"game_id":440,"stv_port":27036,"stv_name":"Uncletopia | Sydney | 3 | All Maps | STV","players":null},{"server_id":396,"name":"Uncletopia | Sydney | 4 | All Maps","name_short":"syd-4","host":"syd-1.au.uncletopia.com","port":27045,"enabled":true,"region":"au","cc":"au","latitude":-33.865143,"longitude":151.2099,"reserved":0,"last_update":"0001-01-01T00:00:00Z","name_a2s":"Uncletopia | Sydney | 4 | All Maps","protocol":17,"map":"pl_frontier_final","folder":"tf","game":"Team Fortress","app_id":440,"player_count":0,"max_players":24,"Bots":0,"server_type":"Dedicated","server_os":"Linux","password":true,"vac":true,"version":"7742253","steam_id":85568392925397958,"keywords":["nocrits","nodmgspread","payload","uncletopia"],"game_id":440,"stv_port":27046,"stv_name":"Uncletopia | Sydney | 4 | All Maps | STV","players":null},{"server_id":58,"name":"Uncletopia | Sydney | 5 | Stopwatch Beta","name_short":"syd-5","host":"syd-1.au.uncletopia.com","port":27055,"enabled":true,"region":"au","cc":"au","latitude":-33.865143,"longitude":151.2099,"reserved":0,"last_update":"0001-01-01T00:00:00Z","name_a2s":"Uncletopia | Sydney | 5 | Stopwatch Beta","protocol":17,"map":"cp_sunshine","folder":"tf","game":"Team Fortress","app_id":440,"player_count":0,"max_players":24,"Bots":0,"server_type":"Dedicated","server_os":"Linux","password":true,"vac":true,"version":"7742253","steam_id":85568392925397959,"keywords":["cp","nocrits","nodmgspread","uncletopia"],"game_id":440,"stv_port":27056,"stv_name":"Uncletopia | Sydney | 5 | Stopwatch Beta | STV","players":null},{"server_id":59,"name":"Uncletopia | Sydney | 6 | Community","name_short":"syd-6","host":"syd-1.au.uncletopia.com","port":27065,"enabled":true,"region":"au","cc":"au","latitude":-33.865143,"longitude":151.2099,"reserved":0,"last_update":"0001-01-01T00:00:00Z","name_a2s":"Uncletopia | Sydney | 6 | Community","protocol":17,"map":"cp_dustbowl","folder":"tf","game":"Team Fortress","app_id":440,"player_count":0,"max_players":24,"Bots":0,"server_type":"Dedicated","server_os":"Linux","password":true,"vac":true,"version":"7742253","steam_id":85568392925397960,"keywords":["cp","nocrits","nodmgspread","uncletopia"],"game_id":440,"stv_port":27066,"stv_name":"Uncletopia | Sydney | 6 | Community | STV","players":null},{"server_id":49,"name":"Uncletopia | Warsaw | 1 | All Maps","name_short":"waw-1","host":"waw-1.pl.uncletopia.com","port":27015,"enabled":true,"region":"eu","cc":"pl","latitude":52.2297,"longitude":21.017532,"reserved":0,"last_update":"0001-01-01T00:00:00Z","name_a2s":"","protocol":0,"map":"","folder":"","game":"","app_id":0,"player_count":0,"max_players":0,"Bots":0,"server_type":"","server_os":"","password":false,"vac":false,"version":"","steam_id":0,"keywords":null,"game_id":0,"stv_port":0,"stv_name":"","players":null},{"server_id":50,"name":"Uncletopia | Warsaw | 2 | All Maps","name_short":"waw-2","host":"waw-1.pl.uncletopia.com","port":27025,"enabled":true,"region":"eu","cc":"pl","latitude":52.2297,"longitude":21.017532,"reserved":0,"last_update":"0001-01-01T00:00:00Z","name_a2s":"Uncletopia | Warsaw | 2 | All Maps","protocol":17,"map":"koth_lakeside_final","folder":"tf","game":"Team Fortress","app_id":440,"player_count":0,"max_players":24,"Bots":0,"server_type":"Dedicated","server_os":"Linux","password":true,"vac":true,"version":"7742253","steam_id":85568392925397851,"keywords":["cp","nocrits","nodmgspread","uncletopia"],"game_id":440,"stv_port":27026,"stv_name":"Uncletopia | Warsaw | 2 | All Maps | STV","players":null},{"server_id":51,"name":"Uncletopia | Warsaw | 3 | All Maps","name_short":"waw-3","host":"waw-1.pl.uncletopia.com","port":27035,"enabled":true,"region":"eu","cc":"pl","latitude":52.2297,"longitude":21.017532,"reserved":0,"last_update":"0001-01-01T00:00:00Z","name_a2s":"Uncletopia | Warsaw | 3 | All Maps","protocol":17,"map":"koth_lakeside_final","folder":"tf","game":"Team Fortress","app_id":440,"player_count":0,"max_players":24,"Bots":0,"server_type":"Dedicated","server_os":"Linux","password":true,"vac":true,"version":"7742253","steam_id":85568392925397852,"keywords":["cp","nocrits","nodmgspread","uncletopia"],"game_id":440,"stv_port":27036,"stv_name":"Uncletopia | Warsaw | 3 | All Maps | STV","players":null},{"server_id":52,"name":"Uncletopia | Warsaw | 4 | All Maps","name_short":"waw-4","host":"waw-1.pl.uncletopia.com","port":27045,"enabled":true,"region":"eu","cc":"pl","latitude":52.2297,"longitude":21.017532,"reserved":0,"last_update":"0001-01-01T00:00:00Z","name_a2s":"Uncletopia | Warsaw | 4 | All Maps","protocol":17,"map":"koth_cascade","folder":"tf","game":"Team Fortress","app_id":440,"player_count":0,"max_players":24,"Bots":0,"server_type":"Dedicated","server_os":"Linux","password":true,"vac":true,"version":"7742253","steam_id":85568392925397853,"keywords":["cp","nocrits","nodmgspread","uncletopia"],"game_id":440,"stv_port":27046,"stv_name":"Uncletopia | Warsaw | 4 | All Maps | STV","players":null},{"server_id":53,"name":"Uncletopia | Warsaw | 5 | Stopwatch Beta","name_short":"waw-5","host":"waw-1.pl.uncletopia.com","port":27055,"enabled":true,"region":"eu","cc":"pl","latitude":52.2297,"longitude":21.017532,"reserved":0,"last_update":"0001-01-01T00:00:00Z","name_a2s":"Uncletopia | Warsaw | 5 | Stopwatch Beta","protocol":17,"map":"pl_swiftwater_final1","folder":"tf","game":"Team Fortress","app_id":440,"player_count":0,"max_players":24,"Bots":0,"server_type":"Dedicated","server_os":"Linux","password":true,"vac":true,"version":"7742253","steam_id":85568392925397854,"keywords":["nocrits","nodmgspread","payload","uncletopia"],"game_id":440,"stv_port":27056,"stv_name":"Uncletopia | Warsaw | 5 | Stopwatch Beta | STV","players":null},{"server_id":54,"name":"Uncletopia | Warsaw | 6 | Community","name_short":"waw-6","host":"waw-1.pl.uncletopia.com","port":27065,"enabled":true,"region":"eu","cc":"pl","latitude":52.2297,"longitude":21.017532,"reserved":0,"last_update":"0001-01-01T00:00:00Z","name_a2s":"Uncletopia | Warsaw | 6 | Community","protocol":17,"map":"koth_highpass","folder":"tf","game":"Team Fortress","app_id":440,"player_count":0,"max_players":24,"Bots":0,"server_type":"Dedicated","server_os":"Linux","password":true,"vac":true,"version":"7742253","steam_id":85568392925397856,"keywords":["cp","nocrits","nodmgspread","uncletopia"],"game_id":440,"stv_port":27066,"stv_name":"Uncletopia | Warsaw | 6 | Community | STV","players":null}]}