{"status":true,"message":"","result":[{"server_id":2,"name":"Uncletopia | Chicago | 1 | All Maps","name_short":"chi-1","host":"chi-1.us.uncletopia.com","port":27015,"enabled":true,"region":"us-central","cc":"us","latitude":41.881832,"longitude":-87.62318,"reserved":0,"last_update":"0001-01-01T00:00:00Z","name_a2s":"Uncletopia | Chicago | 1 | All Maps","protocol":17,"map":"pl_snowycoast","folder":"tf","game":"Team Fortress","app_id":440,"player_count":24,"max_players":24,"Bots":0,"server_type":"Dedicated","server_os":"Linux","password":true,"vac":true,"version":"7961495","steam_id":85568392924469984,"keywords":["nocrits","nodmgspread","payload","uncletopia"],"game_id":440,"stv_port":27016,"stv_name":"Uncletopia | Chicago | 1 | All Maps | STV","players":[{"user_id":698,"name":"aphexjh","steam_id":76561197985854658,"connected_time":926000000000,"state":"active","ping":58},{"user_id":701,"name":"Koala Bear","steam_id":76561198118025990,"connected_time":822000000000,"state":"active","ping":86},{"user_id":637,"name":"Rec","steam_id":76561198022813906,"connected_time":5027000000000,"state":"active","ping":53},{"user_id":689,"name":"Kindagoodplayer","steam_id":76561198814625843,"connected_time":1208000000000,"state":"active","ping":76},{"user_id":703,"name":"leesh","steam_id":76561198079603938,"connected_time":803000000000,"state":"active","ping":61},{"user_id":694,"name":"cpg","steam_id":76561198853515541,"connected_time":1090000000000,"state":"active","ping":91},{"user_id":663,"name":"Grand","steam_id":76561198290143399,"connected_time":1779000000000,"state":"active","ping":62},{"user_id":695,"name":"King","steam_id":76561198039763676,"connected_time":1030000000000,"state":"active","ping":63},{"user_id":682,"name":"JtsRes","steam_id":76561197994809241,"connected_time":1408000000000,"state":"active","ping":63},{"user_id":702,"name":"TheAlmightyG","steam_id":76561198235946096,"connected_time":821000000000,"state":"active","ping":93},{"user_id":677,"name":"Gluestick","steam_id":76561199013430308,"connected_time":1540000000000,"state":"active","ping":89},{"user_id":671,"name":"Jak(i)","steam_id":76561198076823144,"connected_time":1715000000000,"state":"active","ping":63},{"user_id":666,"name":"Emerald Blaziken","steam_id":76561198821943366,"connected_time":1748000000000,"state":"active","ping":101},{"user_id":708,"name":"Celestial Bodies","steam_id":76561198212572955,"connected_time":289000000000,"state":"active","ping":78},{"user_id":709,"name":"Ryzema","steam_id":76561198165594229,"connected_time":285000000000,"state":"active","ping":88},{"user_id":705,"name":"AudioMedic","steam_id":76561198333939032,"connected_time":738000000000,"state":"active","ping":69},{"user_id":697,"name":"Cheatcommando","steam_id":76561198034825735,"connected_time":988000000000,"state":"active","ping":55},{"user_id":680,"name":"Girl gamer","steam_id":76561198237827742,"connected_time":1516000000000,"state":"active","ping":65},{"user_id":699,"name":"Toygar","steam_id":76561198023679830,"connected_time":878000000000,"state":"active","ping":47},{"user_id":692,"name":"Bradz","steam_id":76561198175090085,"connected_time":1168000000000,"state":"active","ping":90},{"user_id":707,"name":"Tile(s)","steam_id":76561198196660338,"connected_time":730000000000,"state":"active","ping":75},{"user_id":686,"name":"Frigus","steam_id":76561198408533295,"connected_time":1292000000000,"state":"active","ping":89},{"user_id":661,"name":"FattSucc","steam_id":76561198009500503,"connected_time":1790000000000,"state":"active","ping":88},{"user_id":693,"name":"AvNGL","steam_id":76561198253395395,"connected_time":1164000000000,"state":"active","ping":105}]},{"server_id":106,"name":"Uncletopia | Chicago | 2 | All Maps","name_short":"chi-2","host":"chi-1.us.uncletopia.com","port":27025,"enabled":true,"region":"us-central","cc":"us","latitude":41.881832,"longitude":-87.62318,"reserved":0,"last_update":"0001-01-01T00:00:00Z","name_a2s":"Uncletopia | Chicago | 2 | All Maps","protocol":17,"map":"pl_badwater","folder":"tf","game":"Team Fortress","app_id":440,"player_count":24,"max_players":24,"Bots":0,"server_type":"Dedicated","server_os":"Linux","password":true,"vac":true,"version":"7961495","steam_id":85568392924469985,"keywords":["nocrits","nodmgspread","payload","uncletopia"],"game_id":440,"stv_port":27026,"stv_name":"Uncletopia | Chicago | 2 | All Maps | STV","players":[{"user_id":325,"name":"Prod. By WARCHI3F","steam_id":76561198871224298,"connected_time":7275000000000,"state":"active","ping":74},{"user_id":385,"name":"Zombiehunter11","steam_id":76561198237517830,"connected_time":1123000000000,"state":"active","ping":90},{"user_id":387,"name":"if i miss I WILL KILL MYSELF!!!","steam_id":76561198253747839,"connected_time":969000000000,"state":"active","ping":48},{"user_id":376,"name":"com lag","steam_id":76561198019019392,"connected_time":1838000000000,"state":"active","ping":46},{"user_id":383,"name":"Thundermonkey (SMOKE)","steam_id":76561198017631728,"connected_time":1467000000000,"state":"active","ping":61},{"user_id":366,"name":"ATL1 | SparkStorm","steam_id":76561198095817025,"connected_time":4126000000000,"state":"active","ping":46},{"user_id":370,"name":"LtSalte","steam_id":76561198004721081,"connected_time":4014000000000,"state":"active","ping":76},{"user_id":401,"name":"Pixel","steam_id":76561198129243055,"connected_time":75000000000,"state":"active","ping":53},{"user_id":397,"name":"Stranger in a Strange Land","steam_id":76561198049843671,"connected_time":379000000000,"state":"active","ping":61},{"user_id":280,"name":"Mavrick","steam_id":76561198039678150,"connected_time":11667000000000,"state":"active","ping":61},{"user_id":343,"name":"D(b) Hell","steam_id":76561198067869016,"connected_time":5696000000000,"state":"active","ping":43},{"user_id":400,"name":"bootyrash","steam_id":76561198164114737,"connected_time":282000000000,"state":"active","ping":68},{"user_id":373,"name":"hej","steam_id":76561197996366940,"connected_time":2753000000000,"state":"active","ping":59},{"user_id":391,"name":"I'mWalkerHere","steam_id":76561199310055450,"connected_time":646000000000,"state":"active","ping":90},{"user_id":392,"name":"kent C Straight","steam_id":76561198056190259,"connected_time":646000000000,"state":"active","ping":62},{"user_id":393,"name":"anipe10","steam_id":76561199084698417,"connected_time":634000000000,"state":"active","ping":95},{"user_id":390,"name":"HanakoToast","steam_id":76561198045233131,"connected_time":668000000000,"state":"active","ping":104},{"user_id":338,"name":"Swash","steam_id":76561197969421355,"connected_time":6180000000000,"state":"active","ping":72},{"user_id":378,"name":"DinkleBerg","steam_id":76561198891626233,"connected_time":1735000000000,"state":"active","ping":67},{"user_id":310,"name":"Word To Your Mothership","steam_id":76561198034329138,"connected_time":8604000000000,"state":"active","ping":99},{"user_id":380,"name":"anonion","steam_id":76561198056477584,"connected_time":1668000000000,"state":"active","ping":89},{"user_id":311,"name":"Fredfredfood","steam_id":76561198072824802,"connected_time":8590000000000,"state":"active","ping":58},{"user_id":394,"name":"k3ramb1t","steam_id":76561198097880352,"connected_time":624000000000,"state":"active","ping":80},{"user_id":396,"name":"(`･ω･´)","steam_id":76561198000045766,"connected_time":489000000000,"state":"active","ping":61}]},{"server_id":402,"name":"Uncletopia | Chicago | 3 | All Maps","name_short":"chi-3","host":"chi-1.us.uncletopia.com","port":27035,"enabled":true,"region":"us-central","cc":"us","latitude":41.881832,"longitude":-87.62318,"reserved":0,"last_update":"0001-01-01T00:00:00Z","name_a2s":"Uncletopia | Chicago | 3 | All Maps","protocol":17,"map":"cp_snakewater_final1","folder":"tf","game":"Team Fortress","app_id":440,"player_count":24,"max_players":24,"Bots":0,"server_type":"Dedicated","server_os":"Linux","password":true,"vac":true,"version":"7961495","steam_id":85568392924515191,"keywords":["cp","nocrits","nodmgspread","uncletopia"],"game_id":440,"stv_port":27036,"stv_name":"Uncletopia | Chicago | 3 | All Maps | STV","players":[{"user_id":423,"name":"Bearingtonn","steam_id":76561198338949704,"connected_time":1131000000000,"state":"active","ping":70},{"user_id":422,"name":"DISCHARGEENJOYER2004","steam_id":76561198273568117,"connected_time":1224000000000,"state":"active","ping":72},{"user_id":436,"name":"Wheely Williams","steam_id":76561198880523320,"connected_time":724000000000,"state":"active","ping":110},{"user_id":451,"name":"Peppino Spaghetti","steam_id":76561199390353195,"connected_time":183000000000,"state":"active","ping":46},{"user_id":445,"name":"superwarm07","steam_id":76561199196313157,"connected_time":335000000000,"state":"active","ping":81},{"user_id":440,"name":"resh!","steam_id":76561198066619792,"connected_time":622000000000,"state":"active","ping":71},{"user_id":446,"name":"dmikewilcox","steam_id":76561198060700489,"connected_time":312000000000,"state":"active","ping":39},{"user_id":421,"name":"NvAka","steam_id":76561199044781490,"connected_time":1595000000000,"state":"active","ping":62},{"user_id":448,"name":"Moon_Worthy","steam_id":76561198106321418,"connected_time":211000000000,"state":"active","ping":84},{"user_id":441,"name":"big fish","steam_id":76561198186479818,"connected_time":574000000000,"state":"active","ping":111},{"user_id":449,"name":"Gamba","steam_id":76561198069264650,"connected_time":207000000000,"state":"active","ping":60},{"user_id":450,"name":"leumas","steam_id":76561198240408540,"connected_time":204000000000,"state":"active","ping":76},{"user_id":381,"name":"Nyle","steam_id":76561198045652639,"connected_time":3793000000000,"state":"active","ping":135},{"user_id":428,"name":"SuperChief","steam_id":76561198046519824,"connected_time":1048000000000,"state":"active","ping":77},{"user_id":405,"name":"PissMaster^5","steam_id":76561198959576385,"connected_time":2494000000000,"state":"active","ping":69},{"user_id":408,"name":"Argo","steam_id":76561198353725622,"connected_time":2195000000000,"state":"active","ping":83},{"user_id":443,"name":"LUIGI DANGEROUS","steam_id":76561198303944190,"connected_time":388000000000,"state":"active","ping":62},{"user_id":426,"name":"[DATS➡] Sugar Meowth","steam_id":76561197995251793,"connected_time":1107000000000,"state":"active","ping":98},{"user_id":427,"name":"aisu","steam_id":76561198043768507,"connected_time":1082000000000,"state":"active","ping":63},{"user_id":433,"name":"Stupid","steam_id":76561198127348089,"connected_time":903000000000,"state":"active","ping":74},{"user_id":444,"name":"earl sweatshirt fan","steam_id":76561199177165894,"connected_time":367000000000,"state":"active","ping":46},{"user_id":389,"name":"stevert99","steam_id":76561198116762032,"connected_time":3250000000000,"state":"active","ping":63},{"user_id":431,"name":"rqru","steam_id":76561198856016840,"connected_time":996000000000,"state":"active","ping":65},{"user_id":439,"name":"bearly","steam_id":76561198094077510,"connected_time":675000000000,"state":"active","ping":59}]},{"server_id":403,"name":"Uncletopia | Chicago | 4 | All Maps","name_short":"chi-4","host":"chi-1.us.uncletopia.com","port":27045,"enabled":true,"region":"us-central","cc":"us","latitude":41.881832,"longitude":-87.62318,"reserved":0,"last_update":"0001-01-01T00:00:00Z","name_a2s":"Uncletopia | Chicago | 4 | All Maps","protocol":17,"map":"pl_badwater","folder":"tf","game":"Team Fortress","app_id":440,"player_count":24,"max_players":24,"Bots":0,"server_type":"Dedicated","server_os":"Linux","password":true,"vac":true,"version":"7961495","steam_id":85568392924515193,"keywords":["nocrits","nodmgspread","payload","uncletopia"],"game_id":440,"stv_port":27046,"stv_name":"Uncletopia | Chicago | 4 | All Maps | STV","players":[{"user_id":249,"name":"Willem Dafoe","steam_id":76561198037453253,"connected_time":440000000000,"state":"active","ping":54},{"user_id":250,"name":"bobby wasabi","steam_id":76561198380018244,"connected_time":429000000000,"state":"active","ping":75},{"user_id":241,"name":"[GUT] RiDiK®","steam_id":76561197969756446,"connected_time":1304000000000,"state":"active","ping":55},{"user_id":246,"name":"SSBM Pelican","steam_id":76561198040697907,"connected_time":483000000000,"state":"active","ping":63},{"user_id":198,"name":"v8o1","steam_id":76561198127599257,"connected_time":3424000000000,"state":"active","ping":88},{"user_id":242,"name":"Vaudeville Villain","steam_id":76561199212093339,"connected_time":915000000000,"state":"active","ping":67},{"user_id":247,"name":"Sulong","steam_id":76561198798244209,"connected_time":478000000000,"state":"active","ping":71},{"user_id":225,"name":"Crimson G","steam_id":76561198112970195,"connected_time":1865000000000,"state":"active","ping":111},{"user_id":226,"name":"defcon","steam_id":76561198100656328,"connected_time":1849000000000,"state":"active","ping":71},{"user_id":216,"name":"Emily50AE","steam_id":76561198088619665,"connected_time":2415000000000,"state":"active","ping":84},{"user_id":255,"name":"SneakyJayMLP","steam_id":76561198969565685,"connected_time":101000000000,"state":"active","ping":84},{"user_id":221,"name":"Kirby.exe","steam_id":76561198242714582,"connected_time":2151000000000,"state":"active","ping":60},{"user_id":252,"name":"gideon nav my beloved","steam_id":76561198259092181,"connected_time":388000000000,"state":"active","ping":61},{"user_id":197,"name":"Nobody","steam_id":76561198085808754,"connected_time":3448000000000,"state":"active","ping":85},{"user_id":228,"name":"ameritech","steam_id":76561198064769089,"connected_time":1825000000000,"state":"active","ping":47},{"user_id":256,"name":"[Melon]","steam_id":76561198010161125,"connected_time":53000000000,"state":"active","ping":42},{"user_id":171,"name":"ryan55510","steam_id":76561198054750052,"connected_time":6651000000000,"state":"active","ping":161},{"user_id":238,"name":"pinguez","steam_id":76561199003447981,"connected_time":1573000000000,"state":"active","ping":82},{"user_id":233,"name":"Saggy Haggis Balls","steam_id":76561198047845399,"connected_time":1737000000000,"state":"active","ping":74},{"user_id":239,"name":"Kzjytsugn","steam_id":76561198130241974,"connected_time":1485000000000,"state":"active","ping":87},{"user_id":243,"name":"Spiderfight1","steam_id":76561199189991528,"connected_time":591000000000,"state":"active","ping":90},{"user_id":257,"name":"Clyde","steam_id":76561198158206236,"connected_time":38000000000,"state":"active","ping":105},{"user_id":99,"name":"the lizard that monitors","steam_id":76561198092135570,"connected_time":12798000000000,"state":"active","ping":60},{"user_id":254,"name":"Colonel Chikara","steam_id":76561198010021087,"connected_time":387000000000,"state":"active","ping":99}]},{"server_id":36,"name":"Uncletopia | Chicago | 5 | All Maps","name_short":"chi-5","host":"chi-2.us.uncletopia.com","port":27015,"enabled":true,"region":"us-central","cc":"us","latitude":41.881832,"longitude":-87.62318,"reserved":0,"last_update":"0001-01-01T00:00:00Z","name_a2s":"Uncletopia | Chicago | 5 | All Maps","protocol":17,"map":"pl_badwater","folder":"tf","game":"Team Fortress","app_id":440,"player_count":24,"max_players":24,"Bots":0,"server_type":"Dedicated","server_os":"Linux","password":true,"vac":true,"version":"7961495","steam_id":85568392924866362,"keywords":["nocrits","nodmgspread","payload","uncletopia"],"game_id":440,"stv_port":27016,"stv_name":"Uncletopia | Chicago | 5 | All Maps | STV","players":[{"user_id":370,"name":"Chevlanae","steam_id":76561198038180603,"connected_time":3472000000000,"state":"active","ping":61},{"user_id":414,"name":"Twitch.tv/frostsnail","steam_id":76561197989859175,"connected_time":865000000000,"state":"active","ping":148},{"user_id":416,"name":"Angry Ginger","steam_id":76561198256929349,"connected_time":582000000000,"state":"active","ping":59},{"user_id":401,"name":"b1doof","steam_id":76561198078934921,"connected_time":1474000000000,"state":"active","ping":176},{"user_id":303,"name":"Theory-LOL","steam_id":76561198116419931,"connected_time":8084000000000,"state":"active","ping":111},{"user_id":404,"name":"Synergy","steam_id":76561198098630198,"connected_time":1419000000000,"state":"active","ping":104},{"user_id":402,"name":"tokki","steam_id":76561198328173826,"connected_time":1456000000000,"state":"active","ping":148},{"user_id":392,"name":"FiddyFoMike","steam_id":76561198057072581,"connected_time":2095000000000,"state":"active","ping":103},{"user_id":419,"name":"Jbomb","steam_id":76561199197866625,"connected_time":253000000000,"state":"active","ping":91},{"user_id":380,"name":"Riandox","steam_id":76561198130577326,"connected_time":2890000000000,"state":"active","ping":60},{"user_id":375,"name":"VelocityCubeR","steam_id":76561198044351011,"connected_time":3239000000000,"state":"active","ping":51},{"user_id":403,"name":"Gomashu","steam_id":76561197966573082,"connected_time":1435000000000,"state":"active","ping":55},{"user_id":389,"name":"toastman","steam_id":76561198207073088,"connected_time":2407000000000,"state":"active","ping":73},{"user_id":406,"name":"Bignuts69","steam_id":76561199302763718,"connected_time":1403000000000,"state":"active","ping":49},{"user_id":394,"name":"Small Boobs","steam_id":76561198045230921,"connected_time":2092000000000,"state":"active","ping":56},{"user_id":408,"name":"Mint Jelly","steam_id":76561197991286751,"connected_time":1379000000000,"state":"active","ping":48},{"user_id":396,"name":"Kerbal01","steam_id":76561198080296298,"connected_time":2076000000000,"state":"active","ping":72},{"user_id":412,"name":"BlasterPrime","steam_id":76561198084154062,"connected_time":1233000000000,"state":"active","ping":70},{"user_id":399,"name":"Thunder Tits","steam_id":76561198016067883,"connected_time":1673000000000,"state":"active","ping":70},{"user_id":417,"name":"BugsAreMyWorstEnemy","steam_id":76561199440395505,"connected_time":327000000000,"state":"active","ping":72},{"user_id":413,"name":"Universe Man","steam_id":76561197997710655,"connected_time":1229000000000,"state":"active","ping":89},{"user_id":411,"name":"❤ Ashley ❤","steam_id":76561198056428303,"connected_time":1359000000000,"state":"active","ping":105},{"user_id":332,"name":"Motreir","steam_id":76561198151717946,"connected_time":5966000000000,"state":"active","ping":83},{"user_id":367,"name":"buckydargon","steam_id":76561197991480502,"connected_time":3543000000000,"state":"active","ping":93}]},{"server_id":37,"name":"Uncletopia | Chicago | 6 | All Maps","name_short":"chi-6","host":"chi-2.us.uncletopia.com","port":27025,"enabled":true,"region":"us-central","cc":"us","latitude":41.881832,"longitude":-87.62318,"reserved":0,"last_update":"0001-01-01T00:00:00Z","name_a2s":"Uncletopia | Chicago | 6 | All Maps","protocol":17,"map":"pl_upward","folder":"tf","game":"Team Fortress","app_id":440,"player_count":24,"max_players":24,"Bots":0,"server_type":"Dedicated","server_os":"Linux","password":true,"vac":true,"version":"7961495","steam_id":85568392924866363,"keywords":["nocrits","nodmgspread","payload","uncletopia"],"game_id":440,"stv_port":27026,"stv_name":"Uncletopia | Chicago | 6 | All Maps | STV","players":[{"user_id":135,"name":"Smooth, Refreshing Bleach™","steam_id":76561197981060504,"connected_time":5930000000000,"state":"active","ping":45},{"user_id":196,"name":"eish","steam_id":76561198089463603,"connected_time":1282000000000,"state":"active","ping":133},{"user_id":207,"name":"DrNook","steam_id":76561198074626309,"connected_time":726000000000,"state":"active","ping":85},{"user_id":214,"name":"Mighty","steam_id":76561198096569755,"connected_time":328000000000,"state":"active","ping":97},{"user_id":222,"name":"[.mp3]","steam_id":76561199054926436,"connected_time":190000000000,"state":"active","ping":65},{"user_id":144,"name":"scapegoat","steam_id":76561198188722751,"connected_time":5579000000000,"state":"active","ping":90},{"user_id":210,"name":"DoomsdaySnail","steam_id":76561198131444200,"connected_time":425000000000,"state":"active","ping":72},{"user_id":187,"name":"Flint","steam_id":76561198148412420,"connected_time":1913000000000,"state":"active","ping":73},{"user_id":212,"name":"L to the OG","steam_id":76561199215811448,"connected_time":415000000000,"state":"active","ping":84},{"user_id":199,"name":"dicksnip","steam_id":76561198356515396,"connected_time":1226000000000,"state":"active","ping":75},{"user_id":200,"name":"Oddball","steam_id":76561198040440984,"connected_time":1196000000000,"state":"active","ping":68},{"user_id":213,"name":"ikean","steam_id":76561198313364985,"connected_time":408000000000,"state":"active","ping":74},{"user_id":182,"name":"Neophyte","steam_id":76561198027183394,"connected_time":2734000000000,"state":"active","ping":125},{"user_id":208,"name":"Zephyr","steam_id":76561198129785553,"connected_time":719000000000,"state":"active","ping":67},{"user_id":223,"name":"Yung Boosie Badazzz","steam_id":76561198079416065,"connected_time":111000000000,"state":"active","ping":78},{"user_id":216,"name":"poiuytrewqwqwqwqwqwqwqwqwqwqwqw","steam_id":76561199105253001,"connected_time":289000000000,"state":"active","ping":71},{"user_id":188,"name":"crispylego_","steam_id":76561199453679719,"connected_time":1896000000000,"state":"active","ping":139},{"user_id":203,"name":"Tue","steam_id":76561198181668501,"connected_time":1073000000000,"state":"active","ping":92},{"user_id":125,"name":"thebeast","steam_id":76561198255963049,"connected_time":6554000000000,"state":"active","ping":112},{"user_id":219,"name":"OneLess","steam_id":76561198150870338,"connected_time":235000000000,"state":"active","ping":81},{"user_id":193,"name":"Poo","steam_id":76561198265144507,"connected_time":1397000000000,"state":"active","ping":96},{"user_id":218,"name":"thomas gerald the rat jr","steam_id":76561198087666917,"connected_time":257000000000,"state":"active","ping":59},{"user_id":140,"name":"Rappitor","steam_id":76561198105613110,"connected_time":5862000000000,"state":"active","ping":68},{"user_id":179,"name":"Tax evader","steam_id":76561199062081467,"connected_time":2773000000000,"state":"active","ping":80}]},{"server_id":38,"name":"Uncletopia | Chicago | 7 | Stopwatch Beta","name_short":"chi-7","host":"chi-2.us.uncletopia.com","port":27035,"enabled":true,"region":"us-central","cc":"us","latitude":41.881832,"longitude":-87.62318,"reserved":0,"last_update":"0001-01-01T00:00:00Z","name_a2s":"Uncletopia | Chicago | 7 | Stopwatch Beta","protocol":17,"map":"workshop/pl_barnblitz_pro7.ugc582280235","folder":"tf","game":"Team Fortress","app_id":440,"player_count":0,"max_players":24,"Bots":0,"server_type":"Dedicated","server_os":"Linux","password":true,"vac":true,"version":"7961495","steam_id":85568392924866364,"keywords":["nocrits","nodmgspread","payload","uncletopia"],"game_id":440,"stv_port":27036,"stv_name":"Uncletopia | Chicago | 7 | Stopwatch Beta | STV","players":null},{"server_id":39,"name":"Uncletopia | Chicago | 8 | Community","name_short":"chi-8","host":"chi-2.us.uncletopia.com","port":27045,"enabled":true,"region":"us-central","cc":"us","latitude":41.881832,"longitude":-87.62318,"reserved":0,"last_update":"0001-01-01T00:00:00Z","name_a2s":"Uncletopia | Chicago | 8 | Community","protocol":17,"map":"workshop/pl_barnblitz_pro7.ugc582280235","folder":"tf","game":"Team Fortress","app_id":440,"player_count":24,"max_players":24,"Bots":0,"server_type":"Dedicated","server_os":"Linux","password":true,"vac":true,"version":"7961495","steam_id":85568392924866365,"keywords":["nocrits","nodmgspread","payload","uncletopia"],"game_id":440,"stv_port":27046,"stv_name":"Uncletopia | Chicago | 8 | Community | STV","players":[{"user_id":224,"name":"Randumb","steam_id":76561199083286636,"connected_time":995000000000,"state":"active","ping":75},{"user_id":204,"name":"Runny Eggs","steam_id":76561198006785882,"connected_time":3364000000000,"state":"active","ping":78},{"user_id":225,"name":"hipster_doofus","steam_id":76561197970902697,"connected_time":990000000000,"state":"active","ping":146},{"user_id":214,"name":"Kєliη ☄☄☄","steam_id":76561198025495912,"connected_time":2638000000000,"state":"active","ping":58},{"user_id":222,"name":"gusty","steam_id":76561198048359020,"connected_time":1296000000000,"state":"active","ping":133},{"user_id":243,"name":"kat","steam_id":76561198099191938,"connected_time":173000000000,"state":"active","ping":52},{"user_id":223,"name":"Monophonic","steam_id":76561198001220466,"connected_time":1261000000000,"state":"active","ping":101},{"user_id":205,"name":"Jonesy","steam_id":76561197972504789,"connected_time":3276000000000,"state":"active","ping":89},{"user_id":241,"name":"caca sniffer","steam_id":76561199099914725,"connected_time":304000000000,"state":"active","ping":98},{"user_id":215,"name":"Sam","steam_id":76561197991129901,"connected_time":2622000000000,"state":"active","ping":61},{"user_id":208,"name":"2Kawaii2Die","steam_id":76561197978670111,"connected_time":2948000000000,"state":"active","ping":79},{"user_id":232,"name":"Cheesemelt","steam_id":76561198008221847,"connected_time":780000000000,"state":"active","ping":53},{"user_id":197,"name":"AncientMecha","steam_id":76561197984921885,"connected_time":3618000000000,"state":"active","ping":87},{"user_id":231,"name":"JustaDude013","steam_id":76561199151914748,"connected_time":788000000000,"state":"active","ping":95},{"user_id":239,"name":"Cruisin'","steam_id":76561199245457119,"connected_time":367000000000,"state":"active","ping":78},{"user_id":216,"name":"FROYO Ding Dong","steam_id":76561198379421700,"connected_time":2146000000000,"state":"active","ping":72},{"user_id":233,"name":"BluCoffee","steam_id":76561198214995967,"connected_time":779000000000,"state":"active","ping":80},{"user_id":159,"name":"Tankless Water Heater","steam_id":76561198014574925,"connected_time":5571000000000,"state":"active","ping":74},{"user_id":234,"name":"ispongebobz11","steam_id":76561198862843572,"connected_time":768000000000,"state":"active","ping":74},{"user_id":235,"name":"Killsocket","steam_id":76561199488942369,"connected_time":740000000000,"state":"active","ping":86},{"user_id":191,"name":"Shush","steam_id":76561198123902813,"connected_time":3827000000000,"state":"active","ping":102},{"user_id":183,"name":"Lv3 Kobold Shadow Sorcerer","steam_id":76561198042068995,"connected_time":4686000000000,"state":"active","ping":87},{"user_id":236,"name":"Matt","steam_id":76561198008108521,"connected_time":727000000000,"state":"active","ping":75},{"user_id":242,"name":"gvincentfroyo","steam_id":76561199473171461,"connected_time":227000000000,"state":"active","ping":75}]},{"server_id":8,"name":"Uncletopia | Dallas | 1 | All Maps","name_short":"dal-1","host":"dal-1.us.uncletopia.com","port":27015,"enabled":true,"region":"us-central","cc":"us","latitude":32.779167,"longitude":-96.80889,"reserved":0,"last_update":"0001-01-01T00:00:00Z","name_a2s":"Uncletopia | Dallas | 1 | All Maps","protocol":17,"map":"ctf_2fort","folder":"tf","game":"Team Fortress","app_id":440,"player_count":24,"max_players":24,"Bots":0,"server_type":"Dedicated","server_os":"Linux","password":true,"vac":true,"version":"7961495","steam_id":85568392924469986,"keywords":["ctf","nocrits","nodmgspread","uncletopia"],"game_id":440,"stv_port":27016,"stv_name":"Uncletopia | Dallas | 1 | All Maps | STV","players":[{"user_id":312,"name":"plink","steam_id":76561198057829889,"connected_time":1356000000000,"state":"active","ping":55},{"user_id":304,"name":"Shrederatershan","steam_id":76561199211707598,"connected_time":2319000000000,"state":"active","ping":85},{"user_id":202,"name":"Streetcleaner","steam_id":76561199160439080,"connected_time":10416000000000,"state":"active","ping":70},{"user_id":288,"name":"schmuck","steam_id":76561198143789773,"connected_time":3619000000000,"state":"active","ping":54},{"user_id":334,"name":"cook (not cock)","steam_id":76561198073106278,"connected_time":753000000000,"state":"active","ping":56},{"user_id":337,"name":"Marzz","steam_id":76561198059034982,"connected_time":135000000000,"state":"active","ping":91},{"user_id":285,"name":"fleepore (:","steam_id":76561199238295034,"connected_time":3877000000000,"state":"active","ping":70},{"user_id":274,"name":"Slopshit","steam_id":76561199105238226,"connected_time":4552000000000,"state":"active","ping":75},{"user_id":332,"name":"GOLDIE","steam_id":76561199375258674,"connected_time":997000000000,"state":"active","ping":83},{"user_id":313,"name":"Acro","steam_id":76561198092451804,"connected_time":1339000000000,"state":"active","ping":71},{"user_id":262,"name":"pinglefingle","steam_id":76561198216580197,"connected_time":5068000000000,"state":"active","ping":55},{"user_id":329,"name":"Proofessor","steam_id":76561198185282501,"connected_time":1116000000000,"state":"active","ping":59},{"user_id":289,"name":"BlueStar","steam_id":76561198214317468,"connected_time":3549000000000,"state":"active","ping":70},{"user_id":331,"name":"Sorry","steam_id":76561198040722720,"connected_time":1087000000000,"state":"active","ping":102},{"user_id":306,"name":"- Wαiτ, Whατ? -","steam_id":76561197977061311,"connected_time":1894000000000,"state":"active","ping":77},{"user_id":320,"name":"THE CREAM","steam_id":76561199122915452,"connected_time":1300000000000,"state":"active","ping":100},{"user_id":301,"name":"Rob","steam_id":76561199187786660,"connected_time":2797000000000,"state":"active","ping":53},{"user_id":223,"name":"Trashgaming","steam_id":76561199184268442,"connected_time":8696000000000,"state":"active","ping":105},{"user_id":336,"name":"Bogey","steam_id":76561198096227944,"connected_time":163000000000,"state":"active","ping":42},{"user_id":335,"name":"LampMan","steam_id":76561198079857527,"connected_time":243000000000,"state":"active","ping":49},{"user_id":333,"name":"BigDumbAnimal","steam_id":76561197998645697,"connected_time":965000000000,"state":"active","ping":72},{"user_id":326,"name":"irritable vowel syndrome","steam_id":76561198117033273,"connected_time":1165000000000,"state":"active","ping":154},{"user_id":296,"name":"Komada337","steam_id":76561198153971124,"connected_time":3047000000000,"state":"active","ping":76},{"user_id":297,"name":"noellehound (she/her)","steam_id":76561198108844158,"connected_time":3046000000000,"state":"active","ping":67}]},{"server_id":108,"name":"Uncletopia | Dallas | 2 | All Maps","name_short":"dal-2","host":"dal-1.us.uncletopia.com","port":27025,"enabled":true,"region":"us-central","cc":"us","latitude":32.779167,"longitude":-96.80889,"reserved":0,"last_update":"0001-01-01T00:00:00Z","name_a2s":"Uncletopia | Dallas | 2 | All Maps","protocol":17,"map":"pl_swiftwater_final1","folder":"tf","game":"Team Fortress","app_id":440,"player_count":24,"max_players":24,"Bots":0,"server_type":"Dedicated","server_os":"Linux","password":true,"vac":true,"version":"7961495","steam_id":85568392924469988,"keywords":["nocrits","nodmgspread","payload","uncletopia"],"game_id":440,"stv_port":27026,"stv_name":"Uncletopia | Dallas | 2 | All Maps | STV","players":[{"user_id":429,"name":"SAD MOSCOVIA","steam_id":76561198101081520,"connected_time":2154000000000,"state":"active","ping":119},{"user_id":446,"name":"Luna_Blossom","steam_id":76561198816384987,"connected_time":899000000000,"state":"active","ping":95},{"user_id":450,"name":"mdharsy","steam_id":76561198065831053,"connected_time":724000000000,"state":"active","ping":94},{"user_id":459,"name":"Commodore_Perry","steam_id":76561197986675784,"connected_time":322000000000,"state":"active","ping":91},{"user_id":452,"name":"ball destroyer (official)","steam_id":76561198349892286,"connected_time":508000000000,"state":"active","ping":78},{"user_id":448,"name":"GlizzLord","steam_id":76561198321010427,"connected_time":771000000000,"state":"active","ping":78},{"user_id":374,"name":"cringineer","steam_id":76561198864841966,"connected_time":7022000000000,"state":"active","ping":97},{"user_id":404,"name":"Manic","steam_id":76561198128149670,"connected_time":4910000000000,"state":"active","ping":45},{"user_id":443,"name":"3am drywall","steam_id":76561198964609865,"connected_time":1369000000000,"state":"active","ping":54},{"user_id":453,"name":"North","steam_id":76561198814844969,"connected_time":489000000000,"state":"active","ping":71},{"user_id":411,"name":"artichoke","steam_id":76561198980994364,"connected_time":4105000000000,"state":"active","ping":99},{"user_id":454,"name":"bubba simp club","steam_id":76561199338554815,"connected_time":474000000000,"state":"active","ping":87},{"user_id":438,"name":"Idk","steam_id":76561198971629959,"connected_time":1777000000000,"state":"active","ping":130},{"user_id":455,"name":"tesagi","steam_id":76561198026664629,"connected_time":470000000000,"state":"active","ping":75},{"user_id":417,"name":"Soda","steam_id":76561198219209367,"connected_time":3849000000000,"state":"active","ping":58},{"user_id":426,"name":"noel","steam_id":76561198128280883,"connected_time":2649000000000,"state":"active","ping":102},{"user_id":456,"name":"Sanic_Bum","steam_id":76561198094179822,"connected_time":468000000000,"state":"active","ping":75},{"user_id":447,"name":"Zizen","steam_id":76561199011832069,"connected_time":792000000000,"state":"active","ping":92},{"user_id":435,"name":"Holp","steam_id":76561199019186848,"connected_time":1846000000000,"state":"active","ping":65},{"user_id":449,"name":"shellaa","steam_id":76561198044124102,"connected_time":765000000000,"state":"active","ping":75},{"user_id":457,"name":"novu","steam_id":76561198886997024,"connected_time":468000000000,"state":"active","ping":111},{"user_id":420,"name":"OffAndSphere","steam_id":76561199062555733,"connected_time":3693000000000,"state":"active","ping":45},{"user_id":458,"name":"Lemony Lilly (She/Her)","steam_id":76561198042479066,"connected_time":450000000000,"state":"active","ping":77},{"user_id":384,"name":"Irritated Duck","steam_id":76561198247792076,"connected_time":6583000000000,"state":"active","ping":150}]},{"server_id":5,"name":"Uncletopia | Frankfurt | 1 | All Maps","name_short":"frk-1","host":"frk-1.de.uncletopia.com","port":27015,"enabled":true,"region":"eu","cc":"de","latitude":50.110924,"longitude":8.682127,"reserved":0,"last_update":"0001-01-01T00:00:00Z","name_a2s":"Uncletopia | Frankfurt | 1 | All Maps","protocol":17,"map":"pl_badwater","folder":"tf","game":"Team Fortress","app_id":440,"player_count":9,"max_players":24,"Bots":0,"server_type":"Dedicated","server_os":"Linux","password":true,"vac":true,"version":"7961495","steam_id":85568392924469989,"keywords":["nocrits","nodmgspread","payload","uncletopia"],"game_id":440,"stv_port":27016,"stv_name":"Uncletopia | Frankfurt | 1 | All Maps | STV","players":[{"user_id":769,"name":"Skrbi❤","steam_id":76561198393866042,"connected_time":457000000000,"state":"active","ping":77},{"user_id":765,"name":"Труп Володя","steam_id":76561198035718457,"connected_time":637000000000,"state":"active","ping":90},{"user_id":775,"name":"Malik794","steam_id":76561198967164437,"connected_time":64000000000,"state":"active","ping":104},{"user_id":694,"name":"Your local Elma person","steam_id":76561198032359132,"connected_time":5692000000000,"state":"active","ping":48},{"user_id":776,"name":"Pan Pan","steam_id":76561199074670515,"connected_time":62000000000,"state":"active","ping":155},{"user_id":778,"name":"Daniluck23","steam_id":76561199070594080,"connected_time":20000000000,"state":"spawning","ping":58},{"user_id":779,"name":"rodeybodey","steam_id":76561198165351355,"connected_time":19000000000,"state":"active","ping":89},{"user_id":761,"name":"Dan86130","steam_id":76561199187190436,"connected_time":788000000000,"state":"active","ping":59},{"user_id":666,"name":"ehehehehehhe","steam_id":76561198044502435,"connected_time":8380000000000,"state":"active","ping":73}]},{"server_id":110,"name":"Uncletopia | Frankfurt | 2 | All Maps","name_short":"frk-2","host":"frk-1.de.uncletopia.com","port":27025,"enabled":true,"region":"eu","cc":"de","latitude":50.110924,"longitude":8.682127,"reserved":0,"last_update":"0001-01-01T00:00:00Z","name_a2s":"Uncletopia | Frankfurt | 2 | All Maps","protocol":17,"map":"pl_borneo","folder":"tf","game":"Team Fortress","app_id":440,"player_count":23,"max_players":24,"Bots":0,"server_type":"Dedicated","server_os":"Linux","password":true,"vac":true,"version":"7961495","steam_id":85568392924469990,"keywords":["nocrits","nodmgspread","payload","uncletopia"],"game_id":440,"stv_port":27026,"stv_name":"Uncletopia | Frankfurt | 2 | All Maps | STV","players":[{"user_id":669,"name":"KaasKrans","steam_id":76561198240451972,"connected_time":705000000000,"state":"active","ping":61},{"user_id":668,"name":"PsychoПАТ","steam_id":76561198074777220,"connected_time":722000000000,"state":"active","ping":86},{"user_id":667,"name":"Penis Contortionist","steam_id":76561198073663784,"connected_time":733000000000,"state":"active","ping":56},{"user_id":660,"name":"rmz.ssj","steam_id":76561198329613930,"connected_time":950000000000,"state":"active","ping":64},{"user_id":688,"name":"Opti","steam_id":76561197968902518,"connected_time":186000000000,"state":"active","ping":58},{"user_id":661,"name":"Панцирь С1","steam_id":76561198094765856,"connected_time":947000000000,"state":"active","ping":105},{"user_id":670,"name":"Gugu","steam_id":76561198161822358,"connected_time":634000000000,"state":"active","ping":59},{"user_id":671,"name":"Lord","steam_id":76561198241305816,"connected_time":619000000000,"state":"active","ping":127},{"user_id":672,"name":"thia","steam_id":76561198186366599,"connected_time":603000000000,"state":"active","ping":86},{"user_id":682,"name":"travis","steam_id":76561198138119811,"connected_time":331000000000,"state":"active","ping":55},{"user_id":621,"name":"ralph62x","steam_id":76561198865294231,"connected_time":2314000000000,"state":"active","ping":65},{"user_id":674,"name":"muslim hatsune miku","steam_id":76561198258504847,"connected_time":541000000000,"state":"active","ping":84},{"user_id":644,"name":"ThreeSixSteve","steam_id":76561198156221826,"connected_time":1090000000000,"state":"active","ping":57},{"user_id":689,"name":"Worcestershire","steam_id":76561197982352114,"connected_time":186000000000,"state":"active","ping":54},{"user_id":683,"name":"bricked","steam_id":76561198123562445,"connected_time":308000000000,"state":"active","ping":56},{"user_id":699,"name":"metamikko","steam_id":76561198324704234,"connected_time":11000000000,"state":"spawning","ping":1038},{"user_id":678,"name":"LEGEND FUMO.","steam_id":76561198061033903,"connected_time":438000000000,"state":"active","ping":62},{"user_id":690,"name":"Qdarks","steam_id":76561198013391340,"connected_time":185000000000,"state":"active","ping":146},{"user_id":686,"name":"Dåvid","steam_id":76561198184135755,"connected_time":271000000000,"state":"active","ping":58},{"user_id":694,"name":"Reprobus","steam_id":76561198332243756,"connected_time":148000000000,"state":"active","ping":52},{"user_id":692,"name":"Mike","steam_id":76561198228455736,"connected_time":174000000000,"state":"active","ping":63},{"user_id":695,"name":"RC","steam_id":76561198142757466,"connected_time":147000000000,"state":"active","ping":99},{"user_id":696,"name":"Rai-the-CobaltClaw","steam_id":76561198027741747,"connected_time":147000000000,"state":"active","ping":77}]},{"server_id":308,"name":"Uncletopia | Frankfurt | 3 | All Maps","name_short":"frk-3","host":"frk-1.de.uncletopia.com","port":27035,"enabled":true,"region":"eu","cc":"de","latitude":50.110924,"longitude":8.682127,"reserved":0,"last_update":"0001-01-01T00:00:00Z","name_a2s":"Uncletopia | Frankfurt | 3 | All Maps","protocol":17,"map":"cp_process_final","folder":"tf","game":"Team Fortress","app_id":440,"player_count":24,"max_players":24,"Bots":0,"server_type":"Dedicated","server_os":"Linux","password":true,"vac":true,"version":"7961495","steam_id":85568392924504274,"keywords":["cp","nocrits","nodmgspread","uncletopia"],"game_id":440,"stv_port":27036,"stv_name":"Uncletopia | Frankfurt | 3 | All Maps | STV","players":[{"user_id":643,"name":"Envy","steam_id":76561198132723219,"connected_time":460000000000,"state":"active","ping":98},{"user_id":644,"name":"Qwerty","steam_id":76561198023525894,"connected_time":436000000000,"state":"active","ping":78},{"user_id":631,"name":"frog appreciation","steam_id":76561198324365001,"connected_time":852000000000,"state":"active","ping":61},{"user_id":632,"name":"Frostbite Nipples","steam_id":76561198044151769,"connected_time":849000000000,"state":"active","ping":71},{"user_id":561,"name":"xavier","steam_id":76561198076494034,"connected_time":4571000000000,"state":"active","ping":57},{"user_id":605,"name":"Wilderhammer","steam_id":76561198132133702,"connected_time":1589000000000,"state":"active","ping":41},{"user_id":592,"name":"Mi Manchi","steam_id":76561198171573129,"connected_time":2200000000000,"state":"active","ping":52},{"user_id":635,"name":"CaptainMac","steam_id":76561198273156139,"connected_time":832000000000,"state":"active","ping":44},{"user_id":653,"name":"Cava","steam_id":76561198054840118,"connected_time":49000000000,"state":"active","ping":72},{"user_id":645,"name":"Ch4bby","steam_id":76561198058792875,"connected_time":421000000000,"state":"active","ping":56},{"user_id":633,"name":"DNA2","steam_id":76561198254037873,"connected_time":845000000000,"state":"active","ping":60},{"user_id":634,"name":"Walle","steam_id":76561197995148937,"connected_time":843000000000,"state":"active","ping":71},{"user_id":646,"name":"tm`","steam_id":76561197993580412,"connected_time":388000000000,"state":"active","ping":59},{"user_id":630,"name":"twscsvl","steam_id":76561198045304929,"connected_time":959000000000,"state":"active","ping":90},{"user_id":650,"name":"REN","steam_id":76561198000596385,"connected_time":253000000000,"state":"active","ping":68},{"user_id":554,"name":"Gen","steam_id":76561198021775885,"connected_time":4863000000000,"state":"active","ping":51},{"user_id":637,"name":"Manslayer","steam_id":76561198063956707,"connected_time":800000000000,"state":"active","ping":58},{"user_id":648,"name":"Juliderkek","steam_id":76561198962270674,"connected_time":341000000000,"state":"active","ping":68},{"user_id":638,"name":"Shovelhalfrusty","steam_id":76561198346447513,"connected_time":799000000000,"state":"active","ping":68},{"user_id":652,"name":"angry soviet","steam_id":76561198190005183,"connected_time":95000000000,"state":"active","ping":69},{"user_id":640,"name":"AnalBypass1989","steam_id":76561198052356557,"connected_time":784000000000,"state":"active","ping":88},{"user_id":552,"name":"Yangus","steam_id":76561198147796010,"connected_time":5003000000000,"state":"active","ping":62},{"user_id":587,"name":"MrKampfCookie","steam_id":76561198085490175,"connected_time":2955000000000,"state":"active","ping":46},{"user_id":588,"name":"wouris","steam_id":76561198876188003,"connected_time":2955000000000,"state":"active","ping":60}]},{"server_id":309,"name":"Uncletopia | Frankfurt | 4 | All Maps","name_short":"frk-4","host":"frk-1.de.uncletopia.com","port":27045,"enabled":true,"region":"eu","cc":"de","latitude":50.110924,"longitude":8.682127,"reserved":0,"last_update":"0001-01-01T00:00:00Z","name_a2s":"Uncletopia | Frankfurt | 4 | All Maps","protocol":17,"map":"cp_sunshine","folder":"tf","game":"Team Fortress","app_id":440,"player_count":0,"max_players":24,"Bots":0,"server_type":"Dedicated","server_os":"Linux","password":true,"vac":true,"version":"7961495","steam_id":85568392924504275,"keywords":["cp","nocrits","nodmgspread","uncletopia"],"game_id":440,"stv_port":27046,"stv_name":"Uncletopia | Frankfurt | 4 | All Maps | STV","players":null},{"server_id":310,"name":"Uncletopia | Frankfurt | 5 | All Maps","name_short":"frk-5","host":"frk-1.de.uncletopia.com","port":27055,"enabled":true,"region":"eu","cc":"de","latitude":50.110924,"longitude":8.682127,"reserved":0,"last_update":"0001-01-01T00:00:00Z","name_a2s":"Uncletopia | Frankfurt | 5 | All Maps","protocol":17,"map":"cp_dustbowl","folder":"tf","game":"Team Fortress","app_id":440,"player_count":0,"max_players":24,"Bots":0,"server_type":"Dedicated","server_os":"Linux","password":true,"vac":true,"version":"7961495","steam_id":85568392924504277,"keywords":["cp","nocrits","nodmgspread","uncletopia"],"game_id":440,"stv_port":27056,"stv_name":"Uncletopia | Frankfurt | 5 | All Maps | STV","players":null},{"server_id":311,"name":"Uncletopia | Frankfurt | 6 | All Maps","name_short":"frk-6","host":"frk-1.de.uncletopia.com","port":27065,"enabled":true,"region":"eu","cc":"de","latitude":50.110924,"longitude":8.682127,"reserved":0,"last_update":"0001-01-01T00:00:00Z","name_a2s":"Uncletopia | Frankfurt | 6 | All Maps","protocol":17,"map":"cp_mountainlab","folder":"tf","game":"Team Fortress","app_id":440,"player_count":0,"max_players":24,"Bots":0,"server_type":"Dedicated","server_os":"Linux","password":true,"vac":true,"version":"7961495","steam_id":85568392924504278,"keywords":["cp","nocrits","nodmgspread","uncletopia"],"game_id":440,"stv_port":27066,"stv_name":"Uncletopia | Frankfurt | 6 | All Maps | STV","players":null},{"server_id":23,"name":"Uncletopia | Frankfurt | 7 | Stopwatch Beta","name_short":"frk-7","host":"frk-1.de.uncletopia.com","port":27075,"enabled":true,"region":"eu","cc":"de","latitude":50.110924,"longitude":8.682127,"reserved":0,"last_update":"0001-01-01T00:00:00Z","name_a2s":"Uncletopia | Frankfurt | 7 | Stopwatch Beta","protocol":17,"map":"workshop/koth_ashville_final.ugc2130459942","folder":"tf","game":"Team Fortress","app_id":440,"player_count":0,"max_players":24,"Bots":0,"server_type":"Dedicated","server_os":"Linux","password":true,"vac":true,"version":"7961495","steam_id":85568392924742827,"keywords":["cp","nocrits","nodmgspread","uncletopia"],"game_id":440,"stv_port":27076,"stv_name":"Uncletopia | Frankfurt | 7 | Stopwatch Beta | STV","players":null},{"server_id":24,"name":"Uncletopia | Frankfurt | 8 | Community","name_short":"frk-8","host":"frk-1.de.uncletopia.com","port":27085,"enabled":true,"region":"eu","cc":"de","latitude":50.110924,"longitude":8.682127,"reserved":0,"last_update":"0001-01-01T00:00:00Z","name_a2s":"Uncletopia | Frankfurt | 8 | Community","protocol":17,"map":"workshop/cp_caldera_rc2.ugc2834196889","folder":"tf","game":"Team Fortress","app_id":440,"player_count":0,"max_players":24,"Bots":0,"server_type":"Dedicated","server_os":"Linux","password":true,"vac":true,"version":"7961495","steam_id":85568392924742828,"keywords":["cp","nocrits","nodmgspread","uncletopia"],"game_id":440,"stv_port":27086,"stv_name":"Uncletopia | Frankfurt | 8 | Community | STV","players":null},{"server_id":202,"name":"Uncletopia | Hong Kong | 1 | All Maps","name_short":"hgk-1","host":"hgk-1.hk.uncletopia.com","port":27015,"enabled":true,"region":"asia","cc":"hk","latitude":22.302711,"longitude":114.177216,"reserved":0,"last_update":"0001-01-01T00:00:00Z","name_a2s":"Uncletopia | Hong Kong | 1 | All Maps","protocol":17,"map":"cp_process_final","folder":"tf","game":"Team Fortress","app_id":440,"player_count":0,"max_players":24,"Bots":0,"server_type":"Dedicated","server_os":"Linux","password":true,"vac":true,"version":"7961495","steam_id":85568392924494504,"keywords":["cp","nocrits","nodmgspread","uncletopia"],"game_id":440,"stv_port":27016,"stv_name":"Uncletopia | Hong Kong | 1 | All Maps | STV","players":null},{"server_id":1,"name":"Uncletopia | Los Angeles | 1 | All Maps","name_short":"lax-1","host":"lax-1.us.uncletopia.com","port":27015,"enabled":true,"region":"us-west","cc":"us","latitude":33.94279,"longitude":-118.41004,"reserved":0,"last_update":"0001-01-01T00:00:00Z","name_a2s":"Uncletopia | Los Angeles | 1 | All Maps","protocol":17,"map":"cp_mountainlab","folder":"tf","game":"Team Fortress","app_id":440,"player_count":25,"max_players":24,"Bots":0,"server_type":"Dedicated","server_os":"Linux","password":true,"vac":true,"version":"7961495","steam_id":85568392924469991,"keywords":["cp","nocrits","nodmgspread","uncletopia"],"game_id":440,"stv_port":27016,"stv_name":"Uncletopia | Los Angeles | 1 | All Maps | STV","players":[{"user_id":276,"name":"ShadowZiki","steam_id":76561198145930013,"connected_time":733000000000,"state":"active","ping":45},{"user_id":243,"name":"[Industrial] A_HUMBLEBUMBLED","steam_id":76561198064771878,"connected_time":4217000000000,"state":"active","ping":74},{"user_id":258,"name":"riSygneD","steam_id":76561198331618687,"connected_time":2707000000000,"state":"active","ping":33},{"user_id":263,"name":"flop","steam_id":76561197989058876,"connected_time":2316000000000,"state":"active","ping":72},{"user_id":280,"name":"Adam Wixord","steam_id":76561198077881405,"connected_time":149000000000,"state":"active","ping":42},{"user_id":283,"name":"vareh","steam_id":76561197993190926,"connected_time":101000000000,"state":"active","ping":94},{"user_id":281,"name":"dirty30","steam_id":76561198021226566,"connected_time":148000000000,"state":"active","ping":63},{"user_id":245,"name":"LennyDaLemon","steam_id":76561198855962735,"connected_time":4106000000000,"state":"active","ping":64},{"user_id":279,"name":"Cypress [ +/- ] ✔","steam_id":76561198067164431,"connected_time":174000000000,"state":"active","ping":39},{"user_id":269,"name":"Woody","steam_id":76561198055842769,"connected_time":1965000000000,"state":"active","ping":40},{"user_id":282,"name":"Abyssal with Guns","steam_id":76561198060746895,"connected_time":148000000000,"state":"active","ping":85},{"user_id":237,"name":"Darkspiral","steam_id":76561198080807559,"connected_time":4305000000000,"state":"active","ping":48},{"user_id":272,"name":"SesataPomang","steam_id":76561198145133059,"connected_time":1942000000000,"state":"active","ping":92},{"user_id":284,"name":"ashsillygoober","steam_id":76561199454622997,"connected_time":93000000000,"state":"active","ping":123},{"user_id":285,"name":"heavy","steam_id":76561199391478575,"connected_time":63000000000,"state":"active","ping":86},{"user_id":231,"name":"Cristanc99","steam_id":76561198114715810,"connected_time":4715000000000,"state":"active","ping":63},{"user_id":275,"name":"NFL.com","steam_id":76561198113405376,"connected_time":909000000000,"state":"active","ping":46},{"user_id":286,"name":"boof^","steam_id":76561198087074444,"connected_time":22000000000,"state":"spawning","ping":48},{"user_id":278,"name":"Vlad","steam_id":76561198072334604,"connected_time":324000000000,"state":"active","ping":85},{"user_id":228,"name":"JimmY","steam_id":76561198386339252,"connected_time":5303000000000,"state":"active","ping":77},{"user_id":267,"name":"vvitch","steam_id":76561198279661941,"connected_time":2184000000000,"state":"active","ping":45},{"user_id":287,"name":"StanchAxis","steam_id":76561199489268564,"connected_time":21000000000,"state":"active","ping":60},{"user_id":288,"name":"Reem0h","steam_id":76561198169848690,"connected_time":17000000000,"state":"spawning","ping":128},{"user_id":253,"name":"boobies arc","steam_id":76561198316753540,"connected_time":3290000000000,"state":"active","ping":41},{"user_id":289,"name":"Caspian","steam_id":76561199041466962,"connected_time":3000000000,"state":"spawning","ping":73}]},{"server_id":112,"name":"Uncletopia | Los Angeles | 2 | All Maps","name_short":"lax-2","host":"lax-1.us.uncletopia.com","port":27025,"enabled":true,"region":"us-west","cc":"us","latitude":33.94279,"longitude":-118.41004,"reserved":0,"last_update":"0001-01-01T00:00:00Z","name_a2s":"Uncletopia | Los Angeles | 2 | All Maps","protocol":17,"map":"pl_swiftwater_final1","folder":"tf","game":"Team Fortress","app_id":440,"player_count":24,"max_players":24,"Bots":0,"server_type":"Dedicated","server_os":"Linux","password":true,"vac":true,"version":"7961495","steam_id":85568392924469992,"keywords":["nocrits","nodmgspread","payload","uncletopia"],"game_id":440,"stv_port":27026,"stv_name":"Uncletopia | Los Angeles | 2 | All Maps | STV","players":[{"user_id":194,"name":"Sir Nope (TSS)","steam_id":76561198035935649,"connected_time":713000000000,"state":"active","ping":66},{"user_id":182,"name":"Just a Good Friend","steam_id":76561198140052403,"connected_time":1014000000000,"state":"active","ping":46},{"user_id":59,"name":"A UsedNom","steam_id":76561198402832756,"connected_time":11189000000000,"state":"active","ping":44},{"user_id":198,"name":"el wokismo","steam_id":76561198058617608,"connected_time":173000000000,"state":"active","ping":60},{"user_id":186,"name":"GreenApples","steam_id":76561198120559543,"connected_time":989000000000,"state":"active","ping":58},{"user_id":192,"name":"Space Magic","steam_id":76561199006292310,"connected_time":842000000000,"state":"active","ping":54},{"user_id":181,"name":"McDonald","steam_id":76561199028533497,"connected_time":1751000000000,"state":"active","ping":51},{"user_id":172,"name":"drrockso20[MicS]","steam_id":76561198001003987,"connected_time":2202000000000,"state":"active","ping":54},{"user_id":173,"name":"Ralph Kramden (Slim Charles)","steam_id":76561197981687895,"connected_time":2193000000000,"state":"active","ping":52},{"user_id":183,"name":"yall need me frfr","steam_id":76561198294192287,"connected_time":1012000000000,"state":"active","ping":51},{"user_id":184,"name":"ovhero","steam_id":76561198087887639,"connected_time":1009000000000,"state":"active","ping":68},{"user_id":128,"name":"triph","steam_id":76561198067196509,"connected_time":6990000000000,"state":"active","ping":47},{"user_id":187,"name":"TastyWheat","steam_id":76561198855061918,"connected_time":956000000000,"state":"active","ping":89},{"user_id":195,"name":"selling rice","steam_id":76561198063357023,"connected_time":557000000000,"state":"active","ping":50},{"user_id":188,"name":"Будда","steam_id":76561198824691581,"connected_time":922000000000,"state":"active","ping":111},{"user_id":189,"name":"Eric","steam_id":76561198073577252,"connected_time":917000000000,"state":"active","ping":50},{"user_id":190,"name":"Panzer Vor","steam_id":76561198435091099,"connected_time":916000000000,"state":"active","ping":70},{"user_id":165,"name":"Moomin","steam_id":76561198072726213,"connected_time":3609000000000,"state":"active","ping":49},{"user_id":174,"name":"YungKeet","steam_id":76561198293854963,"connected_time":2184000000000,"state":"active","ping":91},{"user_id":176,"name":"Pie","steam_id":76561198054721133,"connected_time":2018000000000,"state":"active","ping":59},{"user_id":177,"name":"Roosevelt Chadwick","steam_id":76561198278169311,"connected_time":1972000000000,"state":"active","ping":69},{"user_id":191,"name":"papi Chulo","steam_id":76561198126274984,"connected_time":879000000000,"state":"active","ping":85},{"user_id":197,"name":"RUF","steam_id":76561198062315805,"connected_time":449000000000,"state":"active","ping":55},{"user_id":163,"name":"SAVECASEY","steam_id":76561198857896847,"connected_time":3714000000000,"state":"active","ping":44}]},{"server_id":324,"name":"Uncletopia | Los Angeles | 3 | All Maps","name_short":"lax-3","host":"lax-1.us.uncletopia.com","port":27035,"enabled":true,"region":"us-west","cc":"us","latitude":33.94279,"longitude":-118.41004,"reserved":0,"last_update":"0001-01-01T00:00:00Z","name_a2s":"Uncletopia | Los Angeles | 3 | All Maps","protocol":17,"map":"cp_process_final","folder":"tf","game":"Team Fortress","app_id":440,"player_count":0,"max_players":24,"Bots":0,"server_type":"Dedicated","server_os":"Linux","password":true,"vac":true,"version":"7961495","steam_id":85568392924510198,"keywords":["cp","nocrits","nodmgspread","uncletopia"],"game_id":440,"stv_port":27036,"stv_name":"Uncletopia | Los Angeles | 3 | All Maps | STV","players":null},{"server_id":25,"name":"Uncletopia | Los Angeles | 4 | Stopwatch Beta","name_short":"lax-4","host":"lax-1.us.uncletopia.com","port":27045,"enabled":true,"region":"us-west","cc":"us","latitude":33.94279,"longitude":-118.41004,"reserved":0,"last_update":"0001-01-01T00:00:00Z","name_a2s":"Uncletopia | Los Angeles | 4 | Stopwatch Beta","protocol":17,"map":"pl_frontier_final","folder":"tf","game":"Team Fortress","app_id":440,"player_count":0,"max_players":24,"Bots":0,"server_type":"Dedicated","server_os":"Linux","password":true,"vac":true,"version":"7961495","steam_id":85568392924510199,"keywords":["nocrits","nodmgspread","payload","uncletopia"],"game_id":440,"stv_port":27046,"stv_name":"Uncletopia | Los Angeles | 4 | Stopwatch Beta | STV","players":null},{"server_id":11,"name":"Uncletopia | London | 1 | All Maps","name_short":"lon-1","host":"lon-1.uk.uncletopia.com","port":27015,"enabled":true,"region":"eu","cc":"gb","latitude":51.509865,"longitude":-0.118092,"reserved":0,"last_update":"0001-01-01T00:00:00Z","name_a2s":"Uncletopia | London | 1 | All Maps","protocol":17,"map":"plr_hightower","folder":"tf","game":"Team Fortress","app_id":440,"player_count":24,"max_players":24,"Bots":0,"server_type":"Dedicated","server_os":"Linux","password":true,"vac":true,"version":"7961495","steam_id":85568392924367362,"keywords":["nocrits","nodmgspread","payload","uncletopia"],"game_id":440,"stv_port":27016,"stv_name":"Uncletopia | London | 1 | All Maps | STV","players":[{"user_id":767,"name":"Zwoz","steam_id":76561198221841968,"connected_time":1313000000000,"state":"active","ping":79},{"user_id":743,"name":"Madmoose96","steam_id":76561198081888486,"connected_time":4157000000000,"state":"active","ping":70},{"user_id":774,"name":"SERIAL_CODE","steam_id":76561197981488663,"connected_time":832000000000,"state":"active","ping":42},{"user_id":780,"name":"Remi","steam_id":76561198860304357,"connected_time":549000000000,"state":"active","ping":106},{"user_id":754,"name":"BreadBubbles","steam_id":76561198174332826,"connected_time":3212000000000,"state":"active","ping":58},{"user_id":765,"name":"Slifer The Sky Dragon","steam_id":76561198062255803,"connected_time":1498000000000,"state":"active","ping":73},{"user_id":777,"name":"AWildTamim","steam_id":76561198048060652,"connected_time":661000000000,"state":"active","ping":37},{"user_id":712,"name":"flying goblin","steam_id":76561199050383942,"connected_time":5969000000000,"state":"active","ping":59},{"user_id":766,"name":"Curls","steam_id":76561198079039937,"connected_time":1479000000000,"state":"active","ping":57},{"user_id":768,"name":"Jospeh","steam_id":76561198120930790,"connected_time":1237000000000,"state":"active","ping":51},{"user_id":773,"name":"Cabanos","steam_id":76561198285337328,"connected_time":1139000000000,"state":"active","ping":75},{"user_id":781,"name":"snake","steam_id":76561198378235611,"connected_time":492000000000,"state":"active","ping":76},{"user_id":771,"name":"fabacher","steam_id":76561198057905272,"connected_time":1164000000000,"state":"active","ping":60},{"user_id":714,"name":"shooer!","steam_id":76561198110531281,"connected_time":5967000000000,"state":"active","ping":62},{"user_id":759,"name":"Eidolon","steam_id":76561198043919565,"connected_time":2025000000000,"state":"active","ping":74},{"user_id":753,"name":"Karahu","steam_id":76561198060426885,"connected_time":3383000000000,"state":"active","ping":75},{"user_id":705,"name":"Tengen","steam_id":76561199356990346,"connected_time":7601000000000,"state":"active","ping":106},{"user_id":755,"name":"Aaron","steam_id":76561197990046953,"connected_time":2294000000000,"state":"active","ping":57},{"user_id":721,"name":"beebo","steam_id":76561199120277007,"connected_time":5323000000000,"state":"active","ping":253},{"user_id":779,"name":"Toofy","steam_id":76561197989727907,"connected_time":655000000000,"state":"active","ping":32},{"user_id":745,"name":"ein'd","steam_id":76561198152162834,"connected_time":4076000000000,"state":"active","ping":90},{"user_id":710,"name":"Fwebbie","steam_id":76561199006875621,"connected_time":5985000000000,"state":"active","ping":59},{"user_id":758,"name":"sora","steam_id":76561198096547662,"connected_time":2238000000000,"state":"active","ping":52},{"user_id":735,"name":"Anri Okita's Massive Milkers","steam_id":76561199186352720,"connected_time":4371000000000,"state":"active","ping":60}]},{"server_id":114,"name":"Uncletopia | London | 2 | All Maps","name_short":"lon-2","host":"lon-1.uk.uncletopia.com","port":27025,"enabled":true,"region":"eu","cc":"gb","latitude":51.509865,"longitude":-0.118092,"reserved":0,"last_update":"0001-01-01T00:00:00Z","name_a2s":"Uncletopia | London | 2 | All Maps","protocol":17,"map":"pl_snowycoast","folder":"tf","game":"Team Fortress","app_id":440,"player_count":24,"max_players":24,"Bots":0,"server_type":"Dedicated","server_os":"Linux","password":true,"vac":true,"version":"7961495","steam_id":85568392924470941,"keywords":["nocrits","nodmgspread","payload","uncletopia"],"game_id":440,"stv_port":27026,"stv_name":"Uncletopia | London | 2 | All Maps | STV","players":[{"user_id":819,"name":"Mr_Pulse_","steam_id":76561198095001602,"connected_time":4050000000000,"state":"active","ping":105},{"user_id":801,"name":"www.earnGBP.online","steam_id":76561198005777437,"connected_time":5398000000000,"state":"active","ping":36},{"user_id":769,"name":"Naix","steam_id":76561198053893077,"connected_time":8429000000000,"state":"active","ping":54},{"user_id":833,"name":"sushii","steam_id":76561198297987372,"connected_time":2983000000000,"state":"active","ping":72},{"user_id":859,"name":"The Lady","steam_id":76561198029895809,"connected_time":463000000000,"state":"active","ping":89},{"user_id":794,"name":"LiterallyRyanGosling","steam_id":76561199017856691,"connected_time":6124000000000,"state":"active","ping":59},{"user_id":838,"name":"8 Ball","steam_id":76561197960988736,"connected_time":2458000000000,"state":"active","ping":47},{"user_id":857,"name":"JeanCorben","steam_id":76561197965133561,"connected_time":955000000000,"state":"active","ping":38},{"user_id":847,"name":"jù xiē","steam_id":76561198096189399,"connected_time":2022000000000,"state":"active","ping":62},{"user_id":773,"name":"Sixie","steam_id":76561198251675360,"connected_time":7783000000000,"state":"active","ping":51},{"user_id":836,"name":"Wide \u0026 Irish","steam_id":76561198023640858,"connected_time":2583000000000,"state":"active","ping":42},{"user_id":853,"name":"Popop","steam_id":76561198004793795,"connected_time":1354000000000,"state":"active","ping":45},{"user_id":816,"name":"hunte","steam_id":76561198063483484,"connected_time":4312000000000,"state":"active","ping":78},{"user_id":851,"name":"eddee","steam_id":76561198046121468,"connected_time":1673000000000,"state":"active","ping":45},{"user_id":783,"name":"gibb (official)","steam_id":76561198074097655,"connected_time":7130000000000,"state":"active","ping":45},{"user_id":855,"name":"TheLogick","steam_id":76561198008748649,"connected_time":964000000000,"state":"active","ping":51},{"user_id":852,"name":"Island","steam_id":76561198100757161,"connected_time":1526000000000,"state":"active","ping":70},{"user_id":848,"name":"taunt if thatcher's dead","steam_id":76561198057121917,"connected_time":1936000000000,"state":"active","ping":78},{"user_id":832,"name":"juicy","steam_id":76561198127264835,"connected_time":3334000000000,"state":"active","ping":46},{"user_id":782,"name":"pizzaboob","steam_id":76561198097507847,"connected_time":7536000000000,"state":"active","ping":90},{"user_id":768,"name":"wal","steam_id":76561198066043883,"connected_time":8794000000000,"state":"active","ping":54},{"user_id":795,"name":"C#","steam_id":76561198067204908,"connected_time":6018000000000,"state":"active","ping":59},{"user_id":849,"name":"Ed geen","steam_id":76561198184360615,"connected_time":1930000000000,"state":"active","ping":105},{"user_id":856,"name":"fregaropa","steam_id":76561198150806166,"connected_time":964000000000,"state":"active","ping":80}]},{"server_id":320,"name":"Uncletopia | London | 3 | All Maps","name_short":"lon-3","host":"lon-1.uk.uncletopia.com","port":27035,"enabled":true,"region":"eu","cc":"gb","latitude":51.509865,"longitude":-0.118092,"reserved":0,"last_update":"0001-01-01T00:00:00Z","name_a2s":"Uncletopia | London | 3 | All Maps","protocol":17,"map":"pl_pier","folder":"tf","game":"Team Fortress","app_id":440,"player_count":25,"max_players":24,"Bots":0,"server_type":"Dedicated","server_os":"Linux","password":true,"vac":true,"version":"7961495","steam_id":85568392924510192,"keywords":["nocrits","nodmgspread","payload","uncletopia"],"game_id":440,"stv_port":27036,"stv_name":"Uncletopia | London | 3 | All Maps | STV","players":[{"user_id":692,"name":"highest noon","steam_id":76561199103959197,"connected_time":83000000000,"state":"active","ping":100},{"user_id":662,"name":"Bucket","steam_id":76561199165494885,"connected_time":1149000000000,"state":"active","ping":149},{"user_id":663,"name":"birb","steam_id":76561198084891833,"connected_time":1129000000000,"state":"active","ping":45},{"user_id":666,"name":"R@DIO","steam_id":76561197995533046,"connected_time":1032000000000,"state":"active","ping":84},{"user_id":687,"name":"Vermin","steam_id":76561198045527771,"connected_time":216000000000,"state":"active","ping":54},{"user_id":634,"name":"MaRo","steam_id":76561198992286676,"connected_time":4431000000000,"state":"active","ping":59},{"user_id":664,"name":"scarecrowshelper","steam_id":76561198072260553,"connected_time":1128000000000,"state":"active","ping":61},{"user_id":678,"name":"Helusion","steam_id":76561198207207269,"connected_time":695000000000,"state":"active","ping":62},{"user_id":693,"name":"Star in a pond","steam_id":76561198205501279,"connected_time":82000000000,"state":"active","ping":97},{"user_id":670,"name":"S.T. Inckee","steam_id":76561197973053298,"connected_time":1000000000000,"state":"active","ping":45},{"user_id":668,"name":"soggäh","steam_id":76561198046694824,"connected_time":1027000000000,"state":"active","ping":60},{"user_id":683,"name":"Owenter","steam_id":76561198083201886,"connected_time":329000000000,"state":"active","ping":35},{"user_id":681,"name":"Wakalakakashi","steam_id":76561198003887384,"connected_time":407000000000,"state":"active","ping":55},{"user_id":690,"name":"󠁳⁧⁧ Kruthal","steam_id":76561198245726582,"connected_time":115000000000,"state":"active","ping":89},{"user_id":685,"name":"Fat Screw","steam_id":76561198065378166,"connected_time":240000000000,"state":"active","ping":58},{"user_id":682,"name":"2fort's silliest soldier","steam_id":76561198128613675,"connected_time":362000000000,"state":"active","ping":80},{"user_id":672,"name":"Drunk russian with pyromania","steam_id":76561198195527328,"connected_time":980000000000,"state":"active","ping":64},{"user_id":694,"name":"ʲᶠᵍ ✫","steam_id":76561199062437546,"connected_time":63000000000,"state":"active","ping":52},{"user_id":673,"name":"Miss Bari","steam_id":76561198365286092,"connected_time":980000000000,"state":"active","ping":39},{"user_id":674,"name":"Sparks","steam_id":76561198423827206,"connected_time":978000000000,"state":"active","ping":59},{"user_id":686,"name":"turbo shart","steam_id":76561198012351808,"connected_time":235000000000,"state":"active","ping":55},{"user_id":675,"name":"LuCroGi","steam_id":76561198057283891,"connected_time":965000000000,"state":"active","ping":65},{"user_id":691,"name":"Fiurius","steam_id":76561198151910950,"connected_time":111000000000,"state":"active","ping":77},{"user_id":695,"name":"c0mpaz","steam_id":76561198165292894,"connected_time":34000000000,"state":"spawning","ping":91},{"user_id":689,"name":"gerg","steam_id":76561198041663219,"connected_time":186000000000,"state":"active","ping":59}]},{"server_id":321,"name":"Uncletopia | London | 4 | All Maps","name_short":"lon-4","host":"lon-1.uk.uncletopia.com","port":27045,"enabled":true,"region":"eu","cc":"gb","latitude":51.509865,"longitude":-0.118092,"reserved":0,"last_update":"0001-01-01T00:00:00Z","name_a2s":"Uncletopia | London | 4 | All Maps","protocol":17,"map":"cp_mountainlab","folder":"tf","game":"Team Fortress","app_id":440,"player_count":24,"max_players":24,"Bots":0,"server_type":"Dedicated","server_os":"Linux","password":true,"vac":true,"version":"7961495","steam_id":85568392924510193,"keywords":["cp","nocrits","nodmgspread","uncletopia"],"game_id":440,"stv_port":27046,"stv_name":"Uncletopia | London | 4 | All Maps | STV","players":[{"user_id":444,"name":"pablo","steam_id":76561198322087870,"connected_time":792000000000,"state":"active","ping":109},{"user_id":428,"name":"mitical uknown","steam_id":76561198844852761,"connected_time":2425000000000,"state":"active","ping":73},{"user_id":457,"name":"pond","steam_id":76561198214849363,"connected_time":292000000000,"state":"active","ping":86},{"user_id":454,"name":"MC Stompin","steam_id":76561198061527217,"connected_time":442000000000,"state":"active","ping":54},{"user_id":446,"name":"going bananas","steam_id":76561199480942903,"connected_time":708000000000,"state":"active","ping":75},{"user_id":432,"name":"86","steam_id":76561199084186097,"connected_time":1668000000000,"state":"active","ping":44},{"user_id":453,"name":"bco","steam_id":76561198124462767,"connected_time":453000000000,"state":"active","ping":95},{"user_id":435,"name":"ducks","steam_id":76561198166148685,"connected_time":1595000000000,"state":"active","ping":33},{"user_id":456,"name":"My left foot itches","steam_id":76561198078411001,"connected_time":362000000000,"state":"active","ping":86},{"user_id":433,"name":"William Afton Gaming","steam_id":76561198220227199,"connected_time":1665000000000,"state":"active","ping":85},{"user_id":451,"name":"herr_p","steam_id":76561198033072222,"connected_time":624000000000,"state":"active","ping":72},{"user_id":418,"name":"sticks","steam_id":76561198127099299,"connected_time":3341000000000,"state":"active","ping":40},{"user_id":445,"name":"(wm) Das Fleisch","steam_id":76561198001250715,"connected_time":791000000000,"state":"active","ping":59},{"user_id":455,"name":"Alienketchup","steam_id":76561197970585162,"connected_time":431000000000,"state":"active","ping":80},{"user_id":391,"name":"ethan","steam_id":76561198119495513,"connected_time":4772000000000,"state":"active","ping":43},{"user_id":448,"name":"Naeso","steam_id":76561198068602498,"connected_time":698000000000,"state":"active","ping":46},{"user_id":394,"name":"BONA FIDE PISS","steam_id":76561198130020929,"connected_time":4665000000000,"state":"active","ping":37},{"user_id":436,"name":"shr1mple","steam_id":76561198173537027,"connected_time":1578000000000,"state":"active","ping":50},{"user_id":443,"name":"t0ast","steam_id":76561198141722573,"connected_time":1159000000000,"state":"active","ping":30},{"user_id":381,"name":"MR.PizzaRoles","steam_id":76561199068248901,"connected_time":5155000000000,"state":"active","ping":87},{"user_id":449,"name":"Princess Mel","steam_id":76561198071804982,"connected_time":695000000000,"state":"active","ping":70},{"user_id":414,"name":"veto vuyisio","steam_id":76561199101145470,"connected_time":3789000000000,"state":"active","ping":65},{"user_id":415,"name":"ROX","steam_id":76561198272289320,"connected_time":3784000000000,"state":"active","ping":64},{"user_id":438,"name":"crimson","steam_id":76561198208349835,"connected_time":1519000000000,"state":"active","ping":69}]},{"server_id":21,"name":"Uncletopia | London | 5 | All Maps","name_short":"lon-5","host":"lon-1.uk.uncletopia.com","port":27055,"enabled":true,"region":"eu","cc":"gb","latitude":51.509865,"longitude":-0.118092,"reserved":0,"last_update":"0001-01-01T00:00:00Z","name_a2s":"Uncletopia | London | 5 | All Maps","protocol":17,"map":"pl_upward","folder":"tf","game":"Team Fortress","app_id":440,"player_count":23,"max_players":24,"Bots":0,"server_type":"Dedicated","server_os":"Linux","password":true,"vac":true,"version":"7961495","steam_id":85568392924742829,"keywords":["nocrits","nodmgspread","payload","uncletopia"],"game_id":440,"stv_port":27056,"stv_name":"Uncletopia | London | 5 | All Maps | STV","players":[{"user_id":525,"name":"UltimateSlayer","steam_id":76561198384109309,"connected_time":4492000000000,"state":"active","ping":57},{"user_id":540,"name":"Puss in Boots","steam_id":76561198211599767,"connected_time":3676000000000,"state":"active","ping":59},{"user_id":555,"name":"TheBeardedM1G","steam_id":76561198040208946,"connected_time":1982000000000,"state":"active","ping":37},{"user_id":542,"name":"Marquis de Hoto","steam_id":76561198080687708,"connected_time":3193000000000,"state":"active","ping":71},{"user_id":576,"name":"s a i","steam_id":76561197970379754,"connected_time":270000000000,"state":"active","ping":61},{"user_id":460,"name":"t0xic Assh0le","steam_id":76561198999652040,"connected_time":8222000000000,"state":"active","ping":55},{"user_id":548,"name":"i shit, therefore i smell","steam_id":76561198050214002,"connected_time":2964000000000,"state":"active","ping":60},{"user_id":549,"name":"Beni 🦧🍌","steam_id":76561198011340227,"connected_time":2956000000000,"state":"active","ping":61},{"user_id":562,"name":"A new medic(F2p)","steam_id":76561199388826335,"connected_time":952000000000,"state":"active","ping":132},{"user_id":559,"name":"Winthworth","steam_id":76561198344675206,"connected_time":1563000000000,"state":"active","ping":56},{"user_id":563,"name":"MovingIsOverRated","steam_id":76561198385633292,"connected_time":938000000000,"state":"active","ping":158},{"user_id":560,"name":"[T]aKer","steam_id":76561198001778013,"connected_time":1557000000000,"state":"active","ping":41},{"user_id":538,"name":"Excessive Clownery","steam_id":76561198130404188,"connected_time":3842000000000,"state":"active","ping":57},{"user_id":553,"name":"levnemcev","steam_id":76561198057205970,"connected_time":2103000000000,"state":"active","ping":93},{"user_id":567,"name":"mr gaming","steam_id":76561198110103308,"connected_time":425000000000,"state":"active","ping":46},{"user_id":557,"name":"TheEventGuy","steam_id":76561197972797744,"connected_time":1937000000000,"state":"active","ping":69},{"user_id":514,"name":"Cabbch","steam_id":76561198045955679,"connected_time":5094000000000,"state":"active","ping":46},{"user_id":524,"name":"froge","steam_id":76561198304959766,"connected_time":4579000000000,"state":"active","ping":104},{"user_id":552,"name":"Twingo","steam_id":76561198207042812,"connected_time":2209000000000,"state":"active","ping":104},{"user_id":536,"name":"mohemmedmokhter2005","steam_id":76561199197650506,"connected_time":4162000000000,"state":"active","ping":106},{"user_id":428,"name":"Personano","steam_id":76561198994355577,"connected_time":10572000000000,"state":"active","ping":65},{"user_id":330,"name":"Ixsus\u003c3","steam_id":76561198094756869,"connected_time":17037000000000,"state":"active","ping":61},{"user_id":561,"name":"clock tower","steam_id":76561199394371317,"connected_time":1483000000000,"state":"active","ping":72}]},{"server_id":22,"name":"Uncletopia | London | 6 | All Maps","name_short":"lon-6","host":"lon-1.uk.uncletopia.com","port":27065,"enabled":true,"region":"eu","cc":"gb","latitude":51.509865,"longitude":-0.118092,"reserved":0,"last_update":"0001-01-01T00:00:00Z","name_a2s":"Uncletopia | London | 6 | All Maps","protocol":17,"map":"koth_cascade","folder":"tf","game":"Team Fortress","app_id":440,"player_count":0,"max_players":24,"Bots":0,"server_type":"Dedicated","server_os":"Linux","password":true,"vac":true,"version":"7961495","steam_id":85568392924742830,"keywords":["cp","nocrits","nodmgspread","uncletopia"],"game_id":440,"stv_port":27066,"stv_name":"Uncletopia | London | 6 | All Maps | STV","players":null},{"server_id":40,"name":"Uncletopia | London | 7 | No Payload","name_short":"lon-7","host":"lon-1.uk.uncletopia.com","port":27075,"enabled":true,"region":"eu","cc":"gb","latitude":51.509865,"longitude":-0.118092,"reserved":0,"last_update":"0001-01-01T00:00:00Z","name_a2s":"Uncletopia | London | 7 | No Payload","protocol":17,"map":"cp_powerhouse","folder":"tf","game":"Team Fortress","app_id":440,"player_count":24,"max_players":24,"Bots":0,"server_type":"Dedicated","server_os":"Linux","password":true,"vac":true,"version":"7961495","steam_id":85568392924964314,"keywords":["cp","nocrits","nodmgspread","uncletopia"],"game_id":440,"stv_port":27076,"stv_name":"Uncletopia | London | 7 | No Payload | STV","players":[{"user_id":308,"name":"Pepsi Man","steam_id":76561198061835461,"connected_time":1133000000000,"state":"active","ping":70},{"user_id":310,"name":"Certified Bug Lady","steam_id":76561198262682428,"connected_time":1118000000000,"state":"active","ping":58},{"user_id":319,"name":"Nekolinku","steam_id":76561198074896201,"connected_time":204000000000,"state":"active","ping":48},{"user_id":261,"name":"7oid","steam_id":76561198142074232,"connected_time":3326000000000,"state":"active","ping":102},{"user_id":288,"name":"avalon","steam_id":76561198003212528,"connected_time":1973000000000,"state":"active","ping":62},{"user_id":282,"name":"Aureold","steam_id":76561198109307607,"connected_time":2239000000000,"state":"active","ping":40},{"user_id":314,"name":"60hz laptop","steam_id":76561198111229919,"connected_time":919000000000,"state":"active","ping":75},{"user_id":291,"name":"N","steam_id":76561198257342972,"connected_time":1887000000000,"state":"active","ping":59},{"user_id":303,"name":"a bullet","steam_id":76561198809248362,"connected_time":1381000000000,"state":"active","ping":90},{"user_id":257,"name":"fence_","steam_id":76561198150386379,"connected_time":3435000000000,"state":"active","ping":46},{"user_id":316,"name":"frosty","steam_id":76561198094560834,"connected_time":509000000000,"state":"active","ping":51},{"user_id":122,"name":"dash.","steam_id":76561198084796149,"connected_time":13810000000000,"state":"active","ping":47},{"user_id":254,"name":"Super Amazing Hotdog Batman!:3","steam_id":76561198074168360,"connected_time":3736000000000,"state":"active","ping":61},{"user_id":312,"name":"ChPerette 🎮","steam_id":76561198060004887,"connected_time":1007000000000,"state":"active","ping":45},{"user_id":317,"name":"Chimpanzee","steam_id":76561198850387282,"connected_time":428000000000,"state":"active","ping":145},{"user_id":293,"name":"Lobster Man","steam_id":76561199167506926,"connected_time":1805000000000,"state":"active","ping":86},{"user_id":311,"name":"Stage 5 Autism","steam_id":76561198370485227,"connected_time":1059000000000,"state":"active","ping":65},{"user_id":320,"name":"Peat","steam_id":76561197992168067,"connected_time":12000000000,"state":"active","ping":83},{"user_id":307,"name":"jj","steam_id":76561198079200985,"connected_time":1141000000000,"state":"active","ping":52},{"user_id":256,"name":"Outlier","steam_id":76561199093787770,"connected_time":3704000000000,"state":"active","ping":151},{"user_id":300,"name":"Huskey","steam_id":76561198152392309,"connected_time":1505000000000,"state":"active","ping":45},{"user_id":315,"name":"Ritzy","steam_id":76561198381955342,"connected_time":892000000000,"state":"active","ping":53},{"user_id":299,"name":"Ash","steam_id":76561198148738525,"connected_time":1525000000000,"state":"active","ping":96},{"user_id":287,"name":"cinny","steam_id":76561198832112629,"connected_time":2085000000000,"state":"active","ping":99}]},{"server_id":41,"name":"Uncletopia | London | 8 | Community","name_short":"lon-8","host":"lon-1.uk.uncletopia.com","port":27085,"enabled":true,"region":"eu","cc":"gb","latitude":51.509865,"longitude":-0.118092,"reserved":0,"last_update":"0001-01-01T00:00:00Z","name_a2s":"Uncletopia | London | 8 | Community","protocol":17,"map":"workshop/koth_ramjam_rc1.ugc459778887","folder":"tf","game":"Team Fortress","app_id":440,"player_count":0,"max_players":24,"Bots":0,"server_type":"Dedicated","server_os":"Linux","password":true,"vac":true,"version":"7961495","steam_id":85568392924964315,"keywords":["cp","nocrits","nodmgspread","uncletopia"],"game_id":440,"stv_port":27086,"stv_name":"Uncletopia | London | 8 | Community | STV","players":null},{"server_id":300,"name":"Uncletopia | Montréal | 1 | All Maps","name_short":"mtl-1","host":"mtl-1.ca.uncletopia.com","port":27015,"enabled":true,"region":"us-east","cc":"ca","latitude":45.50889,"longitude":-73.56167,"reserved":0,"last_update":"0001-01-01T00:00:00Z","name_a2s":"Uncletopia | Montréal | 1 | All Maps","protocol":17,"map":"pl_barnblitz","folder":"tf","game":"Team Fortress","app_id":440,"player_count":0,"max_players":24,"Bots":0,"server_type":"Dedicated","server_os":"Linux","password":true,"vac":true,"version":"7961495","steam_id":85568392924500087,"keywords":["nocrits","nodmgspread","payload","uncletopia"],"game_id":440,"stv_port":27016,"stv_name":"Uncletopia | Montréal | 1 | All Maps | STV","players":null},{"server_id":301,"name":"Uncletopia | Montréal | 2 | All Maps","name_short":"mtl-2","host":"mtl-1.ca.uncletopia.com","port":27025,"enabled":true,"region":"us-east","cc":"ca","latitude":45.50889,"longitude":-73.56167,"reserved":0,"last_update":"0001-01-01T00:00:00Z","name_a2s":"Uncletopia | Montréal | 2 | All Maps","protocol":17,"map":"koth_viaduct","folder":"tf","game":"Team Fortress","app_id":440,"player_count":0,"max_players":24,"Bots":0,"server_type":"Dedicated","server_os":"Linux","password":true,"vac":true,"version":"7961495","steam_id":85568392924500088,"keywords":["cp","nocrits","nodmgspread","uncletopia"],"game_id":440,"stv_port":27026,"stv_name":"Uncletopia | Montréal | 2 | All Maps | STV","players":null},{"server_id":302,"name":"Uncletopia | Montréal | 3 | All Maps","name_short":"mtl-3","host":"mtl-1.ca.uncletopia.com","port":27035,"enabled":true,"region":"us-east","cc":"ca","latitude":45.50889,"longitude":-73.56167,"reserved":0,"last_update":"0001-01-01T00:00:00Z","name_a2s":"Uncletopia | Montréal | 3 | All Maps","protocol":17,"map":"cp_mountainlab","folder":"tf","game":"Team Fortress","app_id":440,"player_count":0,"max_players":24,"Bots":0,"server_type":"Dedicated","server_os":"Linux","password":true,"vac":true,"version":"7961495","steam_id":85568392924500089,"keywords":["cp","nocrits","nodmgspread","uncletopia"],"game_id":440,"stv_port":27036,"stv_name":"Uncletopia | Montréal | 3 | All Maps | STV","players":null},{"server_id":303,"name":"Uncletopia | Montréal | 4 | No Payload","name_short":"mtl-4","host":"mtl-1.ca.uncletopia.com","port":27045,"enabled":true,"region":"us-east","cc":"ca","latitude":45.50889,"longitude":-73.56167,"reserved":0,"last_update":"0001-01-01T00:00:00Z","name_a2s":"Uncletopia | Montréal | 4 | No Payload","protocol":17,"map":"cp_steel","folder":"tf","game":"Team Fortress","app_id":440,"player_count":23,"max_players":24,"Bots":0,"server_type":"Dedicated","server_os":"Linux","password":true,"vac":true,"version":"7961495","steam_id":85568392924500090,"keywords":["cp","nocrits","nodmgspread","uncletopia"],"game_id":440,"stv_port":27046,"stv_name":"Uncletopia | Montréal | 4 | No Payload | STV","players":[{"user_id":126,"name":"seeyouauntie","steam_id":76561198045852999,"connected_time":445000000000,"state":"active","ping":70},{"user_id":82,"name":"jimmyfnaf172198yay","steam_id":76561198311446636,"connected_time":2813000000000,"state":"active","ping":78},{"user_id":123,"name":"moe","steam_id":76561198929586245,"connected_time":531000000000,"state":"active","ping":119},{"user_id":113,"name":"Vegerot","steam_id":76561197997843710,"connected_time":712000000000,"state":"active","ping":44},{"user_id":91,"name":"🍃 The Toker 💨","steam_id":76561198159339442,"connected_time":2691000000000,"state":"active","ping":60},{"user_id":118,"name":"Icaras","steam_id":76561198416724843,"connected_time":618000000000,"state":"active","ping":111},{"user_id":84,"name":"cynna","steam_id":76561198805633310,"connected_time":2774000000000,"state":"active","ping":75},{"user_id":128,"name":"Σ-男","steam_id":76561199124332716,"connected_time":378000000000,"state":"active","ping":82},{"user_id":57,"name":"Bubbles","steam_id":76561199009540283,"connected_time":3506000000000,"state":"active","ping":51},{"user_id":131,"name":"Lawtumn","steam_id":76561198347286009,"connected_time":268000000000,"state":"active","ping":63},{"user_id":130,"name":"Rhutebeer","steam_id":76561198018302761,"connected_time":331000000000,"state":"active","ping":113},{"user_id":18,"name":"Fangirl","steam_id":76561198253710690,"connected_time":6148000000000,"state":"active","ping":74},{"user_id":117,"name":"the cum wizard","steam_id":76561198046098856,"connected_time":620000000000,"state":"active","ping":50},{"user_id":133,"name":"yellowshirtguy","steam_id":76561198407685013,"connected_time":150000000000,"state":"active","ping":48},{"user_id":132,"name":"Impresio","steam_id":76561198129127347,"connected_time":255000000000,"state":"active","ping":78},{"user_id":124,"name":"gravid baby","steam_id":76561198318646867,"connected_time":521000000000,"state":"active","ping":45},{"user_id":109,"name":"reymundo","steam_id":76561197989412830,"connected_time":979000000000,"state":"active","ping":131},{"user_id":83,"name":"Nungel","steam_id":76561198272961376,"connected_time":2792000000000,"state":"active","ping":109},{"user_id":125,"name":"skoops","steam_id":76561198083276946,"connected_time":476000000000,"state":"active","ping":61},{"user_id":96,"name":"Sheev Palpatine","steam_id":76561198252332430,"connected_time":2110000000000,"state":"active","ping":98},{"user_id":87,"name":"Bheem","steam_id":76561198170453459,"connected_time":2742000000000,"state":"active","ping":114},{"user_id":116,"name":"all_classics","steam_id":76561198012738913,"connected_time":640000000000,"state":"active","ping":75},{"user_id":127,"name":"skyGage456","steam_id":76561198359788916,"connected_time":434000000000,"state":"active","ping":83}]},{"server_id":13,"name":"Uncletopia | New York City | 1 | All Maps","name_short":"nyc-1","host":"nyc-1.us.uncletopia.com","port":27015,"enabled":true,"region":"us-east","cc":"us","latitude":40.73061,"longitude":-73.93524,"reserved":0,"last_update":"0001-01-01T00:00:00Z","name_a2s":"Uncletopia | New York City | 1 | All Maps","protocol":17,"map":"ctf_2fort","folder":"tf","game":"Team Fortress","app_id":440,"player_count":24,"max_players":24,"Bots":0,"server_type":"Dedicated","server_os":"Linux","password":true,"vac":true,"version":"7961495","steam_id":85568392924469993,"keywords":["ctf","nocrits","nodmgspread","uncletopia"],"game_id":440,"stv_port":27016,"stv_name":"Uncletopia | New York City | 1 | All Maps | STV","players":[{"user_id":539,"name":"Misterwipeout","steam_id":76561198068900320,"connected_time":151000000000,"state":"active","ping":115},{"user_id":488,"name":"Baron von Whoopsie","steam_id":76561197996691013,"connected_time":2951000000000,"state":"active","ping":63},{"user_id":515,"name":"Kobrakiddmeow","steam_id":76561198080696266,"connected_time":1659000000000,"state":"active","ping":85},{"user_id":367,"name":"Monsieur l'INGENIEUR","steam_id":76561198090504334,"connected_time":10302000000000,"state":"active","ping":60},{"user_id":519,"name":"SPOOKY_","steam_id":76561198073395404,"connected_time":1537000000000,"state":"active","ping":141},{"user_id":435,"name":"Doofenshmirtz Evil Inc.","steam_id":76561198439793697,"connected_time":6804000000000,"state":"active","ping":85},{"user_id":521,"name":"floppy muppet","steam_id":76561198003076261,"connected_time":1503000000000,"state":"active","ping":89},{"user_id":525,"name":"Ruby Gillman","steam_id":76561198366299848,"connected_time":1116000000000,"state":"active","ping":69},{"user_id":508,"name":"Another Neko Weeb","steam_id":76561198051785884,"connected_time":1875000000000,"state":"active","ping":45},{"user_id":523,"name":"SPRAYON9G","steam_id":76561199051975650,"connected_time":1492000000000,"state":"active","ping":53},{"user_id":470,"name":"Soap","steam_id":76561197994893383,"connected_time":4489000000000,"state":"active","ping":82},{"user_id":537,"name":"mothra","steam_id":76561198028444359,"connected_time":328000000000,"state":"active","ping":135},{"user_id":517,"name":"(no monitor) ayylien","steam_id":76561198042127970,"connected_time":1552000000000,"state":"active","ping":73},{"user_id":483,"name":"daBigBoss","steam_id":76561198120428029,"connected_time":3613000000000,"state":"active","ping":115},{"user_id":531,"name":"Technomancer","steam_id":76561198137758683,"connected_time":459000000000,"state":"active","ping":84},{"user_id":528,"name":"chheesse","steam_id":76561198926982316,"connected_time":629000000000,"state":"active","ping":94},{"user_id":538,"name":"Cooldogjoe","steam_id":76561198105543698,"connected_time":219000000000,"state":"active","ping":75},{"user_id":533,"name":"Dreysidel","steam_id":76561198056496183,"connected_time":421000000000,"state":"active","ping":65},{"user_id":516,"name":"Birch","steam_id":76561198316231704,"connected_time":1627000000000,"state":"active","ping":36},{"user_id":540,"name":"FRANKIEonPCP","steam_id":76561198208451949,"connected_time":69000000000,"state":"active","ping":80},{"user_id":534,"name":"Vitzenhauzer","steam_id":76561198116449787,"connected_time":418000000000,"state":"active","ping":56},{"user_id":401,"name":"LittleFieryOne","steam_id":76561198107463724,"connected_time":9539000000000,"state":"active","ping":76},{"user_id":536,"name":"FrostStorm","steam_id":76561198142685151,"connected_time":398000000000,"state":"active","ping":83},{"user_id":476,"name":"Parth Makeo","steam_id":76561198002516581,"connected_time":4346000000000,"state":"active","ping":46}]},{"server_id":14,"name":"Uncletopia | New York City | 2 | All Maps","name_short":"nyc-2","host":"nyc-1.us.uncletopia.com","port":27025,"enabled":true,"region":"us-east","cc":"us","latitude":40.73061,"longitude":-73.93524,"reserved":0,"last_update":"0001-01-01T00:00:00Z","name_a2s":"Uncletopia | New York City | 2 | All Maps","protocol":17,"map":"pl_thundermountain","folder":"tf","game":"Team Fortress","app_id":440,"player_count":24,"max_players":24,"Bots":0,"server_type":"Dedicated","server_os":"Linux","password":true,"vac":true,"version":"7961495","steam_id":85568392924469994,"keywords":["nocrits","nodmgspread","payload","uncletopia"],"game_id":440,"stv_port":27026,"stv_name":"Uncletopia | New York City | 2 | All Maps | STV","players":[{"user_id":337,"name":"Elliot","steam_id":76561198052843856,"connected_time":6231000000000,"state":"active","ping":59},{"user_id":346,"name":"shitcock","steam_id":76561199407965593,"connected_time":5738000000000,"state":"active","ping":108},{"user_id":413,"name":"envy","steam_id":76561198099470277,"connected_time":976000000000,"state":"active","ping":83},{"user_id":410,"name":"smooth brain","steam_id":76561198049253541,"connected_time":1078000000000,"state":"active","ping":74},{"user_id":432,"name":"Polar","steam_id":76561198043108060,"connected_time":672000000000,"state":"active","ping":69},{"user_id":423,"name":"msay","steam_id":76561198170888029,"connected_time":970000000000,"state":"active","ping":77},{"user_id":343,"name":"Blanke","steam_id":76561198068912412,"connected_time":5921000000000,"state":"active","ping":96},{"user_id":429,"name":"cozy","steam_id":76561199044037628,"connected_time":861000000000,"state":"active","ping":87},{"user_id":342,"name":"Doggo","steam_id":76561198179274557,"connected_time":6001000000000,"state":"active","ping":150},{"user_id":424,"name":"Aristotle Voulton","steam_id":76561198100174923,"connected_time":960000000000,"state":"active","ping":74},{"user_id":407,"name":"Spy (I Love spy)","steam_id":76561199138738952,"connected_time":1144000000000,"state":"active","ping":110},{"user_id":433,"name":"PhlubbaDubba","steam_id":76561198203330154,"connected_time":466000000000,"state":"active","ping":61},{"user_id":435,"name":"Nerrrd_","steam_id":76561198870129960,"connected_time":85000000000,"state":"active","ping":43},{"user_id":390,"name":"JPSS","steam_id":76561199239530493,"connected_time":2160000000000,"state":"active","ping":71},{"user_id":426,"name":"The Jar","steam_id":76561198146013385,"connected_time":953000000000,"state":"active","ping":63},{"user_id":412,"name":"Dreamzapp","steam_id":76561199084936632,"connected_time":1046000000000,"state":"active","ping":130},{"user_id":366,"name":"Squeegi","steam_id":76561198039613161,"connected_time":4426000000000,"state":"active","ping":37},{"user_id":431,"name":"cremeoner","steam_id":76561198372332251,"connected_time":740000000000,"state":"active","ping":42},{"user_id":381,"name":"Zigadox","steam_id":76561198079813479,"connected_time":2995000000000,"state":"active","ping":82},{"user_id":402,"name":"dr peppah chug!","steam_id":76561198068835693,"connected_time":1439000000000,"state":"active","ping":86},{"user_id":403,"name":"RuinLucky","steam_id":76561199481172481,"connected_time":1430000000000,"state":"active","ping":80},{"user_id":434,"name":"poop shooter","steam_id":76561199491074021,"connected_time":464000000000,"state":"active","ping":35},{"user_id":340,"name":"reii","steam_id":76561198134442912,"connected_time":6221000000000,"state":"active","ping":91},{"user_id":430,"name":"ballstothewalls","steam_id":76561199131172615,"connected_time":859000000000,"state":"active","ping":68}]},{"server_id":15,"name":"Uncletopia | New York City | 3 | Stopwatch Beta","name_short":"nyc-3","host":"nyc-1.us.uncletopia.com","port":27035,"enabled":true,"region":"us-east","cc":"us","latitude":40.73061,"longitude":-73.93524,"reserved":0,"last_update":"0001-01-01T00:00:00Z","name_a2s":"Uncletopia | New York City | 3 | Stopwatch Beta","protocol":17,"map":"cp_gullywash_final1","folder":"tf","game":"Team Fortress","app_id":440,"player_count":23,"max_players":24,"Bots":0,"server_type":"Dedicated","server_os":"Linux","password":true,"vac":true,"version":"7961495","steam_id":85568392924742820,"keywords":["cp","nocrits","nodmgspread","uncletopia"],"game_id":440,"stv_port":27036,"stv_name":"Uncletopia | New York City | 3 | Stopwatch Beta | STV","players":[{"user_id":293,"name":"DestoyerBob","steam_id":76561199220903651,"connected_time":1183000000000,"state":"active","ping":49},{"user_id":273,"name":"Flap","steam_id":76561198078889633,"connected_time":2338000000000,"state":"active","ping":76},{"user_id":295,"name":"sonny","steam_id":76561198078381913,"connected_time":913000000000,"state":"active","ping":75},{"user_id":305,"name":"Ground Control to Majortom","steam_id":76561198065589126,"connected_time":258000000000,"state":"active","ping":80},{"user_id":274,"name":"h","steam_id":76561198202416617,"connected_time":2305000000000,"state":"active","ping":92},{"user_id":311,"name":"cakgamin","steam_id":76561199088909749,"connected_time":60000000000,"state":"active","ping":73},{"user_id":244,"name":"get scrongled, idiot","steam_id":76561198115874625,"connected_time":3980000000000,"state":"active","ping":102},{"user_id":284,"name":"Donut King","steam_id":76561198451173233,"connected_time":1512000000000,"state":"active","ping":46},{"user_id":298,"name":"Fairchild Republic A-10 Thndrbl","steam_id":76561199038043360,"connected_time":639000000000,"state":"active","ping":73},{"user_id":221,"name":"Slob and Sup","steam_id":76561198123441203,"connected_time":6692000000000,"state":"active","ping":75},{"user_id":299,"name":"-{2 wycked}- 2DELUXXXE","steam_id":76561198074678273,"connected_time":634000000000,"state":"active","ping":30},{"user_id":312,"name":"hashmap","steam_id":76561198043794014,"connected_time":10000000000,"state":"spawning","ping":60},{"user_id":306,"name":"Junko","steam_id":76561198146089003,"connected_time":254000000000,"state":"active","ping":31},{"user_id":302,"name":"sc67","steam_id":76561199302471485,"connected_time":534000000000,"state":"active","ping":57},{"user_id":283,"name":"luh twonk chocolate","steam_id":76561199048057457,"connected_time":1565000000000,"state":"active","ping":58},{"user_id":307,"name":"b4rry","steam_id":76561198365887154,"connected_time":186000000000,"state":"active","ping":58},{"user_id":304,"name":"beep!","steam_id":76561198111674607,"connected_time":470000000000,"state":"active","ping":133},{"user_id":308,"name":"Meurik","steam_id":76561198078032795,"connected_time":184000000000,"state":"active","ping":176},{"user_id":281,"name":"Spectre","steam_id":76561198025652246,"connected_time":1634000000000,"state":"active","ping":61},{"user_id":297,"name":"Scum Knight | T.I.D.K.","steam_id":76561198282444763,"connected_time":792000000000,"state":"active","ping":50},{"user_id":309,"name":"SomeSimpleton","steam_id":76561199183492031,"connected_time":117000000000,"state":"active","ping":92},{"user_id":289,"name":"sneed","steam_id":76561198118010424,"connected_time":1309000000000,"state":"active","ping":144},{"user_id":310,"name":"Blue⛧Melon","steam_id":76561197970926435,"connected_time":105000000000,"state":"active","ping":58}]},{"server_id":16,"name":"Uncletopia | New York City | 4 | Community","name_short":"nyc-4","host":"nyc-1.us.uncletopia.com","port":27045,"enabled":true,"region":"us-east","cc":"us","latitude":40.73061,"longitude":-73.93524,"reserved":0,"last_update":"0001-01-01T00:00:00Z","name_a2s":"Uncletopia | New York City | 4 | Community","protocol":17,"map":"workshop/koth_slaughter_rc1.ugc1712845210","folder":"tf","game":"Team Fortress","app_id":440,"player_count":0,"max_players":24,"Bots":0,"server_type":"Dedicated","server_os":"Linux","password":true,"vac":true,"version":"7961495","steam_id":85568392924742821,"keywords":["cp","nocrits","nodmgspread","uncletopia"],"game_id":440,"stv_port":27046,"stv_name":"Uncletopia | New York City | 4 | Community | STV","players":null},{"server_id":142,"name":"Uncletopia | São Paulo | 1 | All Maps","name_short":"sao-1","host":"sao-1.br.uncletopia.com","port":27015,"enabled":true,"region":"sa","cc":"br","latitude":-23.533773,"longitude":-46.62529,"reserved":0,"last_update":"0001-01-01T00:00:00Z","name_a2s":"Uncletopia | São Paulo | 1 | All Maps","protocol":17,"map":"pl_badwater","folder":"tf","game":"Team Fortress","app_id":440,"player_count":3,"max_players":24,"Bots":0,"server_type":"Dedicated","server_os":"Linux","password":true,"vac":true,"version":"7961495","steam_id":85568392924469996,"keywords":["nocrits","nodmgspread","payload","uncletopia"],"game_id":440,"stv_port":27016,"stv_name":"Uncletopia | São Paulo | 1 | All Maps | STV","players":[{"user_id":61,"name":"goofy gupp buttercup","steam_id":76561198391399039,"connected_time":272000000000,"state":"active","ping":57},{"user_id":62,"name":"noa","steam_id":76561199086721697,"connected_time":263000000000,"state":"active","ping":131},{"user_id":63,"name":"heinemann","steam_id":76561198813962339,"connected_time":148000000000,"state":"active","ping":85}]},{"server_id":143,"name":"Uncletopia | São Paulo | 2 | All Maps","name_short":"sao-2","host":"sao-2.br.uncletopia.com","port":27015,"enabled":true,"region":"sa","cc":"br","latitude":-23.533773,"longitude":-46.62529,"reserved":0,"last_update":"0001-01-01T00:00:00Z","name_a2s":"Uncletopia | São Paulo | 2 | All Maps","protocol":17,"map":"koth_lakeside_final","folder":"tf","game":"Team Fortress","app_id":440,"player_count":0,"max_players":24,"Bots":0,"server_type":"Dedicated","server_os":"Linux","password":true,"vac":true,"version":"7961495","steam_id":85568392924485349,"keywords":["cp","nocrits","nodmgspread","uncletopia"],"game_id":440,"stv_port":27016,"stv_name":"Uncletopia | São Paulo | 2 | All Maps | STV","players":null},{"server_id":7,"name":"Uncletopia | Seattle | 1 | All Maps","name_short":"sea-1","host":"sea-1.us.uncletopia.com","port":27015,"enabled":true,"region":"us-west","cc":"us","latitude":47.608013,"longitude":-122.33517,"reserved":0,"last_update":"0001-01-01T00:00:00Z","name_a2s":"Uncletopia | Seattle | 1 | All Maps","protocol":17,"map":"pl_upward","folder":"tf","game":"Team Fortress","app_id":440,"player_count":24,"max_players":24,"Bots":0,"server_type":"Dedicated","server_os":"Linux","password":true,"vac":true,"version":"7961495","steam_id":85568392924469997,"keywords":["nocrits","nodmgspread","payload","uncletopia"],"game_id":440,"stv_port":27016,"stv_name":"Uncletopia | Seattle | 1 | All Maps | STV","players":[{"user_id":240,"name":"PileofPolygons","steam_id":76561199321343460,"connected_time":1627000000000,"state":"active","ping":116},{"user_id":255,"name":"| L O S T |","steam_id":76561198062620333,"connected_time":1194000000000,"state":"active","ping":123},{"user_id":262,"name":"ender_the_degenerate","steam_id":76561198258135395,"connected_time":838000000000,"state":"active","ping":80},{"user_id":269,"name":"dust | she/it","steam_id":76561198045218909,"connected_time":408000000000,"state":"active","ping":45},{"user_id":248,"name":"Deluxe_Taco34","steam_id":76561199037653437,"connected_time":1522000000000,"state":"active","ping":155},{"user_id":221,"name":"gcc8","steam_id":76561198138769251,"connected_time":1965000000000,"state":"active","ping":91},{"user_id":268,"name":"green bean","steam_id":76561198113099204,"connected_time":433000000000,"state":"active","ping":50},{"user_id":274,"name":"purple™ | they/she","steam_id":76561198057459725,"connected_time":161000000000,"state":"active","ping":49},{"user_id":237,"name":"Robuttnik","steam_id":76561198985726752,"connected_time":1858000000000,"state":"active","ping":86},{"user_id":226,"name":"Username","steam_id":76561199033122306,"connected_time":1961000000000,"state":"active","ping":161},{"user_id":270,"name":"Closed.","steam_id":76561198212598967,"connected_time":393000000000,"state":"active","ping":90},{"user_id":250,"name":"Eric4bz","steam_id":76561198054439606,"connected_time":1432000000000,"state":"active","ping":66},{"user_id":257,"name":"yaoipilled","steam_id":76561198055486814,"connected_time":1085000000000,"state":"active","ping":49},{"user_id":267,"name":"Pablo.Gonzalez.2007","steam_id":76561199083115222,"connected_time":441000000000,"state":"active","ping":87},{"user_id":272,"name":"twink tamer 69","steam_id":76561198334977151,"connected_time":341000000000,"state":"active","ping":67},{"user_id":273,"name":"NEBULA","steam_id":76561198086878595,"connected_time":220000000000,"state":"active","ping":74},{"user_id":224,"name":"Mr defrost","steam_id":76561198322125657,"connected_time":1961000000000,"state":"active","ping":68},{"user_id":266,"name":"louie, flutes dad","steam_id":76561198168084763,"connected_time":631000000000,"state":"active","ping":44},{"user_id":176,"name":"Donny Q","steam_id":76561198020901703,"connected_time":6513000000000,"state":"active","ping":54},{"user_id":225,"name":"Fluffy","steam_id":76561198115952540,"connected_time":1961000000000,"state":"active","ping":45},{"user_id":244,"name":"SpamTheAlien","steam_id":76561199122290968,"connected_time":1565000000000,"state":"active","ping":70},{"user_id":246,"name":"Zee✞","steam_id":76561198274550638,"connected_time":1544000000000,"state":"active","ping":114},{"user_id":259,"name":"Renz","steam_id":76561198118995036,"connected_time":1028000000000,"state":"active","ping":52},{"user_id":265,"name":"K2f","steam_id":76561198049600563,"connected_time":794000000000,"state":"active","ping":67}]},{"server_id":119,"name":"Uncletopia | Seattle | 2 | All Maps","name_short":"sea-2","host":"sea-1.us.uncletopia.com","port":27025,"enabled":true,"region":"us-west","cc":"us","latitude":47.608013,"longitude":-122.33517,"reserved":0,"last_update":"0001-01-01T00:00:00Z","name_a2s":"Uncletopia | Seattle | 2 | All Maps","protocol":17,"map":"cp_dustbowl","folder":"tf","game":"Team Fortress","app_id":440,"player_count":24,"max_players":24,"Bots":0,"server_type":"Dedicated","server_os":"Linux","password":true,"vac":true,"version":"7961495","steam_id":85568392924469998,"keywords":["cp","nocrits","nodmgspread","uncletopia"],"game_id":440,"stv_port":27026,"stv_name":"Uncletopia | Seattle | 2 | All Maps | STV","players":[{"user_id":233,"name":"The Texas-Jerusalem Crossroads","steam_id":76561198402943433,"connected_time":179000000000,"state":"active","ping":65},{"user_id":230,"name":"Villchip","steam_id":76561198198599982,"connected_time":311000000000,"state":"active","ping":45},{"user_id":232,"name":"jackhillard83","steam_id":76561199057098390,"connected_time":207000000000,"state":"active","ping":123},{"user_id":213,"name":"DrD","steam_id":76561198067266383,"connected_time":1318000000000,"state":"active","ping":31},{"user_id":190,"name":"Lordus","steam_id":76561198160381729,"connected_time":4101000000000,"state":"active","ping":58},{"user_id":219,"name":"[TTV]slendermansmoom","steam_id":76561199053946374,"connected_time":758000000000,"state":"active","ping":64},{"user_id":128,"name":"Gerbias","steam_id":76561198001002427,"connected_time":9185000000000,"state":"active","ping":68},{"user_id":158,"name":"♦Benji♦","steam_id":76561198313529973,"connected_time":5907000000000,"state":"active","ping":42},{"user_id":214,"name":"Lt. Dan","steam_id":76561199123578119,"connected_time":1064000000000,"state":"active","ping":128},{"user_id":234,"name":"UniverseUltra","steam_id":76561198007989923,"connected_time":3000000000,"state":"spawning","ping":30},{"user_id":227,"name":"Lawnmower","steam_id":76561198186680197,"connected_time":512000000000,"state":"active","ping":60},{"user_id":147,"name":"Wheaty","steam_id":76561198003553412,"connected_time":7413000000000,"state":"active","ping":56},{"user_id":223,"name":"AstronautPug","steam_id":76561198162372709,"connected_time":699000000000,"state":"active","ping":112},{"user_id":98,"name":"LederBoy","steam_id":76561198051822369,"connected_time":11386000000000,"state":"active","ping":69},{"user_id":210,"name":"colonthree","steam_id":76561198998635499,"connected_time":1533000000000,"state":"active","ping":58},{"user_id":221,"name":"Slimeboy Enthusiast","steam_id":76561199200969139,"connected_time":747000000000,"state":"active","ping":140},{"user_id":212,"name":"lasky","steam_id":76561198017030029,"connected_time":1343000000000,"state":"active","ping":68},{"user_id":217,"name":"Ghxst_WoW","steam_id":76561199229086743,"connected_time":1034000000000,"state":"active","ping":64},{"user_id":224,"name":"Tibetan Pop Star","steam_id":76561198844903984,"connected_time":682000000000,"state":"active","ping":93},{"user_id":201,"name":"no vc no c","steam_id":76561197989503095,"connected_time":2437000000000,"state":"active","ping":150},{"user_id":225,"name":"Mr Expendable","steam_id":76561198060647747,"connected_time":680000000000,"state":"active","ping":136},{"user_id":176,"name":"benji","steam_id":76561198084417967,"connected_time":4675000000000,"state":"active","ping":73},{"user_id":231,"name":"gatorbelt","steam_id":76561198145784505,"connected_time":270000000000,"state":"active","ping":76},{"user_id":101,"name":"VascoLeder","steam_id":76561198035813854,"connected_time":11014000000000,"state":"active","ping":73}]},{"server_id":406,"name":"Uncletopia | Seattle | 3 | Stopwatch Beta","name_short":"sea-3","host":"sea-1.us.uncletopia.com","port":27035,"enabled":true,"region":"us-west","cc":"us","latitude":47.608013,"longitude":-122.33517,"reserved":0,"last_update":"0001-01-01T00:00:00Z","name_a2s":"Uncletopia | Seattle | 3 | Stopwatch Beta","protocol":17,"map":"pl_borneo","folder":"tf","game":"Team Fortress","app_id":440,"player_count":0,"max_players":24,"Bots":0,"server_type":"Dedicated","server_os":"Linux","password":true,"vac":true,"version":"7961495","steam_id":85568392924515217,"keywords":["nocrits","nodmgspread","payload","uncletopia"],"game_id":440,"stv_port":27036,"stv_name":"Uncletopia | Seattle | 3 | Stopwatch Beta | STV","players":null},{"server_id":17,"name":"Uncletopia | San Francisco | 1 | All Maps","name_short":"sfo-1","host":"sfo-1.us.uncletopia.com","port":27015,"enabled":true,"region":"us-west","cc":"us","latitude":37.77397,"longitude":-122.4313,"reserved":0,"last_update":"0001-01-01T00:00:00Z","name_a2s":"Uncletopia | San Francisco | 1 | All Maps","protocol":17,"map":"pl_frontier_final","folder":"tf","game":"Team Fortress","app_id":440,"player_count":0,"max_players":24,"Bots":0,"server_type":"Dedicated","server_os":"Linux","password":true,"vac":true,"version":"7932396","steam_id":85568392924469999,"keywords":["nocrits","nodmgspread","payload","uncletopia"],"game_id":440,"stv_port":27016,"stv_name":"Uncletopia | San Francisco | 1 | All Maps | STV","players":null},{"server_id":18,"name":"Uncletopia | San Francisco | 2 | All Maps","name_short":"sfo-2","host":"sfo-1.us.uncletopia.com","port":27025,"enabled":true,"region":"us-west","cc":"us","latitude":37.77397,"longitude":-122.4313,"reserved":0,"last_update":"0001-01-01T00:00:00Z","name_a2s":"Uncletopia | San Francisco | 2 | All Maps","protocol":17,"map":"cp_snakewater_final1","folder":"tf","game":"Team Fortress","app_id":440,"player_count":0,"max_players":24,"Bots":0,"server_type":"Dedicated","server_os":"Linux","password":true,"vac":true,"version":"7932396","steam_id":85568392924470000,"keywords":["cp","nocrits","nodmgspread","uncletopia"],"game_id":440,"stv_port":27026,"stv_name":"Uncletopia | San Francisco | 2 | All Maps | STV","players":null},{"server_id":19,"name":"Uncletopia | San Francisco | 3 | Stopwatch Beta","name_short":"sfo-3","host":"sfo-1.us.uncletopia.com","port":27035,"enabled":true,"region":"us-west","cc":"us","latitude":37.77397,"longitude":-122.4313,"reserved":0,"last_update":"0001-01-01T00:00:00Z","name_a2s":"Uncletopia | San Francisco | 3 | Stopwatch Beta","protocol":17,"map":"koth_lakeside_final","folder":"tf","game":"Team Fortress","app_id":440,"player_count":0,"max_players":24,"Bots":0,"server_type":"Dedicated","server_os":"Linux","password":true,"vac":true,"version":"7932396","steam_id":85568392924742824,"keywords":["cp","nocrits","nodmgspread","uncletopia"],"game_id":440,"stv_port":27036,"stv_name":"Uncletopia | San Francisco | 3 | Stopwatch Beta | STV","players":null},{"server_id":20,"name":"Uncletopia | San Francisco | 4 | Community","name_short":"sfo-4","host":"sfo-1.us.uncletopia.com","port":27045,"enabled":true,"region":"us-west","cc":"us","latitude":37.77397,"longitude":-122.4313,"reserved":0,"last_update":"0001-01-01T00:00:00Z","name_a2s":"Uncletopia | San Francisco | 4 | Community","protocol":17,"map":"pl_borneo","folder":"tf","game":"Team Fortress","app_id":440,"player_count":0,"max_players":24,"Bots":0,"server_type":"Dedicated","server_os":"Linux","password":true,"vac":true,"version":"7932396","steam_id":85568392924742826,"keywords":["nocrits","nodmgspread","payload","uncletopia"],"game_id":440,"stv_port":27046,"stv_name":"Uncletopia | San Francisco | 4 | Community | STV","players":null},{"server_id":141,"name":"Uncletopia | Sydney | 1 | All Maps","name_short":"syd-1","host":"syd-1.au.uncletopia.com","port":27015,"enabled":true,"region":"au","cc":"au","latitude":-33.865143,"longitude":151.2099,"reserved":0,"last_update":"0001-01-01T00:00:00Z","name_a2s":"Uncletopia | Sydney | 1 | All Maps","protocol":17,"map":"pl_borneo","folder":"tf","game":"Team Fortress","app_id":440,"player_count":0,"max_players":24,"Bots":0,"server_type":"Dedicated","server_os":"Linux","password":true,"vac":true,"version":"7961495","steam_id":85568392924470001,"keywords":["nocrits","nodmgspread","payload","uncletopia"],"game_id":440,"stv_port":27016,"stv_name":"Uncletopia | Sydney | 1 | All Maps | STV","players":null},{"server_id":123,"name":"Uncletopia | Sydney | 2 | All Maps","name_short":"syd-2","host":"syd-1.au.uncletopia.com","port":27025,"enabled":true,"region":"au","cc":"au","latitude":-33.865143,"longitude":151.2099,"reserved":0,"last_update":"0001-01-01T00:00:00Z","name_a2s":"Uncletopia | Sydney | 2 | All Maps","protocol":17,"map":"koth_viaduct","folder":"tf","game":"Team Fortress","app_id":440,"player_count":0,"max_players":24,"Bots":0,"server_type":"Dedicated","server_os":"Linux","password":true,"vac":true,"version":"7961495","steam_id":85568392924470002,"keywords":["cp","nocrits","nodmgspread","uncletopia"],"game_id":440,"stv_port":27026,"stv_name":"Uncletopia | Sydney | 2 | All Maps | STV","players":null},{"server_id":395,"name":"Uncletopia | Sydney | 3 | All Maps","name_short":"syd-3","host":"syd-1.au.uncletopia.com","port":27035,"enabled":true,"region":"au","cc":"au","latitude":-33.865143,"longitude":151.2099,"reserved":0,"last_update":"0001-01-01T00:00:00Z","name_a2s":"Uncletopia | Sydney | 3 | All Maps","protocol":17,"map":"cp_dustbowl","folder":"tf","game":"Team Fortress","app_id":440,"player_count":0,"max_players":24,"Bots":0,"server_type":"Dedicated","server_os":"Linux","password":true,"vac":true,"version":"7961495","steam_id":85568392925194467,"keywords":["cp","nocrits","nodmgspread","uncletopia"],"game_id":440,"stv_port":27036,"stv_name":"Uncletopia | Sydney | 3 | All Maps | STV","players":null},{"server_id":396,"name":"Uncletopia | Sydney | 4 | All Maps","name_short":"syd-4","host":"syd-1.au.uncletopia.com","port":27045,"enabled":true,"region":"au","cc":"au","latitude":-33.865143,"longitude":151.2099,"reserved":0,"last_update":"0001-01-01T00:00:00Z","name_a2s":"Uncletopia | Sydney | 4 | All Maps","protocol":17,"map":"koth_cascade","folder":"tf","game":"Team Fortress","app_id":440,"player_count":0,"max_players":24,"Bots":0,"server_type":"Dedicated","server_os":"Linux","password":true,"vac":true,"version":"7961495","steam_id":85568392925397958,"keywords":["cp","nocrits","nodmgspread","uncletopia"],"game_id":440,"stv_port":27046,"stv_name":"Uncletopia | Sydney | 4 | All Maps | STV","players":null},{"server_id":58,"name":"Uncletopia | Sydney | 5 | Stopwatch Beta","name_short":"syd-5","host":"syd-1.au.uncletopia.com","port":27055,"enabled":true,"region":"au","cc":"au","latitude":-33.865143,"longitude":151.2099,"reserved":0,"last_update":"0001-01-01T00:00:00Z","name_a2s":"Uncletopia | Sydney | 5 | Stopwatch Beta","protocol":17,"map":"koth_viaduct","folder":"tf","game":"Team Fortress","app_id":440,"player_count":0,"max_players":24,"Bots":0,"server_type":"Dedicated","server_os":"Linux","password":true,"vac":true,"version":"7961495","steam_id":85568392925397959,"keywords":["cp","nocrits","nodmgspread","uncletopia"],"game_id":440,"stv_port":27056,"stv_name":"Uncletopia | Sydney | 5 | Stopwatch Beta | STV","players":null},{"server_id":59,"name":"Uncletopia | Sydney | 6 | Community","name_short":"syd-6","host":"syd-1.au.uncletopia.com","port":27065,"enabled":true,"region":"au","cc":"au","latitude":-33.865143,"longitude":151.2099,"reserved":0,"last_update":"0001-01-01T00:00:00Z","name_a2s":"Uncletopia | Sydney | 6 | Community","protocol":17,"map":"pl_barnblitz","folder":"tf","game":"Team Fortress","app_id":440,"player_count":0,"max_players":24,"Bots":0,"server_type":"Dedicated","server_os":"Linux","password":true,"vac":true,"version":"7961495","steam_id":85568392925397960,"keywords":["nocrits","nodmgspread","payload","uncletopia"],"game_id":440,"stv_port":27066,"stv_name":"Uncletopia | Sydney | 6 | Community | STV","players":null},{"server_id":49,"name":"Uncletopia | Warsaw | 1 | All Maps","name_short":"waw-1","host":"waw-1.pl.uncletopia.com","port":27015,"enabled":true,"region":"eu","cc":"pl","latitude":52.2297,"longitude":21.017532,"reserved":0,"last_update":"0001-01-01T00:00:00Z","name_a2s":"","protocol":0,"map":"","folder":"","game":"","app_id":0,"player_count":0,"max_players":0,"Bots":0,"server_type":"","server_os":"","password":false,"vac":false,"version":"","steam_id":0,"keywords":null,"game_id":0,"stv_port":0,"stv_name":"","players":null},{"server_id":50,"name":"Uncletopia | Warsaw | 2 | All Maps","name_short":"waw-2","host":"waw-1.pl.uncletopia.com","port":27025,"enabled":true,"region":"eu","cc":"pl","latitude":52.2297,"longitude":21.017532,"reserved":0,"last_update":"0001-01-01T00:00:00Z","name_a2s":"Uncletopia | Warsaw | 2 | All Maps","protocol":17,"map":"koth_cascade","folder":"tf","game":"Team Fortress","app_id":440,"player_count":0,"max_players":24,"Bots":0,"server_type":"Dedicated","server_os":"Linux","password":true,"vac":true,"version":"7961495","steam_id":85568392925397851,"keywords":["cp","nocrits","nodmgspread","uncletopia"],"game_id":440,"stv_port":27026,"stv_name":"Uncletopia | Warsaw | 2 | All Maps | STV","players":null},{"server_id":51,"name":"Uncletopia | Warsaw | 3 | All Maps","name_short":"waw-3","host":"waw-1.pl.uncletopia.com","port":27035,"enabled":true,"region":"eu","cc":"pl","latitude":52.2297,"longitude":21.017532,"reserved":0,"last_update":"0001-01-01T00:00:00Z","name_a2s":"Uncletopia | Warsaw | 3 | All Maps","protocol":17,"map":"pl_pier","folder":"tf","game":"Team Fortress","app_id":440,"player_count":0,"max_players":24,"Bots":0,"server_type":"Dedicated","server_os":"Linux","password":true,"vac":true,"version":"7961495","steam_id":85568392925397852,"keywords":["nocrits","nodmgspread","payload","uncletopia"],"game_id":440,"stv_port":27036,"stv_name":"Uncletopia | Warsaw | 3 | All Maps | STV","players":null},{"server_id":52,"name":"Uncletopia | Warsaw | 4 | All Maps","name_short":"waw-4","host":"waw-1.pl.uncletopia.com","port":27045,"enabled":true,"region":"eu","cc":"pl","latitude":52.2297,"longitude":21.017532,"reserved":0,"last_update":"0001-01-01T00:00:00Z","name_a2s":"Uncletopia | Warsaw | 4 | All Maps","protocol":17,"map":"koth_lakeside_final","folder":"tf","game":"Team Fortress","app_id":440,"player_count":24,"max_players":24,"Bots":0,"server_type":"Dedicated","server_os":"Linux","password":true,"vac":true,"version":"7961495","steam_id":85568392925397853,"keywords":["cp","nocrits","nodmgspread","uncletopia"],"game_id":440,"stv_port":27046,"stv_name":"Uncletopia | Warsaw | 4 | All Maps | STV","players":[{"user_id":70,"name":"Mafalik","steam_id":76561198231353148,"connected_time":1277000000000,"state":"active","ping":47},{"user_id":85,"name":"Bobo","steam_id":76561198052308399,"connected_time":768000000000,"state":"active","ping":78},{"user_id":67,"name":"rudy rumcajs","steam_id":76561199388980355,"connected_time":1439000000000,"state":"active","ping":51},{"user_id":53,"name":"Mischail","steam_id":76561198016127010,"connected_time":2632000000000,"state":"active","ping":89},{"user_id":73,"name":"Ewelinka Zniszczenia","steam_id":76561198307374456,"connected_time":1125000000000,"state":"active","ping":47},{"user_id":72,"name":"WotFox","steam_id":76561198941119977,"connected_time":1195000000000,"state":"active","ping":69},{"user_id":74,"name":"Kreos","steam_id":76561198094772516,"connected_time":1113000000000,"state":"active","ping":71},{"user_id":77,"name":"grrokr","steam_id":76561199003462804,"connected_time":1021000000000,"state":"active","ping":99},{"user_id":90,"name":"Slimey Boi","steam_id":76561198872799729,"connected_time":99000000000,"state":"active","ping":78},{"user_id":64,"name":"Burarum","steam_id":76561198009114251,"connected_time":1821000000000,"state":"active","ping":89},{"user_id":61,"name":"Лысый из кухни","steam_id":76561199072741842,"connected_time":2006000000000,"state":"active","ping":98},{"user_id":86,"name":"BixenteN7Akantor","steam_id":76561198096635765,"connected_time":761000000000,"state":"active","ping":125},{"user_id":88,"name":"giorgio","steam_id":76561199151781840,"connected_time":656000000000,"state":"active","ping":69},{"user_id":56,"name":"Shynii","steam_id":76561198194682105,"connected_time":2485000000000,"state":"active","ping":89},{"user_id":39,"name":"Fagette","steam_id":76561198165878858,"connected_time":3502000000000,"state":"active","ping":51},{"user_id":78,"name":"unmute me plz TwT","steam_id":76561198134378108,"connected_time":1018000000000,"state":"active","ping":105},{"user_id":79,"name":"cute and funny","steam_id":76561198372699365,"connected_time":1005000000000,"state":"active","ping":102},{"user_id":63,"name":"PanAdrian00","steam_id":76561199170844894,"connected_time":1907000000000,"state":"active","ping":60},{"user_id":65,"name":"Искусство ZZ","steam_id":76561198057438629,"connected_time":1781000000000,"state":"active","ping":84},{"user_id":81,"name":"Coja","steam_id":76561198083974982,"connected_time":852000000000,"state":"active","ping":77},{"user_id":91,"name":"Šajke","steam_id":76561198162695930,"connected_time":34000000000,"state":"spawning","ping":210},{"user_id":82,"name":"f0x","steam_id":76561198072921704,"connected_time":843000000000,"state":"active","ping":59},{"user_id":83,"name":"fluffs","steam_id":76561198436106996,"connected_time":842000000000,"state":"active","ping":84},{"user_id":87,"name":"Gruset","steam_id":76561198327512432,"connected_time":731000000000,"state":"active","ping":97}]},{"server_id":53,"name":"Uncletopia | Warsaw | 5 | Stopwatch Beta","name_short":"waw-5","host":"waw-1.pl.uncletopia.com","port":27055,"enabled":true,"region":"eu","cc":"pl","latitude":52.2297,"longitude":21.017532,"reserved":0,"last_update":"0001-01-01T00:00:00Z","name_a2s":"Uncletopia | Warsaw | 5 | Stopwatch Beta","protocol":17,"map":"workshop/koth_ashville_final.ugc2130459942","folder":"tf","game":"Team Fortress","app_id":440,"player_count":0,"max_players":24,"Bots":0,"server_type":"Dedicated","server_os":"Linux","password":true,"vac":true,"version":"7961495","steam_id":85568392925397854,"keywords":["cp","nocrits","nodmgspread","uncletopia"],"game_id":440,"stv_port":27056,"stv_name":"Uncletopia | Warsaw | 5 | Stopwatch Beta | STV","players":null},{"server_id":54,"name":"Uncletopia | Warsaw | 6 | Community","name_short":"waw-6","host":"waw-1.pl.uncletopia.com","port":27065,"enabled":true,"region":"eu","cc":"pl","latitude":52.2297,"longitude":21.017532,"reserved":0,"last_update":"0001-01-01T00:00:00Z","name_a2s":"Uncletopia | Warsaw | 6 | Community","protocol":17,"map":"workshop/cp_indulge.ugc528106646","folder":"tf","game":"Team Fortress","app_id":440,"player_count":0,"max_players":24,"Bots":0,"server_type":"Dedicated","server_os":"Linux","password":true,"vac":true,"version":"7961495","steam_id":85568392925397856,"keywords":["cp","nocrits","nodmgspread","uncletopia"],"game_id":440,"stv_port":27066,"stv_name":"Uncletopia | Warsaw | 6 | Community | STV","players":null}]}