{"status":true,"message":"","result":[{"server_id":9,"name":"Uncletopia | Atlanta | 1 | All Maps","name_short":"atl-1","host":"atl-1.us.uncletopia.com","port":27015,"enabled":true,"region":"us-east","cc":"us","latitude":33.753746,"longitude":-84.38633,"reserved":0,"last_update":"0001-01-01T00:00:00Z","name_a2s":"Uncletopia | Atlanta | 1 | All Maps","protocol":17,"map":"pl_upward","folder":"tf","game":"Team Fortress","app_id":440,"player_count":22,"max_players":24,"Bots":0,"server_type":"Dedicated","server_os":"Linux","password":true,"vac":true,"version":"7757534","steam_id":85568392924469982,"keywords":["nocrits","nodmgspread","payload","uncletopia"],"game_id":440,"stv_port":27016,"stv_name":"Uncletopia | Atlanta | 1 | All Maps | STV","players":[{"user_id":402,"name":"fr","steam_id":76561198119826352,"connected_time":978000000000,"state":"active","ping":73},{"user_id":297,"name":"Stewartsaurus","steam_id":76561198173175137,"connected_time":8209000000000,"state":"active","ping":113},{"user_id":414,"name":"Monkey","steam_id":76561198031015186,"connected_time":193000000000,"state":"active","ping":73},{"user_id":416,"name":"Krumping to Save America","steam_id":76561198010708247,"connected_time":60000000000,"state":"active","ping":71},{"user_id":373,"name":"crack crisis","steam_id":76561198332519926,"connected_time":3016000000000,"state":"active","ping":62},{"user_id":406,"name":"Constable","steam_id":76561198135578153,"connected_time":535000000000,"state":"active","ping":86},{"user_id":417,"name":"Crazy","steam_id":76561198027519329,"connected_time":20000000000,"state":"active","ping":84},{"user_id":411,"name":"The Cool Man","steam_id":76561198096420556,"connected_time":213000000000,"state":"active","ping":94},{"user_id":385,"name":"stink","steam_id":76561198099318923,"connected_time":2192000000000,"state":"active","ping":73},{"user_id":418,"name":"johnathan","steam_id":76561198866363114,"connected_time":14000000000,"state":"spawning","ping":59},{"user_id":398,"name":"jae","steam_id":76561199239926014,"connected_time":1246000000000,"state":"active","ping":71},{"user_id":330,"name":"cola","steam_id":76561198374390458,"connected_time":6189000000000,"state":"active","ping":46},{"user_id":407,"name":"Lilith","steam_id":76561198125102885,"connected_time":325000000000,"state":"active","ping":60},{"user_id":413,"name":"abirdwitharms","steam_id":76561198062376955,"connected_time":209000000000,"state":"active","ping":76},{"user_id":391,"name":"Shmoopy","steam_id":76561198030459152,"connected_time":1842000000000,"state":"active","ping":62},{"user_id":370,"name":"Dino","steam_id":76561198085130361,"connected_time":3124000000000,"state":"active","ping":114},{"user_id":419,"name":"ShatterPointe","steam_id":76561198077359444,"connected_time":10000000000,"state":"spawning","ping":65},{"user_id":403,"name":"♥ Cleo ♥","steam_id":76561198272922325,"connected_time":927000000000,"state":"active","ping":46},{"user_id":378,"name":"sexygoblin54","steam_id":76561198143988056,"connected_time":2929000000000,"state":"active","ping":117},{"user_id":408,"name":"♡Alyx♡","steam_id":76561198024303978,"connected_time":322000000000,"state":"active","ping":60},{"user_id":404,"name":"Brian","steam_id":76561198089908485,"connected_time":572000000000,"state":"active","ping":55},{"user_id":409,"name":"DFR DeezNoodlez","steam_id":76561198246700372,"connected_time":321000000000,"state":"active","ping":61}]},{"server_id":104,"name":"Uncletopia | Atlanta | 2 | All Maps","name_short":"atl-2","host":"atl-1.us.uncletopia.com","port":27025,"enabled":true,"region":"us-east","cc":"us","latitude":33.753746,"longitude":-84.38633,"reserved":0,"last_update":"0001-01-01T00:00:00Z","name_a2s":"Uncletopia | Atlanta | 2 | All Maps","protocol":17,"map":"pl_barnblitz","folder":"tf","game":"Team Fortress","app_id":440,"player_count":23,"max_players":24,"Bots":0,"server_type":"Dedicated","server_os":"Linux","password":true,"vac":true,"version":"7757534","steam_id":85568392924469983,"keywords":["nocrits","nodmgspread","payload","uncletopia"],"game_id":440,"stv_port":27026,"stv_name":"Uncletopia | Atlanta | 2 | All Maps | STV","players":[{"user_id":145,"name":"Higglestaff","steam_id":76561198043960257,"connected_time":1374000000000,"state":"active","ping":82},{"user_id":129,"name":"MyamE","steam_id":76561198133278462,"connected_time":3136000000000,"state":"active","ping":69},{"user_id":101,"name":"Garlb","steam_id":76561198044636706,"connected_time":5713000000000,"state":"active","ping":94},{"user_id":156,"name":"splatt","steam_id":76561198217172111,"connected_time":262000000000,"state":"active","ping":79},{"user_id":138,"name":"Razz","steam_id":76561198158027533,"connected_time":2423000000000,"state":"active","ping":60},{"user_id":132,"name":"the biggest bird","steam_id":76561198361999761,"connected_time":2855000000000,"state":"active","ping":97},{"user_id":136,"name":"2funky","steam_id":76561198210915723,"connected_time":2561000000000,"state":"active","ping":73},{"user_id":134,"name":"black_gazebo","steam_id":76561197991652544,"connected_time":2612000000000,"state":"active","ping":96},{"user_id":144,"name":"Treeckogeek","steam_id":76561198453328078,"connected_time":1759000000000,"state":"active","ping":73},{"user_id":114,"name":"SeaBass","steam_id":76561198278914206,"connected_time":5261000000000,"state":"active","ping":62},{"user_id":99,"name":"Hindmost","steam_id":76561199081837220,"connected_time":5845000000000,"state":"active","ping":56},{"user_id":105,"name":"Wilhelmktx","steam_id":76561198158102295,"connected_time":5635000000000,"state":"active","ping":76},{"user_id":96,"name":"illious","steam_id":76561198169925494,"connected_time":6382000000000,"state":"active","ping":67},{"user_id":147,"name":"Discourse","steam_id":76561198984286678,"connected_time":1322000000000,"state":"active","ping":75},{"user_id":148,"name":"Saristan","steam_id":76561198093346048,"connected_time":1254000000000,"state":"active","ping":53},{"user_id":100,"name":"Coffeebeans","steam_id":76561197987543188,"connected_time":5817000000000,"state":"active","ping":103},{"user_id":154,"name":"flappyflap2","steam_id":76561198285048973,"connected_time":368000000000,"state":"active","ping":60},{"user_id":110,"name":"big ol' buford","steam_id":76561198290675957,"connected_time":5586000000000,"state":"active","ping":61},{"user_id":150,"name":"Gamba","steam_id":76561198069264650,"connected_time":1214000000000,"state":"active","ping":89},{"user_id":66,"name":"Atlas","steam_id":76561198127975050,"connected_time":8652000000000,"state":"active","ping":47},{"user_id":155,"name":"The Medicinal Man that Fights","steam_id":76561199225479871,"connected_time":367000000000,"state":"active","ping":78},{"user_id":152,"name":"HATEWORK.","steam_id":76561198286792807,"connected_time":685000000000,"state":"active","ping":85},{"user_id":79,"name":"Skinny Pete","steam_id":76561198801608576,"connected_time":7945000000000,"state":"active","ping":71}]},{"server_id":400,"name":"Uncletopia | Atlanta | 3 | Community","name_short":"atl-3","host":"atl-1.us.uncletopia.com","port":27035,"enabled":true,"region":"us-east","cc":"us","latitude":33.753746,"longitude":-84.38633,"reserved":0,"last_update":"0001-01-01T00:00:00Z","name_a2s":"Uncletopia | Atlanta | 3 | Community","protocol":17,"map":"workshop/cp_glacier_rc6.ugc2905735376","folder":"tf","game":"Team Fortress","app_id":440,"player_count":0,"max_players":24,"Bots":0,"server_type":"Dedicated","server_os":"Linux","password":true,"vac":true,"version":"7757534","steam_id":85568392924515187,"keywords":["cp","nocrits","nodmgspread","uncletopia"],"game_id":440,"stv_port":27036,"stv_name":"Uncletopia | Atlanta | 3 | Community | STV","players":null},{"server_id":401,"name":"Uncletopia | Atlanta | 4 | No Payload","name_short":"atl-4","host":"atl-1.us.uncletopia.com","port":27045,"enabled":true,"region":"us-east","cc":"us","latitude":33.753746,"longitude":-84.38633,"reserved":0,"last_update":"0001-01-01T00:00:00Z","name_a2s":"","protocol":0,"map":"","folder":"","game":"","app_id":0,"player_count":0,"max_players":0,"Bots":0,"server_type":"","server_os":"","password":false,"vac":false,"version":"","steam_id":0,"keywords":null,"game_id":0,"stv_port":0,"stv_name":"","players":null},{"server_id":2,"name":"Uncletopia | Chicago | 1 | All Maps","name_short":"chi-1","host":"chi-1.us.uncletopia.com","port":27015,"enabled":true,"region":"us-central","cc":"us","latitude":41.881832,"longitude":-87.62318,"reserved":0,"last_update":"0001-01-01T00:00:00Z","name_a2s":"Uncletopia | Chicago | 1 | All Maps","protocol":17,"map":"pl_barnblitz","folder":"tf","game":"Team Fortress","app_id":440,"player_count":24,"max_players":24,"Bots":0,"server_type":"Dedicated","server_os":"Linux","password":true,"vac":true,"version":"7757534","steam_id":85568392924469984,"keywords":["nocrits","nodmgspread","payload","uncletopia"],"game_id":440,"stv_port":27016,"stv_name":"Uncletopia | Chicago | 1 | All Maps | STV","players":[{"user_id":671,"name":"Ehttri","steam_id":76561198170138667,"connected_time":1902000000000,"state":"active","ping":100},{"user_id":670,"name":"Horrizan","steam_id":76561197965028480,"connected_time":2477000000000,"state":"active","ping":100},{"user_id":678,"name":"Big Phony","steam_id":76561199092395311,"connected_time":1383000000000,"state":"active","ping":61},{"user_id":667,"name":"alexfuzzy","steam_id":76561199291945851,"connected_time":2563000000000,"state":"active","ping":203},{"user_id":658,"name":"Im High","steam_id":76561198049954886,"connected_time":4015000000000,"state":"active","ping":63},{"user_id":661,"name":"doug jones REAL","steam_id":76561198046650995,"connected_time":3624000000000,"state":"active","ping":84},{"user_id":651,"name":"hi","steam_id":76561198809577048,"connected_time":4452000000000,"state":"active","ping":98},{"user_id":626,"name":"agentish","steam_id":76561198055088122,"connected_time":6473000000000,"state":"active","ping":58},{"user_id":668,"name":"Snom","steam_id":76561198333827920,"connected_time":2558000000000,"state":"active","ping":107},{"user_id":684,"name":"Thatoneguybunchanumbers","steam_id":76561198028039160,"connected_time":1282000000000,"state":"active","ping":82},{"user_id":672,"name":"Lore","steam_id":76561198098407538,"connected_time":1850000000000,"state":"active","ping":47},{"user_id":681,"name":"Joe Biden","steam_id":76561198238699798,"connected_time":1334000000000,"state":"active","ping":85},{"user_id":652,"name":"Astoriae!","steam_id":76561199090168858,"connected_time":4452000000000,"state":"active","ping":82},{"user_id":673,"name":"Person","steam_id":76561198093244204,"connected_time":1850000000000,"state":"active","ping":74},{"user_id":688,"name":"Qball","steam_id":76561198179016466,"connected_time":813000000000,"state":"active","ping":57},{"user_id":682,"name":"Russell Crowe","steam_id":76561197970834547,"connected_time":1332000000000,"state":"active","ping":72},{"user_id":676,"name":"eThaNos","steam_id":76561198035403279,"connected_time":1652000000000,"state":"active","ping":71},{"user_id":677,"name":"Sprinklingmydoughnut","steam_id":76561198168009092,"connected_time":1593000000000,"state":"active","ping":89},{"user_id":669,"name":"Lawtumn","steam_id":76561198347286009,"connected_time":2543000000000,"state":"active","ping":85},{"user_id":690,"name":"Turtle","steam_id":76561198098121333,"connected_time":93000000000,"state":"active","ping":70},{"user_id":656,"name":"Thundermonkey (SMOKE)","steam_id":76561198017631728,"connected_time":4286000000000,"state":"active","ping":63},{"user_id":691,"name":"PineappleSalesman","steam_id":76561198881039861,"connected_time":90000000000,"state":"active","ping":47},{"user_id":692,"name":"sus ahhh comments","steam_id":76561198319442494,"connected_time":90000000000,"state":"active","ping":117},{"user_id":526,"name":"HumFreY","steam_id":76561198076639682,"connected_time":10894000000000,"state":"active","ping":71}]},{"server_id":106,"name":"Uncletopia | Chicago | 2 | All Maps","name_short":"chi-2","host":"chi-1.us.uncletopia.com","port":27025,"enabled":true,"region":"us-central","cc":"us","latitude":41.881832,"longitude":-87.62318,"reserved":0,"last_update":"0001-01-01T00:00:00Z","name_a2s":"Uncletopia | Chicago | 2 | All Maps","protocol":17,"map":"cp_dustbowl","folder":"tf","game":"Team Fortress","app_id":440,"player_count":24,"max_players":24,"Bots":0,"server_type":"Dedicated","server_os":"Linux","password":true,"vac":true,"version":"7757534","steam_id":85568392924469985,"keywords":["cp","nocrits","nodmgspread","uncletopia"],"game_id":440,"stv_port":27026,"stv_name":"Uncletopia | Chicago | 2 | All Maps | STV","players":[{"user_id":592,"name":"Pal","steam_id":76561198004363431,"connected_time":3571000000000,"state":"active","ping":101},{"user_id":600,"name":"Cocksneed Fartin","steam_id":76561198126675787,"connected_time":2930000000000,"state":"active","ping":74},{"user_id":624,"name":"iceman","steam_id":76561198135397441,"connected_time":817000000000,"state":"active","ping":76},{"user_id":631,"name":"bunceian","steam_id":76561198975662918,"connected_time":153000000000,"state":"active","ping":111},{"user_id":627,"name":"蓝光版乔污垢","steam_id":76561199088154401,"connected_time":228000000000,"state":"active","ping":68},{"user_id":622,"name":"Flubzy1","steam_id":76561198379456004,"connected_time":860000000000,"state":"active","ping":67},{"user_id":617,"name":"Gorgon Freeman","steam_id":76561198000367036,"connected_time":1449000000000,"state":"active","ping":54},{"user_id":608,"name":"Mr.YoYo","steam_id":76561198988717854,"connected_time":1975000000000,"state":"active","ping":78},{"user_id":632,"name":"Poopie Babie","steam_id":76561198047500494,"connected_time":138000000000,"state":"active","ping":61},{"user_id":629,"name":"Speedy","steam_id":76561198080761661,"connected_time":188000000000,"state":"active","ping":84},{"user_id":621,"name":"Poison Duck","steam_id":76561198103155890,"connected_time":1396000000000,"state":"active","ping":78},{"user_id":619,"name":"swagmessiah0","steam_id":76561198979823647,"connected_time":1424000000000,"state":"active","ping":65},{"user_id":599,"name":"Digitic","steam_id":76561198080295536,"connected_time":2950000000000,"state":"active","ping":74},{"user_id":630,"name":"your mom calls me princess too","steam_id":76561198020400899,"connected_time":187000000000,"state":"active","ping":64},{"user_id":633,"name":"Codo Sapien","steam_id":76561198014206810,"connected_time":108000000000,"state":"active","ping":41},{"user_id":634,"name":"Saggy","steam_id":76561198166706479,"connected_time":95000000000,"state":"active","ping":70},{"user_id":626,"name":"Um, cool!","steam_id":76561198129870038,"connected_time":714000000000,"state":"active","ping":106},{"user_id":620,"name":"I Eat Trains","steam_id":76561198054791624,"connected_time":1404000000000,"state":"active","ping":63},{"user_id":623,"name":"hashmap","steam_id":76561198043794014,"connected_time":860000000000,"state":"active","ping":54},{"user_id":603,"name":"Bockbockbob","steam_id":76561198041576710,"connected_time":2869000000000,"state":"active","ping":71},{"user_id":498,"name":"rudy","steam_id":76561198088712799,"connected_time":6342000000000,"state":"active","ping":77},{"user_id":635,"name":"TheSky4lif","steam_id":76561198871331139,"connected_time":83000000000,"state":"active","ping":69},{"user_id":590,"name":"Mr. Dry Lips","steam_id":76561198028157625,"connected_time":3650000000000,"state":"active","ping":87},{"user_id":610,"name":"jimmyfnaf172198yay","steam_id":76561198311446636,"connected_time":1682000000000,"state":"active","ping":58}]},{"server_id":402,"name":"Uncletopia | Chicago | 3 | All Maps","name_short":"chi-3","host":"chi-1.us.uncletopia.com","port":27035,"enabled":true,"region":"us-central","cc":"us","latitude":41.881832,"longitude":-87.62318,"reserved":0,"last_update":"0001-01-01T00:00:00Z","name_a2s":"Uncletopia | Chicago | 3 | All Maps","protocol":17,"map":"cp_snakewater_final1","folder":"tf","game":"Team Fortress","app_id":440,"player_count":24,"max_players":24,"Bots":0,"server_type":"Dedicated","server_os":"Linux","password":true,"vac":true,"version":"7757534","steam_id":85568392924515191,"keywords":["cp","nocrits","nodmgspread","uncletopia"],"game_id":440,"stv_port":27036,"stv_name":"Uncletopia | Chicago | 3 | All Maps | STV","players":[{"user_id":388,"name":"creepycrawler","steam_id":76561198352016831,"connected_time":1598000000000,"state":"active","ping":65},{"user_id":386,"name":"Wayofthepen","steam_id":76561198021228607,"connected_time":1778000000000,"state":"active","ping":70},{"user_id":367,"name":"brinks truck","steam_id":76561198126489501,"connected_time":3806000000000,"state":"active","ping":49},{"user_id":378,"name":"Felipe Ramirez 2013","steam_id":76561198150497397,"connected_time":2689000000000,"state":"active","ping":76},{"user_id":392,"name":"Hammerhead","steam_id":76561198897122890,"connected_time":1262000000000,"state":"active","ping":57},{"user_id":342,"name":"Soup","steam_id":76561198027803528,"connected_time":6232000000000,"state":"active","ping":61},{"user_id":380,"name":"ShitsandGiggles™","steam_id":76561198058708019,"connected_time":2525000000000,"state":"active","ping":55},{"user_id":375,"name":"jake","steam_id":76561199406261605,"connected_time":2927000000000,"state":"active","ping":85},{"user_id":383,"name":"Mush","steam_id":76561198393461065,"connected_time":1946000000000,"state":"active","ping":75},{"user_id":387,"name":"Totouri","steam_id":76561198004229789,"connected_time":1774000000000,"state":"active","ping":74},{"user_id":396,"name":"TÖZI","steam_id":76561198045268695,"connected_time":676000000000,"state":"active","ping":62},{"user_id":359,"name":"TheDeadlyDaedric","steam_id":76561198299832432,"connected_time":4715000000000,"state":"active","ping":55},{"user_id":381,"name":"Sandy","steam_id":76561198150108571,"connected_time":1962000000000,"state":"active","ping":86},{"user_id":344,"name":"Elusive139","steam_id":76561198871584620,"connected_time":6216000000000,"state":"active","ping":55},{"user_id":397,"name":"onsen episode","steam_id":76561197965022076,"connected_time":654000000000,"state":"active","ping":54},{"user_id":366,"name":"Fumpo","steam_id":76561198206873365,"connected_time":3923000000000,"state":"active","ping":70},{"user_id":398,"name":"choi","steam_id":76561198053669887,"connected_time":316000000000,"state":"active","ping":111},{"user_id":384,"name":"Fudgely","steam_id":76561198039425862,"connected_time":1925000000000,"state":"active","ping":76},{"user_id":394,"name":"TheSnipersHat","steam_id":76561198057684066,"connected_time":961000000000,"state":"active","ping":60},{"user_id":393,"name":"Anderred","steam_id":76561198149983847,"connected_time":1011000000000,"state":"active","ping":82},{"user_id":400,"name":"silvestrelops","steam_id":76561198275189720,"connected_time":55000000000,"state":"active","ping":150},{"user_id":389,"name":"boop","steam_id":76561198043787598,"connected_time":1591000000000,"state":"active","ping":59},{"user_id":353,"name":"Elefanté","steam_id":76561198258765900,"connected_time":5612000000000,"state":"active","ping":86},{"user_id":373,"name":"Loading...","steam_id":76561198124898032,"connected_time":3329000000000,"state":"active","ping":59}]},{"server_id":403,"name":"Uncletopia | Chicago | 4 | All Maps","name_short":"chi-4","host":"chi-1.us.uncletopia.com","port":27045,"enabled":true,"region":"us-central","cc":"us","latitude":41.881832,"longitude":-87.62318,"reserved":0,"last_update":"0001-01-01T00:00:00Z","name_a2s":"Uncletopia | Chicago | 4 | All Maps","protocol":17,"map":"cp_mossrock","folder":"tf","game":"Team Fortress","app_id":440,"player_count":24,"max_players":24,"Bots":0,"server_type":"Dedicated","server_os":"Linux","password":true,"vac":true,"version":"7757534","steam_id":85568392924515193,"keywords":["cp","nocrits","nodmgspread","uncletopia"],"game_id":440,"stv_port":27046,"stv_name":"Uncletopia | Chicago | 4 | All Maps | STV","players":[{"user_id":650,"name":"VioletSpecs","steam_id":76561198089366466,"connected_time":1206000000000,"state":"active","ping":72},{"user_id":636,"name":"dbelow_","steam_id":76561198056148853,"connected_time":2425000000000,"state":"active","ping":61},{"user_id":571,"name":"Pancreas Enjoyer","steam_id":76561199438598904,"connected_time":6926000000000,"state":"active","ping":90},{"user_id":638,"name":"Dragonofponies","steam_id":76561199016800803,"connected_time":2182000000000,"state":"active","ping":76},{"user_id":653,"name":"igotmail","steam_id":76561198070631899,"connected_time":545000000000,"state":"active","ping":70},{"user_id":654,"name":"Dojoloachfr","steam_id":76561198826298849,"connected_time":512000000000,"state":"active","ping":92},{"user_id":640,"name":"ultralisk52","steam_id":76561198051666604,"connected_time":2071000000000,"state":"active","ping":60},{"user_id":603,"name":"wokky bin laddn","steam_id":76561198265200834,"connected_time":4187000000000,"state":"active","ping":77},{"user_id":660,"name":"Crylec","steam_id":76561198092755279,"connected_time":276000000000,"state":"active","ping":67},{"user_id":626,"name":"threethree","steam_id":76561198177354155,"connected_time":2732000000000,"state":"active","ping":72},{"user_id":644,"name":"surfer","steam_id":76561198068409067,"connected_time":1583000000000,"state":"active","ping":74},{"user_id":624,"name":"quint","steam_id":76561198046797995,"connected_time":2825000000000,"state":"active","ping":66},{"user_id":627,"name":"Metbol","steam_id":76561198001362410,"connected_time":2730000000000,"state":"active","ping":86},{"user_id":655,"name":"Zach_The_Flower","steam_id":76561199151266003,"connected_time":501000000000,"state":"active","ping":85},{"user_id":651,"name":"Legit_Jaxer","steam_id":76561198172234053,"connected_time":1203000000000,"state":"active","ping":127},{"user_id":656,"name":"Epha","steam_id":76561198079379951,"connected_time":499000000000,"state":"active","ping":63},{"user_id":648,"name":"Leviathan","steam_id":76561197997528907,"connected_time":1370000000000,"state":"active","ping":60},{"user_id":588,"name":"Leftshadows","steam_id":76561199089515791,"connected_time":5497000000000,"state":"active","ping":119},{"user_id":657,"name":"the girl gamer with IBS","steam_id":76561198029274581,"connected_time":445000000000,"state":"active","ping":69},{"user_id":602,"name":"amablehughes","steam_id":76561199007131236,"connected_time":4499000000000,"state":"active","ping":79},{"user_id":658,"name":"golem","steam_id":76561198355040593,"connected_time":441000000000,"state":"active","ping":76},{"user_id":646,"name":"Trumpetspyman59","steam_id":76561198048989561,"connected_time":1564000000000,"state":"active","ping":79},{"user_id":597,"name":"PaintMyMeow","steam_id":76561198056860387,"connected_time":4841000000000,"state":"active","ping":78},{"user_id":659,"name":"Salad gaming (real)","steam_id":76561198298310744,"connected_time":415000000000,"state":"active","ping":86}]},{"server_id":36,"name":"Uncletopia | Chicago | 5 | All Maps","name_short":"chi-5","host":"chi-2.us.uncletopia.com","port":27015,"enabled":true,"region":"us-central","cc":"us","latitude":41.881832,"longitude":-87.62318,"reserved":0,"last_update":"0001-01-01T00:00:00Z","name_a2s":"Uncletopia | Chicago | 5 | All Maps","protocol":17,"map":"pl_pier","folder":"tf","game":"Team Fortress","app_id":440,"player_count":18,"max_players":24,"Bots":0,"server_type":"Dedicated","server_os":"Linux","password":true,"vac":true,"version":"7757534","steam_id":85568392924866362,"keywords":["nocrits","nodmgspread","payload","uncletopia"],"game_id":440,"stv_port":27016,"stv_name":"Uncletopia | Chicago | 5 | All Maps | STV","players":[{"user_id":440,"name":"_normal","steam_id":76561198338505734,"connected_time":175000000000,"state":"active","ping":53},{"user_id":415,"name":"DoodleCultist","steam_id":76561198306927279,"connected_time":1423000000000,"state":"active","ping":72},{"user_id":364,"name":"Erious","steam_id":76561198431446386,"connected_time":4252000000000,"state":"active","ping":67},{"user_id":441,"name":"matkaster","steam_id":76561197998546486,"connected_time":139000000000,"state":"active","ping":63},{"user_id":429,"name":"ThePowerOfPoe","steam_id":76561199013287986,"connected_time":482000000000,"state":"active","ping":102},{"user_id":325,"name":"Piyono","steam_id":76561197962188504,"connected_time":6990000000000,"state":"active","ping":73},{"user_id":446,"name":"Kingston","steam_id":76561198165640491,"connected_time":16000000000,"state":"active","ping":292},{"user_id":442,"name":"doctor large","steam_id":76561199195836752,"connected_time":27000000000,"state":"active","ping":62},{"user_id":443,"name":"gista","steam_id":76561198120225915,"connected_time":24000000000,"state":"active","ping":60},{"user_id":444,"name":"Turtlin'","steam_id":76561198885096042,"connected_time":24000000000,"state":"active","ping":69},{"user_id":445,"name":"LogieMBerra","steam_id":76561198384661534,"connected_time":19000000000,"state":"active","ping":75},{"user_id":431,"name":"Dangerous_Dave76","steam_id":76561199230056550,"connected_time":355000000000,"state":"active","ping":120},{"user_id":407,"name":"Aeterna Victrix","steam_id":76561198067701236,"connected_time":2279000000000,"state":"active","ping":60},{"user_id":447,"name":"Ringo x Seiran","steam_id":76561198357437908,"connected_time":7000000000,"state":"active","ping":97},{"user_id":417,"name":"haxxorman","steam_id":76561199155156400,"connected_time":980000000000,"state":"active","ping":54},{"user_id":433,"name":"MILF PLANET","steam_id":76561198079026982,"connected_time":339000000000,"state":"active","ping":87},{"user_id":434,"name":"boomawrnamglrhejgoughdrg","steam_id":76561198056324307,"connected_time":328000000000,"state":"active","ping":61},{"user_id":360,"name":"Yameetis","steam_id":76561199216932748,"connected_time":4515000000000,"state":"active","ping":112}]},{"server_id":37,"name":"Uncletopia | Chicago | 6 | All Maps","name_short":"chi-6","host":"chi-2.us.uncletopia.com","port":27025,"enabled":true,"region":"us-central","cc":"us","latitude":41.881832,"longitude":-87.62318,"reserved":0,"last_update":"0001-01-01T00:00:00Z","name_a2s":"Uncletopia | Chicago | 6 | All Maps","protocol":17,"map":"pl_snowycoast","folder":"tf","game":"Team Fortress","app_id":440,"player_count":23,"max_players":24,"Bots":0,"server_type":"Dedicated","server_os":"Linux","password":true,"vac":true,"version":"7757534","steam_id":85568392924866363,"keywords":["nocrits","nodmgspread","payload","uncletopia"],"game_id":440,"stv_port":27026,"stv_name":"Uncletopia | Chicago | 6 | All Maps | STV","players":[{"user_id":237,"name":"=3][canners]","steam_id":76561198103496593,"connected_time":1480000000000,"state":"active","ping":61},{"user_id":224,"name":"Baka!⑨⑨⑨⑨","steam_id":76561198152948254,"connected_time":1739000000000,"state":"active","ping":71},{"user_id":225,"name":"45 Cent","steam_id":76561198048690188,"connected_time":1676000000000,"state":"active","ping":74},{"user_id":227,"name":"Zigadox","steam_id":76561198079813479,"connected_time":1609000000000,"state":"active","ping":89},{"user_id":260,"name":"Yuri Tarded","steam_id":76561198034339940,"connected_time":322000000000,"state":"active","ping":60},{"user_id":246,"name":"Quick-Fan Fan","steam_id":76561198872845740,"connected_time":1151000000000,"state":"active","ping":80},{"user_id":238,"name":"Surgicalsubset","steam_id":76561198983418107,"connected_time":1444000000000,"state":"active","ping":63},{"user_id":253,"name":"lcy13vv","steam_id":76561197995997446,"connected_time":1014000000000,"state":"active","ping":48},{"user_id":262,"name":"Fargo","steam_id":76561198044703931,"connected_time":315000000000,"state":"active","ping":77},{"user_id":256,"name":"Professional Brohamad","steam_id":76561198824025210,"connected_time":682000000000,"state":"active","ping":46},{"user_id":243,"name":"UNIT 220","steam_id":76561198042243497,"connected_time":1199000000000,"state":"active","ping":66},{"user_id":258,"name":"Truth","steam_id":76561198047385041,"connected_time":444000000000,"state":"active","ping":115},{"user_id":259,"name":"RussianVesper","steam_id":76561198263326607,"connected_time":381000000000,"state":"active","ping":76},{"user_id":214,"name":"Ace Chromatica","steam_id":76561198042211131,"connected_time":3786000000000,"state":"active","ping":64},{"user_id":267,"name":"ʕ•ᴥ•ʔ the bear","steam_id":76561197989591976,"connected_time":186000000000,"state":"active","ping":80},{"user_id":265,"name":"Bafoon","steam_id":76561198976722072,"connected_time":248000000000,"state":"active","ping":70},{"user_id":268,"name":"OpenDown","steam_id":76561198064132688,"connected_time":66000000000,"state":"active","ping":69},{"user_id":175,"name":"Nilantive","steam_id":76561198177565082,"connected_time":6365000000000,"state":"active","ping":72},{"user_id":261,"name":"poop tbh","steam_id":76561198056186750,"connected_time":321000000000,"state":"active","ping":50},{"user_id":249,"name":"-W3E- grim10465","steam_id":76561198045698581,"connected_time":1120000000000,"state":"active","ping":58},{"user_id":263,"name":"jolo","steam_id":76561198042831480,"connected_time":294000000000,"state":"active","ping":71},{"user_id":178,"name":"THGAwesome","steam_id":76561198162847218,"connected_time":6343000000000,"state":"active","ping":89},{"user_id":252,"name":"Importality","steam_id":76561198049943127,"connected_time":1052000000000,"state":"active","ping":86}]},{"server_id":38,"name":"Uncletopia | Chicago | 7 | Stopwatch Beta","name_short":"chi-7","host":"chi-2.us.uncletopia.com","port":27035,"enabled":true,"region":"us-central","cc":"us","latitude":41.881832,"longitude":-87.62318,"reserved":0,"last_update":"0001-01-01T00:00:00Z","name_a2s":"Uncletopia | Chicago | 7 | Stopwatch Beta","protocol":17,"map":"koth_viaduct","folder":"tf","game":"Team Fortress","app_id":440,"player_count":0,"max_players":24,"Bots":0,"server_type":"Dedicated","server_os":"Linux","password":true,"vac":true,"version":"7757534","steam_id":85568392924866364,"keywords":["cp","nocrits","nodmgspread","uncletopia"],"game_id":440,"stv_port":27036,"stv_name":"Uncletopia | Chicago | 7 | Stopwatch Beta | STV","players":null},{"server_id":39,"name":"Uncletopia | Chicago | 8 | Community","name_short":"chi-8","host":"chi-2.us.uncletopia.com","port":27045,"enabled":true,"region":"us-central","cc":"us","latitude":41.881832,"longitude":-87.62318,"reserved":0,"last_update":"0001-01-01T00:00:00Z","name_a2s":"Uncletopia | Chicago | 8 | Community","protocol":17,"map":"workshop/pl_highwood_b13.ugc1769496557","folder":"tf","game":"Team Fortress","app_id":440,"player_count":18,"max_players":24,"Bots":0,"server_type":"Dedicated","server_os":"Linux","password":true,"vac":true,"version":"7757534","steam_id":85568392924866365,"keywords":["nocrits","nodmgspread","payload","uncletopia"],"game_id":440,"stv_port":27046,"stv_name":"Uncletopia | Chicago | 8 | Community | STV","players":[{"user_id":423,"name":"sKIZ","steam_id":76561197983860881,"connected_time":19000000000,"state":"active","ping":142},{"user_id":410,"name":"PaPá Soulzuneヅ","steam_id":76561198139615052,"connected_time":567000000000,"state":"active","ping":105},{"user_id":411,"name":"Obi Wan Can Blow Me","steam_id":76561198339004506,"connected_time":491000000000,"state":"active","ping":74},{"user_id":413,"name":"Malinok","steam_id":76561198025681131,"connected_time":391000000000,"state":"active","ping":84},{"user_id":421,"name":"IceyMinu","steam_id":76561198821516087,"connected_time":76000000000,"state":"active","ping":81},{"user_id":422,"name":"Wakadactyl","steam_id":76561198143217984,"connected_time":39000000000,"state":"active","ping":281},{"user_id":415,"name":"Front Facing Magikarp","steam_id":76561198085888959,"connected_time":339000000000,"state":"active","ping":58},{"user_id":417,"name":"viper","steam_id":76561198839942937,"connected_time":308000000000,"state":"active","ping":60},{"user_id":377,"name":"Spyfall","steam_id":76561198081729993,"connected_time":3272000000000,"state":"active","ping":74},{"user_id":374,"name":"Black Pill","steam_id":76561198065920486,"connected_time":3355000000000,"state":"active","ping":52},{"user_id":400,"name":"Seakeal","steam_id":76561198069388472,"connected_time":1058000000000,"state":"active","ping":50},{"user_id":420,"name":"SleepyJackdaw","steam_id":76561198053520098,"connected_time":215000000000,"state":"active","ping":45},{"user_id":378,"name":"Phae","steam_id":76561198024763351,"connected_time":3267000000000,"state":"active","ping":69},{"user_id":406,"name":"poopfeast420","steam_id":76561198137740187,"connected_time":805000000000,"state":"active","ping":71},{"user_id":394,"name":"Kacey","steam_id":76561198017063317,"connected_time":1626000000000,"state":"active","ping":79},{"user_id":388,"name":"Exio","steam_id":76561198218639325,"connected_time":2085000000000,"state":"active","ping":74},{"user_id":386,"name":"Deal yo","steam_id":76561198282395338,"connected_time":2690000000000,"state":"active","ping":70},{"user_id":395,"name":"Crows go mooo","steam_id":76561198089489656,"connected_time":1579000000000,"state":"active","ping":94}]},{"server_id":8,"name":"Uncletopia | Dallas | 1 | All Maps","name_short":"dal-1","host":"dal-1.us.uncletopia.com","port":27015,"enabled":true,"region":"us-central","cc":"us","latitude":32.779167,"longitude":-96.80889,"reserved":0,"last_update":"0001-01-01T00:00:00Z","name_a2s":"Uncletopia | Dallas | 1 | All Maps","protocol":17,"map":"pl_frontier_final","folder":"tf","game":"Team Fortress","app_id":440,"player_count":24,"max_players":24,"Bots":0,"server_type":"Dedicated","server_os":"Linux","password":true,"vac":true,"version":"7757534","steam_id":85568392924469986,"keywords":["nocrits","nodmgspread","payload","uncletopia"],"game_id":440,"stv_port":27016,"stv_name":"Uncletopia | Dallas | 1 | All Maps | STV","players":[{"user_id":414,"name":"Goblin Merchant (50 OFF)","steam_id":76561199323707429,"connected_time":372000000000,"state":"active","ping":75},{"user_id":400,"name":"Cofi","steam_id":76561199026721822,"connected_time":1534000000000,"state":"active","ping":81},{"user_id":396,"name":"DragonHeart","steam_id":76561198013245625,"connected_time":1765000000000,"state":"active","ping":73},{"user_id":406,"name":"FoamyPirate.h","steam_id":76561197970312151,"connected_time":705000000000,"state":"active","ping":67},{"user_id":407,"name":"mari_","steam_id":76561198137855741,"connected_time":704000000000,"state":"active","ping":76},{"user_id":399,"name":"El Camino","steam_id":76561197992848313,"connected_time":1585000000000,"state":"active","ping":89},{"user_id":394,"name":"white woman","steam_id":76561199116679777,"connected_time":1806000000000,"state":"active","ping":74},{"user_id":408,"name":"boo_thefeared","steam_id":76561198127967685,"connected_time":695000000000,"state":"active","ping":169},{"user_id":411,"name":"Shichinitzi","steam_id":76561198003833732,"connected_time":600000000000,"state":"active","ping":60},{"user_id":387,"name":"xXtios_muertosXx","steam_id":76561199143773774,"connected_time":2502000000000,"state":"active","ping":98},{"user_id":409,"name":"Sean","steam_id":76561198011422340,"connected_time":669000000000,"state":"active","ping":60},{"user_id":401,"name":"Flubdy_","steam_id":76561198073338521,"connected_time":1211000000000,"state":"active","ping":59},{"user_id":333,"name":"Estetrius","steam_id":76561198016993850,"connected_time":7215000000000,"state":"active","ping":57},{"user_id":410,"name":"Halcyon","steam_id":76561199103213955,"connected_time":668000000000,"state":"active","ping":109},{"user_id":395,"name":"Gengoron","steam_id":76561197994829919,"connected_time":1775000000000,"state":"active","ping":110},{"user_id":302,"name":"radiohead enjoyer","steam_id":76561198397662124,"connected_time":8899000000000,"state":"active","ping":71},{"user_id":368,"name":"mkl","steam_id":76561197986401685,"connected_time":4055000000000,"state":"active","ping":63},{"user_id":351,"name":"tj3002rocks","steam_id":76561199017921546,"connected_time":5126000000000,"state":"active","ping":60},{"user_id":385,"name":"Imrgrim","steam_id":76561198135866481,"connected_time":2520000000000,"state":"active","ping":61},{"user_id":365,"name":"FluttyPutty","steam_id":76561198218446556,"connected_time":4366000000000,"state":"active","ping":66},{"user_id":307,"name":"NATASCHA SUPREMACY","steam_id":76561198400058665,"connected_time":8595000000000,"state":"active","ping":93},{"user_id":398,"name":"Lock'd","steam_id":76561198170108230,"connected_time":1698000000000,"state":"active","ping":60},{"user_id":416,"name":"leopardo123atl","steam_id":76561198872648238,"connected_time":295000000000,"state":"active","ping":81},{"user_id":403,"name":"Pinetree w/ apples.","steam_id":76561198105411709,"connected_time":957000000000,"state":"active","ping":110}]},{"server_id":108,"name":"Uncletopia | Dallas | 2 | All Maps","name_short":"dal-2","host":"dal-1.us.uncletopia.com","port":27025,"enabled":true,"region":"us-central","cc":"us","latitude":32.779167,"longitude":-96.80889,"reserved":0,"last_update":"0001-01-01T00:00:00Z","name_a2s":"Uncletopia | Dallas | 2 | All Maps","protocol":17,"map":"pl_barnblitz","folder":"tf","game":"Team Fortress","app_id":440,"player_count":24,"max_players":24,"Bots":0,"server_type":"Dedicated","server_os":"Linux","password":true,"vac":true,"version":"7757534","steam_id":85568392924469988,"keywords":["nocrits","nodmgspread","payload","uncletopia"],"game_id":440,"stv_port":27026,"stv_name":"Uncletopia | Dallas | 2 | All Maps | STV","players":[{"user_id":122,"name":"kid squid","steam_id":76561198167016289,"connected_time":826000000000,"state":"active","ping":72},{"user_id":48,"name":"Dragons\u003eEverything","steam_id":76561199140784635,"connected_time":4842000000000,"state":"active","ping":62},{"user_id":98,"name":"BMB","steam_id":76561198254205844,"connected_time":2194000000000,"state":"active","ping":64},{"user_id":125,"name":"Jankyo","steam_id":76561198083339492,"connected_time":320000000000,"state":"active","ping":83},{"user_id":93,"name":"Mof","steam_id":76561198871385923,"connected_time":2774000000000,"state":"active","ping":64},{"user_id":111,"name":"Fire Wizard","steam_id":76561198972006814,"connected_time":1131000000000,"state":"active","ping":67},{"user_id":117,"name":"GamerMan","steam_id":76561199058616824,"connected_time":1087000000000,"state":"active","ping":61},{"user_id":56,"name":"Foof","steam_id":76561198068996707,"connected_time":4350000000000,"state":"active","ping":52},{"user_id":128,"name":"[DATS➡] Sugar Meowth","steam_id":76561197995251793,"connected_time":208000000000,"state":"active","ping":93},{"user_id":110,"name":"seriousbirb","steam_id":76561199047851076,"connected_time":1136000000000,"state":"active","ping":126},{"user_id":123,"name":"kool_aids3","steam_id":76561198314435679,"connected_time":770000000000,"state":"active","ping":79},{"user_id":112,"name":"xZackAttack27x","steam_id":76561198035446639,"connected_time":1123000000000,"state":"active","ping":41},{"user_id":61,"name":"Voicez The Lunatic","steam_id":76561199261271286,"connected_time":4311000000000,"state":"active","ping":71},{"user_id":62,"name":"Chef Boyardee","steam_id":76561198963501589,"connected_time":4267000000000,"state":"active","ping":105},{"user_id":124,"name":"manic gecco","steam_id":76561198795657236,"connected_time":357000000000,"state":"active","ping":87},{"user_id":118,"name":"StatesideSnake","steam_id":76561198272957048,"connected_time":1086000000000,"state":"active","ping":72},{"user_id":113,"name":"Bullwinkle J. Moose","steam_id":76561198075977196,"connected_time":1121000000000,"state":"active","ping":55},{"user_id":114,"name":"Sheriff","steam_id":76561198286769436,"connected_time":1119000000000,"state":"active","ping":72},{"user_id":129,"name":"Lezabel","steam_id":76561198970753261,"connected_time":193000000000,"state":"active","ping":75},{"user_id":127,"name":"Lots0","steam_id":76561198043143145,"connected_time":277000000000,"state":"active","ping":69},{"user_id":92,"name":"Bobbn","steam_id":76561198876124683,"connected_time":2896000000000,"state":"active","ping":87},{"user_id":108,"name":"notdbone","steam_id":76561198045890038,"connected_time":1685000000000,"state":"active","ping":72},{"user_id":89,"name":"thock enjoyer","steam_id":76561198392539722,"connected_time":3302000000000,"state":"active","ping":86},{"user_id":109,"name":"Concolor","steam_id":76561198027734150,"connected_time":1685000000000,"state":"active","ping":93}]},{"server_id":5,"name":"Uncletopia | Frankfurt | 1 | All Maps","name_short":"frk-1","host":"frk-1.de.uncletopia.com","port":27015,"enabled":true,"region":"eu","cc":"de","latitude":50.110924,"longitude":8.682127,"reserved":0,"last_update":"0001-01-01T00:00:00Z","name_a2s":"Uncletopia | Frankfurt | 1 | All Maps","protocol":17,"map":"pl_pier","folder":"tf","game":"Team Fortress","app_id":440,"player_count":0,"max_players":24,"Bots":0,"server_type":"Dedicated","server_os":"Linux","password":true,"vac":true,"version":"7757534","steam_id":85568392924469989,"keywords":["nocrits","nodmgspread","payload","uncletopia"],"game_id":440,"stv_port":27016,"stv_name":"Uncletopia | Frankfurt | 1 | All Maps | STV","players":null},{"server_id":110,"name":"Uncletopia | Frankfurt | 2 | All Maps","name_short":"frk-2","host":"frk-1.de.uncletopia.com","port":27025,"enabled":true,"region":"eu","cc":"de","latitude":50.110924,"longitude":8.682127,"reserved":0,"last_update":"0001-01-01T00:00:00Z","name_a2s":"Uncletopia | Frankfurt | 2 | All Maps","protocol":17,"map":"pl_badwater","folder":"tf","game":"Team Fortress","app_id":440,"player_count":14,"max_players":24,"Bots":0,"server_type":"Dedicated","server_os":"Linux","password":true,"vac":true,"version":"7757534","steam_id":85568392924469990,"keywords":["nocrits","nodmgspread","payload","uncletopia"],"game_id":440,"stv_port":27026,"stv_name":"Uncletopia | Frankfurt | 2 | All Maps | STV","players":[{"user_id":686,"name":"brainrot","steam_id":76561199414716848,"connected_time":3943000000000,"state":"active","ping":67},{"user_id":727,"name":"moneyspread","steam_id":76561199063940848,"connected_time":636000000000,"state":"active","ping":162},{"user_id":728,"name":"Scrample","steam_id":76561198040422830,"connected_time":607000000000,"state":"active","ping":45},{"user_id":609,"name":"Bobirulez","steam_id":76561198009125458,"connected_time":11008000000000,"state":"active","ping":75},{"user_id":717,"name":"gagalak","steam_id":76561198089979108,"connected_time":2527000000000,"state":"active","ping":87},{"user_id":729,"name":"EdSuedi","steam_id":76561199387956486,"connected_time":596000000000,"state":"active","ping":47},{"user_id":731,"name":"kbbq","steam_id":76561198346638308,"connected_time":349000000000,"state":"active","ping":60},{"user_id":712,"name":"multiflex","steam_id":76561198049639319,"connected_time":2623000000000,"state":"active","ping":73},{"user_id":645,"name":"Valkaisin","steam_id":76561198061197114,"connected_time":7502000000000,"state":"active","ping":66},{"user_id":718,"name":"Qwerty","steam_id":76561198023525894,"connected_time":2471000000000,"state":"active","ping":87},{"user_id":673,"name":"OTHER BIRDS WOULD HAVE","steam_id":76561198049405872,"connected_time":5406000000000,"state":"active","ping":43},{"user_id":723,"name":"Pestdoktor","steam_id":76561198058159271,"connected_time":1027000000000,"state":"active","ping":54},{"user_id":722,"name":"Bodhi","steam_id":76561198000606642,"connected_time":1659000000000,"state":"active","ping":70},{"user_id":724,"name":"Christmas Ham","steam_id":76561198119601623,"connected_time":1000000000000,"state":"active","ping":61}]},{"server_id":308,"name":"Uncletopia | Frankfurt | 3 | All Maps","name_short":"frk-3","host":"frk-1.de.uncletopia.com","port":27035,"enabled":true,"region":"eu","cc":"de","latitude":50.110924,"longitude":8.682127,"reserved":0,"last_update":"0001-01-01T00:00:00Z","name_a2s":"Uncletopia | Frankfurt | 3 | All Maps","protocol":17,"map":"koth_suijin","folder":"tf","game":"Team Fortress","app_id":440,"player_count":0,"max_players":24,"Bots":0,"server_type":"Dedicated","server_os":"Linux","password":true,"vac":true,"version":"7757534","steam_id":85568392924504274,"keywords":["cp","nocrits","nodmgspread","uncletopia"],"game_id":440,"stv_port":27036,"stv_name":"Uncletopia | Frankfurt | 3 | All Maps | STV","players":null},{"server_id":309,"name":"Uncletopia | Frankfurt | 4 | All Maps","name_short":"frk-4","host":"frk-1.de.uncletopia.com","port":27045,"enabled":true,"region":"eu","cc":"de","latitude":50.110924,"longitude":8.682127,"reserved":0,"last_update":"0001-01-01T00:00:00Z","name_a2s":"Uncletopia | Frankfurt | 4 | All Maps","protocol":17,"map":"koth_cascade","folder":"tf","game":"Team Fortress","app_id":440,"player_count":0,"max_players":24,"Bots":0,"server_type":"Dedicated","server_os":"Linux","password":true,"vac":true,"version":"7757534","steam_id":85568392924504275,"keywords":["cp","nocrits","nodmgspread","uncletopia"],"game_id":440,"stv_port":27046,"stv_name":"Uncletopia | Frankfurt | 4 | All Maps | STV","players":null},{"server_id":310,"name":"Uncletopia | Frankfurt | 5 | All Maps","name_short":"frk-5","host":"frk-1.de.uncletopia.com","port":27055,"enabled":true,"region":"eu","cc":"de","latitude":50.110924,"longitude":8.682127,"reserved":0,"last_update":"0001-01-01T00:00:00Z","name_a2s":"Uncletopia | Frankfurt | 5 | All Maps","protocol":17,"map":"pl_swiftwater_final1","folder":"tf","game":"Team Fortress","app_id":440,"player_count":0,"max_players":24,"Bots":0,"server_type":"Dedicated","server_os":"Linux","password":true,"vac":true,"version":"7757534","steam_id":85568392924504277,"keywords":["nocrits","nodmgspread","payload","uncletopia"],"game_id":440,"stv_port":27056,"stv_name":"Uncletopia | Frankfurt | 5 | All Maps | STV","players":null},{"server_id":311,"name":"Uncletopia | Frankfurt | 6 | All Maps","name_short":"frk-6","host":"frk-1.de.uncletopia.com","port":27065,"enabled":true,"region":"eu","cc":"de","latitude":50.110924,"longitude":8.682127,"reserved":0,"last_update":"0001-01-01T00:00:00Z","name_a2s":"Uncletopia | Frankfurt | 6 | All Maps","protocol":17,"map":"cp_sunshine","folder":"tf","game":"Team Fortress","app_id":440,"player_count":0,"max_players":24,"Bots":0,"server_type":"Dedicated","server_os":"Linux","password":true,"vac":true,"version":"7757534","steam_id":85568392924504278,"keywords":["cp","nocrits","nodmgspread","uncletopia"],"game_id":440,"stv_port":27066,"stv_name":"Uncletopia | Frankfurt | 6 | All Maps | STV","players":null},{"server_id":23,"name":"Uncletopia | Frankfurt | 7 | Stopwatch Beta","name_short":"frk-7","host":"frk-1.de.uncletopia.com","port":27075,"enabled":true,"region":"eu","cc":"de","latitude":50.110924,"longitude":8.682127,"reserved":0,"last_update":"0001-01-01T00:00:00Z","name_a2s":"Uncletopia | Frankfurt | 7 | Stopwatch Beta","protocol":17,"map":"pl_borneo","folder":"tf","game":"Team Fortress","app_id":440,"player_count":0,"max_players":24,"Bots":0,"server_type":"Dedicated","server_os":"Linux","password":true,"vac":true,"version":"7757534","steam_id":85568392924742827,"keywords":["nocrits","nodmgspread","payload","uncletopia"],"game_id":440,"stv_port":27076,"stv_name":"Uncletopia | Frankfurt | 7 | Stopwatch Beta | STV","players":null},{"server_id":24,"name":"Uncletopia | Frankfurt | 8 | Community","name_short":"frk-8","host":"frk-1.de.uncletopia.com","port":27085,"enabled":true,"region":"eu","cc":"de","latitude":50.110924,"longitude":8.682127,"reserved":0,"last_update":"0001-01-01T00:00:00Z","name_a2s":"Uncletopia | Frankfurt | 8 | Community","protocol":17,"map":"workshop/koth_bagel_rc6.ugc2514036946","folder":"tf","game":"Team Fortress","app_id":440,"player_count":0,"max_players":24,"Bots":0,"server_type":"Dedicated","server_os":"Linux","password":true,"vac":true,"version":"7757534","steam_id":85568392924742828,"keywords":["cp","nocrits","nodmgspread","uncletopia"],"game_id":440,"stv_port":27086,"stv_name":"Uncletopia | Frankfurt | 8 | Community | STV","players":null},{"server_id":202,"name":"Uncletopia | Hong Kong | 1 | All Maps","name_short":"hgk-1","host":"hgk-1.hk.uncletopia.com","port":27015,"enabled":true,"region":"asia","cc":"hk","latitude":22.302711,"longitude":114.177216,"reserved":0,"last_update":"0001-01-01T00:00:00Z","name_a2s":"Uncletopia | Hong Kong | 1 | All Maps","protocol":17,"map":"pl_swiftwater_final1","folder":"tf","game":"Team Fortress","app_id":440,"player_count":0,"max_players":24,"Bots":0,"server_type":"Dedicated","server_os":"Linux","password":true,"vac":true,"version":"7757534","steam_id":85568392924494504,"keywords":["nocrits","nodmgspread","payload","uncletopia"],"game_id":440,"stv_port":27016,"stv_name":"Uncletopia | Hong Kong | 1 | All Maps | STV","players":null},{"server_id":1,"name":"Uncletopia | Los Angeles | 1 | All Maps","name_short":"lax-1","host":"lax-1.us.uncletopia.com","port":27015,"enabled":true,"region":"us-west","cc":"us","latitude":33.94279,"longitude":-118.41004,"reserved":0,"last_update":"0001-01-01T00:00:00Z","name_a2s":"Uncletopia | Los Angeles | 1 | All Maps","protocol":17,"map":"pl_snowycoast","folder":"tf","game":"Team Fortress","app_id":440,"player_count":24,"max_players":24,"Bots":0,"server_type":"Dedicated","server_os":"Linux","password":true,"vac":true,"version":"7757534","steam_id":85568392924469991,"keywords":["nocrits","nodmgspread","payload","uncletopia"],"game_id":440,"stv_port":27016,"stv_name":"Uncletopia | Los Angeles | 1 | All Maps | STV","players":[{"user_id":186,"name":"reanimator","steam_id":76561198085830470,"connected_time":2031000000000,"state":"active","ping":115},{"user_id":190,"name":"Zero","steam_id":76561199383267408,"connected_time":1592000000000,"state":"active","ping":78},{"user_id":213,"name":"Nugakku","steam_id":76561198082346219,"connected_time":620000000000,"state":"active","ping":58},{"user_id":215,"name":"heimdall","steam_id":76561198069380992,"connected_time":310000000000,"state":"active","ping":100},{"user_id":148,"name":"bro i think i got rabies","steam_id":76561198204169516,"connected_time":3743000000000,"state":"active","ping":80},{"user_id":16,"name":"Troy Winters","steam_id":76561198051442422,"connected_time":13954000000000,"state":"active","ping":110},{"user_id":187,"name":"Demianeithor","steam_id":76561198800036537,"connected_time":1852000000000,"state":"active","ping":64},{"user_id":193,"name":"tommie_","steam_id":76561199192883108,"connected_time":1446000000000,"state":"active","ping":93},{"user_id":194,"name":"Superman123389","steam_id":76561198267472539,"connected_time":1387000000000,"state":"active","ping":96},{"user_id":195,"name":"lana_del_Rei.com","steam_id":76561198172447621,"connected_time":1374000000000,"state":"active","ping":44},{"user_id":211,"name":"Salium","steam_id":76561197961546093,"connected_time":736000000000,"state":"active","ping":46},{"user_id":150,"name":"rick and morty based philosophy","steam_id":76561198069190432,"connected_time":3728000000000,"state":"active","ping":122},{"user_id":151,"name":"Re-Crix","steam_id":76561198351895601,"connected_time":3695000000000,"state":"active","ping":65},{"user_id":200,"name":"daws","steam_id":76561198047764222,"connected_time":1185000000000,"state":"active","ping":84},{"user_id":205,"name":"Joe Biden Gaming™","steam_id":76561198058420117,"connected_time":1036000000000,"state":"active","ping":109},{"user_id":163,"name":"K_spam","steam_id":76561198121433617,"connected_time":3310000000000,"state":"active","ping":123},{"user_id":198,"name":"Bearegard","steam_id":76561198061926542,"connected_time":1211000000000,"state":"active","ping":116},{"user_id":189,"name":"Tybalt","steam_id":76561198142464684,"connected_time":1630000000000,"state":"active","ping":79},{"user_id":201,"name":"VicLoL","steam_id":76561198045580784,"connected_time":1172000000000,"state":"active","ping":54},{"user_id":208,"name":"DoctorDucky","steam_id":76561198356434380,"connected_time":974000000000,"state":"active","ping":51},{"user_id":206,"name":"Stapler","steam_id":76561198099295077,"connected_time":1017000000000,"state":"active","ping":58},{"user_id":166,"name":"gamer_2099","steam_id":76561199058461779,"connected_time":3219000000000,"state":"active","ping":58},{"user_id":210,"name":"kr1tsurf3r","steam_id":76561198076402476,"connected_time":884000000000,"state":"active","ping":73},{"user_id":175,"name":"ExplosiveGamer21","steam_id":76561198132370955,"connected_time":2755000000000,"state":"active","ping":78}]},{"server_id":112,"name":"Uncletopia | Los Angeles | 2 | All Maps","name_short":"lax-2","host":"lax-1.us.uncletopia.com","port":27025,"enabled":true,"region":"us-west","cc":"us","latitude":33.94279,"longitude":-118.41004,"reserved":0,"last_update":"0001-01-01T00:00:00Z","name_a2s":"Uncletopia | Los Angeles | 2 | All Maps","protocol":17,"map":"pl_upward","folder":"tf","game":"Team Fortress","app_id":440,"player_count":24,"max_players":24,"Bots":0,"server_type":"Dedicated","server_os":"Linux","password":true,"vac":true,"version":"7757534","steam_id":85568392924469992,"keywords":["nocrits","nodmgspread","payload","uncletopia"],"game_id":440,"stv_port":27026,"stv_name":"Uncletopia | Los Angeles | 2 | All Maps | STV","players":[{"user_id":73,"name":"John Wick's puppy","steam_id":76561198064662875,"connected_time":703000000000,"state":"active","ping":59},{"user_id":59,"name":"silly jester","steam_id":76561198079609974,"connected_time":2221000000000,"state":"active","ping":57},{"user_id":23,"name":"Fractured_Mango","steam_id":76561199013113268,"connected_time":3579000000000,"state":"active","ping":69},{"user_id":24,"name":"donutdagger","steam_id":76561199203048300,"connected_time":3567000000000,"state":"active","ping":57},{"user_id":74,"name":"Furrio","steam_id":76561198174104607,"connected_time":692000000000,"state":"active","ping":93},{"user_id":53,"name":"Altruisticailuridae","steam_id":76561198335295596,"connected_time":2501000000000,"state":"active","ping":56},{"user_id":78,"name":"❤ Ashley ❤","steam_id":76561198056428303,"connected_time":533000000000,"state":"active","ping":45},{"user_id":79,"name":"d","steam_id":76561198280875132,"connected_time":502000000000,"state":"active","ping":82},{"user_id":20,"name":"LX-24","steam_id":76561198016168993,"connected_time":3639000000000,"state":"active","ping":85},{"user_id":63,"name":"Retro Phoenix","steam_id":76561198077176271,"connected_time":2009000000000,"state":"active","ping":111},{"user_id":26,"name":"tomiz","steam_id":76561198827013832,"connected_time":3555000000000,"state":"active","ping":58},{"user_id":60,"name":"Cpt. Dingle","steam_id":76561198025720199,"connected_time":2158000000000,"state":"active","ping":97},{"user_id":85,"name":"Noob-a-tron","steam_id":76561197970555113,"connected_time":230000000000,"state":"active","ping":46},{"user_id":30,"name":"Jellojiggler","steam_id":76561198094320477,"connected_time":3499000000000,"state":"active","ping":78},{"user_id":31,"name":"El pandora","steam_id":76561198075490385,"connected_time":3494000000000,"state":"active","ping":48},{"user_id":80,"name":"ThatWACK","steam_id":76561198995415153,"connected_time":493000000000,"state":"active","ping":51},{"user_id":75,"name":"Lain","steam_id":76561198029303534,"connected_time":685000000000,"state":"active","ping":97},{"user_id":34,"name":"ComputerFritz","steam_id":76561198368730970,"connected_time":3426000000000,"state":"active","ping":81},{"user_id":68,"name":"Lemonade Juice","steam_id":76561198402892608,"connected_time":1526000000000,"state":"active","ping":44},{"user_id":77,"name":"Pez","steam_id":76561199197778137,"connected_time":549000000000,"state":"active","ping":73},{"user_id":69,"name":"Odd Life","steam_id":76561198244979998,"connected_time":1510000000000,"state":"active","ping":50},{"user_id":46,"name":"Saulce","steam_id":76561198066142119,"connected_time":3009000000000,"state":"active","ping":63},{"user_id":84,"name":"Dr. drips","steam_id":76561198209380493,"connected_time":253000000000,"state":"active","ping":106},{"user_id":83,"name":"Shwicky","steam_id":76561198145026611,"connected_time":313000000000,"state":"active","ping":43}]},{"server_id":324,"name":"Uncletopia | Los Angeles | 3 | All Maps","name_short":"lax-3","host":"lax-1.us.uncletopia.com","port":27035,"enabled":true,"region":"us-west","cc":"us","latitude":33.94279,"longitude":-118.41004,"reserved":0,"last_update":"0001-01-01T00:00:00Z","name_a2s":"Uncletopia | Los Angeles | 3 | All Maps","protocol":17,"map":"cp_5gorge","folder":"tf","game":"Team Fortress","app_id":440,"player_count":23,"max_players":24,"Bots":0,"server_type":"Dedicated","server_os":"Linux","password":true,"vac":true,"version":"7757534","steam_id":85568392924510198,"keywords":["cp","nocrits","nodmgspread","uncletopia"],"game_id":440,"stv_port":27036,"stv_name":"Uncletopia | Los Angeles | 3 | All Maps | STV","players":[{"user_id":22,"name":"Munky","steam_id":76561197993491054,"connected_time":782000000000,"state":"active","ping":79},{"user_id":9,"name":"Birdman743","steam_id":76561198799636748,"connected_time":2079000000000,"state":"active","ping":85},{"user_id":23,"name":"Armpit!","steam_id":76561197978095727,"connected_time":760000000000,"state":"active","ping":96},{"user_id":12,"name":"nfseskimo","steam_id":76561198078745666,"connected_time":1639000000000,"state":"active","ping":75},{"user_id":13,"name":"Boxy Hammer Bro","steam_id":76561198123219913,"connected_time":1625000000000,"state":"active","ping":105},{"user_id":14,"name":"SpookyMemes","steam_id":76561198097856723,"connected_time":1615000000000,"state":"active","ping":119},{"user_id":45,"name":"disaa","steam_id":76561198152640961,"connected_time":148000000000,"state":"active","ping":87},{"user_id":29,"name":"DaPickles","steam_id":76561199196369249,"connected_time":623000000000,"state":"active","ping":115},{"user_id":24,"name":"Shin Tae Il's Lighter","steam_id":76561198984360849,"connected_time":744000000000,"state":"active","ping":73},{"user_id":18,"name":"\u003e:3 Muiramme εїз","steam_id":76561197994458543,"connected_time":814000000000,"state":"active","ping":75},{"user_id":25,"name":"duane (stinks good)","steam_id":76561198149565822,"connected_time":740000000000,"state":"active","ping":98},{"user_id":26,"name":"rustyfloofs","steam_id":76561199241064467,"connected_time":737000000000,"state":"active","ping":124},{"user_id":47,"name":"APOTATO","steam_id":76561198118199858,"connected_time":25000000000,"state":"active","ping":52},{"user_id":28,"name":"[DEEP] offrow","steam_id":76561198123596791,"connected_time":649000000000,"state":"active","ping":48},{"user_id":30,"name":"petrifying ★","steam_id":76561198841016072,"connected_time":599000000000,"state":"active","ping":86},{"user_id":31,"name":"Danny Zeta","steam_id":76561198071280648,"connected_time":550000000000,"state":"active","ping":65},{"user_id":32,"name":"slowdance","steam_id":76561198097427947,"connected_time":531000000000,"state":"active","ping":89},{"user_id":33,"name":"Bony","steam_id":76561199001748822,"connected_time":459000000000,"state":"active","ping":73},{"user_id":34,"name":"Captain Underbelly","steam_id":76561198811270935,"connected_time":445000000000,"state":"active","ping":131},{"user_id":38,"name":"≃","steam_id":76561198157393205,"connected_time":381000000000,"state":"active","ping":58},{"user_id":39,"name":"furries are weird","steam_id":76561198410127294,"connected_time":371000000000,"state":"active","ping":130},{"user_id":41,"name":"Iron Argus","steam_id":76561198181088245,"connected_time":351000000000,"state":"active","ping":126},{"user_id":44,"name":"Belmore","steam_id":76561198009355231,"connected_time":245000000000,"state":"active","ping":59}]},{"server_id":25,"name":"Uncletopia | Los Angeles | 4 | Stopwatch Beta","name_short":"lax-4","host":"lax-1.us.uncletopia.com","port":27045,"enabled":true,"region":"us-west","cc":"us","latitude":33.94279,"longitude":-118.41004,"reserved":0,"last_update":"0001-01-01T00:00:00Z","name_a2s":"Uncletopia | Los Angeles | 4 | Stopwatch Beta","protocol":17,"map":"cp_dustbowl","folder":"tf","game":"Team Fortress","app_id":440,"player_count":0,"max_players":24,"Bots":0,"server_type":"Dedicated","server_os":"Linux","password":true,"vac":true,"version":"7757534","steam_id":85568392924510199,"keywords":["cp","nocrits","nodmgspread","uncletopia"],"game_id":440,"stv_port":27046,"stv_name":"Uncletopia | Los Angeles | 4 | Stopwatch Beta | STV","players":null},{"server_id":11,"name":"Uncletopia | London | 1 | All Maps","name_short":"lon-1","host":"lon-1.uk.uncletopia.com","port":27015,"enabled":true,"region":"eu","cc":"gb","latitude":51.509865,"longitude":-0.118092,"reserved":0,"last_update":"0001-01-01T00:00:00Z","name_a2s":"Uncletopia | London | 1 | All Maps","protocol":17,"map":"pl_snowycoast","folder":"tf","game":"Team Fortress","app_id":440,"player_count":1,"max_players":24,"Bots":0,"server_type":"Dedicated","server_os":"Linux","password":true,"vac":true,"version":"7757534","steam_id":85568392924367362,"keywords":["nocrits","nodmgspread","payload","uncletopia"],"game_id":440,"stv_port":27016,"stv_name":"Uncletopia | London | 1 | All Maps | STV","players":[{"user_id":631,"name":"Truegr","steam_id":76561198811912339,"connected_time":605000000000,"state":"active","ping":56}]},{"server_id":114,"name":"Uncletopia | London | 2 | All Maps","name_short":"lon-2","host":"lon-1.uk.uncletopia.com","port":27025,"enabled":true,"region":"eu","cc":"gb","latitude":51.509865,"longitude":-0.118092,"reserved":0,"last_update":"0001-01-01T00:00:00Z","name_a2s":"Uncletopia | London | 2 | All Maps","protocol":17,"map":"koth_viaduct","folder":"tf","game":"Team Fortress","app_id":440,"player_count":0,"max_players":24,"Bots":0,"server_type":"Dedicated","server_os":"Linux","password":true,"vac":true,"version":"7757534","steam_id":85568392924470941,"keywords":["cp","nocrits","nodmgspread","uncletopia"],"game_id":440,"stv_port":27026,"stv_name":"Uncletopia | London | 2 | All Maps | STV","players":null},{"server_id":320,"name":"Uncletopia | London | 3 | All Maps","name_short":"lon-3","host":"lon-1.uk.uncletopia.com","port":27035,"enabled":true,"region":"eu","cc":"gb","latitude":51.509865,"longitude":-0.118092,"reserved":0,"last_update":"0001-01-01T00:00:00Z","name_a2s":"Uncletopia | London | 3 | All Maps","protocol":17,"map":"cp_altitude","folder":"tf","game":"Team Fortress","app_id":440,"player_count":0,"max_players":24,"Bots":0,"server_type":"Dedicated","server_os":"Linux","password":true,"vac":true,"version":"7757534","steam_id":85568392924510192,"keywords":["cp","nocrits","nodmgspread","uncletopia"],"game_id":440,"stv_port":27036,"stv_name":"Uncletopia | London | 3 | All Maps | STV","players":null},{"server_id":321,"name":"Uncletopia | London | 4 | All Maps","name_short":"lon-4","host":"lon-1.uk.uncletopia.com","port":27045,"enabled":true,"region":"eu","cc":"gb","latitude":51.509865,"longitude":-0.118092,"reserved":0,"last_update":"0001-01-01T00:00:00Z","name_a2s":"Uncletopia | London | 4 | All Maps","protocol":17,"map":"pl_barnblitz","folder":"tf","game":"Team Fortress","app_id":440,"player_count":0,"max_players":24,"Bots":0,"server_type":"Dedicated","server_os":"Linux","password":true,"vac":true,"version":"7757534","steam_id":85568392924510193,"keywords":["nocrits","nodmgspread","payload","uncletopia"],"game_id":440,"stv_port":27046,"stv_name":"Uncletopia | London | 4 | All Maps | STV","players":null},{"server_id":21,"name":"Uncletopia | London | 5 | All Maps","name_short":"lon-5","host":"lon-1.uk.uncletopia.com","port":27055,"enabled":true,"region":"eu","cc":"gb","latitude":51.509865,"longitude":-0.118092,"reserved":0,"last_update":"0001-01-01T00:00:00Z","name_a2s":"Uncletopia | London | 5 | All Maps","protocol":17,"map":"koth_lakeside_final","folder":"tf","game":"Team Fortress","app_id":440,"player_count":0,"max_players":24,"Bots":0,"server_type":"Dedicated","server_os":"Linux","password":true,"vac":true,"version":"7757534","steam_id":85568392924742829,"keywords":["cp","nocrits","nodmgspread","uncletopia"],"game_id":440,"stv_port":27056,"stv_name":"Uncletopia | London | 5 | All Maps | STV","players":null},{"server_id":22,"name":"Uncletopia | London | 6 | All Maps","name_short":"lon-6","host":"lon-1.uk.uncletopia.com","port":27065,"enabled":true,"region":"eu","cc":"gb","latitude":51.509865,"longitude":-0.118092,"reserved":0,"last_update":"0001-01-01T00:00:00Z","name_a2s":"Uncletopia | London | 6 | All Maps","protocol":17,"map":"koth_lakeside_final","folder":"tf","game":"Team Fortress","app_id":440,"player_count":0,"max_players":24,"Bots":0,"server_type":"Dedicated","server_os":"Linux","password":true,"vac":true,"version":"7757534","steam_id":85568392924742830,"keywords":["cp","nocrits","nodmgspread","uncletopia"],"game_id":440,"stv_port":27066,"stv_name":"Uncletopia | London | 6 | All Maps | STV","players":null},{"server_id":40,"name":"Uncletopia | London | 7 | No Payload","name_short":"lon-7","host":"lon-1.uk.uncletopia.com","port":27075,"enabled":true,"region":"eu","cc":"gb","latitude":51.509865,"longitude":-0.118092,"reserved":0,"last_update":"0001-01-01T00:00:00Z","name_a2s":"Uncletopia | London | 7 | No Payload","protocol":17,"map":"cp_metalworks","folder":"tf","game":"Team Fortress","app_id":440,"player_count":0,"max_players":24,"Bots":0,"server_type":"Dedicated","server_os":"Linux","password":true,"vac":true,"version":"7757534","steam_id":85568392924964314,"keywords":["cp","nocrits","nodmgspread","uncletopia"],"game_id":440,"stv_port":27076,"stv_name":"Uncletopia | London | 7 | No Payload | STV","players":null},{"server_id":41,"name":"Uncletopia | London | 8 | Community","name_short":"lon-8","host":"lon-1.uk.uncletopia.com","port":27085,"enabled":true,"region":"eu","cc":"gb","latitude":51.509865,"longitude":-0.118092,"reserved":0,"last_update":"0001-01-01T00:00:00Z","name_a2s":"Uncletopia | London | 8 | Community","protocol":17,"map":"workshop/cp_alloy_rc3.ugc592805587","folder":"tf","game":"Team Fortress","app_id":440,"player_count":0,"max_players":24,"Bots":0,"server_type":"Dedicated","server_os":"Linux","password":true,"vac":true,"version":"7757534","steam_id":85568392924964315,"keywords":["cp","nocrits","nodmgspread","uncletopia"],"game_id":440,"stv_port":27086,"stv_name":"Uncletopia | London | 8 | Community | STV","players":null},{"server_id":300,"name":"Uncletopia | Montréal | 1 | All Maps","name_short":"mtl-1","host":"mtl-1.ca.uncletopia.com","port":27015,"enabled":true,"region":"us-east","cc":"ca","latitude":45.50889,"longitude":-73.56167,"reserved":0,"last_update":"0001-01-01T00:00:00Z","name_a2s":"Uncletopia | Montréal | 1 | All Maps","protocol":17,"map":"cp_altitude","folder":"tf","game":"Team Fortress","app_id":440,"player_count":2,"max_players":24,"Bots":0,"server_type":"Dedicated","server_os":"Linux","password":true,"vac":true,"version":"7757534","steam_id":85568392924500087,"keywords":["cp","nocrits","nodmgspread","uncletopia"],"game_id":440,"stv_port":27016,"stv_name":"Uncletopia | Montréal | 1 | All Maps | STV","players":[{"user_id":13,"name":"Sir Helbram","steam_id":76561199475859382,"connected_time":925000000000,"state":"active","ping":139},{"user_id":14,"name":"thefallengeneral42","steam_id":76561199171166566,"connected_time":688000000000,"state":"active","ping":92}]},{"server_id":301,"name":"Uncletopia | Montréal | 2 | All Maps","name_short":"mtl-2","host":"mtl-1.ca.uncletopia.com","port":27025,"enabled":true,"region":"us-east","cc":"ca","latitude":45.50889,"longitude":-73.56167,"reserved":0,"last_update":"0001-01-01T00:00:00Z","name_a2s":"Uncletopia | Montréal | 2 | All Maps","protocol":17,"map":"pl_frontier_final","folder":"tf","game":"Team Fortress","app_id":440,"player_count":0,"max_players":24,"Bots":0,"server_type":"Dedicated","server_os":"Linux","password":true,"vac":true,"version":"7757534","steam_id":85568392924500088,"keywords":["nocrits","nodmgspread","payload","uncletopia"],"game_id":440,"stv_port":27026,"stv_name":"Uncletopia | Montréal | 2 | All Maps | STV","players":null},{"server_id":302,"name":"Uncletopia | Montréal | 3 | All Maps","name_short":"mtl-3","host":"mtl-1.ca.uncletopia.com","port":27035,"enabled":true,"region":"us-east","cc":"ca","latitude":45.50889,"longitude":-73.56167,"reserved":0,"last_update":"0001-01-01T00:00:00Z","name_a2s":"Uncletopia | Montréal | 3 | All Maps","protocol":17,"map":"cp_altitude","folder":"tf","game":"Team Fortress","app_id":440,"player_count":0,"max_players":24,"Bots":0,"server_type":"Dedicated","server_os":"Linux","password":true,"vac":true,"version":"7757534","steam_id":85568392924500089,"keywords":["cp","nocrits","nodmgspread","uncletopia"],"game_id":440,"stv_port":27036,"stv_name":"Uncletopia | Montréal | 3 | All Maps | STV","players":null},{"server_id":303,"name":"Uncletopia | Montréal | 4 | No Payload","name_short":"mtl-4","host":"mtl-1.ca.uncletopia.com","port":27045,"enabled":true,"region":"us-east","cc":"ca","latitude":45.50889,"longitude":-73.56167,"reserved":0,"last_update":"0001-01-01T00:00:00Z","name_a2s":"Uncletopia | Montréal | 4 | No Payload","protocol":17,"map":"plr_nightfall_final","folder":"tf","game":"Team Fortress","app_id":440,"player_count":0,"max_players":24,"Bots":0,"server_type":"Dedicated","server_os":"Linux","password":true,"vac":true,"version":"7757534","steam_id":85568392924500090,"keywords":["nocrits","nodmgspread","payload","uncletopia"],"game_id":440,"stv_port":27046,"stv_name":"Uncletopia | Montréal | 4 | No Payload | STV","players":null},{"server_id":13,"name":"Uncletopia | New York City | 1 | All Maps","name_short":"nyc-1","host":"nyc-1.us.uncletopia.com","port":27015,"enabled":true,"region":"us-east","cc":"us","latitude":40.73061,"longitude":-73.93524,"reserved":0,"last_update":"0001-01-01T00:00:00Z","name_a2s":"Uncletopia | New York City | 1 | All Maps","protocol":17,"map":"pl_barnblitz","folder":"tf","game":"Team Fortress","app_id":440,"player_count":24,"max_players":24,"Bots":0,"server_type":"Dedicated","server_os":"Linux","password":true,"vac":true,"version":"7757534","steam_id":85568392924469993,"keywords":["nocrits","nodmgspread","payload","uncletopia"],"game_id":440,"stv_port":27016,"stv_name":"Uncletopia | New York City | 1 | All Maps | STV","players":[{"user_id":380,"name":"ROGUE-PLANET","steam_id":76561198116023052,"connected_time":582000000000,"state":"active","ping":92},{"user_id":377,"name":"Salt","steam_id":76561198073863777,"connected_time":623000000000,"state":"active","ping":55},{"user_id":359,"name":"GoldtoothFour","steam_id":76561198055529332,"connected_time":3018000000000,"state":"active","ping":73},{"user_id":381,"name":"frank","steam_id":76561198045436159,"connected_time":580000000000,"state":"active","ping":62},{"user_id":337,"name":"Dom","steam_id":76561198043992490,"connected_time":4154000000000,"state":"active","ping":95},{"user_id":387,"name":"fice","steam_id":76561198860361610,"connected_time":481000000000,"state":"active","ping":56},{"user_id":383,"name":"squaggles!","steam_id":76561197994995011,"connected_time":566000000000,"state":"active","ping":55},{"user_id":357,"name":"big if true","steam_id":76561198155403131,"connected_time":3129000000000,"state":"active","ping":130},{"user_id":384,"name":"Effie","steam_id":76561198261842068,"connected_time":565000000000,"state":"active","ping":84},{"user_id":385,"name":"Your Local NPR Station","steam_id":76561198143830279,"connected_time":538000000000,"state":"active","ping":60},{"user_id":325,"name":"dale","steam_id":76561199231009336,"connected_time":4968000000000,"state":"active","ping":92},{"user_id":386,"name":"XX_Big Boss420_Xx","steam_id":76561198191167133,"connected_time":530000000000,"state":"active","ping":65},{"user_id":393,"name":"Jmciano24","steam_id":76561198050723212,"connected_time":209000000000,"state":"active","ping":46},{"user_id":388,"name":"the penis act of 1996","steam_id":76561198073269122,"connected_time":429000000000,"state":"active","ping":45},{"user_id":389,"name":"Pig","steam_id":76561198276179693,"connected_time":412000000000,"state":"active","ping":77},{"user_id":332,"name":"peee pee man","steam_id":76561198044979205,"connected_time":4563000000000,"state":"active","ping":55},{"user_id":338,"name":"Gocel","steam_id":76561198071467515,"connected_time":3997000000000,"state":"active","ping":50},{"user_id":390,"name":"Big G","steam_id":76561198067496197,"connected_time":385000000000,"state":"active","ping":49},{"user_id":394,"name":"Gustavo Fring","steam_id":76561198132807405,"connected_time":109000000000,"state":"active","ping":142},{"user_id":345,"name":"Argo","steam_id":76561198353725622,"connected_time":3481000000000,"state":"active","ping":72},{"user_id":351,"name":"pete_the_cat_2014","steam_id":76561198199266047,"connected_time":3417000000000,"state":"active","ping":45},{"user_id":374,"name":"Dross","steam_id":76561198042172372,"connected_time":944000000000,"state":"active","ping":56},{"user_id":392,"name":"Sam","steam_id":76561198079393512,"connected_time":344000000000,"state":"active","ping":65},{"user_id":288,"name":"Bootes","steam_id":76561197968255551,"connected_time":8262000000000,"state":"active","ping":46}]},{"server_id":14,"name":"Uncletopia | New York City | 2 | All Maps","name_short":"nyc-2","host":"nyc-1.us.uncletopia.com","port":27025,"enabled":true,"region":"us-east","cc":"us","latitude":40.73061,"longitude":-73.93524,"reserved":0,"last_update":"0001-01-01T00:00:00Z","name_a2s":"Uncletopia | New York City | 2 | All Maps","protocol":17,"map":"pl_frontier_final","folder":"tf","game":"Team Fortress","app_id":440,"player_count":23,"max_players":24,"Bots":0,"server_type":"Dedicated","server_os":"Linux","password":true,"vac":true,"version":"7757534","steam_id":85568392924469994,"keywords":["nocrits","nodmgspread","payload","uncletopia"],"game_id":440,"stv_port":27026,"stv_name":"Uncletopia | New York City | 2 | All Maps | STV","players":[{"user_id":251,"name":"Frimpimy","steam_id":76561198142605675,"connected_time":8499000000000,"state":"active","ping":70},{"user_id":349,"name":"Fluquor","steam_id":76561198058059624,"connected_time":37000000000,"state":"active","ping":77},{"user_id":329,"name":"RyInc","steam_id":76561198874261643,"connected_time":2160000000000,"state":"active","ping":57},{"user_id":341,"name":"lots of people respect cats","steam_id":76561198043305248,"connected_time":1126000000000,"state":"active","ping":148},{"user_id":343,"name":"Biggest AL","steam_id":76561198260719207,"connected_time":397000000000,"state":"active","ping":88},{"user_id":335,"name":"Bheem","steam_id":76561198170453459,"connected_time":1404000000000,"state":"active","ping":98},{"user_id":330,"name":"I_Am_Lazy","steam_id":76561199030283067,"connected_time":2111000000000,"state":"active","ping":66},{"user_id":348,"name":"Teleporter (Evil_Elephant)","steam_id":76561199055338631,"connected_time":69000000000,"state":"active","ping":93},{"user_id":331,"name":"Blackstar","steam_id":76561198169039095,"connected_time":1958000000000,"state":"active","ping":86},{"user_id":286,"name":"add the 3 stooges to fortnite","steam_id":76561198107343544,"connected_time":6104000000000,"state":"active","ping":71},{"user_id":345,"name":"MrLeftTurn","steam_id":76561198856743969,"connected_time":257000000000,"state":"active","ping":145},{"user_id":299,"name":"Dieu-Sama","steam_id":76561198002075862,"connected_time":5290000000000,"state":"active","ping":72},{"user_id":291,"name":"Potato_Patrick","steam_id":76561198126408165,"connected_time":5980000000000,"state":"active","ping":76},{"user_id":269,"name":"Watatsuki no Yorihime","steam_id":76561198063315650,"connected_time":7684000000000,"state":"active","ping":92},{"user_id":337,"name":"Model CHP-3Y","steam_id":76561198107806145,"connected_time":1365000000000,"state":"active","ping":57},{"user_id":339,"name":"greenpasta1","steam_id":76561198837587942,"connected_time":1299000000000,"state":"active","ping":56},{"user_id":216,"name":"General Sherman","steam_id":76561198044769376,"connected_time":10527000000000,"state":"active","ping":80},{"user_id":293,"name":"Reduced Fat Goku","steam_id":76561198067702488,"connected_time":5968000000000,"state":"active","ping":78},{"user_id":307,"name":"Monsterjessy","steam_id":76561198035630985,"connected_time":4968000000000,"state":"active","ping":59},{"user_id":344,"name":"Snowy Squill","steam_id":76561198073504207,"connected_time":275000000000,"state":"active","ping":149},{"user_id":347,"name":"JohnnyGitGud","steam_id":76561198401455467,"connected_time":225000000000,"state":"active","ping":124},{"user_id":326,"name":"chicken joe from surfs up 2","steam_id":76561198060807152,"connected_time":2246000000000,"state":"active","ping":57},{"user_id":333,"name":"Hey! I'm Walkin 'ere!","steam_id":76561198882785912,"connected_time":1696000000000,"state":"active","ping":62}]},{"server_id":15,"name":"Uncletopia | New York City | 3 | Stopwatch Beta","name_short":"nyc-3","host":"nyc-1.us.uncletopia.com","port":27035,"enabled":true,"region":"us-east","cc":"us","latitude":40.73061,"longitude":-73.93524,"reserved":0,"last_update":"0001-01-01T00:00:00Z","name_a2s":"Uncletopia | New York City | 3 | Stopwatch Beta","protocol":17,"map":"pl_borneo","folder":"tf","game":"Team Fortress","app_id":440,"player_count":0,"max_players":24,"Bots":0,"server_type":"Dedicated","server_os":"Linux","password":true,"vac":true,"version":"7757534","steam_id":85568392924742820,"keywords":["nocrits","nodmgspread","payload","uncletopia"],"game_id":440,"stv_port":27036,"stv_name":"Uncletopia | New York City | 3 | Stopwatch Beta | STV","players":null},{"server_id":16,"name":"Uncletopia | New York City | 4 | Community","name_short":"nyc-4","host":"nyc-1.us.uncletopia.com","port":27045,"enabled":true,"region":"us-east","cc":"us","latitude":40.73061,"longitude":-73.93524,"reserved":0,"last_update":"0001-01-01T00:00:00Z","name_a2s":"Uncletopia | New York City | 4 | Community","protocol":17,"map":"workshop/koth_synthetic_rc6a.ugc1549817316","folder":"tf","game":"Team Fortress","app_id":440,"player_count":21,"max_players":24,"Bots":0,"server_type":"Dedicated","server_os":"Linux","password":true,"vac":true,"version":"7757534","steam_id":85568392924742821,"keywords":["cp","nocrits","nodmgspread","uncletopia"],"game_id":440,"stv_port":27046,"stv_name":"Uncletopia | New York City | 4 | Community | STV","players":[{"user_id":268,"name":"ᗜˬᗜ","steam_id":76561198049076233,"connected_time":460000000000,"state":"active","ping":49},{"user_id":205,"name":"Gumit","steam_id":76561198208126512,"connected_time":5022000000000,"state":"active","ping":56},{"user_id":207,"name":"MIKE JOANS","steam_id":76561198267470325,"connected_time":4951000000000,"state":"active","ping":48},{"user_id":208,"name":"bob27","steam_id":76561198807658771,"connected_time":4939000000000,"state":"active","ping":64},{"user_id":192,"name":"muzikelretifhbr","steam_id":76561198445169719,"connected_time":6029000000000,"state":"active","ping":118},{"user_id":274,"name":"Magenta Feline","steam_id":76561198293804468,"connected_time":294000000000,"state":"active","ping":58},{"user_id":264,"name":"NorthernPilgrim","steam_id":76561198066851075,"connected_time":777000000000,"state":"active","ping":98},{"user_id":273,"name":"Jerma985 fan","steam_id":76561198094812010,"connected_time":313000000000,"state":"active","ping":58},{"user_id":263,"name":"Bugc97","steam_id":76561198007662645,"connected_time":992000000000,"state":"active","ping":97},{"user_id":266,"name":"motherfudger","steam_id":76561198114959385,"connected_time":511000000000,"state":"active","ping":59},{"user_id":275,"name":"Chechens Spotted","steam_id":76561199028910893,"connected_time":264000000000,"state":"active","ping":68},{"user_id":229,"name":"bug o1","steam_id":76561198126386686,"connected_time":3839000000000,"state":"active","ping":63},{"user_id":253,"name":"Sim","steam_id":76561198119227922,"connected_time":1580000000000,"state":"active","ping":68},{"user_id":220,"name":"Gustavo_Banana","steam_id":76561198387866587,"connected_time":4438000000000,"state":"active","ping":169},{"user_id":277,"name":"iluvtopoo","steam_id":76561198843522498,"connected_time":213000000000,"state":"active","ping":116},{"user_id":260,"name":"pipebombrater","steam_id":76561199029030831,"connected_time":1141000000000,"state":"active","ping":69},{"user_id":279,"name":"Mickio Tanerdum","steam_id":76561198058343832,"connected_time":93000000000,"state":"spawning","ping":188},{"user_id":258,"name":"emerge","steam_id":76561198186882891,"connected_time":1213000000000,"state":"active","ping":101},{"user_id":280,"name":"Coolerific","steam_id":76561198055729219,"connected_time":79000000000,"state":"active","ping":80},{"user_id":237,"name":"The Necronomiconeconomist","steam_id":76561198010358323,"connected_time":2721000000000,"state":"active","ping":91},{"user_id":262,"name":"Puppeteer","steam_id":76561198159928108,"connected_time":1090000000000,"state":"active","ping":117}]},{"server_id":142,"name":"Uncletopia | São Paulo | 1 | All Maps","name_short":"sao-1","host":"sao-1.br.uncletopia.com","port":27015,"enabled":true,"region":"sa","cc":"br","latitude":-23.533773,"longitude":-46.62529,"reserved":0,"last_update":"0001-01-01T00:00:00Z","name_a2s":"Uncletopia | São Paulo | 1 | All Maps","protocol":17,"map":"koth_viaduct","folder":"tf","game":"Team Fortress","app_id":440,"player_count":0,"max_players":24,"Bots":0,"server_type":"Dedicated","server_os":"Linux","password":true,"vac":true,"version":"7757534","steam_id":85568392924469996,"keywords":["cp","nocrits","nodmgspread","uncletopia"],"game_id":440,"stv_port":27016,"stv_name":"Uncletopia | São Paulo | 1 | All Maps | STV","players":null},{"server_id":143,"name":"Uncletopia | São Paulo | 2 | All Maps","name_short":"sao-2","host":"sao-2.br.uncletopia.com","port":27015,"enabled":true,"region":"sa","cc":"br","latitude":-23.533773,"longitude":-46.62529,"reserved":0,"last_update":"0001-01-01T00:00:00Z","name_a2s":"Uncletopia | São Paulo | 2 | All Maps","protocol":17,"map":"pl_badwater","folder":"tf","game":"Team Fortress","app_id":440,"player_count":4,"max_players":24,"Bots":0,"server_type":"Dedicated","server_os":"Linux","password":true,"vac":true,"version":"7757534","steam_id":85568392924485349,"keywords":["nocrits","nodmgspread","payload","uncletopia"],"game_id":440,"stv_port":27016,"stv_name":"Uncletopia | São Paulo | 2 | All Maps | STV","players":[{"user_id":19,"name":":)","steam_id":76561199158907231,"connected_time":5584000000000,"state":"active","ping":84},{"user_id":24,"name":"UrBackDontLie","steam_id":76561199135806379,"connected_time":4403000000000,"state":"active","ping":68},{"user_id":29,"name":"jeme_XP","steam_id":76561199277088442,"connected_time":112000000000,"state":"active","ping":211},{"user_id":28,"name":"T1M3L3SS","steam_id":76561198323414954,"connected_time":770000000000,"state":"active","ping":34}]},{"server_id":7,"name":"Uncletopia | Seattle | 1 | All Maps","name_short":"sea-1","host":"sea-1.us.uncletopia.com","port":27015,"enabled":true,"region":"us-west","cc":"us","latitude":47.608013,"longitude":-122.33517,"reserved":0,"last_update":"0001-01-01T00:00:00Z","name_a2s":"Uncletopia | Seattle | 1 | All Maps","protocol":17,"map":"koth_viaduct","folder":"tf","game":"Team Fortress","app_id":440,"player_count":24,"max_players":24,"Bots":0,"server_type":"Dedicated","server_os":"Linux","password":true,"vac":true,"version":"7757534","steam_id":85568392924469997,"keywords":["cp","nocrits","nodmgspread","uncletopia"],"game_id":440,"stv_port":27016,"stv_name":"Uncletopia | Seattle | 1 | All Maps | STV","players":[{"user_id":452,"name":"Level 99 Mudcrab","steam_id":76561198077452771,"connected_time":3472000000000,"state":"active","ping":59},{"user_id":473,"name":"Goeffrey Portillo","steam_id":76561198162117215,"connected_time":2114000000000,"state":"active","ping":77},{"user_id":501,"name":"Banzailizard","steam_id":76561197986785469,"connected_time":616000000000,"state":"active","ping":95},{"user_id":444,"name":"Nightshade","steam_id":76561199011017814,"connected_time":4438000000000,"state":"active","ping":80},{"user_id":481,"name":"Hotshot","steam_id":76561198082355470,"connected_time":1551000000000,"state":"active","ping":132},{"user_id":498,"name":"Evicxion","steam_id":76561198136751824,"connected_time":711000000000,"state":"active","ping":224},{"user_id":482,"name":"California State Real ID","steam_id":76561198111293523,"connected_time":1548000000000,"state":"active","ping":86},{"user_id":502,"name":"McSpazatron","steam_id":76561198955942148,"connected_time":520000000000,"state":"active","ping":127},{"user_id":506,"name":"LordZahe","steam_id":76561198241749034,"connected_time":97000000000,"state":"active","ping":127},{"user_id":457,"name":"ORANGE","steam_id":76561198000401769,"connected_time":2860000000000,"state":"active","ping":47},{"user_id":475,"name":"dANZYYG","steam_id":76561197968179862,"connected_time":1907000000000,"state":"active","ping":95},{"user_id":503,"name":"ikezilla10","steam_id":76561199155919824,"connected_time":214000000000,"state":"active","ping":67},{"user_id":460,"name":"oo","steam_id":76561198119626492,"connected_time":2841000000000,"state":"active","ping":91},{"user_id":496,"name":"SpoopyMoopy","steam_id":76561198928388508,"connected_time":719000000000,"state":"active","ping":74},{"user_id":497,"name":"Sudsen","steam_id":76561198370603787,"connected_time":719000000000,"state":"active","ping":62},{"user_id":504,"name":"Lawyer","steam_id":76561197974126447,"connected_time":144000000000,"state":"active","ping":90},{"user_id":500,"name":"PerKnuckleChuckle","steam_id":76561198023221596,"connected_time":685000000000,"state":"active","ping":84},{"user_id":507,"name":"The Horselords and Animal Gods","steam_id":76561197975094050,"connected_time":90000000000,"state":"active","ping":86},{"user_id":490,"name":"o o o o o o o o o","steam_id":76561197993757506,"connected_time":895000000000,"state":"active","ping":75},{"user_id":487,"name":"Major_Pippy","steam_id":76561198004482878,"connected_time":1065000000000,"state":"active","ping":53},{"user_id":478,"name":"bottom pride burger","steam_id":76561198322247602,"connected_time":1680000000000,"state":"active","ping":78},{"user_id":477,"name":"Pneumo.","steam_id":76561197987911883,"connected_time":1696000000000,"state":"active","ping":69},{"user_id":499,"name":"Cam(era)","steam_id":76561198285054047,"connected_time":709000000000,"state":"active","ping":75},{"user_id":508,"name":"Hassium","steam_id":76561198162541373,"connected_time":89000000000,"state":"active","ping":58}]},{"server_id":119,"name":"Uncletopia | Seattle | 2 | All Maps","name_short":"sea-2","host":"sea-1.us.uncletopia.com","port":27025,"enabled":true,"region":"us-west","cc":"us","latitude":47.608013,"longitude":-122.33517,"reserved":0,"last_update":"0001-01-01T00:00:00Z","name_a2s":"Uncletopia | Seattle | 2 | All Maps","protocol":17,"map":"pl_thundermountain","folder":"tf","game":"Team Fortress","app_id":440,"player_count":23,"max_players":24,"Bots":0,"server_type":"Dedicated","server_os":"Linux","password":true,"vac":true,"version":"7757534","steam_id":85568392924469998,"keywords":["nocrits","nodmgspread","payload","uncletopia"],"game_id":440,"stv_port":27026,"stv_name":"Uncletopia | Seattle | 2 | All Maps | STV","players":[{"user_id":314,"name":"Volkan","steam_id":76561198401314312,"connected_time":1711000000000,"state":"active","ping":93},{"user_id":288,"name":"AmiableNebula","steam_id":76561198094306627,"connected_time":3842000000000,"state":"active","ping":76},{"user_id":299,"name":"SomeMarker","steam_id":76561199129771792,"connected_time":2556000000000,"state":"active","ping":108},{"user_id":278,"name":"Tibetan Pop Star","steam_id":76561198844903984,"connected_time":4813000000000,"state":"active","ping":92},{"user_id":324,"name":"cornshot","steam_id":76561198043496387,"connected_time":407000000000,"state":"active","ping":70},{"user_id":269,"name":"Yume","steam_id":76561198018060136,"connected_time":5624000000000,"state":"active","ping":89},{"user_id":300,"name":"benji","steam_id":76561198084417967,"connected_time":2545000000000,"state":"active","ping":67},{"user_id":321,"name":"exephur","steam_id":76561198135763234,"connected_time":1062000000000,"state":"active","ping":70},{"user_id":293,"name":"kodynotcody","steam_id":76561198340685758,"connected_time":2642000000000,"state":"active","ping":65},{"user_id":236,"name":"Grammaring","steam_id":76561198867366139,"connected_time":7570000000000,"state":"active","ping":85},{"user_id":330,"name":"Bagaboned","steam_id":76561198043761335,"connected_time":28000000000,"state":"spawning","ping":44},{"user_id":323,"name":"mayonnaise player","steam_id":76561198104679689,"connected_time":442000000000,"state":"active","ping":52},{"user_id":311,"name":"fancyfreak","steam_id":76561198326466375,"connected_time":1976000000000,"state":"active","ping":84},{"user_id":238,"name":"Yosh","steam_id":76561198027078899,"connected_time":7505000000000,"state":"active","ping":83},{"user_id":294,"name":"Keamy","steam_id":76561199471434875,"connected_time":2641000000000,"state":"active","ping":44},{"user_id":310,"name":"professional gaymer","steam_id":76561198063949642,"connected_time":1988000000000,"state":"active","ping":45},{"user_id":304,"name":"FoodzAreGoodz","steam_id":76561198309262052,"connected_time":2467000000000,"state":"active","ping":80},{"user_id":328,"name":"Finic Fox","steam_id":76561198154785984,"connected_time":130000000000,"state":"active","ping":59},{"user_id":316,"name":"god's drunkest driver","steam_id":76561198212115640,"connected_time":1701000000000,"state":"active","ping":88},{"user_id":231,"name":"Dr. Banana boy","steam_id":76561199012105803,"connected_time":7913000000000,"state":"active","ping":61},{"user_id":327,"name":"loganismissing","steam_id":76561199245565071,"connected_time":140000000000,"state":"active","ping":99},{"user_id":329,"name":"TheCowledWiz","steam_id":76561198016735868,"connected_time":57000000000,"state":"active","ping":48},{"user_id":320,"name":"shawarma.lord007","steam_id":76561198115458307,"connected_time":1164000000000,"state":"active","ping":84}]},{"server_id":406,"name":"Uncletopia | Seattle | 3 | Stopwatch Beta","name_short":"sea-3","host":"sea-1.us.uncletopia.com","port":27035,"enabled":true,"region":"us-west","cc":"us","latitude":47.608013,"longitude":-122.33517,"reserved":0,"last_update":"0001-01-01T00:00:00Z","name_a2s":"Uncletopia | Seattle | 3 | Stopwatch Beta","protocol":17,"map":"workshop/pl_barnblitz_pro7.ugc582280235","folder":"tf","game":"Team Fortress","app_id":440,"player_count":0,"max_players":24,"Bots":0,"server_type":"Dedicated","server_os":"Linux","password":true,"vac":true,"version":"7757534","steam_id":85568392924515217,"keywords":["nocrits","nodmgspread","payload","uncletopia"],"game_id":440,"stv_port":27036,"stv_name":"Uncletopia | Seattle | 3 | Stopwatch Beta | STV","players":null},{"server_id":17,"name":"Uncletopia | San Francisco | 1 | All Maps","name_short":"sfo-1","host":"sfo-1.us.uncletopia.com","port":27015,"enabled":true,"region":"us-west","cc":"us","latitude":37.77397,"longitude":-122.4313,"reserved":0,"last_update":"0001-01-01T00:00:00Z","name_a2s":"Uncletopia | San Francisco | 1 | All Maps","protocol":17,"map":"pl_upward","folder":"tf","game":"Team Fortress","app_id":440,"player_count":23,"max_players":24,"Bots":0,"server_type":"Dedicated","server_os":"Linux","password":true,"vac":true,"version":"7757534","steam_id":85568392924469999,"keywords":["nocrits","nodmgspread","payload","uncletopia"],"game_id":440,"stv_port":27016,"stv_name":"Uncletopia | San Francisco | 1 | All Maps | STV","players":[{"user_id":661,"name":"Taser! Taser!","steam_id":76561198068113347,"connected_time":1213000000000,"state":"active","ping":57},{"user_id":627,"name":"zinnk","steam_id":76561198092081825,"connected_time":3502000000000,"state":"active","ping":44},{"user_id":673,"name":"Destroyer1004","steam_id":76561199367685913,"connected_time":390000000000,"state":"active","ping":69},{"user_id":659,"name":"SpringIvan","steam_id":76561199133179509,"connected_time":1370000000000,"state":"active","ping":46},{"user_id":629,"name":"the Good Guy","steam_id":76561198416759211,"connected_time":3327000000000,"state":"active","ping":109},{"user_id":662,"name":"Villchip","steam_id":76561198198599982,"connected_time":1192000000000,"state":"active","ping":68},{"user_id":672,"name":"morgenne","steam_id":76561199224141679,"connected_time":695000000000,"state":"active","ping":43},{"user_id":681,"name":"Tort boi","steam_id":76561198125327110,"connected_time":208000000000,"state":"active","ping":73},{"user_id":625,"name":"M E M E  M A N","steam_id":76561198103179061,"connected_time":3869000000000,"state":"active","ping":116},{"user_id":674,"name":"Goog","steam_id":76561198212777924,"connected_time":387000000000,"state":"active","ping":65},{"user_id":675,"name":"your alcoholic step father","steam_id":76561199386363103,"connected_time":313000000000,"state":"active","ping":86},{"user_id":684,"name":"Glomm08","steam_id":76561199213005758,"connected_time":29000000000,"state":"active","ping":79},{"user_id":677,"name":"toodles","steam_id":76561198025463883,"connected_time":287000000000,"state":"active","ping":77},{"user_id":678,"name":"SoulOfPower","steam_id":76561198268970588,"connected_time":285000000000,"state":"active","ping":112},{"user_id":652,"name":"ally of big tobacco","steam_id":76561198169927835,"connected_time":2567000000000,"state":"active","ping":98},{"user_id":682,"name":"DrSteveBrule","steam_id":76561198024341471,"connected_time":98000000000,"state":"active","ping":57},{"user_id":667,"name":"A UsedNom","steam_id":76561198402832756,"connected_time":1069000000000,"state":"active","ping":49},{"user_id":679,"name":"SomeRandomBetaFish","steam_id":76561198827731399,"connected_time":279000000000,"state":"active","ping":85},{"user_id":680,"name":"Coolshroomish","steam_id":76561199109440924,"connected_time":264000000000,"state":"active","ping":68},{"user_id":664,"name":"I Am Alpharius","steam_id":76561198033100226,"connected_time":1176000000000,"state":"active","ping":130},{"user_id":624,"name":"Thiccums","steam_id":76561198291586739,"connected_time":4369000000000,"state":"active","ping":45},{"user_id":590,"name":"gNarNar","steam_id":76561197994505205,"connected_time":6538000000000,"state":"active","ping":103},{"user_id":656,"name":"level 7 firemancer","steam_id":76561198209571677,"connected_time":2200000000000,"state":"active","ping":103}]},{"server_id":18,"name":"Uncletopia | San Francisco | 2 | All Maps","name_short":"sfo-2","host":"sfo-1.us.uncletopia.com","port":27025,"enabled":true,"region":"us-west","cc":"us","latitude":37.77397,"longitude":-122.4313,"reserved":0,"last_update":"0001-01-01T00:00:00Z","name_a2s":"Uncletopia | San Francisco | 2 | All Maps","protocol":17,"map":"pl_barnblitz","folder":"tf","game":"Team Fortress","app_id":440,"player_count":18,"max_players":24,"Bots":0,"server_type":"Dedicated","server_os":"Linux","password":true,"vac":true,"version":"7757534","steam_id":85568392924470000,"keywords":["nocrits","nodmgspread","payload","uncletopia"],"game_id":440,"stv_port":27026,"stv_name":"Uncletopia | San Francisco | 2 | All Maps | STV","players":[{"user_id":393,"name":"Liam McKendrick","steam_id":76561198077965553,"connected_time":1589000000000,"state":"active","ping":115},{"user_id":421,"name":"F.P. Lovelich","steam_id":76561198203863333,"connected_time":58000000000,"state":"active","ping":90},{"user_id":422,"name":"Bergmann MP18","steam_id":76561198218417512,"connected_time":52000000000,"state":"active","ping":65},{"user_id":383,"name":"terrorism? boy howdy","steam_id":76561198844003641,"connected_time":2190000000000,"state":"active","ping":66},{"user_id":406,"name":"jello","steam_id":76561198149683030,"connected_time":969000000000,"state":"active","ping":48},{"user_id":399,"name":"GඞMER","steam_id":76561198340389876,"connected_time":1113000000000,"state":"active","ping":50},{"user_id":384,"name":"nucket","steam_id":76561198028658527,"connected_time":2188000000000,"state":"active","ping":46},{"user_id":320,"name":"dark luigi","steam_id":76561198048007844,"connected_time":4438000000000,"state":"active","ping":57},{"user_id":412,"name":"MCman","steam_id":76561198412110305,"connected_time":723000000000,"state":"active","ping":90},{"user_id":419,"name":"Waaaaz","steam_id":76561198029754301,"connected_time":187000000000,"state":"active","ping":58},{"user_id":396,"name":"Gr8butnotreally","steam_id":76561198133924450,"connected_time":1280000000000,"state":"active","ping":83},{"user_id":410,"name":"TothBrush","steam_id":76561198028254471,"connected_time":830000000000,"state":"active","ping":71},{"user_id":413,"name":"QuackyMario","steam_id":76561198838548459,"connected_time":715000000000,"state":"active","ping":109},{"user_id":416,"name":"Semyr","steam_id":76561198125655939,"connected_time":429000000000,"state":"active","ping":125},{"user_id":417,"name":"ttv_shingo_is_live","steam_id":76561198998571073,"connected_time":207000000000,"state":"active","ping":54},{"user_id":414,"name":"daniel","steam_id":76561197991289254,"connected_time":678000000000,"state":"active","ping":64},{"user_id":302,"name":"ChromeOwl","steam_id":76561198953786715,"connected_time":4841000000000,"state":"active","ping":147},{"user_id":391,"name":"oh god i'm gonna CHUM","steam_id":76561198019210187,"connected_time":1715000000000,"state":"active","ping":90}]},{"server_id":19,"name":"Uncletopia | San Francisco | 3 | Stopwatch Beta","name_short":"sfo-3","host":"sfo-1.us.uncletopia.com","port":27035,"enabled":true,"region":"us-west","cc":"us","latitude":37.77397,"longitude":-122.4313,"reserved":0,"last_update":"0001-01-01T00:00:00Z","name_a2s":"Uncletopia | San Francisco | 3 | Stopwatch Beta","protocol":17,"map":"workshop/koth_product_final.ugc454272353","folder":"tf","game":"Team Fortress","app_id":440,"player_count":0,"max_players":24,"Bots":0,"server_type":"Dedicated","server_os":"Linux","password":true,"vac":true,"version":"7757534","steam_id":85568392924742824,"keywords":["cp","nocrits","nodmgspread","uncletopia"],"game_id":440,"stv_port":27036,"stv_name":"Uncletopia | San Francisco | 3 | Stopwatch Beta | STV","players":null},{"server_id":20,"name":"Uncletopia | San Francisco | 4 | Community","name_short":"sfo-4","host":"sfo-1.us.uncletopia.com","port":27045,"enabled":true,"region":"us-west","cc":"us","latitude":37.77397,"longitude":-122.4313,"reserved":0,"last_update":"0001-01-01T00:00:00Z","name_a2s":"Uncletopia | San Francisco | 4 | Community","protocol":17,"map":"workshop/cp_snowbase_b18.ugc2081770490","folder":"tf","game":"Team Fortress","app_id":440,"player_count":0,"max_players":24,"Bots":0,"server_type":"Dedicated","server_os":"Linux","password":true,"vac":true,"version":"7757534","steam_id":85568392924742826,"keywords":["cp","nocrits","nodmgspread","uncletopia"],"game_id":440,"stv_port":27046,"stv_name":"Uncletopia | San Francisco | 4 | Community | STV","players":null},{"server_id":141,"name":"Uncletopia | Sydney | 1 | All Maps","name_short":"syd-1","host":"syd-1.au.uncletopia.com","port":27015,"enabled":true,"region":"au","cc":"au","latitude":-33.865143,"longitude":151.2099,"reserved":0,"last_update":"0001-01-01T00:00:00Z","name_a2s":"Uncletopia | Sydney | 1 | All Maps","protocol":17,"map":"pl_barnblitz","folder":"tf","game":"Team Fortress","app_id":440,"player_count":21,"max_players":24,"Bots":0,"server_type":"Dedicated","server_os":"Linux","password":true,"vac":true,"version":"7757534","steam_id":85568392924470001,"keywords":["nocrits","nodmgspread","payload","uncletopia"],"game_id":440,"stv_port":27016,"stv_name":"Uncletopia | Sydney | 1 | All Maps | STV","players":[{"user_id":5,"name":"Jett","steam_id":76561198969434128,"connected_time":6401000000000,"state":"active","ping":70},{"user_id":99,"name":"Hona","steam_id":76561198221809496,"connected_time":394000000000,"state":"active","ping":52},{"user_id":79,"name":"Poop2Hard","steam_id":76561198099383586,"connected_time":1535000000000,"state":"active","ping":64},{"user_id":103,"name":"Zieria","steam_id":76561199261811388,"connected_time":38000000000,"state":"active","ping":73},{"user_id":78,"name":"Zeron","steam_id":76561198125778202,"connected_time":1726000000000,"state":"active","ping":51},{"user_id":80,"name":"Fuzzy","steam_id":76561198081319798,"connected_time":1399000000000,"state":"active","ping":55},{"user_id":37,"name":"⽔Ⱞ⒢⚞Ⳝ▤♆⛹⩗ⶕ","steam_id":76561198831069486,"connected_time":3623000000000,"state":"active","ping":59},{"user_id":86,"name":"Daniel Plainview (no sound)","steam_id":76561197990817274,"connected_time":1128000000000,"state":"active","ping":62},{"user_id":84,"name":"ScremingEgle","steam_id":76561198076866709,"connected_time":1299000000000,"state":"active","ping":130},{"user_id":95,"name":"huey","steam_id":76561199069777966,"connected_time":574000000000,"state":"active","ping":73},{"user_id":63,"name":"4 Day Old Meat","steam_id":76561198992922627,"connected_time":2687000000000,"state":"active","ping":86},{"user_id":39,"name":"MindlessTie","steam_id":76561198107844324,"connected_time":3456000000000,"state":"active","ping":66},{"user_id":57,"name":"catboy vs doggirl deathmatch","steam_id":76561198021736544,"connected_time":2961000000000,"state":"active","ping":98},{"user_id":82,"name":"Soggy_Snail","steam_id":76561199229505096,"connected_time":1351000000000,"state":"active","ping":72},{"user_id":96,"name":"bogan on a fence","steam_id":76561198052032702,"connected_time":533000000000,"state":"active","ping":46},{"user_id":89,"name":"NoodlesFade","steam_id":76561198207940839,"connected_time":1001000000000,"state":"active","ping":57},{"user_id":66,"name":"das conk creet baybee","steam_id":76561198256416570,"connected_time":2585000000000,"state":"active","ping":56},{"user_id":90,"name":"misa","steam_id":76561199079218182,"connected_time":999000000000,"state":"active","ping":49},{"user_id":97,"name":"Mr.Deathclaw","steam_id":76561198025419320,"connected_time":524000000000,"state":"active","ping":46},{"user_id":102,"name":"Cofwee","steam_id":76561198072414195,"connected_time":138000000000,"state":"active","ping":74},{"user_id":71,"name":"Soru","steam_id":76561198010844786,"connected_time":2441000000000,"state":"active","ping":61}]},{"server_id":123,"name":"Uncletopia | Sydney | 2 | All Maps","name_short":"syd-2","host":"syd-1.au.uncletopia.com","port":27025,"enabled":true,"region":"au","cc":"au","latitude":-33.865143,"longitude":151.2099,"reserved":0,"last_update":"0001-01-01T00:00:00Z","name_a2s":"Uncletopia | Sydney | 2 | All Maps","protocol":17,"map":"koth_highpass","folder":"tf","game":"Team Fortress","app_id":440,"player_count":0,"max_players":24,"Bots":0,"server_type":"Dedicated","server_os":"Linux","password":true,"vac":true,"version":"7757534","steam_id":85568392924470002,"keywords":["cp","nocrits","nodmgspread","uncletopia"],"game_id":440,"stv_port":27026,"stv_name":"Uncletopia | Sydney | 2 | All Maps | STV","players":null},{"server_id":395,"name":"Uncletopia | Sydney | 3 | All Maps","name_short":"syd-3","host":"syd-1.au.uncletopia.com","port":27035,"enabled":true,"region":"au","cc":"au","latitude":-33.865143,"longitude":151.2099,"reserved":0,"last_update":"0001-01-01T00:00:00Z","name_a2s":"Uncletopia | Sydney | 3 | All Maps","protocol":17,"map":"cp_altitude","folder":"tf","game":"Team Fortress","app_id":440,"player_count":0,"max_players":24,"Bots":0,"server_type":"Dedicated","server_os":"Linux","password":true,"vac":true,"version":"7757534","steam_id":85568392925194467,"keywords":["cp","nocrits","nodmgspread","uncletopia"],"game_id":440,"stv_port":27036,"stv_name":"Uncletopia | Sydney | 3 | All Maps | STV","players":null},{"server_id":396,"name":"Uncletopia | Sydney | 4 | All Maps","name_short":"syd-4","host":"syd-1.au.uncletopia.com","port":27045,"enabled":true,"region":"au","cc":"au","latitude":-33.865143,"longitude":151.2099,"reserved":0,"last_update":"0001-01-01T00:00:00Z","name_a2s":"Uncletopia | Sydney | 4 | All Maps","protocol":17,"map":"cp_process_final","folder":"tf","game":"Team Fortress","app_id":440,"player_count":0,"max_players":24,"Bots":0,"server_type":"Dedicated","server_os":"Linux","password":true,"vac":true,"version":"7757534","steam_id":85568392925397958,"keywords":["cp","nocrits","nodmgspread","uncletopia"],"game_id":440,"stv_port":27046,"stv_name":"Uncletopia | Sydney | 4 | All Maps | STV","players":null},{"server_id":58,"name":"Uncletopia | Sydney | 5 | Stopwatch Beta","name_short":"syd-5","host":"syd-1.au.uncletopia.com","port":27055,"enabled":true,"region":"au","cc":"au","latitude":-33.865143,"longitude":151.2099,"reserved":0,"last_update":"0001-01-01T00:00:00Z","name_a2s":"Uncletopia | Sydney | 5 | Stopwatch Beta","protocol":17,"map":"koth_highpass","folder":"tf","game":"Team Fortress","app_id":440,"player_count":0,"max_players":24,"Bots":0,"server_type":"Dedicated","server_os":"Linux","password":true,"vac":true,"version":"7757534","steam_id":85568392925397959,"keywords":["cp","nocrits","nodmgspread","uncletopia"],"game_id":440,"stv_port":27056,"stv_name":"Uncletopia | Sydney | 5 | Stopwatch Beta | STV","players":null},{"server_id":59,"name":"Uncletopia | Sydney | 6 | Community","name_short":"syd-6","host":"syd-1.au.uncletopia.com","port":27065,"enabled":true,"region":"au","cc":"au","latitude":-33.865143,"longitude":151.2099,"reserved":0,"last_update":"0001-01-01T00:00:00Z","name_a2s":"Uncletopia | Sydney | 6 | Community","protocol":17,"map":"pl_badwater","folder":"tf","game":"Team Fortress","app_id":440,"player_count":0,"max_players":24,"Bots":0,"server_type":"Dedicated","server_os":"Linux","password":true,"vac":true,"version":"7757534","steam_id":85568392925397960,"keywords":["nocrits","nodmgspread","payload","uncletopia"],"game_id":440,"stv_port":27066,"stv_name":"Uncletopia | Sydney | 6 | Community | STV","players":null},{"server_id":49,"name":"Uncletopia | Warsaw | 1 | All Maps","name_short":"waw-1","host":"waw-1.pl.uncletopia.com","port":27015,"enabled":true,"region":"eu","cc":"pl","latitude":52.2297,"longitude":21.017532,"reserved":0,"last_update":"0001-01-01T00:00:00Z","name_a2s":"","protocol":0,"map":"","folder":"","game":"","app_id":0,"player_count":0,"max_players":0,"Bots":0,"server_type":"","server_os":"","password":false,"vac":false,"version":"","steam_id":0,"keywords":null,"game_id":0,"stv_port":0,"stv_name":"","players":null},{"server_id":50,"name":"Uncletopia | Warsaw | 2 | All Maps","name_short":"waw-2","host":"waw-1.pl.uncletopia.com","port":27025,"enabled":true,"region":"eu","cc":"pl","latitude":52.2297,"longitude":21.017532,"reserved":0,"last_update":"0001-01-01T00:00:00Z","name_a2s":"Uncletopia | Warsaw | 2 | All Maps","protocol":17,"map":"cp_altitude","folder":"tf","game":"Team Fortress","app_id":440,"player_count":0,"max_players":24,"Bots":0,"server_type":"Dedicated","server_os":"Linux","password":true,"vac":true,"version":"7757534","steam_id":85568392925397851,"keywords":["cp","nocrits","nodmgspread","uncletopia"],"game_id":440,"stv_port":27026,"stv_name":"Uncletopia | Warsaw | 2 | All Maps | STV","players":null},{"server_id":51,"name":"Uncletopia | Warsaw | 3 | All Maps","name_short":"waw-3","host":"waw-1.pl.uncletopia.com","port":27035,"enabled":true,"region":"eu","cc":"pl","latitude":52.2297,"longitude":21.017532,"reserved":0,"last_update":"0001-01-01T00:00:00Z","name_a2s":"Uncletopia | Warsaw | 3 | All Maps","protocol":17,"map":"koth_cascade","folder":"tf","game":"Team Fortress","app_id":440,"player_count":0,"max_players":24,"Bots":0,"server_type":"Dedicated","server_os":"Linux","password":true,"vac":true,"version":"7757534","steam_id":85568392925397852,"keywords":["cp","nocrits","nodmgspread","uncletopia"],"game_id":440,"stv_port":27036,"stv_name":"Uncletopia | Warsaw | 3 | All Maps | STV","players":null},{"server_id":52,"name":"Uncletopia | Warsaw | 4 | All Maps","name_short":"waw-4","host":"waw-1.pl.uncletopia.com","port":27045,"enabled":true,"region":"eu","cc":"pl","latitude":52.2297,"longitude":21.017532,"reserved":0,"last_update":"0001-01-01T00:00:00Z","name_a2s":"Uncletopia | Warsaw | 4 | All Maps","protocol":17,"map":"pl_upward","folder":"tf","game":"Team Fortress","app_id":440,"player_count":0,"max_players":24,"Bots":0,"server_type":"Dedicated","server_os":"Linux","password":true,"vac":true,"version":"7757534","steam_id":85568392925397853,"keywords":["nocrits","nodmgspread","payload","uncletopia"],"game_id":440,"stv_port":27046,"stv_name":"Uncletopia | Warsaw | 4 | All Maps | STV","players":null},{"server_id":53,"name":"Uncletopia | Warsaw | 5 | Stopwatch Beta","name_short":"waw-5","host":"waw-1.pl.uncletopia.com","port":27055,"enabled":true,"region":"eu","cc":"pl","latitude":52.2297,"longitude":21.017532,"reserved":0,"last_update":"0001-01-01T00:00:00Z","name_a2s":"Uncletopia | Warsaw | 5 | Stopwatch Beta","protocol":17,"map":"pl_pier","folder":"tf","game":"Team Fortress","app_id":440,"player_count":0,"max_players":24,"Bots":0,"server_type":"Dedicated","server_os":"Linux","password":true,"vac":true,"version":"7757534","steam_id":85568392925397854,"keywords":["nocrits","nodmgspread","payload","uncletopia"],"game_id":440,"stv_port":27056,"stv_name":"Uncletopia | Warsaw | 5 | Stopwatch Beta | STV","players":null},{"server_id":54,"name":"Uncletopia | Warsaw | 6 | Community","name_short":"waw-6","host":"waw-1.pl.uncletopia.com","port":27065,"enabled":true,"region":"eu","cc":"pl","latitude":52.2297,"longitude":21.017532,"reserved":0,"last_update":"0001-01-01T00:00:00Z","name_a2s":"Uncletopia | Warsaw | 6 | Community","protocol":17,"map":"koth_highpass","folder":"tf","game":"Team Fortress","app_id":440,"player_count":0,"max_players":24,"Bots":0,"server_type":"Dedicated","server_os":"Linux","password":true,"vac":true,"version":"7757534","steam_id":85568392925397856,"keywords":["cp","nocrits","nodmgspread","uncletopia"],"game_id":440,"stv_port":27066,"stv_name":"Uncletopia | Warsaw | 6 | Community | STV","players":null}]}