{"status":true,"message":"","result":[{"server_id":9,"name":"Uncletopia | Atlanta | 1 | All Maps","name_short":"atl-1","host":"atl-1.us.uncletopia.com","port":27015,"enabled":true,"region":"us-east","cc":"us","latitude":33.753746,"longitude":-84.38633,"reserved":0,"last_update":"0001-01-01T00:00:00Z","name_a2s":"Uncletopia | Atlanta | 1 | All Maps","protocol":17,"map":"pl_barnblitz","folder":"tf","game":"Team Fortress","app_id":440,"player_count":24,"max_players":24,"Bots":0,"server_type":"Dedicated","server_os":"Linux","password":true,"vac":true,"version":"7742253","steam_id":85568392924469982,"keywords":["nocrits","nodmgspread","payload","uncletopia"],"game_id":440,"stv_port":27016,"stv_name":"Uncletopia | Atlanta | 1 | All Maps | STV","players":[{"user_id":845,"name":"Soyboy Atheist Redditor","steam_id":76561198129768826,"connected_time":4332000000000,"state":"active","ping":71},{"user_id":863,"name":"Death Bird","steam_id":76561198041329791,"connected_time":1634000000000,"state":"active","ping":104},{"user_id":864,"name":"Daz","steam_id":76561198041431938,"connected_time":1585000000000,"state":"active","ping":71},{"user_id":846,"name":"Brock sturdy™","steam_id":76561198118428095,"connected_time":4330000000000,"state":"active","ping":80},{"user_id":847,"name":"noah","steam_id":76561198140305002,"connected_time":4267000000000,"state":"active","ping":88},{"user_id":812,"name":"Drygongames","steam_id":76561198250418424,"connected_time":8608000000000,"state":"active","ping":82},{"user_id":872,"name":"twitch.tv/Yoshi21 | TF2Pugs.com","steam_id":76561198002516729,"connected_time":1223000000000,"state":"active","ping":55},{"user_id":881,"name":"Ernst Mccock","steam_id":76561199146078665,"connected_time":73000000000,"state":"active","ping":155},{"user_id":873,"name":"Temperance","steam_id":76561198409307159,"connected_time":1210000000000,"state":"active","ping":109},{"user_id":866,"name":"trasgenjimain","steam_id":76561199118733489,"connected_time":1502000000000,"state":"active","ping":80},{"user_id":856,"name":"MayoMateo","steam_id":76561198360809933,"connected_time":2600000000000,"state":"active","ping":111},{"user_id":829,"name":"mos","steam_id":76561198146126212,"connected_time":6733000000000,"state":"active","ping":56},{"user_id":867,"name":"primordialheath","steam_id":76561199386942638,"connected_time":1500000000000,"state":"active","ping":77},{"user_id":858,"name":"maybe 3 brain cells","steam_id":76561198081282228,"connected_time":2552000000000,"state":"active","ping":75},{"user_id":882,"name":"Provocator","steam_id":76561197961830410,"connected_time":42000000000,"state":"active","ping":99},{"user_id":880,"name":"-","steam_id":76561198021308963,"connected_time":439000000000,"state":"active","ping":81},{"user_id":861,"name":"Fostrel","steam_id":76561198152160601,"connected_time":1716000000000,"state":"active","ping":77},{"user_id":883,"name":"Lanky Kong","steam_id":76561198142455488,"connected_time":38000000000,"state":"active","ping":97},{"user_id":884,"name":"Violet","steam_id":76561198055860134,"connected_time":19000000000,"state":"spawning","ping":62},{"user_id":860,"name":"Krellah","steam_id":76561198287045069,"connected_time":2463000000000,"state":"active","ping":75},{"user_id":822,"name":"Intro Bonito","steam_id":76561198119478838,"connected_time":8105000000000,"state":"active","ping":58},{"user_id":877,"name":"I have SNAIDS","steam_id":76561198300211898,"connected_time":715000000000,"state":"active","ping":170},{"user_id":875,"name":"small little tiny guy","steam_id":76561198116726318,"connected_time":732000000000,"state":"active","ping":79},{"user_id":876,"name":"AlexLovesYou","steam_id":76561199163263543,"connected_time":729000000000,"state":"active","ping":75}]},{"server_id":400,"name":"Uncletopia | Atlanta | 3 | Stopwatch Beta","name_short":"atl-3","host":"atl-1.us.uncletopia.com","port":27035,"enabled":true,"region":"us-east","cc":"us","latitude":33.753746,"longitude":-84.38633,"reserved":0,"last_update":"0001-01-01T00:00:00Z","name_a2s":"Uncletopia | Atlanta | 3 | Stopwatch Beta","protocol":17,"map":"pl_swiftwater_final1","folder":"tf","game":"Team Fortress","app_id":440,"player_count":0,"max_players":24,"Bots":0,"server_type":"Dedicated","server_os":"Linux","password":true,"vac":true,"version":"7742253","steam_id":85568392924515187,"keywords":["nocrits","nodmgspread","payload","uncletopia"],"game_id":440,"stv_port":27036,"stv_name":"Uncletopia | Atlanta | 3 | Stopwatch Beta | STV","players":null},{"server_id":401,"name":"Uncletopia | Atlanta | 4 | No Payload","name_short":"atl-4","host":"atl-1.us.uncletopia.com","port":27045,"enabled":true,"region":"us-east","cc":"us","latitude":33.753746,"longitude":-84.38633,"reserved":0,"last_update":"0001-01-01T00:00:00Z","name_a2s":"Uncletopia | Atlanta | 4 | No Payload","protocol":17,"map":"pl_pier","folder":"tf","game":"Team Fortress","app_id":440,"player_count":0,"max_players":24,"Bots":0,"server_type":"Dedicated","server_os":"Linux","password":true,"vac":true,"version":"7723704","steam_id":85568392924515188,"keywords":["nocrits","nodmgspread","payload","uncletopia"],"game_id":440,"stv_port":27046,"stv_name":"Uncletopia | Atlanta | 4 | No Payload | STV","players":null},{"server_id":2,"name":"Uncletopia | Chicago | 1 | All Maps","name_short":"chi-1","host":"chi-1.us.uncletopia.com","port":27015,"enabled":true,"region":"us-central","cc":"us","latitude":41.881832,"longitude":-87.62318,"reserved":0,"last_update":"0001-01-01T00:00:00Z","name_a2s":"Uncletopia | Chicago | 1 | All Maps","protocol":17,"map":"koth_highpass","folder":"tf","game":"Team Fortress","app_id":440,"player_count":0,"max_players":24,"Bots":0,"server_type":"Dedicated","server_os":"Linux","password":true,"vac":true,"version":"7742253","steam_id":85568392924469984,"keywords":["cp","nocrits","nodmgspread","uncletopia"],"game_id":440,"stv_port":27016,"stv_name":"Uncletopia | Chicago | 1 | All Maps | STV","players":null},{"server_id":106,"name":"Uncletopia | Chicago | 2 | All Maps","name_short":"chi-2","host":"chi-1.us.uncletopia.com","port":27025,"enabled":true,"region":"us-central","cc":"us","latitude":41.881832,"longitude":-87.62318,"reserved":0,"last_update":"0001-01-01T00:00:00Z","name_a2s":"Uncletopia | Chicago | 2 | All Maps","protocol":17,"map":"pl_wutville_event","folder":"tf","game":"Team Fortress","app_id":440,"player_count":24,"max_players":24,"Bots":0,"server_type":"Dedicated","server_os":"Linux","password":true,"vac":true,"version":"7742253","steam_id":85568392924469985,"keywords":["nocrits","nodmgspread","payload","uncletopia"],"game_id":440,"stv_port":27026,"stv_name":"Uncletopia | Chicago | 2 | All Maps | STV","players":[{"user_id":899,"name":"I am gonne boop your nose","steam_id":76561199142504017,"connected_time":350000000000,"state":"active","ping":155},{"user_id":802,"name":"loyaldandan0764","steam_id":76561199231020424,"connected_time":6891000000000,"state":"active","ping":120},{"user_id":900,"name":"u/unhinged_person","steam_id":76561198085839920,"connected_time":346000000000,"state":"active","ping":82},{"user_id":873,"name":"-Rλ҉inyCloudCore","steam_id":76561198028799685,"connected_time":2146000000000,"state":"active","ping":74},{"user_id":846,"name":"Pisser12434","steam_id":76561198835144780,"connected_time":4218000000000,"state":"active","ping":68},{"user_id":901,"name":"astrosexy","steam_id":76561198116908911,"connected_time":336000000000,"state":"active","ping":72},{"user_id":888,"name":"Cave Dweller","steam_id":76561198374825685,"connected_time":1234000000000,"state":"active","ping":118},{"user_id":891,"name":"ratboy","steam_id":76561198087649133,"connected_time":992000000000,"state":"active","ping":56},{"user_id":865,"name":"Why","steam_id":76561198839450224,"connected_time":2487000000000,"state":"active","ping":118},{"user_id":887,"name":"Yakul","steam_id":76561198100040013,"connected_time":1384000000000,"state":"active","ping":88},{"user_id":892,"name":"debin","steam_id":76561198070711217,"connected_time":513000000000,"state":"active","ping":46},{"user_id":848,"name":"Dang","steam_id":76561198288874083,"connected_time":4055000000000,"state":"active","ping":126},{"user_id":903,"name":"Ye ( I Love Caulk ) West","steam_id":76561198068830312,"connected_time":229000000000,"state":"active","ping":45},{"user_id":898,"name":"CPUnit","steam_id":76561198162881878,"connected_time":404000000000,"state":"active","ping":83},{"user_id":905,"name":"Elegant Ejaculation","steam_id":76561198014190878,"connected_time":129000000000,"state":"active","ping":105},{"user_id":889,"name":"the cow from 2fort","steam_id":76561198435910422,"connected_time":1157000000000,"state":"active","ping":89},{"user_id":902,"name":"Stealing Your WiFi","steam_id":76561197999963686,"connected_time":296000000000,"state":"active","ping":59},{"user_id":713,"name":"DeckofDragons","steam_id":76561198057398213,"connected_time":14205000000000,"state":"active","ping":66},{"user_id":886,"name":"Spag Hekki","steam_id":76561198207579353,"connected_time":1394000000000,"state":"active","ping":82},{"user_id":877,"name":"Riske","steam_id":76561198115840568,"connected_time":2011000000000,"state":"active","ping":71},{"user_id":904,"name":"Froggen","steam_id":76561198834259026,"connected_time":194000000000,"state":"active","ping":74},{"user_id":842,"name":"the \"prawn\" bay","steam_id":76561198075544930,"connected_time":4642000000000,"state":"active","ping":91},{"user_id":881,"name":"Jon Snuh","steam_id":76561198075298635,"connected_time":1921000000000,"state":"active","ping":57},{"user_id":882,"name":"caption cool","steam_id":76561197990612056,"connected_time":1915000000000,"state":"active","ping":44}]},{"server_id":402,"name":"Uncletopia | Chicago | 3 | All Maps","name_short":"chi-3","host":"chi-1.us.uncletopia.com","port":27035,"enabled":true,"region":"us-central","cc":"us","latitude":41.881832,"longitude":-87.62318,"reserved":0,"last_update":"0001-01-01T00:00:00Z","name_a2s":"Uncletopia | Chicago | 3 | All Maps","protocol":17,"map":"cp_process_final","folder":"tf","game":"Team Fortress","app_id":440,"player_count":0,"max_players":24,"Bots":0,"server_type":"Dedicated","server_os":"Linux","password":true,"vac":true,"version":"7742253","steam_id":85568392924515191,"keywords":["cp","nocrits","nodmgspread","uncletopia"],"game_id":440,"stv_port":27036,"stv_name":"Uncletopia | Chicago | 3 | All Maps | STV","players":null},{"server_id":403,"name":"Uncletopia | Chicago | 4 | All Maps","name_short":"chi-4","host":"chi-1.us.uncletopia.com","port":27045,"enabled":true,"region":"us-central","cc":"us","latitude":41.881832,"longitude":-87.62318,"reserved":0,"last_update":"0001-01-01T00:00:00Z","name_a2s":"Uncletopia | Chicago | 4 | All Maps","protocol":17,"map":"koth_lakeside_final","folder":"tf","game":"Team Fortress","app_id":440,"player_count":0,"max_players":24,"Bots":0,"server_type":"Dedicated","server_os":"Linux","password":true,"vac":true,"version":"7742253","steam_id":85568392924515193,"keywords":["cp","nocrits","nodmgspread","uncletopia"],"game_id":440,"stv_port":27046,"stv_name":"Uncletopia | Chicago | 4 | All Maps | STV","players":null},{"server_id":36,"name":"Uncletopia | Chicago | 5 | All Maps","name_short":"chi-5","host":"chi-2.us.uncletopia.com","port":27015,"enabled":true,"region":"us-central","cc":"us","latitude":41.881832,"longitude":-87.62318,"reserved":0,"last_update":"0001-01-01T00:00:00Z","name_a2s":"Uncletopia | Chicago | 5 | All Maps","protocol":17,"map":"koth_cascade","folder":"tf","game":"Team Fortress","app_id":440,"player_count":0,"max_players":24,"Bots":0,"server_type":"Dedicated","server_os":"Linux","password":true,"vac":true,"version":"7742253","steam_id":85568392924866362,"keywords":["cp","nocrits","nodmgspread","uncletopia"],"game_id":440,"stv_port":27016,"stv_name":"Uncletopia | Chicago | 5 | All Maps | STV","players":null},{"server_id":37,"name":"Uncletopia | Chicago | 6 | All Maps","name_short":"chi-6","host":"chi-2.us.uncletopia.com","port":27025,"enabled":true,"region":"us-central","cc":"us","latitude":41.881832,"longitude":-87.62318,"reserved":0,"last_update":"0001-01-01T00:00:00Z","name_a2s":"Uncletopia | Chicago | 6 | All Maps","protocol":17,"map":"cp_altitude","folder":"tf","game":"Team Fortress","app_id":440,"player_count":0,"max_players":24,"Bots":0,"server_type":"Dedicated","server_os":"Linux","password":true,"vac":true,"version":"7742253","steam_id":85568392924866363,"keywords":["cp","nocrits","nodmgspread","uncletopia"],"game_id":440,"stv_port":27026,"stv_name":"Uncletopia | Chicago | 6 | All Maps | STV","players":null},{"server_id":38,"name":"Uncletopia | Chicago | 7 | Stopwatch Beta","name_short":"chi-7","host":"chi-2.us.uncletopia.com","port":27035,"enabled":true,"region":"us-central","cc":"us","latitude":41.881832,"longitude":-87.62318,"reserved":0,"last_update":"0001-01-01T00:00:00Z","name_a2s":"Uncletopia | Chicago | 7 | Stopwatch Beta","protocol":17,"map":"workshop/pl_vigil_rc9.ugc1266210012","folder":"tf","game":"Team Fortress","app_id":440,"player_count":0,"max_players":24,"Bots":0,"server_type":"Dedicated","server_os":"Linux","password":true,"vac":true,"version":"7742253","steam_id":85568392924866364,"keywords":["nocrits","nodmgspread","payload","uncletopia"],"game_id":440,"stv_port":27036,"stv_name":"Uncletopia | Chicago | 7 | Stopwatch Beta | STV","players":null},{"server_id":39,"name":"Uncletopia | Chicago | 8 | Community","name_short":"chi-8","host":"chi-2.us.uncletopia.com","port":27045,"enabled":true,"region":"us-central","cc":"us","latitude":41.881832,"longitude":-87.62318,"reserved":0,"last_update":"0001-01-01T00:00:00Z","name_a2s":"Uncletopia | Chicago | 8 | Community","protocol":17,"map":"workshop/pl_barnblitz_pro7.ugc582280235","folder":"tf","game":"Team Fortress","app_id":440,"player_count":0,"max_players":24,"Bots":0,"server_type":"Dedicated","server_os":"Linux","password":true,"vac":true,"version":"7742253","steam_id":85568392924866365,"keywords":["nocrits","nodmgspread","payload","uncletopia"],"game_id":440,"stv_port":27046,"stv_name":"Uncletopia | Chicago | 8 | Community | STV","players":null},{"server_id":8,"name":"Uncletopia | Dallas | 1 | All Maps","name_short":"dal-1","host":"dal-1.us.uncletopia.com","port":27015,"enabled":true,"region":"us-central","cc":"us","latitude":32.779167,"longitude":-96.80889,"reserved":0,"last_update":"0001-01-01T00:00:00Z","name_a2s":"Uncletopia | Dallas | 1 | All Maps","protocol":17,"map":"pl_upward","folder":"tf","game":"Team Fortress","app_id":440,"player_count":21,"max_players":24,"Bots":0,"server_type":"Dedicated","server_os":"Linux","password":true,"vac":true,"version":"7742253","steam_id":85568392924469986,"keywords":["nocrits","nodmgspread","payload","uncletopia"],"game_id":440,"stv_port":27016,"stv_name":"Uncletopia | Dallas | 1 | All Maps | STV","players":[{"user_id":938,"name":"SuperBurgerBoy","steam_id":76561198856387197,"connected_time":3695000000000,"state":"active","ping":75},{"user_id":959,"name":"Moppo","steam_id":76561198398328018,"connected_time":2479000000000,"state":"active","ping":38},{"user_id":966,"name":"FemboyNate","steam_id":76561198146636410,"connected_time":416000000000,"state":"active","ping":77},{"user_id":940,"name":"Meh but good","steam_id":76561199005772246,"connected_time":3625000000000,"state":"active","ping":70},{"user_id":942,"name":"FiddyFoMike","steam_id":76561198057072581,"connected_time":3494000000000,"state":"active","ping":79},{"user_id":943,"name":"NavyPizza13","steam_id":76561198149638735,"connected_time":3472000000000,"state":"active","ping":46},{"user_id":970,"name":"ScaredyCat","steam_id":76561198799338137,"connected_time":177000000000,"state":"active","ping":78},{"user_id":932,"name":"Linakas","steam_id":76561198299757435,"connected_time":4291000000000,"state":"active","ping":169},{"user_id":971,"name":"BodaChola","steam_id":76561198074089567,"connected_time":118000000000,"state":"active","ping":42},{"user_id":964,"name":"Riff","steam_id":76561198066921423,"connected_time":484000000000,"state":"active","ping":59},{"user_id":956,"name":"kermitcreeper(ZAZA)","steam_id":76561199222829972,"connected_time":2502000000000,"state":"active","ping":60},{"user_id":955,"name":"Drinkable Milk","steam_id":76561199418706430,"connected_time":2842000000000,"state":"active","ping":53},{"user_id":972,"name":"HarqObispal","steam_id":76561197963907351,"connected_time":11000000000,"state":"spawning","ping":118},{"user_id":945,"name":"Killroy NQP ❤","steam_id":76561198006983771,"connected_time":3391000000000,"state":"active","ping":76},{"user_id":963,"name":"Ricardo M. M.","steam_id":76561199226017223,"connected_time":1488000000000,"state":"active","ping":80},{"user_id":952,"name":"Catzs","steam_id":76561197996013572,"connected_time":3073000000000,"state":"active","ping":61},{"user_id":872,"name":"Ap1hw","steam_id":76561199122883466,"connected_time":9836000000000,"state":"active","ping":50},{"user_id":961,"name":"☆ShinyMew112","steam_id":76561198042820161,"connected_time":2054000000000,"state":"active","ping":87},{"user_id":950,"name":"peepeeroni","steam_id":76561198382877812,"connected_time":3234000000000,"state":"active","ping":46},{"user_id":951,"name":"6sonny1-_-","steam_id":76561198085318028,"connected_time":3182000000000,"state":"active","ping":71},{"user_id":953,"name":"Doesn't Care","steam_id":76561198047419014,"connected_time":3059000000000,"state":"active","ping":76}]},{"server_id":108,"name":"Uncletopia | Dallas | 2 | All Maps","name_short":"dal-2","host":"dal-1.us.uncletopia.com","port":27025,"enabled":true,"region":"us-central","cc":"us","latitude":32.779167,"longitude":-96.80889,"reserved":0,"last_update":"0001-01-01T00:00:00Z","name_a2s":"Uncletopia | Dallas | 2 | All Maps","protocol":17,"map":"cp_sunshine","folder":"tf","game":"Team Fortress","app_id":440,"player_count":0,"max_players":24,"Bots":0,"server_type":"Dedicated","server_os":"Linux","password":true,"vac":true,"version":"7742253","steam_id":85568392924469988,"keywords":["cp","nocrits","nodmgspread","uncletopia"],"game_id":440,"stv_port":27026,"stv_name":"Uncletopia | Dallas | 2 | All Maps | STV","players":null},{"server_id":5,"name":"Uncletopia | Frankfurt | 1 | All Maps","name_short":"frk-1","host":"frk-1.de.uncletopia.com","port":27015,"enabled":true,"region":"eu","cc":"de","latitude":50.110924,"longitude":8.682127,"reserved":0,"last_update":"0001-01-01T00:00:00Z","name_a2s":"Uncletopia | Frankfurt | 1 | All Maps","protocol":17,"map":"pl_barnblitz","folder":"tf","game":"Team Fortress","app_id":440,"player_count":0,"max_players":24,"Bots":0,"server_type":"Dedicated","server_os":"Linux","password":true,"vac":true,"version":"7742253","steam_id":85568392924469989,"keywords":["nocrits","nodmgspread","payload","uncletopia"],"game_id":440,"stv_port":27016,"stv_name":"Uncletopia | Frankfurt | 1 | All Maps | STV","players":null},{"server_id":110,"name":"Uncletopia | Frankfurt | 2 | All Maps","name_short":"frk-2","host":"frk-1.de.uncletopia.com","port":27025,"enabled":true,"region":"eu","cc":"de","latitude":50.110924,"longitude":8.682127,"reserved":0,"last_update":"0001-01-01T00:00:00Z","name_a2s":"Uncletopia | Frankfurt | 2 | All Maps","protocol":17,"map":"pl_upward","folder":"tf","game":"Team Fortress","app_id":440,"player_count":0,"max_players":24,"Bots":0,"server_type":"Dedicated","server_os":"Linux","password":true,"vac":true,"version":"7742253","steam_id":85568392924469990,"keywords":["nocrits","nodmgspread","payload","uncletopia"],"game_id":440,"stv_port":27026,"stv_name":"Uncletopia | Frankfurt | 2 | All Maps | STV","players":null},{"server_id":308,"name":"Uncletopia | Frankfurt | 3 | All Maps","name_short":"frk-3","host":"frk-1.de.uncletopia.com","port":27035,"enabled":true,"region":"eu","cc":"de","latitude":50.110924,"longitude":8.682127,"reserved":0,"last_update":"0001-01-01T00:00:00Z","name_a2s":"Uncletopia | Frankfurt | 3 | All Maps","protocol":17,"map":"koth_viaduct","folder":"tf","game":"Team Fortress","app_id":440,"player_count":0,"max_players":24,"Bots":0,"server_type":"Dedicated","server_os":"Linux","password":true,"vac":true,"version":"7742253","steam_id":85568392924504274,"keywords":["cp","nocrits","nodmgspread","uncletopia"],"game_id":440,"stv_port":27036,"stv_name":"Uncletopia | Frankfurt | 3 | All Maps | STV","players":null},{"server_id":309,"name":"Uncletopia | Frankfurt | 4 | All Maps","name_short":"frk-4","host":"frk-1.de.uncletopia.com","port":27045,"enabled":true,"region":"eu","cc":"de","latitude":50.110924,"longitude":8.682127,"reserved":0,"last_update":"0001-01-01T00:00:00Z","name_a2s":"Uncletopia | Frankfurt | 4 | All Maps","protocol":17,"map":"pl_frontier_final","folder":"tf","game":"Team Fortress","app_id":440,"player_count":0,"max_players":24,"Bots":0,"server_type":"Dedicated","server_os":"Linux","password":true,"vac":true,"version":"7742253","steam_id":85568392924504275,"keywords":["nocrits","nodmgspread","payload","uncletopia"],"game_id":440,"stv_port":27046,"stv_name":"Uncletopia | Frankfurt | 4 | All Maps | STV","players":null},{"server_id":310,"name":"Uncletopia | Frankfurt | 5 | All Maps","name_short":"frk-5","host":"frk-1.de.uncletopia.com","port":27055,"enabled":true,"region":"eu","cc":"de","latitude":50.110924,"longitude":8.682127,"reserved":0,"last_update":"0001-01-01T00:00:00Z","name_a2s":"Uncletopia | Frankfurt | 5 | All Maps","protocol":17,"map":"cp_sunshine","folder":"tf","game":"Team Fortress","app_id":440,"player_count":0,"max_players":24,"Bots":0,"server_type":"Dedicated","server_os":"Linux","password":true,"vac":true,"version":"7742253","steam_id":85568392924504277,"keywords":["cp","nocrits","nodmgspread","uncletopia"],"game_id":440,"stv_port":27056,"stv_name":"Uncletopia | Frankfurt | 5 | All Maps | STV","players":null},{"server_id":311,"name":"Uncletopia | Frankfurt | 6 | All Maps","name_short":"frk-6","host":"frk-1.de.uncletopia.com","port":27065,"enabled":true,"region":"eu","cc":"de","latitude":50.110924,"longitude":8.682127,"reserved":0,"last_update":"0001-01-01T00:00:00Z","name_a2s":"Uncletopia | Frankfurt | 6 | All Maps","protocol":17,"map":"pl_frontier_final","folder":"tf","game":"Team Fortress","app_id":440,"player_count":0,"max_players":24,"Bots":0,"server_type":"Dedicated","server_os":"Linux","password":true,"vac":true,"version":"7742253","steam_id":85568392924504278,"keywords":["nocrits","nodmgspread","payload","uncletopia"],"game_id":440,"stv_port":27066,"stv_name":"Uncletopia | Frankfurt | 6 | All Maps | STV","players":null},{"server_id":23,"name":"Uncletopia | Frankfurt | 7 | Stopwatch Beta","name_short":"frk-7","host":"frk-1.de.uncletopia.com","port":27075,"enabled":true,"region":"eu","cc":"de","latitude":50.110924,"longitude":8.682127,"reserved":0,"last_update":"0001-01-01T00:00:00Z","name_a2s":"Uncletopia | Frankfurt | 7 | Stopwatch Beta","protocol":17,"map":"koth_lakeside_final","folder":"tf","game":"Team Fortress","app_id":440,"player_count":0,"max_players":24,"Bots":0,"server_type":"Dedicated","server_os":"Linux","password":true,"vac":true,"version":"7742253","steam_id":85568392924742827,"keywords":["cp","nocrits","nodmgspread","uncletopia"],"game_id":440,"stv_port":27076,"stv_name":"Uncletopia | Frankfurt | 7 | Stopwatch Beta | STV","players":null},{"server_id":24,"name":"Uncletopia | Frankfurt | 8 | Community","name_short":"frk-8","host":"frk-1.de.uncletopia.com","port":27085,"enabled":true,"region":"eu","cc":"de","latitude":50.110924,"longitude":8.682127,"reserved":0,"last_update":"0001-01-01T00:00:00Z","name_a2s":"Uncletopia | Frankfurt | 8 | Community","protocol":17,"map":"workshop/koth_slaughter_rc1.ugc1712845210","folder":"tf","game":"Team Fortress","app_id":440,"player_count":0,"max_players":24,"Bots":0,"server_type":"Dedicated","server_os":"Linux","password":true,"vac":true,"version":"7742253","steam_id":85568392924742828,"keywords":["cp","nocrits","nodmgspread","uncletopia"],"game_id":440,"stv_port":27086,"stv_name":"Uncletopia | Frankfurt | 8 | Community | STV","players":null},{"server_id":202,"name":"Uncletopia | Hong Kong | 1 | All Maps","name_short":"hgk-1","host":"hgk-1.hk.uncletopia.com","port":27015,"enabled":true,"region":"asia","cc":"hk","latitude":22.302711,"longitude":114.177216,"reserved":0,"last_update":"0001-01-01T00:00:00Z","name_a2s":"Uncletopia | Hong Kong | 1 | All Maps","protocol":17,"map":"pl_upward","folder":"tf","game":"Team Fortress","app_id":440,"player_count":24,"max_players":24,"Bots":0,"server_type":"Dedicated","server_os":"Linux","password":true,"vac":true,"version":"7742253","steam_id":85568392924494504,"keywords":["nocrits","nodmgspread","payload","uncletopia"],"game_id":440,"stv_port":27016,"stv_name":"Uncletopia | Hong Kong | 1 | All Maps | STV","players":[{"user_id":222,"name":"brizzard","steam_id":76561198048438653,"connected_time":4135000000000,"state":"active","ping":47},{"user_id":250,"name":"Milk❤ (most loved guy in ut)","steam_id":76561198163911560,"connected_time":2206000000000,"state":"active","ping":82},{"user_id":263,"name":"Wakiiiz","steam_id":76561198850134590,"connected_time":662000000000,"state":"active","ping":57},{"user_id":231,"name":"ahni","steam_id":76561198312155049,"connected_time":3725000000000,"state":"active","ping":92},{"user_id":216,"name":"kpopbobo","steam_id":76561198352372705,"connected_time":4918000000000,"state":"active","ping":117},{"user_id":248,"name":"weerez","steam_id":76561198405393811,"connected_time":2244000000000,"state":"active","ping":126},{"user_id":244,"name":"r/leroy","steam_id":76561199137927625,"connected_time":2388000000000,"state":"active","ping":105},{"user_id":254,"name":"KHMaster","steam_id":76561199198453345,"connected_time":1986000000000,"state":"active","ping":57},{"user_id":226,"name":"spinach hero","steam_id":76561198042539541,"connected_time":3940000000000,"state":"active","ping":82},{"user_id":264,"name":"Marika","steam_id":76561198212649929,"connected_time":377000000000,"state":"active","ping":90},{"user_id":251,"name":"LudE","steam_id":76561198828840546,"connected_time":2189000000000,"state":"active","ping":68},{"user_id":259,"name":"lolwhat","steam_id":76561199387628765,"connected_time":1588000000000,"state":"active","ping":76},{"user_id":256,"name":"LazyGuyEythan","steam_id":76561198100007906,"connected_time":1736000000000,"state":"active","ping":61},{"user_id":28,"name":"Bertengkar","steam_id":76561198213031155,"connected_time":23618000000000,"state":"active","ping":101},{"user_id":261,"name":"silversol","steam_id":76561198004570036,"connected_time":932000000000,"state":"active","ping":94},{"user_id":242,"name":",","steam_id":76561198413116920,"connected_time":2498000000000,"state":"active","ping":102},{"user_id":145,"name":"Vortex Morez","steam_id":76561198833527091,"connected_time":12410000000000,"state":"active","ping":90},{"user_id":67,"name":"Noyour","steam_id":76561198323259830,"connected_time":20408000000000,"state":"active","ping":112},{"user_id":265,"name":"Cá Tháng 4","steam_id":76561198047162026,"connected_time":85000000000,"state":"active","ping":80},{"user_id":70,"name":"Windmill","steam_id":76561199230997986,"connected_time":20203000000000,"state":"active","ping":82},{"user_id":253,"name":"DUDE","steam_id":76561198017159562,"connected_time":2116000000000,"state":"active","ping":67},{"user_id":247,"name":"Jimi Hen-Dicks Excrements","steam_id":76561198826565047,"connected_time":2304000000000,"state":"active","ping":83},{"user_id":106,"name":"Urotsuki","steam_id":76561198074339034,"connected_time":15852000000000,"state":"active","ping":75},{"user_id":174,"name":"LOLGAL","steam_id":76561198347418251,"connected_time":10486000000000,"state":"active","ping":71}]},{"server_id":1,"name":"Uncletopia | Los Angeles | 1 | All Maps","name_short":"lax-1","host":"lax-1.us.uncletopia.com","port":27015,"enabled":true,"region":"us-west","cc":"us","latitude":33.94279,"longitude":-118.41004,"reserved":0,"last_update":"0001-01-01T00:00:00Z","name_a2s":"Uncletopia | Los Angeles | 1 | All Maps","protocol":17,"map":"pl_upward","folder":"tf","game":"Team Fortress","app_id":440,"player_count":24,"max_players":24,"Bots":0,"server_type":"Dedicated","server_os":"Linux","password":true,"vac":true,"version":"7742253","steam_id":85568392924469991,"keywords":["nocrits","nodmgspread","payload","uncletopia"],"game_id":440,"stv_port":27016,"stv_name":"Uncletopia | Los Angeles | 1 | All Maps | STV","players":[{"user_id":671,"name":"sweaterfan","steam_id":76561199389567214,"connected_time":885000000000,"state":"active","ping":91},{"user_id":655,"name":"Senior Sir","steam_id":76561198065150807,"connected_time":1795000000000,"state":"active","ping":55},{"user_id":677,"name":"Joeybubu","steam_id":76561198069511080,"connected_time":198000000000,"state":"active","ping":42},{"user_id":627,"name":"VerSaKa","steam_id":76561198052392540,"connected_time":3772000000000,"state":"active","ping":105},{"user_id":659,"name":"CatLike Pigeon","steam_id":76561198171716030,"connected_time":1659000000000,"state":"active","ping":75},{"user_id":678,"name":"Meckduh","steam_id":76561198260563799,"connected_time":190000000000,"state":"active","ping":64},{"user_id":666,"name":"arcadia","steam_id":76561198143312969,"connected_time":1361000000000,"state":"active","ping":67},{"user_id":661,"name":"Tmiracle","steam_id":76561198052375275,"connected_time":1632000000000,"state":"active","ping":42},{"user_id":637,"name":"RMBL","steam_id":76561198150137369,"connected_time":3264000000000,"state":"active","ping":52},{"user_id":629,"name":"herp derp ☕","steam_id":76561198047646956,"connected_time":3703000000000,"state":"active","ping":68},{"user_id":656,"name":"ExplosiveGamer21","steam_id":76561198132370955,"connected_time":1782000000000,"state":"active","ping":67},{"user_id":679,"name":"resh","steam_id":76561198239598834,"connected_time":169000000000,"state":"active","ping":111},{"user_id":607,"name":"bo scrungulus","steam_id":76561198038036122,"connected_time":5340000000000,"state":"active","ping":75},{"user_id":657,"name":"hamdrinker985","steam_id":76561199241807676,"connected_time":1766000000000,"state":"active","ping":90},{"user_id":611,"name":"Schnitz","steam_id":76561198265484253,"connected_time":5240000000000,"state":"active","ping":58},{"user_id":676,"name":"Possibly a Nazi","steam_id":76561198114055744,"connected_time":291000000000,"state":"active","ping":71},{"user_id":681,"name":"yrvindell -tV","steam_id":76561198243237656,"connected_time":94000000000,"state":"active","ping":41},{"user_id":674,"name":"Dipshit McGee","steam_id":76561198044381982,"connected_time":510000000000,"state":"active","ping":90},{"user_id":632,"name":"Eth","steam_id":76561198147881701,"connected_time":3664000000000,"state":"active","ping":59},{"user_id":680,"name":"namaste at home dad","steam_id":76561198056971063,"connected_time":139000000000,"state":"active","ping":90},{"user_id":664,"name":"Murk Wahlberg","steam_id":76561198131467867,"connected_time":1576000000000,"state":"active","ping":45},{"user_id":633,"name":"Sour Biscuit","steam_id":76561198239467502,"connected_time":3654000000000,"state":"active","ping":66},{"user_id":617,"name":"kebo","steam_id":76561198237159430,"connected_time":4533000000000,"state":"active","ping":53},{"user_id":669,"name":"Jolly Old Asshat","steam_id":76561198004584315,"connected_time":1082000000000,"state":"active","ping":102}]},{"server_id":112,"name":"Uncletopia | Los Angeles | 2 | All Maps","name_short":"lax-2","host":"lax-1.us.uncletopia.com","port":27025,"enabled":true,"region":"us-west","cc":"us","latitude":33.94279,"longitude":-118.41004,"reserved":0,"last_update":"0001-01-01T00:00:00Z","name_a2s":"Uncletopia | Los Angeles | 2 | All Maps","protocol":17,"map":"cp_dustbowl","folder":"tf","game":"Team Fortress","app_id":440,"player_count":4,"max_players":24,"Bots":0,"server_type":"Dedicated","server_os":"Linux","password":true,"vac":true,"version":"7742253","steam_id":85568392924469992,"keywords":["cp","nocrits","nodmgspread","uncletopia"],"game_id":440,"stv_port":27026,"stv_name":"Uncletopia | Los Angeles | 2 | All Maps | STV","players":[{"user_id":20,"name":"potownperuzzer","steam_id":76561199123308715,"connected_time":3748000000000,"state":"active","ping":54},{"user_id":21,"name":"what_makes_me_a_good_demoman","steam_id":76561199455842239,"connected_time":3722000000000,"state":"active","ping":48},{"user_id":22,"name":"dead","steam_id":76561199225461206,"connected_time":3686000000000,"state":"active","ping":50},{"user_id":28,"name":"LeTonzy","steam_id":76561198005806699,"connected_time":288000000000,"state":"active","ping":51}]},{"server_id":324,"name":"Uncletopia | Los Angeles | 3 | All Maps","name_short":"lax-3","host":"lax-1.us.uncletopia.com","port":27035,"enabled":true,"region":"us-west","cc":"us","latitude":33.94279,"longitude":-118.41004,"reserved":0,"last_update":"0001-01-01T00:00:00Z","name_a2s":"Uncletopia | Los Angeles | 3 | All Maps","protocol":17,"map":"cp_mountainlab","folder":"tf","game":"Team Fortress","app_id":440,"player_count":0,"max_players":24,"Bots":0,"server_type":"Dedicated","server_os":"Linux","password":true,"vac":true,"version":"7742253","steam_id":85568392924510198,"keywords":["cp","nocrits","nodmgspread","uncletopia"],"game_id":440,"stv_port":27036,"stv_name":"Uncletopia | Los Angeles | 3 | All Maps | STV","players":null},{"server_id":25,"name":"Uncletopia | Los Angeles | 4 | Stopwatch Beta","name_short":"lax-4","host":"lax-1.us.uncletopia.com","port":27045,"enabled":true,"region":"us-west","cc":"us","latitude":33.94279,"longitude":-118.41004,"reserved":0,"last_update":"0001-01-01T00:00:00Z","name_a2s":"Uncletopia | Los Angeles | 4 | Stopwatch Beta","protocol":17,"map":"cp_process_final","folder":"tf","game":"Team Fortress","app_id":440,"player_count":0,"max_players":24,"Bots":0,"server_type":"Dedicated","server_os":"Linux","password":true,"vac":true,"version":"7742253","steam_id":85568392924510199,"keywords":["cp","nocrits","nodmgspread","uncletopia"],"game_id":440,"stv_port":27046,"stv_name":"Uncletopia | Los Angeles | 4 | Stopwatch Beta | STV","players":null},{"server_id":11,"name":"Uncletopia | London | 1 | All Maps","name_short":"lon-1","host":"lon-1.uk.uncletopia.com","port":27015,"enabled":true,"region":"eu","cc":"gb","latitude":51.509865,"longitude":-0.118092,"reserved":0,"last_update":"0001-01-01T00:00:00Z","name_a2s":"Uncletopia | London | 1 | All Maps","protocol":17,"map":"pl_badwater","folder":"tf","game":"Team Fortress","app_id":440,"player_count":24,"max_players":24,"Bots":0,"server_type":"Dedicated","server_os":"Linux","password":true,"vac":true,"version":"7742253","steam_id":85568392924367362,"keywords":["nocrits","nodmgspread","payload","uncletopia"],"game_id":440,"stv_port":27016,"stv_name":"Uncletopia | London | 1 | All Maps | STV","players":[{"user_id":88,"name":"jaime8D","steam_id":76561197980590671,"connected_time":1666000000000,"state":"active","ping":90},{"user_id":96,"name":"clover","steam_id":76561199225397974,"connected_time":1040000000000,"state":"active","ping":110},{"user_id":102,"name":"Ghost","steam_id":76561198110914180,"connected_time":602000000000,"state":"active","ping":99},{"user_id":93,"name":"BOT","steam_id":76561198061851006,"connected_time":1248000000000,"state":"active","ping":75},{"user_id":106,"name":"bAdmon","steam_id":76561197961785793,"connected_time":27000000000,"state":"active","ping":48},{"user_id":17,"name":"MONKEYBOYXD","steam_id":76561198156224952,"connected_time":7289000000000,"state":"active","ping":30},{"user_id":89,"name":"Andreus","steam_id":76561199403926001,"connected_time":1515000000000,"state":"active","ping":76},{"user_id":94,"name":"Val23","steam_id":76561198099480715,"connected_time":1064000000000,"state":"active","ping":54},{"user_id":95,"name":"ultralow B\u003ekeys1.8$","steam_id":76561197982127154,"connected_time":1052000000000,"state":"active","ping":59},{"user_id":33,"name":"|==[шприц]\u003e--- RAMA","steam_id":76561198040423618,"connected_time":5635000000000,"state":"active","ping":72},{"user_id":79,"name":"Pingutaro","steam_id":76561198112803718,"connected_time":2295000000000,"state":"active","ping":49},{"user_id":97,"name":"JeanCorben","steam_id":76561197965133561,"connected_time":1036000000000,"state":"active","ping":40},{"user_id":67,"name":"Festive KoolMeester","steam_id":76561198105165847,"connected_time":3422000000000,"state":"active","ping":50},{"user_id":59,"name":"say cheese ;P","steam_id":76561198076219289,"connected_time":4137000000000,"state":"active","ping":46},{"user_id":108,"name":"stinkyeseses","steam_id":76561198402218127,"connected_time":7000000000,"state":"spawning","ping":110},{"user_id":100,"name":"PyroHam","steam_id":76561198206285837,"connected_time":866000000000,"state":"active","ping":74},{"user_id":57,"name":"inserting iain","steam_id":76561198046873337,"connected_time":4319000000000,"state":"active","ping":48},{"user_id":99,"name":"Nestor Makhno","steam_id":76561198963841479,"connected_time":918000000000,"state":"active","ping":93},{"user_id":109,"name":"leminsc8","steam_id":76561198825084995,"connected_time":5000000000,"state":"spawning","ping":59},{"user_id":81,"name":"Alin","steam_id":76561198059679991,"connected_time":2247000000000,"state":"active","ping":87},{"user_id":85,"name":"K.V. #RemoveRandomCrits","steam_id":76561197994832993,"connected_time":1944000000000,"state":"active","ping":75},{"user_id":87,"name":".::[SerafeTTiN]::.","steam_id":76561198009471724,"connected_time":1853000000000,"state":"active","ping":96},{"user_id":92,"name":"Hey, I´m Andy!","steam_id":76561198060337777,"connected_time":1281000000000,"state":"active","ping":73},{"user_id":104,"name":"honshu","steam_id":76561198102211716,"connected_time":386000000000,"state":"active","ping":68}]},{"server_id":114,"name":"Uncletopia | London | 2 | All Maps","name_short":"lon-2","host":"lon-1.uk.uncletopia.com","port":27025,"enabled":true,"region":"eu","cc":"gb","latitude":51.509865,"longitude":-0.118092,"reserved":0,"last_update":"0001-01-01T00:00:00Z","name_a2s":"Uncletopia | London | 2 | All Maps","protocol":17,"map":"cp_altitude","folder":"tf","game":"Team Fortress","app_id":440,"player_count":0,"max_players":24,"Bots":0,"server_type":"Dedicated","server_os":"Linux","password":true,"vac":true,"version":"7742253","steam_id":85568392924470941,"keywords":["cp","nocrits","nodmgspread","uncletopia"],"game_id":440,"stv_port":27026,"stv_name":"Uncletopia | London | 2 | All Maps | STV","players":null},{"server_id":320,"name":"Uncletopia | London | 3 | All Maps","name_short":"lon-3","host":"lon-1.uk.uncletopia.com","port":27035,"enabled":true,"region":"eu","cc":"gb","latitude":51.509865,"longitude":-0.118092,"reserved":0,"last_update":"0001-01-01T00:00:00Z","name_a2s":"Uncletopia | London | 3 | All Maps","protocol":17,"map":"pl_borneo","folder":"tf","game":"Team Fortress","app_id":440,"player_count":0,"max_players":24,"Bots":0,"server_type":"Dedicated","server_os":"Linux","password":true,"vac":true,"version":"7742253","steam_id":85568392924510192,"keywords":["nocrits","nodmgspread","payload","uncletopia"],"game_id":440,"stv_port":27036,"stv_name":"Uncletopia | London | 3 | All Maps | STV","players":null},{"server_id":321,"name":"Uncletopia | London | 4 | All Maps","name_short":"lon-4","host":"lon-1.uk.uncletopia.com","port":27045,"enabled":true,"region":"eu","cc":"gb","latitude":51.509865,"longitude":-0.118092,"reserved":0,"last_update":"0001-01-01T00:00:00Z","name_a2s":"Uncletopia | London | 4 | All Maps","protocol":17,"map":"pl_borneo","folder":"tf","game":"Team Fortress","app_id":440,"player_count":0,"max_players":24,"Bots":0,"server_type":"Dedicated","server_os":"Linux","password":true,"vac":true,"version":"7742253","steam_id":85568392924510193,"keywords":["nocrits","nodmgspread","payload","uncletopia"],"game_id":440,"stv_port":27046,"stv_name":"Uncletopia | London | 4 | All Maps | STV","players":null},{"server_id":21,"name":"Uncletopia | London | 5 | All Maps","name_short":"lon-5","host":"lon-1.uk.uncletopia.com","port":27055,"enabled":true,"region":"eu","cc":"gb","latitude":51.509865,"longitude":-0.118092,"reserved":0,"last_update":"0001-01-01T00:00:00Z","name_a2s":"Uncletopia | London | 5 | All Maps","protocol":17,"map":"koth_cascade","folder":"tf","game":"Team Fortress","app_id":440,"player_count":0,"max_players":24,"Bots":0,"server_type":"Dedicated","server_os":"Linux","password":true,"vac":true,"version":"7742253","steam_id":85568392924742829,"keywords":["cp","nocrits","nodmgspread","uncletopia"],"game_id":440,"stv_port":27056,"stv_name":"Uncletopia | London | 5 | All Maps | STV","players":null},{"server_id":22,"name":"Uncletopia | London | 6 | All Maps","name_short":"lon-6","host":"lon-1.uk.uncletopia.com","port":27065,"enabled":true,"region":"eu","cc":"gb","latitude":51.509865,"longitude":-0.118092,"reserved":0,"last_update":"0001-01-01T00:00:00Z","name_a2s":"Uncletopia | London | 6 | All Maps","protocol":17,"map":"pl_badwater","folder":"tf","game":"Team Fortress","app_id":440,"player_count":0,"max_players":24,"Bots":0,"server_type":"Dedicated","server_os":"Linux","password":true,"vac":true,"version":"7742253","steam_id":85568392924742830,"keywords":["nocrits","nodmgspread","payload","uncletopia"],"game_id":440,"stv_port":27066,"stv_name":"Uncletopia | London | 6 | All Maps | STV","players":null},{"server_id":40,"name":"Uncletopia | London | 7 | No Payload","name_short":"lon-7","host":"lon-1.uk.uncletopia.com","port":27075,"enabled":true,"region":"eu","cc":"gb","latitude":51.509865,"longitude":-0.118092,"reserved":0,"last_update":"0001-01-01T00:00:00Z","name_a2s":"Uncletopia | London | 7 | No Payload","protocol":17,"map":"pl_borneo","folder":"tf","game":"Team Fortress","app_id":440,"player_count":0,"max_players":24,"Bots":0,"server_type":"Dedicated","server_os":"Linux","password":true,"vac":true,"version":"7742253","steam_id":85568392924964314,"keywords":["nocrits","nodmgspread","payload","uncletopia"],"game_id":440,"stv_port":27076,"stv_name":"Uncletopia | London | 7 | No Payload | STV","players":null},{"server_id":41,"name":"Uncletopia | London | 8 | Community","name_short":"lon-8","host":"lon-1.uk.uncletopia.com","port":27085,"enabled":true,"region":"eu","cc":"gb","latitude":51.509865,"longitude":-0.118092,"reserved":0,"last_update":"0001-01-01T00:00:00Z","name_a2s":"Uncletopia | London | 8 | Community","protocol":17,"map":"cp_process_final","folder":"tf","game":"Team Fortress","app_id":440,"player_count":0,"max_players":24,"Bots":0,"server_type":"Dedicated","server_os":"Linux","password":true,"vac":true,"version":"7742253","steam_id":85568392924964315,"keywords":["cp","nocrits","nodmgspread","uncletopia"],"game_id":440,"stv_port":27086,"stv_name":"Uncletopia | London | 8 | Community | STV","players":null},{"server_id":300,"name":"Uncletopia | Montréal | 1 | All Maps","name_short":"mtl-1","host":"mtl-1.ca.uncletopia.com","port":27015,"enabled":true,"region":"us-east","cc":"ca","latitude":45.50889,"longitude":-73.56167,"reserved":0,"last_update":"0001-01-01T00:00:00Z","name_a2s":"Uncletopia | Montréal | 1 | All Maps","protocol":17,"map":"koth_cascade","folder":"tf","game":"Team Fortress","app_id":440,"player_count":0,"max_players":24,"Bots":0,"server_type":"Dedicated","server_os":"Linux","password":true,"vac":true,"version":"7742253","steam_id":85568392924500087,"keywords":["cp","nocrits","nodmgspread","uncletopia"],"game_id":440,"stv_port":27016,"stv_name":"Uncletopia | Montréal | 1 | All Maps | STV","players":null},{"server_id":301,"name":"Uncletopia | Montréal | 2 | All Maps","name_short":"mtl-2","host":"mtl-1.ca.uncletopia.com","port":27025,"enabled":true,"region":"us-east","cc":"ca","latitude":45.50889,"longitude":-73.56167,"reserved":0,"last_update":"0001-01-01T00:00:00Z","name_a2s":"Uncletopia | Montréal | 2 | All Maps","protocol":17,"map":"koth_lakeside_final","folder":"tf","game":"Team Fortress","app_id":440,"player_count":0,"max_players":24,"Bots":0,"server_type":"Dedicated","server_os":"Linux","password":true,"vac":true,"version":"7742253","steam_id":85568392924500088,"keywords":["cp","nocrits","nodmgspread","uncletopia"],"game_id":440,"stv_port":27026,"stv_name":"Uncletopia | Montréal | 2 | All Maps | STV","players":null},{"server_id":302,"name":"Uncletopia | Montréal | 3 | All Maps","name_short":"mtl-3","host":"mtl-1.ca.uncletopia.com","port":27035,"enabled":true,"region":"us-east","cc":"ca","latitude":45.50889,"longitude":-73.56167,"reserved":0,"last_update":"0001-01-01T00:00:00Z","name_a2s":"Uncletopia | Montréal | 3 | All Maps","protocol":17,"map":"cp_altitude","folder":"tf","game":"Team Fortress","app_id":440,"player_count":0,"max_players":24,"Bots":0,"server_type":"Dedicated","server_os":"Linux","password":true,"vac":true,"version":"7742253","steam_id":85568392924500089,"keywords":["cp","nocrits","nodmgspread","uncletopia"],"game_id":440,"stv_port":27036,"stv_name":"Uncletopia | Montréal | 3 | All Maps | STV","players":null},{"server_id":303,"name":"Uncletopia | Montréal | 4 | No Payload","name_short":"mtl-4","host":"mtl-1.ca.uncletopia.com","port":27045,"enabled":true,"region":"us-east","cc":"ca","latitude":45.50889,"longitude":-73.56167,"reserved":0,"last_update":"0001-01-01T00:00:00Z","name_a2s":"Uncletopia | Montréal | 4 | No Payload","protocol":17,"map":"koth_sawmill","folder":"tf","game":"Team Fortress","app_id":440,"player_count":0,"max_players":24,"Bots":0,"server_type":"Dedicated","server_os":"Linux","password":true,"vac":true,"version":"7742253","steam_id":85568392924500090,"keywords":["cp","nocrits","nodmgspread","uncletopia"],"game_id":440,"stv_port":27046,"stv_name":"Uncletopia | Montréal | 4 | No Payload | STV","players":null},{"server_id":13,"name":"Uncletopia | New York City | 1 | All Maps","name_short":"nyc-1","host":"nyc-1.us.uncletopia.com","port":27015,"enabled":true,"region":"us-east","cc":"us","latitude":40.73061,"longitude":-73.93524,"reserved":0,"last_update":"0001-01-01T00:00:00Z","name_a2s":"Uncletopia | New York City | 1 | All Maps","protocol":17,"map":"cp_snakewater_final1","folder":"tf","game":"Team Fortress","app_id":440,"player_count":0,"max_players":24,"Bots":0,"server_type":"Dedicated","server_os":"Linux","password":true,"vac":true,"version":"7742253","steam_id":85568392924469993,"keywords":["cp","nocrits","nodmgspread","uncletopia"],"game_id":440,"stv_port":27016,"stv_name":"Uncletopia | New York City | 1 | All Maps | STV","players":null},{"server_id":14,"name":"Uncletopia | New York City | 2 | All Maps","name_short":"nyc-2","host":"nyc-1.us.uncletopia.com","port":27025,"enabled":true,"region":"us-east","cc":"us","latitude":40.73061,"longitude":-73.93524,"reserved":0,"last_update":"0001-01-01T00:00:00Z","name_a2s":"Uncletopia | New York City | 2 | All Maps","protocol":17,"map":"koth_lakeside_final","folder":"tf","game":"Team Fortress","app_id":440,"player_count":0,"max_players":24,"Bots":0,"server_type":"Dedicated","server_os":"Linux","password":true,"vac":true,"version":"7742253","steam_id":85568392924469994,"keywords":["cp","nocrits","nodmgspread","uncletopia"],"game_id":440,"stv_port":27026,"stv_name":"Uncletopia | New York City | 2 | All Maps | STV","players":null},{"server_id":15,"name":"Uncletopia | New York City | 3 | Stopwatch Beta","name_short":"nyc-3","host":"nyc-1.us.uncletopia.com","port":27035,"enabled":true,"region":"us-east","cc":"us","latitude":40.73061,"longitude":-73.93524,"reserved":0,"last_update":"0001-01-01T00:00:00Z","name_a2s":"Uncletopia | New York City | 3 | Stopwatch Beta","protocol":17,"map":"cp_altitude","folder":"tf","game":"Team Fortress","app_id":440,"player_count":0,"max_players":24,"Bots":0,"server_type":"Dedicated","server_os":"Linux","password":true,"vac":true,"version":"7742253","steam_id":85568392924742820,"keywords":["cp","nocrits","nodmgspread","uncletopia"],"game_id":440,"stv_port":27036,"stv_name":"Uncletopia | New York City | 3 | Stopwatch Beta | STV","players":null},{"server_id":16,"name":"Uncletopia | New York City | 4 | Community","name_short":"nyc-4","host":"nyc-1.us.uncletopia.com","port":27045,"enabled":true,"region":"us-east","cc":"us","latitude":40.73061,"longitude":-73.93524,"reserved":0,"last_update":"0001-01-01T00:00:00Z","name_a2s":"Uncletopia | New York City | 4 | Community","protocol":17,"map":"pl_barnblitz","folder":"tf","game":"Team Fortress","app_id":440,"player_count":0,"max_players":24,"Bots":0,"server_type":"Dedicated","server_os":"Linux","password":true,"vac":true,"version":"7742253","steam_id":85568392924742821,"keywords":["nocrits","nodmgspread","payload","uncletopia"],"game_id":440,"stv_port":27046,"stv_name":"Uncletopia | New York City | 4 | Community | STV","players":null},{"server_id":142,"name":"Uncletopia | São Paulo | 1 | All Maps","name_short":"sao-1","host":"sao-1.br.uncletopia.com","port":27015,"enabled":true,"region":"sa","cc":"br","latitude":-23.533773,"longitude":-46.62529,"reserved":0,"last_update":"0001-01-01T00:00:00Z","name_a2s":"Uncletopia | São Paulo | 1 | All Maps","protocol":17,"map":"koth_lakeside_final","folder":"tf","game":"Team Fortress","app_id":440,"player_count":0,"max_players":24,"Bots":0,"server_type":"Dedicated","server_os":"Linux","password":true,"vac":true,"version":"7742253","steam_id":85568392924469996,"keywords":["cp","nocrits","nodmgspread","uncletopia"],"game_id":440,"stv_port":27016,"stv_name":"Uncletopia | São Paulo | 1 | All Maps | STV","players":null},{"server_id":143,"name":"Uncletopia | São Paulo | 2 | All Maps","name_short":"sao-2","host":"sao-2.br.uncletopia.com","port":27015,"enabled":true,"region":"sa","cc":"br","latitude":-23.533773,"longitude":-46.62529,"reserved":0,"last_update":"0001-01-01T00:00:00Z","name_a2s":"Uncletopia | São Paulo | 2 | All Maps","protocol":17,"map":"koth_cascade","folder":"tf","game":"Team Fortress","app_id":440,"player_count":0,"max_players":24,"Bots":0,"server_type":"Dedicated","server_os":"Linux","password":true,"vac":true,"version":"7742253","steam_id":85568392924485349,"keywords":["cp","nocrits","nodmgspread","uncletopia"],"game_id":440,"stv_port":27016,"stv_name":"Uncletopia | São Paulo | 2 | All Maps | STV","players":null},{"server_id":7,"name":"Uncletopia | Seattle | 1 | All Maps","name_short":"sea-1","host":"sea-1.us.uncletopia.com","port":27015,"enabled":true,"region":"us-west","cc":"us","latitude":47.608013,"longitude":-122.33517,"reserved":0,"last_update":"0001-01-01T00:00:00Z","name_a2s":"Uncletopia | Seattle | 1 | All Maps","protocol":17,"map":"pl_frontier_final","folder":"tf","game":"Team Fortress","app_id":440,"player_count":24,"max_players":24,"Bots":0,"server_type":"Dedicated","server_os":"Linux","password":true,"vac":true,"version":"7742253","steam_id":85568392924469997,"keywords":["nocrits","nodmgspread","payload","uncletopia"],"game_id":440,"stv_port":27016,"stv_name":"Uncletopia | Seattle | 1 | All Maps | STV","players":[{"user_id":935,"name":"Big Meaty Frogs","steam_id":76561198068328470,"connected_time":4480000000000,"state":"active","ping":71},{"user_id":951,"name":"Sweets","steam_id":76561198998446307,"connected_time":3137000000000,"state":"active","ping":63},{"user_id":970,"name":"Joseph \"Biden\" Stalin","steam_id":76561198213863907,"connected_time":786000000000,"state":"active","ping":92},{"user_id":966,"name":"Arsonist Goose","steam_id":76561198147441830,"connected_time":904000000000,"state":"active","ping":78},{"user_id":974,"name":"mean penguin","steam_id":76561198174751517,"connected_time":519000000000,"state":"active","ping":84},{"user_id":955,"name":"Jimmy Kimmel","steam_id":76561198108044200,"connected_time":2796000000000,"state":"active","ping":128},{"user_id":976,"name":"Cranberry Juice","steam_id":76561199279368124,"connected_time":468000000000,"state":"active","ping":92},{"user_id":946,"name":"Speve Bobs","steam_id":76561198349908268,"connected_time":4142000000000,"state":"active","ping":67},{"user_id":956,"name":"Luca","steam_id":76561198125087140,"connected_time":2752000000000,"state":"active","ping":50},{"user_id":964,"name":"jimothy","steam_id":76561198982248872,"connected_time":1815000000000,"state":"active","ping":123},{"user_id":940,"name":"Wrenchek","steam_id":76561198076358645,"connected_time":4333000000000,"state":"active","ping":86},{"user_id":941,"name":"Sad Sapling","steam_id":76561198075612150,"connected_time":4289000000000,"state":"active","ping":87},{"user_id":972,"name":"schalldämpfer","steam_id":76561198178303726,"connected_time":557000000000,"state":"active","ping":119},{"user_id":980,"name":"PirateJet","steam_id":76561198050858744,"connected_time":314000000000,"state":"active","ping":91},{"user_id":977,"name":"KILLDIEGO","steam_id":76561198295113883,"connected_time":426000000000,"state":"active","ping":89},{"user_id":981,"name":"lol","steam_id":76561198026491738,"connected_time":271000000000,"state":"active","ping":89},{"user_id":979,"name":"Officer Sqwibblez","steam_id":76561198206305508,"connected_time":354000000000,"state":"active","ping":117},{"user_id":960,"name":"Zee❤","steam_id":76561198274550638,"connected_time":2659000000000,"state":"active","ping":111},{"user_id":927,"name":"Dank Hill","steam_id":76561198081194839,"connected_time":5215000000000,"state":"active","ping":63},{"user_id":868,"name":"ScrwVwls","steam_id":76561198013483199,"connected_time":7783000000000,"state":"active","ping":56},{"user_id":962,"name":"Stressmelo","steam_id":76561199204445185,"connected_time":2616000000000,"state":"active","ping":125},{"user_id":918,"name":"exephur","steam_id":76561198135763234,"connected_time":5809000000000,"state":"active","ping":68},{"user_id":968,"name":"Fgtfv567","steam_id":76561198071022525,"connected_time":882000000000,"state":"active","ping":72},{"user_id":950,"name":"Grill Skills","steam_id":76561198053575147,"connected_time":3292000000000,"state":"active","ping":65}]},{"server_id":119,"name":"Uncletopia | Seattle | 2 | All Maps","name_short":"sea-2","host":"sea-1.us.uncletopia.com","port":27025,"enabled":true,"region":"us-west","cc":"us","latitude":47.608013,"longitude":-122.33517,"reserved":0,"last_update":"0001-01-01T00:00:00Z","name_a2s":"Uncletopia | Seattle | 2 | All Maps","protocol":17,"map":"pl_upward","folder":"tf","game":"Team Fortress","app_id":440,"player_count":24,"max_players":24,"Bots":0,"server_type":"Dedicated","server_os":"Linux","password":true,"vac":true,"version":"7742253","steam_id":85568392924469998,"keywords":["nocrits","nodmgspread","payload","uncletopia"],"game_id":440,"stv_port":27026,"stv_name":"Uncletopia | Seattle | 2 | All Maps | STV","players":[{"user_id":714,"name":"a homeless cat","steam_id":76561198058388903,"connected_time":131000000000,"state":"active","ping":48},{"user_id":681,"name":"Seriously Bruh","steam_id":76561198070408485,"connected_time":3668000000000,"state":"active","ping":61},{"user_id":704,"name":"cracky","steam_id":76561197971365444,"connected_time":1141000000000,"state":"active","ping":46},{"user_id":697,"name":"MFIN HOG CRANKER","steam_id":76561198046073848,"connected_time":2309000000000,"state":"active","ping":46},{"user_id":705,"name":"O bez","steam_id":76561198841579939,"connected_time":1103000000000,"state":"active","ping":89},{"user_id":613,"name":"Van","steam_id":76561198073518712,"connected_time":8732000000000,"state":"active","ping":54},{"user_id":715,"name":"76561198010335843","steam_id":76561198010335843,"connected_time":101000000000,"state":"active","ping":73},{"user_id":713,"name":"NomadRobinson","steam_id":76561198066202573,"connected_time":778000000000,"state":"active","ping":64},{"user_id":698,"name":"Slave Knight","steam_id":76561198062593355,"connected_time":2232000000000,"state":"active","ping":73},{"user_id":706,"name":"MF","steam_id":76561199439734314,"connected_time":1086000000000,"state":"active","ping":88},{"user_id":699,"name":"Battery Ram","steam_id":76561198010899357,"connected_time":2225000000000,"state":"active","ping":68},{"user_id":716,"name":"Tuna","steam_id":76561198129907971,"connected_time":89000000000,"state":"active","ping":90},{"user_id":653,"name":"goldhed","steam_id":76561198051751133,"connected_time":5316000000000,"state":"active","ping":55},{"user_id":667,"name":"Lightworker","steam_id":76561198063949642,"connected_time":4532000000000,"state":"active","ping":45},{"user_id":689,"name":"SmallErection","steam_id":76561198071770147,"connected_time":3303000000000,"state":"active","ping":60},{"user_id":691,"name":"Terribad","steam_id":76561198120844785,"connected_time":3273000000000,"state":"active","ping":91},{"user_id":703,"name":"Tomato Soup","steam_id":76561198051834684,"connected_time":1534000000000,"state":"active","ping":62},{"user_id":708,"name":"_hi_","steam_id":76561198065339248,"connected_time":1003000000000,"state":"active","ping":61},{"user_id":641,"name":"smeasly","steam_id":76561198028718812,"connected_time":6587000000000,"state":"active","ping":44},{"user_id":717,"name":"victordead121","steam_id":76561199180843121,"connected_time":53000000000,"state":"active","ping":121},{"user_id":663,"name":"King PBJames","steam_id":76561197988610306,"connected_time":4631000000000,"state":"active","ping":36},{"user_id":710,"name":"Fedno Darc","steam_id":76561198035721088,"connected_time":974000000000,"state":"active","ping":69},{"user_id":679,"name":"Steven ☭","steam_id":76561197999653804,"connected_time":3808000000000,"state":"active","ping":55},{"user_id":711,"name":"DonJamón","steam_id":76561198319090131,"connected_time":937000000000,"state":"active","ping":75}]},{"server_id":406,"name":"Uncletopia | Seattle | 3 | Stopwatch Beta","name_short":"sea-3","host":"sea-1.us.uncletopia.com","port":27035,"enabled":true,"region":"us-west","cc":"us","latitude":47.608013,"longitude":-122.33517,"reserved":0,"last_update":"0001-01-01T00:00:00Z","name_a2s":"Uncletopia | Seattle | 3 | Stopwatch Beta","protocol":17,"map":"pl_upward","folder":"tf","game":"Team Fortress","app_id":440,"player_count":0,"max_players":24,"Bots":0,"server_type":"Dedicated","server_os":"Linux","password":true,"vac":false,"version":"7742253","steam_id":0,"keywords":["nocrits","nodmgspread","payload","uncletopia"],"game_id":440,"stv_port":27036,"stv_name":"Uncletopia | Seattle | 3 | Stopwatch Beta | STV","players":null},{"server_id":17,"name":"Uncletopia | San Francisco | 1 | All Maps","name_short":"sfo-1","host":"sfo-1.us.uncletopia.com","port":27015,"enabled":true,"region":"us-west","cc":"us","latitude":37.77397,"longitude":-122.4313,"reserved":0,"last_update":"0001-01-01T00:00:00Z","name_a2s":"Uncletopia | San Francisco | 1 | All Maps","protocol":17,"map":"koth_highpass","folder":"tf","game":"Team Fortress","app_id":440,"player_count":0,"max_players":24,"Bots":0,"server_type":"Dedicated","server_os":"Linux","password":true,"vac":true,"version":"7742253","steam_id":85568392924469999,"keywords":["cp","nocrits","nodmgspread","uncletopia"],"game_id":440,"stv_port":27016,"stv_name":"Uncletopia | San Francisco | 1 | All Maps | STV","players":null},{"server_id":18,"name":"Uncletopia | San Francisco | 2 | All Maps","name_short":"sfo-2","host":"sfo-1.us.uncletopia.com","port":27025,"enabled":true,"region":"us-west","cc":"us","latitude":37.77397,"longitude":-122.4313,"reserved":0,"last_update":"0001-01-01T00:00:00Z","name_a2s":"Uncletopia | San Francisco | 2 | All Maps","protocol":17,"map":"koth_viaduct","folder":"tf","game":"Team Fortress","app_id":440,"player_count":0,"max_players":24,"Bots":0,"server_type":"Dedicated","server_os":"Linux","password":true,"vac":true,"version":"7742253","steam_id":85568392924470000,"keywords":["cp","nocrits","nodmgspread","uncletopia"],"game_id":440,"stv_port":27026,"stv_name":"Uncletopia | San Francisco | 2 | All Maps | STV","players":null},{"server_id":19,"name":"Uncletopia | San Francisco | 3 | Stopwatch Beta","name_short":"sfo-3","host":"sfo-1.us.uncletopia.com","port":27035,"enabled":true,"region":"us-west","cc":"us","latitude":37.77397,"longitude":-122.4313,"reserved":0,"last_update":"0001-01-01T00:00:00Z","name_a2s":"Uncletopia | San Francisco | 3 | Stopwatch Beta","protocol":17,"map":"cp_snakewater_final1","folder":"tf","game":"Team Fortress","app_id":440,"player_count":0,"max_players":24,"Bots":0,"server_type":"Dedicated","server_os":"Linux","password":true,"vac":true,"version":"7742253","steam_id":85568392924742824,"keywords":["cp","nocrits","nodmgspread","uncletopia"],"game_id":440,"stv_port":27036,"stv_name":"Uncletopia | San Francisco | 3 | Stopwatch Beta | STV","players":null},{"server_id":20,"name":"Uncletopia | San Francisco | 4 | Community","name_short":"sfo-4","host":"sfo-1.us.uncletopia.com","port":27045,"enabled":true,"region":"us-west","cc":"us","latitude":37.77397,"longitude":-122.4313,"reserved":0,"last_update":"0001-01-01T00:00:00Z","name_a2s":"Uncletopia | San Francisco | 4 | Community","protocol":17,"map":"workshop/koth_ashville_final.ugc2130459942","folder":"tf","game":"Team Fortress","app_id":440,"player_count":0,"max_players":24,"Bots":0,"server_type":"Dedicated","server_os":"Linux","password":true,"vac":true,"version":"7742253","steam_id":85568392924742826,"keywords":["cp","nocrits","nodmgspread","uncletopia"],"game_id":440,"stv_port":27046,"stv_name":"Uncletopia | San Francisco | 4 | Community | STV","players":null},{"server_id":141,"name":"Uncletopia | Sydney | 1 | All Maps","name_short":"syd-1","host":"syd-1.au.uncletopia.com","port":27015,"enabled":true,"region":"au","cc":"au","latitude":-33.865143,"longitude":151.2099,"reserved":0,"last_update":"0001-01-01T00:00:00Z","name_a2s":"Uncletopia | Sydney | 1 | All Maps","protocol":17,"map":"pl_upward","folder":"tf","game":"Team Fortress","app_id":440,"player_count":24,"max_players":24,"Bots":0,"server_type":"Dedicated","server_os":"Linux","password":true,"vac":true,"version":"7742253","steam_id":85568392924470001,"keywords":["nocrits","nodmgspread","payload","uncletopia"],"game_id":440,"stv_port":27016,"stv_name":"Uncletopia | Sydney | 1 | All Maps | STV","players":[{"user_id":156,"name":"LeoJoeD","steam_id":76561198161848749,"connected_time":2127000000000,"state":"active","ping":95},{"user_id":144,"name":"Paula","steam_id":76561198010688399,"connected_time":3073000000000,"state":"active","ping":71},{"user_id":172,"name":"Tee","steam_id":76561198167322000,"connected_time":151000000000,"state":"active","ping":46},{"user_id":106,"name":"IamDinosaur","steam_id":76561198081540507,"connected_time":6136000000000,"state":"active","ping":64},{"user_id":158,"name":"Diavolo Diablo","steam_id":76561198166295333,"connected_time":1927000000000,"state":"active","ping":164},{"user_id":139,"name":"Dr Barry Mundy PhD","steam_id":76561198034512686,"connected_time":3366000000000,"state":"active","ping":30},{"user_id":145,"name":"Emerald the Snake","steam_id":76561199013344853,"connected_time":3040000000000,"state":"active","ping":55},{"user_id":174,"name":"William","steam_id":76561198043300035,"connected_time":77000000000,"state":"active","ping":45},{"user_id":141,"name":"combee pokemon","steam_id":76561199099744527,"connected_time":3218000000000,"state":"active","ping":45},{"user_id":94,"name":"Flak","steam_id":76561198205833232,"connected_time":7227000000000,"state":"active","ping":49},{"user_id":159,"name":"peel p50 stutututututututututut","steam_id":76561198116420804,"connected_time":1883000000000,"state":"active","ping":53},{"user_id":171,"name":"Floppy","steam_id":76561198296769665,"connected_time":182000000000,"state":"active","ping":65},{"user_id":127,"name":"blicky","steam_id":76561198029829077,"connected_time":4771000000000,"state":"active","ping":91},{"user_id":165,"name":"RocketsPrime","steam_id":76561198134936002,"connected_time":1646000000000,"state":"active","ping":52},{"user_id":160,"name":"Mohammed Handjop","steam_id":76561198142023589,"connected_time":1881000000000,"state":"active","ping":82},{"user_id":161,"name":"Genuline","steam_id":76561198126426787,"connected_time":1821000000000,"state":"active","ping":47},{"user_id":162,"name":"LightningBlock","steam_id":76561198289997742,"connected_time":1804000000000,"state":"active","ping":33},{"user_id":163,"name":"lemur","steam_id":76561198278239170,"connected_time":1797000000000,"state":"active","ping":83},{"user_id":147,"name":"tinkaton from pokemon gen 9 UU","steam_id":76561198079345240,"connected_time":3029000000000,"state":"active","ping":63},{"user_id":166,"name":"Wake'n'Bake'n'Make'n'Bacon","steam_id":76561198061960926,"connected_time":1570000000000,"state":"active","ping":97},{"user_id":170,"name":"Pellagra","steam_id":76561198072383513,"connected_time":460000000000,"state":"active","ping":42},{"user_id":148,"name":"york","steam_id":76561197996817216,"connected_time":3025000000000,"state":"active","ping":45},{"user_id":136,"name":"4-Star Yelp Review","steam_id":76561197995258180,"connected_time":4047000000000,"state":"active","ping":50},{"user_id":149,"name":"Bigrichard","steam_id":76561198032092945,"connected_time":2625000000000,"state":"active","ping":75}]},{"server_id":123,"name":"Uncletopia | Sydney | 2 | All Maps","name_short":"syd-2","host":"syd-1.au.uncletopia.com","port":27025,"enabled":true,"region":"au","cc":"au","latitude":-33.865143,"longitude":151.2099,"reserved":0,"last_update":"0001-01-01T00:00:00Z","name_a2s":"Uncletopia | Sydney | 2 | All Maps","protocol":17,"map":"koth_lakeside_final","folder":"tf","game":"Team Fortress","app_id":440,"player_count":0,"max_players":24,"Bots":0,"server_type":"Dedicated","server_os":"Linux","password":true,"vac":true,"version":"7742253","steam_id":85568392924470002,"keywords":["cp","nocrits","nodmgspread","uncletopia"],"game_id":440,"stv_port":27026,"stv_name":"Uncletopia | Sydney | 2 | All Maps | STV","players":null},{"server_id":395,"name":"Uncletopia | Sydney | 3 | All Maps","name_short":"syd-3","host":"syd-1.au.uncletopia.com","port":27035,"enabled":true,"region":"au","cc":"au","latitude":-33.865143,"longitude":151.2099,"reserved":0,"last_update":"0001-01-01T00:00:00Z","name_a2s":"Uncletopia | Sydney | 3 | All Maps","protocol":17,"map":"koth_lakeside_final","folder":"tf","game":"Team Fortress","app_id":440,"player_count":0,"max_players":24,"Bots":0,"server_type":"Dedicated","server_os":"Linux","password":true,"vac":true,"version":"7742253","steam_id":85568392925194467,"keywords":["cp","nocrits","nodmgspread","uncletopia"],"game_id":440,"stv_port":27036,"stv_name":"Uncletopia | Sydney | 3 | All Maps | STV","players":null},{"server_id":396,"name":"Uncletopia | Sydney | 4 | All Maps","name_short":"syd-4","host":"syd-1.au.uncletopia.com","port":27045,"enabled":true,"region":"au","cc":"au","latitude":-33.865143,"longitude":151.2099,"reserved":0,"last_update":"0001-01-01T00:00:00Z","name_a2s":"Uncletopia | Sydney | 4 | All Maps","protocol":17,"map":"koth_viaduct","folder":"tf","game":"Team Fortress","app_id":440,"player_count":0,"max_players":24,"Bots":0,"server_type":"Dedicated","server_os":"Linux","password":true,"vac":true,"version":"7742253","steam_id":85568392925397958,"keywords":["cp","nocrits","nodmgspread","uncletopia"],"game_id":440,"stv_port":27046,"stv_name":"Uncletopia | Sydney | 4 | All Maps | STV","players":null},{"server_id":58,"name":"Uncletopia | Sydney | 5 | Stopwatch Beta","name_short":"syd-5","host":"syd-1.au.uncletopia.com","port":27055,"enabled":true,"region":"au","cc":"au","latitude":-33.865143,"longitude":151.2099,"reserved":0,"last_update":"0001-01-01T00:00:00Z","name_a2s":"Uncletopia | Sydney | 5 | Stopwatch Beta","protocol":17,"map":"cp_snakewater_final1","folder":"tf","game":"Team Fortress","app_id":440,"player_count":0,"max_players":24,"Bots":0,"server_type":"Dedicated","server_os":"Linux","password":true,"vac":true,"version":"7742253","steam_id":85568392925397959,"keywords":["cp","nocrits","nodmgspread","uncletopia"],"game_id":440,"stv_port":27056,"stv_name":"Uncletopia | Sydney | 5 | Stopwatch Beta | STV","players":null},{"server_id":59,"name":"Uncletopia | Sydney | 6 | Community","name_short":"syd-6","host":"syd-1.au.uncletopia.com","port":27065,"enabled":true,"region":"au","cc":"au","latitude":-33.865143,"longitude":151.2099,"reserved":0,"last_update":"0001-01-01T00:00:00Z","name_a2s":"Uncletopia | Sydney | 6 | Community","protocol":17,"map":"workshop/koth_product_final.ugc454272353","folder":"tf","game":"Team Fortress","app_id":440,"player_count":0,"max_players":24,"Bots":0,"server_type":"Dedicated","server_os":"Linux","password":true,"vac":true,"version":"7742253","steam_id":85568392925397960,"keywords":["cp","nocrits","nodmgspread","uncletopia"],"game_id":440,"stv_port":27066,"stv_name":"Uncletopia | Sydney | 6 | Community | STV","players":null},{"server_id":49,"name":"Uncletopia | Warsaw | 1 | All Maps","name_short":"waw-1","host":"waw-1.pl.uncletopia.com","port":27015,"enabled":true,"region":"eu","cc":"pl","latitude":52.2297,"longitude":21.017532,"reserved":0,"last_update":"0001-01-01T00:00:00Z","name_a2s":"","protocol":0,"map":"","folder":"","game":"","app_id":0,"player_count":0,"max_players":0,"Bots":0,"server_type":"","server_os":"","password":false,"vac":false,"version":"","steam_id":0,"keywords":null,"game_id":0,"stv_port":0,"stv_name":"","players":null},{"server_id":50,"name":"Uncletopia | Warsaw | 2 | All Maps","name_short":"waw-2","host":"waw-1.pl.uncletopia.com","port":27025,"enabled":true,"region":"eu","cc":"pl","latitude":52.2297,"longitude":21.017532,"reserved":0,"last_update":"0001-01-01T00:00:00Z","name_a2s":"Uncletopia | Warsaw | 2 | All Maps","protocol":17,"map":"pl_frontier_final","folder":"tf","game":"Team Fortress","app_id":440,"player_count":0,"max_players":24,"Bots":0,"server_type":"Dedicated","server_os":"Linux","password":true,"vac":true,"version":"7742253","steam_id":85568392925397851,"keywords":["nocrits","nodmgspread","payload","uncletopia"],"game_id":440,"stv_port":27026,"stv_name":"Uncletopia | Warsaw | 2 | All Maps | STV","players":null},{"server_id":51,"name":"Uncletopia | Warsaw | 3 | All Maps","name_short":"waw-3","host":"waw-1.pl.uncletopia.com","port":27035,"enabled":true,"region":"eu","cc":"pl","latitude":52.2297,"longitude":21.017532,"reserved":0,"last_update":"0001-01-01T00:00:00Z","name_a2s":"Uncletopia | Warsaw | 3 | All Maps","protocol":17,"map":"cp_sunshine","folder":"tf","game":"Team Fortress","app_id":440,"player_count":0,"max_players":24,"Bots":0,"server_type":"Dedicated","server_os":"Linux","password":true,"vac":true,"version":"7742253","steam_id":85568392925397852,"keywords":["cp","nocrits","nodmgspread","uncletopia"],"game_id":440,"stv_port":27036,"stv_name":"Uncletopia | Warsaw | 3 | All Maps | STV","players":null},{"server_id":52,"name":"Uncletopia | Warsaw | 4 | All Maps","name_short":"waw-4","host":"waw-1.pl.uncletopia.com","port":27045,"enabled":true,"region":"eu","cc":"pl","latitude":52.2297,"longitude":21.017532,"reserved":0,"last_update":"0001-01-01T00:00:00Z","name_a2s":"Uncletopia | Warsaw | 4 | All Maps","protocol":17,"map":"pl_swiftwater_final1","folder":"tf","game":"Team Fortress","app_id":440,"player_count":0,"max_players":24,"Bots":0,"server_type":"Dedicated","server_os":"Linux","password":true,"vac":true,"version":"7742253","steam_id":85568392925397853,"keywords":["nocrits","nodmgspread","payload","uncletopia"],"game_id":440,"stv_port":27046,"stv_name":"Uncletopia | Warsaw | 4 | All Maps | STV","players":null},{"server_id":53,"name":"Uncletopia | Warsaw | 5 | Stopwatch Beta","name_short":"waw-5","host":"waw-1.pl.uncletopia.com","port":27055,"enabled":true,"region":"eu","cc":"pl","latitude":52.2297,"longitude":21.017532,"reserved":0,"last_update":"0001-01-01T00:00:00Z","name_a2s":"Uncletopia | Warsaw | 5 | Stopwatch Beta","protocol":17,"map":"pl_pier","folder":"tf","game":"Team Fortress","app_id":440,"player_count":0,"max_players":24,"Bots":0,"server_type":"Dedicated","server_os":"Linux","password":true,"vac":true,"version":"7742253","steam_id":85568392925397854,"keywords":["nocrits","nodmgspread","payload","uncletopia"],"game_id":440,"stv_port":27056,"stv_name":"Uncletopia | Warsaw | 5 | Stopwatch Beta | STV","players":null},{"server_id":54,"name":"Uncletopia | Warsaw | 6 | Community","name_short":"waw-6","host":"waw-1.pl.uncletopia.com","port":27065,"enabled":true,"region":"eu","cc":"pl","latitude":52.2297,"longitude":21.017532,"reserved":0,"last_update":"0001-01-01T00:00:00Z","name_a2s":"Uncletopia | Warsaw | 6 | Community","protocol":17,"map":"cp_sunshine","folder":"tf","game":"Team Fortress","app_id":440,"player_count":0,"max_players":24,"Bots":0,"server_type":"Dedicated","server_os":"Linux","password":true,"vac":true,"version":"7742253","steam_id":85568392925397856,"keywords":["cp","nocrits","nodmgspread","uncletopia"],"game_id":440,"stv_port":27066,"stv_name":"Uncletopia | Warsaw | 6 | Community | STV","players":null}]}