{"status":true,"message":"","result":[{"server_id":9,"name":"Uncletopia | Atlanta | 1 | All Maps","name_short":"atl-1","host":"atl-1.us.uncletopia.com","port":27015,"enabled":true,"region":"us-east","cc":"us","latitude":33.753746,"longitude":-84.38633,"reserved":0,"last_update":"0001-01-01T00:00:00Z","name_a2s":"Uncletopia | Atlanta | 1 | All Maps","protocol":17,"map":"pl_coal_event","folder":"tf","game":"Team Fortress","app_id":440,"player_count":24,"max_players":24,"Bots":0,"server_type":"Dedicated","server_os":"Linux","password":true,"vac":true,"version":"7701286","steam_id":85568392924469982,"keywords":["nocrits","nodmgspread","payload","uncletopia"],"game_id":440,"stv_port":27016,"stv_name":"Uncletopia | Atlanta | 1 | All Maps | STV","players":[{"user_id":135,"name":"Convo-B-Gone","steam_id":76561198029527751,"connected_time":429000000000,"state":"active","ping":52},{"user_id":117,"name":"8Z","steam_id":76561198027025876,"connected_time":2446000000000,"state":"active","ping":91},{"user_id":120,"name":"ATL6 Le4n Nog!!!","steam_id":76561198045522596,"connected_time":1569000000000,"state":"active","ping":73},{"user_id":101,"name":"ATL1 | spoonful","steam_id":76561198927517471,"connected_time":5319000000000,"state":"active","ping":45},{"user_id":99,"name":"APACHE","steam_id":76561198089910625,"connected_time":5671000000000,"state":"active","ping":92},{"user_id":119,"name":"Ryde","steam_id":76561198070678662,"connected_time":2287000000000,"state":"active","ping":168},{"user_id":111,"name":"gallowsCalibrator","steam_id":76561198404707578,"connected_time":3547000000000,"state":"active","ping":57},{"user_id":125,"name":"jeremimi","steam_id":76561198818225102,"connected_time":1444000000000,"state":"active","ping":104},{"user_id":96,"name":"christmastreebee","steam_id":76561199217507591,"connected_time":5700000000000,"state":"active","ping":63},{"user_id":112,"name":"joe lft","steam_id":76561198045781320,"connected_time":3308000000000,"state":"active","ping":71},{"user_id":122,"name":"Caoticaos","steam_id":76561198114800227,"connected_time":1475000000000,"state":"active","ping":118},{"user_id":128,"name":"Lenny","steam_id":76561198183943137,"connected_time":1162000000000,"state":"active","ping":75},{"user_id":134,"name":"Abbashea","steam_id":76561199182136969,"connected_time":686000000000,"state":"active","ping":111},{"user_id":121,"name":"Zeetch","steam_id":76561198110579765,"connected_time":1544000000000,"state":"active","ping":75},{"user_id":81,"name":"HARRY","steam_id":76561198842067238,"connected_time":7749000000000,"state":"active","ping":70},{"user_id":68,"name":"❅Alyx❅","steam_id":76561198024303978,"connected_time":9900000000000,"state":"active","ping":58},{"user_id":97,"name":"[txc] milk and cookies","steam_id":76561198127457787,"connected_time":5692000000000,"state":"active","ping":71},{"user_id":136,"name":"Festive Oak","steam_id":76561198092135570,"connected_time":381000000000,"state":"active","ping":62},{"user_id":130,"name":"BotchyAlarm8","steam_id":76561198092682129,"connected_time":1049000000000,"state":"active","ping":54},{"user_id":132,"name":"Betcoo","steam_id":76561198319674652,"connected_time":818000000000,"state":"active","ping":82},{"user_id":109,"name":"JOVA","steam_id":76561198090333536,"connected_time":4163000000000,"state":"active","ping":63},{"user_id":126,"name":"yomokha","steam_id":76561198063175935,"connected_time":1424000000000,"state":"active","ping":60},{"user_id":133,"name":"floofy","steam_id":76561198389769098,"connected_time":724000000000,"state":"active","ping":89},{"user_id":85,"name":"[txc] garf","steam_id":76561198083078030,"connected_time":6619000000000,"state":"active","ping":49}]},{"server_id":400,"name":"Uncletopia | Atlanta | 3 | All Maps","name_short":"atl-3","host":"atl-1.us.uncletopia.com","port":27035,"enabled":true,"region":"us-east","cc":"us","latitude":33.753746,"longitude":-84.38633,"reserved":0,"last_update":"0001-01-01T00:00:00Z","name_a2s":"Uncletopia | Atlanta | 3 | All Maps","protocol":17,"map":"koth_highpass","folder":"tf","game":"Team Fortress","app_id":440,"player_count":0,"max_players":24,"Bots":0,"server_type":"Dedicated","server_os":"Linux","password":true,"vac":true,"version":"7701286","steam_id":85568392924515187,"keywords":["cp","nocrits","nodmgspread","uncletopia"],"game_id":440,"stv_port":0,"stv_name":"","players":null},{"server_id":401,"name":"Uncletopia | Atlanta | 4 | No Payload","name_short":"atl-4","host":"atl-1.us.uncletopia.com","port":27045,"enabled":true,"region":"us-east","cc":"us","latitude":33.753746,"longitude":-84.38633,"reserved":0,"last_update":"0001-01-01T00:00:00Z","name_a2s":"Uncletopia | Atlanta | 4 | No Payload","protocol":17,"map":"koth_sawmill","folder":"tf","game":"Team Fortress","app_id":440,"player_count":2,"max_players":24,"Bots":0,"server_type":"Dedicated","server_os":"Linux","password":true,"vac":true,"version":"7701286","steam_id":85568392924515188,"keywords":["cp","nocrits","nodmgspread","uncletopia"],"game_id":440,"stv_port":27046,"stv_name":"Uncletopia | Atlanta | 4 | No Payload | STV","players":[{"user_id":16,"name":"Panty Sniff Gaming","steam_id":76561198261421420,"connected_time":12000000000,"state":"spawning","ping":44},{"user_id":11,"name":"Ann","steam_id":76561198933027278,"connected_time":3052000000000,"state":"active","ping":30}]},{"server_id":2,"name":"Uncletopia | Chicago | 1 | All Maps","name_short":"chi-1","host":"chi-1.us.uncletopia.com","port":27015,"enabled":true,"region":"us-central","cc":"us","latitude":41.881832,"longitude":-87.62318,"reserved":0,"last_update":"0001-01-01T00:00:00Z","name_a2s":"Uncletopia | Chicago | 1 | All Maps","protocol":17,"map":"cp_altitude","folder":"tf","game":"Team Fortress","app_id":440,"player_count":24,"max_players":24,"Bots":0,"server_type":"Dedicated","server_os":"Linux","password":true,"vac":true,"version":"7701286","steam_id":85568392924469984,"keywords":["cp","nocrits","nodmgspread","uncletopia"],"game_id":440,"stv_port":27016,"stv_name":"Uncletopia | Chicago | 1 | All Maps | STV","players":[{"user_id":119,"name":"motorized bar of soap","steam_id":76561198882404753,"connected_time":8738000000000,"state":"active","ping":79},{"user_id":205,"name":"able","steam_id":76561198292552182,"connected_time":941000000000,"state":"active","ping":45},{"user_id":207,"name":"Steves Supple Lips","steam_id":76561198278254798,"connected_time":495000000000,"state":"active","ping":122},{"user_id":208,"name":"Bob the Builder","steam_id":76561199069029812,"connected_time":400000000000,"state":"active","ping":107},{"user_id":184,"name":"Jaypelt","steam_id":76561198053906849,"connected_time":3216000000000,"state":"active","ping":76},{"user_id":7,"name":"pw","steam_id":76561198087945065,"connected_time":12589000000000,"state":"active","ping":50},{"user_id":185,"name":"Ignalis","steam_id":76561198025662927,"connected_time":3212000000000,"state":"active","ping":63},{"user_id":199,"name":"IZISOO","steam_id":76561198970380577,"connected_time":1649000000000,"state":"active","ping":62},{"user_id":187,"name":"Devious Wink","steam_id":76561198043571022,"connected_time":3209000000000,"state":"active","ping":60},{"user_id":200,"name":"Salt_Inventor","steam_id":76561198090433209,"connected_time":1639000000000,"state":"active","ping":94},{"user_id":209,"name":"Mashallah","steam_id":76561198093229614,"connected_time":389000000000,"state":"active","ping":45},{"user_id":176,"name":"Capt on PC","steam_id":76561198396814154,"connected_time":3449000000000,"state":"active","ping":110},{"user_id":192,"name":"GuyGoom","steam_id":76561198254522178,"connected_time":2413000000000,"state":"active","ping":59},{"user_id":188,"name":"River Rat","steam_id":76561198116383976,"connected_time":3199000000000,"state":"active","ping":108},{"user_id":189,"name":"Ipseiit","steam_id":76561198294670312,"connected_time":3187000000000,"state":"active","ping":68},{"user_id":78,"name":"Ace Chromatica","steam_id":76561198042211131,"connected_time":9477000000000,"state":"active","ping":63},{"user_id":149,"name":"Demonfax04","steam_id":76561198243551652,"connected_time":6703000000000,"state":"active","ping":97},{"user_id":106,"name":"ÒwÓ","steam_id":76561197997304387,"connected_time":9014000000000,"state":"active","ping":72},{"user_id":181,"name":"sweaterfan","steam_id":76561199389567214,"connected_time":3250000000000,"state":"active","ping":70},{"user_id":202,"name":"los wigis","steam_id":76561199000786530,"connected_time":1569000000000,"state":"active","ping":76},{"user_id":178,"name":"Umbran Fox","steam_id":76561198981815451,"connected_time":3373000000000,"state":"active","ping":125},{"user_id":203,"name":"Chlorm","steam_id":76561198147052737,"connected_time":1544000000000,"state":"active","ping":67},{"user_id":204,"name":"Spoicy Fish","steam_id":76561198282764599,"connected_time":1522000000000,"state":"active","ping":49},{"user_id":191,"name":"M249 | Spectre","steam_id":76561198118334485,"connected_time":2801000000000,"state":"active","ping":76}]},{"server_id":106,"name":"Uncletopia | Chicago | 2 | All Maps","name_short":"chi-2","host":"chi-1.us.uncletopia.com","port":27025,"enabled":true,"region":"us-central","cc":"us","latitude":41.881832,"longitude":-87.62318,"reserved":0,"last_update":"0001-01-01T00:00:00Z","name_a2s":"Uncletopia | Chicago | 2 | All Maps","protocol":17,"map":"pl_barnblitz","folder":"tf","game":"Team Fortress","app_id":440,"player_count":24,"max_players":24,"Bots":0,"server_type":"Dedicated","server_os":"Linux","password":true,"vac":true,"version":"7701286","steam_id":85568392924469985,"keywords":["nocrits","nodmgspread","payload","uncletopia"],"game_id":440,"stv_port":27026,"stv_name":"Uncletopia | Chicago | 2 | All Maps | STV","players":[{"user_id":136,"name":"Drizzle","steam_id":76561198152143806,"connected_time":2818000000000,"state":"active","ping":39},{"user_id":160,"name":"Throckmorton627","steam_id":76561199147734259,"connected_time":868000000000,"state":"active","ping":56},{"user_id":161,"name":"Dryton","steam_id":76561197998238522,"connected_time":848000000000,"state":"active","ping":78},{"user_id":162,"name":"TÖZI","steam_id":76561198045268695,"connected_time":830000000000,"state":"active","ping":56},{"user_id":135,"name":"gourmet salad","steam_id":76561198173128765,"connected_time":2883000000000,"state":"active","ping":56},{"user_id":158,"name":"Zebra","steam_id":76561198073827969,"connected_time":1321000000000,"state":"active","ping":92},{"user_id":156,"name":"rolt bagger","steam_id":76561198026664629,"connected_time":1449000000000,"state":"active","ping":51},{"user_id":51,"name":"Titty Mousepad User","steam_id":76561198008455368,"connected_time":9526000000000,"state":"active","ping":55},{"user_id":163,"name":"Millie \u003c3","steam_id":76561198201894565,"connected_time":798000000000,"state":"active","ping":62},{"user_id":154,"name":"wheat","steam_id":76561197971158435,"connected_time":1627000000000,"state":"active","ping":57},{"user_id":171,"name":"Medical Asshat","steam_id":76561198004584315,"connected_time":469000000000,"state":"active","ping":74},{"user_id":172,"name":"devil in a new dress","steam_id":76561198265633146,"connected_time":449000000000,"state":"active","ping":94},{"user_id":165,"name":"Squid121","steam_id":76561198038832034,"connected_time":702000000000,"state":"active","ping":93},{"user_id":155,"name":"phy","steam_id":76561198115902651,"connected_time":1577000000000,"state":"active","ping":67},{"user_id":166,"name":"Cujo","steam_id":76561198116256581,"connected_time":611000000000,"state":"active","ping":124},{"user_id":167,"name":"Lucy Lou!","steam_id":76561198078209088,"connected_time":576000000000,"state":"active","ping":45},{"user_id":168,"name":"froggy ;3","steam_id":76561198079405234,"connected_time":553000000000,"state":"active","ping":54},{"user_id":149,"name":"Dill","steam_id":76561197985091914,"connected_time":1837000000000,"state":"active","ping":64},{"user_id":131,"name":"a crazy hobo","steam_id":76561198289650060,"connected_time":4009000000000,"state":"active","ping":84},{"user_id":159,"name":"World Famous Skater Sean Pablo","steam_id":76561197999261387,"connected_time":1267000000000,"state":"active","ping":78},{"user_id":146,"name":"Satori Komeiji","steam_id":76561198158211423,"connected_time":2603000000000,"state":"active","ping":94},{"user_id":169,"name":"hashmap","steam_id":76561198043794014,"connected_time":542000000000,"state":"active","ping":55},{"user_id":174,"name":"tame","steam_id":76561198925005855,"connected_time":342000000000,"state":"active","ping":179},{"user_id":153,"name":"Jimmy","steam_id":76561197970838363,"connected_time":1699000000000,"state":"active","ping":79}]},{"server_id":402,"name":"Uncletopia | Chicago | 3 | All Maps","name_short":"chi-3","host":"chi-1.us.uncletopia.com","port":27035,"enabled":true,"region":"us-central","cc":"us","latitude":41.881832,"longitude":-87.62318,"reserved":0,"last_update":"0001-01-01T00:00:00Z","name_a2s":"Uncletopia | Chicago | 3 | All Maps","protocol":17,"map":"koth_lakeside_final","folder":"tf","game":"Team Fortress","app_id":440,"player_count":0,"max_players":24,"Bots":0,"server_type":"Dedicated","server_os":"Linux","password":true,"vac":true,"version":"7701286","steam_id":85568392924515191,"keywords":["cp","nocrits","nodmgspread","uncletopia"],"game_id":440,"stv_port":0,"stv_name":"","players":null},{"server_id":403,"name":"Uncletopia | Chicago | 4 | All Maps","name_short":"chi-4","host":"chi-1.us.uncletopia.com","port":27045,"enabled":true,"region":"us-central","cc":"us","latitude":41.881832,"longitude":-87.62318,"reserved":0,"last_update":"0001-01-01T00:00:00Z","name_a2s":"Uncletopia | Chicago | 4 | All Maps","protocol":17,"map":"cp_process_final","folder":"tf","game":"Team Fortress","app_id":440,"player_count":0,"max_players":24,"Bots":0,"server_type":"Dedicated","server_os":"Linux","password":true,"vac":true,"version":"7701286","steam_id":85568392924515193,"keywords":["cp","nocrits","nodmgspread","uncletopia"],"game_id":440,"stv_port":27046,"stv_name":"Uncletopia | Chicago | 4 | All Maps | STV","players":null},{"server_id":36,"name":"Uncletopia | Chicago | 5 | All Maps","name_short":"chi-5","host":"chi-2.us.uncletopia.com","port":27015,"enabled":true,"region":"us-central","cc":"us","latitude":41.881832,"longitude":-87.62318,"reserved":0,"last_update":"0001-01-01T00:00:00Z","name_a2s":"Uncletopia | Chicago | 5 | All Maps","protocol":17,"map":"pl_swiftwater_final1","folder":"tf","game":"Team Fortress","app_id":440,"player_count":0,"max_players":24,"Bots":0,"server_type":"Dedicated","server_os":"Linux","password":true,"vac":true,"version":"7701286","steam_id":85568392924866362,"keywords":["nocrits","nodmgspread","payload","uncletopia"],"game_id":440,"stv_port":27016,"stv_name":"Uncletopia | Chicago | 5 | All Maps | STV","players":null},{"server_id":37,"name":"Uncletopia | Chicago | 6 | All Maps","name_short":"chi-6","host":"chi-2.us.uncletopia.com","port":27025,"enabled":true,"region":"us-central","cc":"us","latitude":41.881832,"longitude":-87.62318,"reserved":0,"last_update":"0001-01-01T00:00:00Z","name_a2s":"Uncletopia | Chicago | 6 | All Maps","protocol":17,"map":"pl_swiftwater_final1","folder":"tf","game":"Team Fortress","app_id":440,"player_count":0,"max_players":24,"Bots":0,"server_type":"Dedicated","server_os":"Linux","password":true,"vac":true,"version":"7701286","steam_id":85568392924866363,"keywords":["nocrits","nodmgspread","payload","uncletopia"],"game_id":440,"stv_port":27026,"stv_name":"Uncletopia | Chicago | 6 | All Maps | STV","players":null},{"server_id":38,"name":"Uncletopia | Chicago | 7 | No Payload","name_short":"chi-7","host":"chi-2.us.uncletopia.com","port":27035,"enabled":true,"region":"us-central","cc":"us","latitude":41.881832,"longitude":-87.62318,"reserved":0,"last_update":"0001-01-01T00:00:00Z","name_a2s":"Uncletopia | Chicago | 7 | No Payload","protocol":17,"map":"cp_coldfront","folder":"tf","game":"Team Fortress","app_id":440,"player_count":0,"max_players":24,"Bots":0,"server_type":"Dedicated","server_os":"Linux","password":true,"vac":true,"version":"7701286","steam_id":85568392924866364,"keywords":["cp","nocrits","nodmgspread","uncletopia"],"game_id":440,"stv_port":27036,"stv_name":"Uncletopia | Chicago | 7 | No Payload | STV","players":null},{"server_id":39,"name":"Uncletopia | Chicago | 8 | Community","name_short":"chi-8","host":"chi-2.us.uncletopia.com","port":27045,"enabled":true,"region":"us-central","cc":"us","latitude":41.881832,"longitude":-87.62318,"reserved":0,"last_update":"0001-01-01T00:00:00Z","name_a2s":"Uncletopia | Chicago | 8 | Community","protocol":17,"map":"workshop/pl_cactuscanyon_redux_rc4b.ugc2579644293","folder":"tf","game":"Team Fortress","app_id":440,"player_count":5,"max_players":24,"Bots":0,"server_type":"Dedicated","server_os":"Linux","password":true,"vac":true,"version":"7701286","steam_id":85568392924866365,"keywords":["nocrits","nodmgspread","payload","uncletopia"],"game_id":440,"stv_port":27046,"stv_name":"Uncletopia | Chicago | 8 | Community | STV","players":[{"user_id":231,"name":"ryqset","steam_id":76561198349299874,"connected_time":824000000000,"state":"active","ping":78},{"user_id":232,"name":"SquirrelAway™","steam_id":76561197998828619,"connected_time":764000000000,"state":"active","ping":74},{"user_id":200,"name":"Dallas Payday 2","steam_id":76561198200359787,"connected_time":2600000000000,"state":"active","ping":71},{"user_id":201,"name":"Dr. Funkenstein","steam_id":76561198042186832,"connected_time":2569000000000,"state":"active","ping":65},{"user_id":230,"name":"lambmyth","steam_id":76561199215261209,"connected_time":1136000000000,"state":"active","ping":76}]},{"server_id":8,"name":"Uncletopia | Dallas | 1 | All Maps","name_short":"dal-1","host":"dal-1.us.uncletopia.com","port":27015,"enabled":true,"region":"us-central","cc":"us","latitude":32.779167,"longitude":-96.80889,"reserved":0,"last_update":"0001-01-01T00:00:00Z","name_a2s":"Uncletopia | Dallas | 1 | All Maps","protocol":17,"map":"pl_frontier_final","folder":"tf","game":"Team Fortress","app_id":440,"player_count":24,"max_players":24,"Bots":0,"server_type":"Dedicated","server_os":"Linux","password":true,"vac":true,"version":"7701286","steam_id":85568392924469986,"keywords":["nocrits","nodmgspread","payload","uncletopia"],"game_id":440,"stv_port":27016,"stv_name":"Uncletopia | Dallas | 1 | All Maps | STV","players":[{"user_id":170,"name":"little egg nog","steam_id":76561198245246892,"connected_time":1405000000000,"state":"active","ping":97},{"user_id":171,"name":"Amber","steam_id":76561198071244044,"connected_time":1361000000000,"state":"active","ping":45},{"user_id":164,"name":"effy","steam_id":76561198087137066,"connected_time":2434000000000,"state":"active","ping":64},{"user_id":169,"name":"_Lusty_","steam_id":76561198876948142,"connected_time":1471000000000,"state":"active","ping":61},{"user_id":179,"name":"Scroomple","steam_id":76561198383810614,"connected_time":1001000000000,"state":"active","ping":54},{"user_id":174,"name":"The Assistant Regional Manager","steam_id":76561199221484936,"connected_time":1089000000000,"state":"active","ping":80},{"user_id":175,"name":"Ripe_and_ready","steam_id":76561198196128781,"connected_time":1089000000000,"state":"active","ping":53},{"user_id":135,"name":"danchen104912","steam_id":76561198210314003,"connected_time":4511000000000,"state":"active","ping":85},{"user_id":176,"name":"Bo Stunkulus","steam_id":76561198829326796,"connected_time":1080000000000,"state":"active","ping":81},{"user_id":180,"name":"Richieice","steam_id":76561198158939530,"connected_time":985000000000,"state":"active","ping":84},{"user_id":181,"name":"money squared","steam_id":76561198046775352,"connected_time":911000000000,"state":"active","ping":90},{"user_id":182,"name":"Moonadoo","steam_id":76561198133377546,"connected_time":907000000000,"state":"active","ping":89},{"user_id":117,"name":"+","steam_id":76561198262422184,"connected_time":6454000000000,"state":"active","ping":52},{"user_id":183,"name":"Petey","steam_id":76561198007339151,"connected_time":840000000000,"state":"active","ping":64},{"user_id":184,"name":"Nicotine","steam_id":76561198285892734,"connected_time":779000000000,"state":"active","ping":94},{"user_id":195,"name":"Sixrow","steam_id":76561198269289716,"connected_time":316000000000,"state":"active","ping":31},{"user_id":186,"name":"Rucksen","steam_id":76561199006549868,"connected_time":667000000000,"state":"active","ping":53},{"user_id":197,"name":"salad Turtle","steam_id":76561198038036122,"connected_time":200000000000,"state":"active","ping":75},{"user_id":168,"name":"Amigo de Videojuegos","steam_id":76561198125965363,"connected_time":1738000000000,"state":"active","ping":40},{"user_id":189,"name":"Snakeye3490","steam_id":76561198197060503,"connected_time":539000000000,"state":"active","ping":52},{"user_id":198,"name":"righty","steam_id":76561198045260412,"connected_time":135000000000,"state":"active","ping":77},{"user_id":199,"name":"lag","steam_id":76561198117898839,"connected_time":127000000000,"state":"active","ping":102},{"user_id":193,"name":"Squiliam","steam_id":76561198025278006,"connected_time":414000000000,"state":"active","ping":44},{"user_id":194,"name":"jody","steam_id":76561198065103382,"connected_time":387000000000,"state":"active","ping":91}]},{"server_id":108,"name":"Uncletopia | Dallas | 2 | All Maps","name_short":"dal-2","host":"dal-1.us.uncletopia.com","port":27025,"enabled":true,"region":"us-central","cc":"us","latitude":32.779167,"longitude":-96.80889,"reserved":0,"last_update":"0001-01-01T00:00:00Z","name_a2s":"Uncletopia | Dallas | 2 | All Maps","protocol":17,"map":"pl_swiftwater_final1","folder":"tf","game":"Team Fortress","app_id":440,"player_count":7,"max_players":24,"Bots":0,"server_type":"Dedicated","server_os":"Linux","password":true,"vac":true,"version":"7701286","steam_id":85568392924469988,"keywords":["nocrits","nodmgspread","payload","uncletopia"],"game_id":440,"stv_port":27026,"stv_name":"Uncletopia | Dallas | 2 | All Maps | STV","players":[{"user_id":73,"name":"/\\/\\/\\/\\/\\spiky floor/\\/\\/\\/\\/\\","steam_id":76561197991868141,"connected_time":155000000000,"state":"active","ping":49},{"user_id":74,"name":"AceLess","steam_id":76561198193181466,"connected_time":7000000000,"state":"spawning","ping":92},{"user_id":41,"name":"EXistential","steam_id":76561198407862652,"connected_time":2290000000000,"state":"active","ping":60},{"user_id":69,"name":"aids","steam_id":76561198176152633,"connected_time":814000000000,"state":"active","ping":45},{"user_id":48,"name":"hop","steam_id":76561198039914843,"connected_time":2113000000000,"state":"active","ping":74},{"user_id":53,"name":"jumbert","steam_id":76561198355231658,"connected_time":1992000000000,"state":"active","ping":52},{"user_id":60,"name":"Alabit","steam_id":76561198065578560,"connected_time":1643000000000,"state":"active","ping":60}]},{"server_id":5,"name":"Uncletopia | Frankfurt | 1 | All Maps","name_short":"frk-1","host":"frk-1.de.uncletopia.com","port":27015,"enabled":true,"region":"eu","cc":"de","latitude":50.110924,"longitude":8.682127,"reserved":0,"last_update":"0001-01-01T00:00:00Z","name_a2s":"Uncletopia | Frankfurt | 1 | All Maps","protocol":17,"map":"cp_mountainlab","folder":"tf","game":"Team Fortress","app_id":440,"player_count":0,"max_players":24,"Bots":0,"server_type":"Dedicated","server_os":"Linux","password":true,"vac":true,"version":"7701286","steam_id":85568392924469989,"keywords":["cp","nocrits","nodmgspread","uncletopia"],"game_id":440,"stv_port":0,"stv_name":"","players":null},{"server_id":110,"name":"Uncletopia | Frankfurt | 2 | All Maps","name_short":"frk-2","host":"frk-1.de.uncletopia.com","port":27025,"enabled":true,"region":"eu","cc":"de","latitude":50.110924,"longitude":8.682127,"reserved":0,"last_update":"0001-01-01T00:00:00Z","name_a2s":"Uncletopia | Frankfurt | 2 | All Maps","protocol":17,"map":"cp_sunshine","folder":"tf","game":"Team Fortress","app_id":440,"player_count":0,"max_players":24,"Bots":0,"server_type":"Dedicated","server_os":"Linux","password":true,"vac":true,"version":"7701286","steam_id":85568392924469990,"keywords":["cp","nocrits","nodmgspread","uncletopia"],"game_id":440,"stv_port":0,"stv_name":"","players":null},{"server_id":308,"name":"Uncletopia | Frankfurt | 3 | All Maps","name_short":"frk-3","host":"frk-1.de.uncletopia.com","port":27035,"enabled":true,"region":"eu","cc":"de","latitude":50.110924,"longitude":8.682127,"reserved":0,"last_update":"0001-01-01T00:00:00Z","name_a2s":"Uncletopia | Frankfurt | 3 | All Maps","protocol":17,"map":"pl_barnblitz","folder":"tf","game":"Team Fortress","app_id":440,"player_count":0,"max_players":24,"Bots":0,"server_type":"Dedicated","server_os":"Linux","password":true,"vac":true,"version":"7701286","steam_id":85568392924504274,"keywords":["nocrits","nodmgspread","payload","uncletopia"],"game_id":440,"stv_port":0,"stv_name":"","players":null},{"server_id":309,"name":"Uncletopia | Frankfurt | 4 | All Maps","name_short":"frk-4","host":"frk-1.de.uncletopia.com","port":27045,"enabled":true,"region":"eu","cc":"de","latitude":50.110924,"longitude":8.682127,"reserved":0,"last_update":"0001-01-01T00:00:00Z","name_a2s":"Uncletopia | Frankfurt | 4 | All Maps","protocol":17,"map":"cp_sunshine","folder":"tf","game":"Team Fortress","app_id":440,"player_count":0,"max_players":24,"Bots":0,"server_type":"Dedicated","server_os":"Linux","password":true,"vac":true,"version":"7701286","steam_id":85568392924504275,"keywords":["cp","nocrits","nodmgspread","uncletopia"],"game_id":440,"stv_port":0,"stv_name":"","players":null},{"server_id":310,"name":"Uncletopia | Frankfurt | 5 | All Maps","name_short":"frk-5","host":"frk-1.de.uncletopia.com","port":27055,"enabled":true,"region":"eu","cc":"de","latitude":50.110924,"longitude":8.682127,"reserved":0,"last_update":"0001-01-01T00:00:00Z","name_a2s":"Uncletopia | Frankfurt | 5 | All Maps","protocol":17,"map":"koth_viaduct","folder":"tf","game":"Team Fortress","app_id":440,"player_count":0,"max_players":24,"Bots":0,"server_type":"Dedicated","server_os":"Linux","password":true,"vac":true,"version":"7701286","steam_id":85568392924504277,"keywords":["cp","nocrits","nodmgspread","uncletopia"],"game_id":440,"stv_port":0,"stv_name":"","players":null},{"server_id":311,"name":"Uncletopia | Frankfurt | 6 | All Maps","name_short":"frk-6","host":"frk-1.de.uncletopia.com","port":27065,"enabled":true,"region":"eu","cc":"de","latitude":50.110924,"longitude":8.682127,"reserved":0,"last_update":"0001-01-01T00:00:00Z","name_a2s":"Uncletopia | Frankfurt | 6 | All Maps","protocol":17,"map":"koth_lakeside_final","folder":"tf","game":"Team Fortress","app_id":440,"player_count":0,"max_players":24,"Bots":0,"server_type":"Dedicated","server_os":"Linux","password":true,"vac":true,"version":"7701286","steam_id":85568392924504278,"keywords":["cp","nocrits","nodmgspread","uncletopia"],"game_id":440,"stv_port":0,"stv_name":"","players":null},{"server_id":23,"name":"Uncletopia | Frankfurt | 7 | No Payload","name_short":"frk-7","host":"frk-1.de.uncletopia.com","port":27075,"enabled":true,"region":"eu","cc":"de","latitude":50.110924,"longitude":8.682127,"reserved":0,"last_update":"0001-01-01T00:00:00Z","name_a2s":"Uncletopia | Frankfurt | 7 | No Payload","protocol":17,"map":"pl_badwater","folder":"tf","game":"Team Fortress","app_id":440,"player_count":0,"max_players":24,"Bots":0,"server_type":"Dedicated","server_os":"Linux","password":true,"vac":true,"version":"7701286","steam_id":85568392924742827,"keywords":["nocrits","nodmgspread","payload","uncletopia"],"game_id":440,"stv_port":0,"stv_name":"","players":null},{"server_id":24,"name":"Uncletopia | Frankfurt | 8 | Community","name_short":"frk-8","host":"frk-1.de.uncletopia.com","port":27085,"enabled":true,"region":"eu","cc":"de","latitude":50.110924,"longitude":8.682127,"reserved":0,"last_update":"0001-01-01T00:00:00Z","name_a2s":"Uncletopia | Frankfurt | 8 | Community","protocol":17,"map":"pl_barnblitz","folder":"tf","game":"Team Fortress","app_id":440,"player_count":0,"max_players":24,"Bots":0,"server_type":"Dedicated","server_os":"Linux","password":true,"vac":true,"version":"7701286","steam_id":85568392924742828,"keywords":["nocrits","nodmgspread","payload","uncletopia"],"game_id":440,"stv_port":0,"stv_name":"","players":null},{"server_id":202,"name":"Uncletopia | Hong Kong | 1 | All Maps","name_short":"hgk-1","host":"hgk-1.hk.uncletopia.com","port":27015,"enabled":true,"region":"asia","cc":"hk","latitude":22.302711,"longitude":114.177216,"reserved":0,"last_update":"0001-01-01T00:00:00Z","name_a2s":"Uncletopia | Hong Kong | 1 | All Maps","protocol":17,"map":"pl_upward","folder":"tf","game":"Team Fortress","app_id":440,"player_count":24,"max_players":24,"Bots":0,"server_type":"Dedicated","server_os":"Linux","password":true,"vac":true,"version":"7701286","steam_id":85568392924494504,"keywords":["nocrits","nodmgspread","payload","uncletopia"],"game_id":440,"stv_port":27016,"stv_name":"Uncletopia | Hong Kong | 1 | All Maps | STV","players":[{"user_id":8,"name":"Violezine","steam_id":76561199000502615,"connected_time":7378000000000,"state":"active","ping":76},{"user_id":74,"name":"King of Cringe","steam_id":76561199093805870,"connected_time":1065000000000,"state":"active","ping":46},{"user_id":14,"name":"iced","steam_id":76561198999114004,"connected_time":6785000000000,"state":"active","ping":98},{"user_id":30,"name":"Nimbus","steam_id":76561198877713016,"connected_time":4252000000000,"state":"active","ping":98},{"user_id":80,"name":"Дай цзюньси","steam_id":76561199085829522,"connected_time":353000000000,"state":"active","ping":144},{"user_id":81,"name":"jay","steam_id":76561198827841568,"connected_time":343000000000,"state":"active","ping":85},{"user_id":27,"name":"Piggy","steam_id":76561199293416159,"connected_time":4786000000000,"state":"active","ping":81},{"user_id":73,"name":"Javariced","steam_id":76561198069402937,"connected_time":1171000000000,"state":"active","ping":79},{"user_id":72,"name":"MR. T","steam_id":76561198847421088,"connected_time":1507000000000,"state":"active","ping":143},{"user_id":78,"name":"MS PowerPoint","steam_id":76561198369523192,"connected_time":452000000000,"state":"active","ping":62},{"user_id":34,"name":"ellz","steam_id":76561199216074568,"connected_time":4149000000000,"state":"active","ping":79},{"user_id":35,"name":"S c u m p","steam_id":76561199172582978,"connected_time":4105000000000,"state":"active","ping":147},{"user_id":71,"name":"Ucklir5278","steam_id":76561199087436806,"connected_time":1742000000000,"state":"active","ping":89},{"user_id":66,"name":"Cipher(#savetf2)","steam_id":76561198796591492,"connected_time":2349000000000,"state":"active","ping":110},{"user_id":38,"name":"im_0ff","steam_id":76561198339346695,"connected_time":4036000000000,"state":"active","ping":119},{"user_id":54,"name":"Dits","steam_id":76561198283833960,"connected_time":3219000000000,"state":"active","ping":37},{"user_id":56,"name":"IZ*","steam_id":76561198834621927,"connected_time":3047000000000,"state":"active","ping":86},{"user_id":68,"name":"Noyour","steam_id":76561198323259830,"connected_time":2029000000000,"state":"active","ping":112},{"user_id":57,"name":"zxcvbnm","steam_id":76561198866884809,"connected_time":3027000000000,"state":"active","ping":70},{"user_id":51,"name":"T.","steam_id":76561198337887896,"connected_time":3316000000000,"state":"active","ping":90},{"user_id":83,"name":"ryzdpl520","steam_id":76561199442623670,"connected_time":296000000000,"state":"active","ping":111},{"user_id":82,"name":"kiper","steam_id":76561199014506720,"connected_time":334000000000,"state":"active","ping":83},{"user_id":84,"name":"Saggle","steam_id":76561198056075147,"connected_time":276000000000,"state":"active","ping":124}]},{"server_id":1,"name":"Uncletopia | Los Angeles | 1 | All Maps","name_short":"lax-1","host":"lax-1.us.uncletopia.com","port":27015,"enabled":true,"region":"us-west","cc":"us","latitude":33.94279,"longitude":-118.41004,"reserved":0,"last_update":"0001-01-01T00:00:00Z","name_a2s":"Uncletopia | Los Angeles | 1 | All Maps","protocol":17,"map":"pl_frostcliff","folder":"tf","game":"Team Fortress","app_id":440,"player_count":24,"max_players":24,"Bots":0,"server_type":"Dedicated","server_os":"Linux","password":true,"vac":true,"version":"7701286","steam_id":85568392924469991,"keywords":["nocrits","nodmgspread","payload","uncletopia"],"game_id":440,"stv_port":27016,"stv_name":"Uncletopia | Los Angeles | 1 | All Maps | STV","players":[{"user_id":98,"name":"Jax O'Gaytor","steam_id":76561198288922168,"connected_time":7584000000000,"state":"active","ping":60},{"user_id":125,"name":"Marp","steam_id":76561197999988084,"connected_time":3562000000000,"state":"active","ping":49},{"user_id":111,"name":"June","steam_id":76561198141803658,"connected_time":6253000000000,"state":"active","ping":47},{"user_id":175,"name":"shpongle","steam_id":76561198113251746,"connected_time":688000000000,"state":"active","ping":47},{"user_id":181,"name":"ChoccyMiltank","steam_id":76561198981474284,"connected_time":415000000000,"state":"active","ping":45},{"user_id":176,"name":"Rock Kickass","steam_id":76561198450510841,"connected_time":646000000000,"state":"active","ping":72},{"user_id":179,"name":"PunishedCrab","steam_id":76561198079650017,"connected_time":530000000000,"state":"active","ping":54},{"user_id":178,"name":"Cypress","steam_id":76561198070560915,"connected_time":559000000000,"state":"active","ping":51},{"user_id":172,"name":"Marc Antony","steam_id":76561198011366517,"connected_time":1070000000000,"state":"active","ping":93},{"user_id":116,"name":"ldr","steam_id":76561198151135298,"connected_time":5650000000000,"state":"active","ping":37},{"user_id":182,"name":"falco is so cool","steam_id":76561198174751517,"connected_time":390000000000,"state":"active","ping":73},{"user_id":183,"name":"Yucho","steam_id":76561198148751724,"connected_time":375000000000,"state":"active","ping":67},{"user_id":184,"name":"Seriously Bruh","steam_id":76561198070408485,"connected_time":289000000000,"state":"active","ping":75},{"user_id":149,"name":"oil","steam_id":76561198099980149,"connected_time":2495000000000,"state":"active","ping":49},{"user_id":169,"name":"zinnk","steam_id":76561198092081825,"connected_time":1567000000000,"state":"active","ping":67},{"user_id":185,"name":"awfulArbiter","steam_id":76561198068189558,"connected_time":284000000000,"state":"active","ping":56},{"user_id":186,"name":"Pyrotek⁴","steam_id":76561198072747672,"connected_time":199000000000,"state":"active","ping":42},{"user_id":170,"name":"catman1900","steam_id":76561198052059370,"connected_time":1371000000000,"state":"active","ping":72},{"user_id":187,"name":"JASC","steam_id":76561198050683512,"connected_time":184000000000,"state":"active","ping":120},{"user_id":143,"name":"luke8538","steam_id":76561198067480563,"connected_time":2946000000000,"state":"active","ping":65},{"user_id":164,"name":"Eros","steam_id":76561198000530934,"connected_time":2156000000000,"state":"active","ping":61},{"user_id":165,"name":"Bleebi","steam_id":76561197971264259,"connected_time":2147000000000,"state":"active","ping":105},{"user_id":188,"name":"mrrbadwrench224","steam_id":76561198017692267,"connected_time":182000000000,"state":"active","ping":61},{"user_id":75,"name":"BIGGS","steam_id":76561198057399996,"connected_time":8822000000000,"state":"active","ping":50}]},{"server_id":112,"name":"Uncletopia | Los Angeles | 2 | All Maps","name_short":"lax-2","host":"lax-1.us.uncletopia.com","port":27025,"enabled":true,"region":"us-west","cc":"us","latitude":33.94279,"longitude":-118.41004,"reserved":0,"last_update":"0001-01-01T00:00:00Z","name_a2s":"Uncletopia | Los Angeles | 2 | All Maps","protocol":17,"map":"koth_highpass","folder":"tf","game":"Team Fortress","app_id":440,"player_count":0,"max_players":24,"Bots":0,"server_type":"Dedicated","server_os":"Linux","password":true,"vac":true,"version":"7701286","steam_id":85568392924469992,"keywords":["cp","nocrits","nodmgspread","uncletopia"],"game_id":440,"stv_port":27026,"stv_name":"Uncletopia | Los Angeles | 2 | All Maps | STV","players":null},{"server_id":324,"name":"Uncletopia | Los Angeles | 3 | All Maps","name_short":"lax-3","host":"lax-1.us.uncletopia.com","port":27035,"enabled":true,"region":"us-west","cc":"us","latitude":33.94279,"longitude":-118.41004,"reserved":0,"last_update":"0001-01-01T00:00:00Z","name_a2s":"Uncletopia | Los Angeles | 3 | All Maps","protocol":17,"map":"cp_process_final","folder":"tf","game":"Team Fortress","app_id":440,"player_count":0,"max_players":24,"Bots":0,"server_type":"Dedicated","server_os":"Linux","password":true,"vac":true,"version":"7701286","steam_id":85568392924510198,"keywords":["cp","nocrits","nodmgspread","uncletopia"],"game_id":440,"stv_port":27036,"stv_name":"Uncletopia | Los Angeles | 3 | All Maps | STV","players":null},{"server_id":25,"name":"Uncletopia | Los Angeles | 4 | No Payload","name_short":"lax-4","host":"lax-1.us.uncletopia.com","port":27045,"enabled":true,"region":"us-west","cc":"us","latitude":33.94279,"longitude":-118.41004,"reserved":0,"last_update":"0001-01-01T00:00:00Z","name_a2s":"Uncletopia | Los Angeles | 4 | No Payload","protocol":17,"map":"cp_vanguard","folder":"tf","game":"Team Fortress","app_id":440,"player_count":0,"max_players":24,"Bots":0,"server_type":"Dedicated","server_os":"Linux","password":true,"vac":true,"version":"7701286","steam_id":85568392924510199,"keywords":["cp","nocrits","nodmgspread","uncletopia"],"game_id":440,"stv_port":27046,"stv_name":"Uncletopia | Los Angeles | 4 | No Payload | STV","players":null},{"server_id":11,"name":"Uncletopia | London | 1 | All Maps","name_short":"lon-1","host":"lon-1.uk.uncletopia.com","port":27015,"enabled":true,"region":"eu","cc":"gb","latitude":51.509865,"longitude":-0.118092,"reserved":0,"last_update":"0001-01-01T00:00:00Z","name_a2s":"Uncletopia | London | 1 | All Maps","protocol":17,"map":"pl_frontier_final","folder":"tf","game":"Team Fortress","app_id":440,"player_count":0,"max_players":24,"Bots":0,"server_type":"Dedicated","server_os":"Linux","password":true,"vac":true,"version":"7701286","steam_id":85568392924367362,"keywords":["nocrits","nodmgspread","payload","uncletopia"],"game_id":440,"stv_port":27016,"stv_name":"Uncletopia | London | 1 | All Maps | STV","players":null},{"server_id":114,"name":"Uncletopia | London | 2 | All Maps","name_short":"lon-2","host":"lon-1.uk.uncletopia.com","port":27025,"enabled":true,"region":"eu","cc":"gb","latitude":51.509865,"longitude":-0.118092,"reserved":0,"last_update":"0001-01-01T00:00:00Z","name_a2s":"Uncletopia | London | 2 | All Maps","protocol":17,"map":"cp_dustbowl","folder":"tf","game":"Team Fortress","app_id":440,"player_count":0,"max_players":24,"Bots":0,"server_type":"Dedicated","server_os":"Linux","password":true,"vac":true,"version":"7701286","steam_id":85568392924470941,"keywords":["cp","nocrits","nodmgspread","uncletopia"],"game_id":440,"stv_port":0,"stv_name":"","players":null},{"server_id":320,"name":"Uncletopia | London | 3 | All Maps","name_short":"lon-3","host":"lon-1.uk.uncletopia.com","port":27035,"enabled":true,"region":"eu","cc":"gb","latitude":51.509865,"longitude":-0.118092,"reserved":0,"last_update":"0001-01-01T00:00:00Z","name_a2s":"Uncletopia | London | 3 | All Maps","protocol":17,"map":"pl_upward","folder":"tf","game":"Team Fortress","app_id":440,"player_count":0,"max_players":24,"Bots":0,"server_type":"Dedicated","server_os":"Linux","password":true,"vac":true,"version":"7701286","steam_id":85568392924510192,"keywords":["nocrits","nodmgspread","payload","uncletopia"],"game_id":440,"stv_port":0,"stv_name":"","players":null},{"server_id":321,"name":"Uncletopia | London | 4 | All Maps","name_short":"lon-4","host":"lon-1.uk.uncletopia.com","port":27045,"enabled":true,"region":"eu","cc":"gb","latitude":51.509865,"longitude":-0.118092,"reserved":0,"last_update":"0001-01-01T00:00:00Z","name_a2s":"Uncletopia | London | 4 | All Maps","protocol":17,"map":"koth_viaduct","folder":"tf","game":"Team Fortress","app_id":440,"player_count":0,"max_players":24,"Bots":0,"server_type":"Dedicated","server_os":"Linux","password":true,"vac":true,"version":"7701286","steam_id":85568392924510193,"keywords":["cp","nocrits","nodmgspread","uncletopia"],"game_id":440,"stv_port":0,"stv_name":"","players":null},{"server_id":21,"name":"Uncletopia | London | 5 | All Maps","name_short":"lon-5","host":"lon-1.uk.uncletopia.com","port":27055,"enabled":true,"region":"eu","cc":"gb","latitude":51.509865,"longitude":-0.118092,"reserved":0,"last_update":"0001-01-01T00:00:00Z","name_a2s":"Uncletopia | London | 5 | All Maps","protocol":17,"map":"pl_badwater","folder":"tf","game":"Team Fortress","app_id":440,"player_count":0,"max_players":24,"Bots":0,"server_type":"Dedicated","server_os":"Linux","password":true,"vac":true,"version":"7701286","steam_id":85568392924742829,"keywords":["nocrits","nodmgspread","payload","uncletopia"],"game_id":440,"stv_port":0,"stv_name":"","players":null},{"server_id":22,"name":"Uncletopia | London | 6 | All Maps","name_short":"lon-6","host":"lon-1.uk.uncletopia.com","port":27065,"enabled":true,"region":"eu","cc":"gb","latitude":51.509865,"longitude":-0.118092,"reserved":0,"last_update":"0001-01-01T00:00:00Z","name_a2s":"Uncletopia | London | 6 | All Maps","protocol":17,"map":"cp_dustbowl","folder":"tf","game":"Team Fortress","app_id":440,"player_count":0,"max_players":24,"Bots":0,"server_type":"Dedicated","server_os":"Linux","password":true,"vac":true,"version":"7701286","steam_id":85568392924742830,"keywords":["cp","nocrits","nodmgspread","uncletopia"],"game_id":440,"stv_port":0,"stv_name":"","players":null},{"server_id":40,"name":"Uncletopia | London | 7 | No Payload","name_short":"lon-7","host":"lon-1.uk.uncletopia.com","port":27075,"enabled":true,"region":"eu","cc":"gb","latitude":51.509865,"longitude":-0.118092,"reserved":0,"last_update":"0001-01-01T00:00:00Z","name_a2s":"Uncletopia | London | 7 | No Payload","protocol":17,"map":"pl_frontier_final","folder":"tf","game":"Team Fortress","app_id":440,"player_count":0,"max_players":24,"Bots":0,"server_type":"Dedicated","server_os":"Linux","password":true,"vac":true,"version":"7701286","steam_id":85568392924964314,"keywords":["nocrits","nodmgspread","payload","uncletopia"],"game_id":440,"stv_port":0,"stv_name":"","players":null},{"server_id":41,"name":"Uncletopia | London | 8 | Community","name_short":"lon-8","host":"lon-1.uk.uncletopia.com","port":27085,"enabled":true,"region":"eu","cc":"gb","latitude":51.509865,"longitude":-0.118092,"reserved":0,"last_update":"0001-01-01T00:00:00Z","name_a2s":"Uncletopia | London | 8 | Community","protocol":17,"map":"pl_pier","folder":"tf","game":"Team Fortress","app_id":440,"player_count":0,"max_players":24,"Bots":0,"server_type":"Dedicated","server_os":"Linux","password":true,"vac":true,"version":"7701286","steam_id":85568392924964315,"keywords":["nocrits","nodmgspread","payload","uncletopia"],"game_id":440,"stv_port":0,"stv_name":"","players":null},{"server_id":300,"name":"Uncletopia | Montréal | 1 | All Maps","name_short":"mtl-1","host":"mtl-1.ca.uncletopia.com","port":27015,"enabled":true,"region":"us-east","cc":"ca","latitude":45.50889,"longitude":-73.56167,"reserved":0,"last_update":"0001-01-01T00:00:00Z","name_a2s":"Uncletopia | Montréal | 1 | All Maps","protocol":17,"map":"koth_lakeside_final","folder":"tf","game":"Team Fortress","app_id":440,"player_count":0,"max_players":24,"Bots":0,"server_type":"Dedicated","server_os":"Linux","password":true,"vac":true,"version":"7701286","steam_id":85568392924500087,"keywords":["cp","nocrits","nodmgspread","uncletopia"],"game_id":440,"stv_port":0,"stv_name":"","players":null},{"server_id":301,"name":"Uncletopia | Montréal | 2 | All Maps","name_short":"mtl-2","host":"mtl-1.ca.uncletopia.com","port":27025,"enabled":true,"region":"us-east","cc":"ca","latitude":45.50889,"longitude":-73.56167,"reserved":0,"last_update":"0001-01-01T00:00:00Z","name_a2s":"Uncletopia | Montréal | 2 | All Maps","protocol":17,"map":"koth_cascade","folder":"tf","game":"Team Fortress","app_id":440,"player_count":0,"max_players":24,"Bots":0,"server_type":"Dedicated","server_os":"Linux","password":true,"vac":true,"version":"7701286","steam_id":85568392924500088,"keywords":["cp","nocrits","nodmgspread","uncletopia"],"game_id":440,"stv_port":27026,"stv_name":"Uncletopia | Montréal | 2 | All Maps | STV","players":null},{"server_id":302,"name":"Uncletopia | Montréal | 3 | All Maps","name_short":"mtl-3","host":"mtl-1.ca.uncletopia.com","port":27035,"enabled":true,"region":"us-east","cc":"ca","latitude":45.50889,"longitude":-73.56167,"reserved":0,"last_update":"0001-01-01T00:00:00Z","name_a2s":"Uncletopia | Montréal | 3 | All Maps","protocol":17,"map":"pl_borneo","folder":"tf","game":"Team Fortress","app_id":440,"player_count":0,"max_players":24,"Bots":0,"server_type":"Dedicated","server_os":"Linux","password":true,"vac":true,"version":"7701286","steam_id":85568392924500089,"keywords":["nocrits","nodmgspread","payload","uncletopia"],"game_id":440,"stv_port":27036,"stv_name":"Uncletopia | Montréal | 3 | All Maps | STV","players":null},{"server_id":303,"name":"Uncletopia | Montréal | 4 | No Payload","name_short":"mtl-4","host":"mtl-1.ca.uncletopia.com","port":27045,"enabled":true,"region":"us-east","cc":"ca","latitude":45.50889,"longitude":-73.56167,"reserved":0,"last_update":"0001-01-01T00:00:00Z","name_a2s":"Uncletopia | Montréal | 4 | No Payload","protocol":17,"map":"koth_viaduct","folder":"tf","game":"Team Fortress","app_id":440,"player_count":0,"max_players":24,"Bots":0,"server_type":"Dedicated","server_os":"Linux","password":true,"vac":true,"version":"7701286","steam_id":85568392924500090,"keywords":["cp","nocrits","nodmgspread","uncletopia"],"game_id":440,"stv_port":27046,"stv_name":"Uncletopia | Montréal | 4 | No Payload | STV","players":null},{"server_id":13,"name":"Uncletopia | New York City | 1 | All Maps","name_short":"nyc-1","host":"nyc-1.us.uncletopia.com","port":27015,"enabled":true,"region":"us-east","cc":"us","latitude":40.73061,"longitude":-73.93524,"reserved":0,"last_update":"0001-01-01T00:00:00Z","name_a2s":"Uncletopia | New York City | 1 | All Maps","protocol":17,"map":"ctf_turbine","folder":"tf","game":"Team Fortress","app_id":440,"player_count":8,"max_players":24,"Bots":0,"server_type":"Dedicated","server_os":"Linux","password":true,"vac":true,"version":"7701286","steam_id":85568392924469993,"keywords":["ctf","nocrits","nodmgspread","uncletopia"],"game_id":440,"stv_port":27016,"stv_name":"Uncletopia | New York City | 1 | All Maps | STV","players":[{"user_id":163,"name":"TYPICAL HUMAN","steam_id":76561198060914982,"connected_time":1661000000000,"state":"active","ping":116},{"user_id":175,"name":"K.V. #RemoveRandomCrits","steam_id":76561197994832993,"connected_time":437000000000,"state":"active","ping":137},{"user_id":102,"name":"Ion{M}","steam_id":76561197993457435,"connected_time":6587000000000,"state":"active","ping":81},{"user_id":138,"name":"Yeshie the Dragon Layer","steam_id":76561198080214214,"connected_time":3595000000000,"state":"active","ping":64},{"user_id":108,"name":"Fantastic","steam_id":76561198079088978,"connected_time":6369000000000,"state":"active","ping":69},{"user_id":111,"name":"Vulpes","steam_id":76561198038929334,"connected_time":6243000000000,"state":"active","ping":43},{"user_id":170,"name":"2020 RX 350","steam_id":76561199123332348,"connected_time":944000000000,"state":"active","ping":54},{"user_id":134,"name":"Urbanzpinapple","steam_id":76561198115426938,"connected_time":4250000000000,"state":"active","ping":120}]},{"server_id":14,"name":"Uncletopia | New York City | 2 | All Maps","name_short":"nyc-2","host":"nyc-1.us.uncletopia.com","port":27025,"enabled":true,"region":"us-east","cc":"us","latitude":40.73061,"longitude":-73.93524,"reserved":0,"last_update":"0001-01-01T00:00:00Z","name_a2s":"Uncletopia | New York City | 2 | All Maps","protocol":17,"map":"pl_barnblitz","folder":"tf","game":"Team Fortress","app_id":440,"player_count":11,"max_players":24,"Bots":0,"server_type":"Dedicated","server_os":"Linux","password":true,"vac":true,"version":"7701286","steam_id":85568392924469994,"keywords":["nocrits","nodmgspread","payload","uncletopia"],"game_id":440,"stv_port":27026,"stv_name":"Uncletopia | New York City | 2 | All Maps | STV","players":[{"user_id":162,"name":"Jolly evil little man","steam_id":76561198311053471,"connected_time":33000000000,"state":"active","ping":86},{"user_id":163,"name":"AlDI_mac","steam_id":76561199416218763,"connected_time":22000000000,"state":"spawning","ping":329},{"user_id":148,"name":"merry trapmas","steam_id":76561198402801140,"connected_time":699000000000,"state":"active","ping":81},{"user_id":161,"name":"Dr. Snerd","steam_id":76561198072485065,"connected_time":193000000000,"state":"active","ping":89},{"user_id":143,"name":"Bashirider","steam_id":76561198260522253,"connected_time":1768000000000,"state":"active","ping":43},{"user_id":164,"name":"Pen","steam_id":76561197968648211,"connected_time":14000000000,"state":"active","ping":114},{"user_id":150,"name":"hakon","steam_id":76561198058865786,"connected_time":679000000000,"state":"active","ping":74},{"user_id":103,"name":"G_Bob","steam_id":76561198098133233,"connected_time":6230000000000,"state":"active","ping":75},{"user_id":136,"name":"None of that $9.99 bullshit","steam_id":76561198116169903,"connected_time":2186000000000,"state":"active","ping":76},{"user_id":92,"name":"Fever Dreams","steam_id":76561198116614620,"connected_time":7230000000000,"state":"active","ping":65},{"user_id":146,"name":"rat","steam_id":76561198146602622,"connected_time":1237000000000,"state":"active","ping":70}]},{"server_id":15,"name":"Uncletopia | New York City | 3 | All Maps","name_short":"nyc-3","host":"nyc-1.us.uncletopia.com","port":27035,"enabled":true,"region":"us-east","cc":"us","latitude":40.73061,"longitude":-73.93524,"reserved":0,"last_update":"0001-01-01T00:00:00Z","name_a2s":"Uncletopia | New York City | 3 | All Maps","protocol":17,"map":"pl_swiftwater_final1","folder":"tf","game":"Team Fortress","app_id":440,"player_count":17,"max_players":24,"Bots":0,"server_type":"Dedicated","server_os":"Linux","password":true,"vac":true,"version":"7701286","steam_id":85568392924742820,"keywords":["nocrits","nodmgspread","payload","uncletopia"],"game_id":440,"stv_port":27036,"stv_name":"Uncletopia | New York City | 3 | All Maps | STV","players":[{"user_id":117,"name":"ethanweegee","steam_id":76561198272400016,"connected_time":5446000000000,"state":"active","ping":66},{"user_id":187,"name":"EddyQTooReal","steam_id":76561198088480679,"connected_time":14000000000,"state":"active","ping":105},{"user_id":171,"name":"ElephantBlog","steam_id":76561198052905261,"connected_time":1694000000000,"state":"active","ping":57},{"user_id":186,"name":"Impmon","steam_id":76561198046375806,"connected_time":45000000000,"state":"active","ping":82},{"user_id":177,"name":"lobwege","steam_id":76561198044340855,"connected_time":946000000000,"state":"active","ping":72},{"user_id":93,"name":"novacheri1","steam_id":76561198345120143,"connected_time":7350000000000,"state":"active","ping":63},{"user_id":180,"name":"Verathragna","steam_id":76561198067215453,"connected_time":825000000000,"state":"active","ping":46},{"user_id":123,"name":"M00NM4DN355 || Buff The Speed","steam_id":76561198082775439,"connected_time":5006000000000,"state":"active","ping":58},{"user_id":181,"name":"Monkey","steam_id":76561198031015186,"connected_time":804000000000,"state":"active","ping":74},{"user_id":125,"name":"Stressmelo","steam_id":76561199204445185,"connected_time":4903000000000,"state":"active","ping":82},{"user_id":130,"name":"Soap","steam_id":76561198074619142,"connected_time":4746000000000,"state":"active","ping":103},{"user_id":147,"name":"Mythical Lag","steam_id":76561198347031281,"connected_time":3700000000000,"state":"active","ping":89},{"user_id":143,"name":"-BRH- Tangled up in Bluegrass","steam_id":76561197987181139,"connected_time":3980000000000,"state":"active","ping":83},{"user_id":160,"name":"Professor Peppermint","steam_id":76561198184017082,"connected_time":2748000000000,"state":"active","ping":80},{"user_id":178,"name":"Hulkster","steam_id":76561198086229708,"connected_time":935000000000,"state":"active","ping":88},{"user_id":149,"name":"RelativeToZero","steam_id":76561198175875733,"connected_time":3575000000000,"state":"active","ping":113},{"user_id":185,"name":"MrLeftTurn","steam_id":76561198856743969,"connected_time":126000000000,"state":"active","ping":155}]},{"server_id":16,"name":"Uncletopia | New York City | 4 | Community","name_short":"nyc-4","host":"nyc-1.us.uncletopia.com","port":27045,"enabled":true,"region":"us-east","cc":"us","latitude":40.73061,"longitude":-73.93524,"reserved":0,"last_update":"0001-01-01T00:00:00Z","name_a2s":"Uncletopia | New York City | 4 | Community","protocol":17,"map":"workshop/rd_asteroid_redux_rc9.ugc2154902912","folder":"tf","game":"Team Fortress","app_id":440,"player_count":0,"max_players":24,"Bots":0,"server_type":"Dedicated","server_os":"Linux","password":true,"vac":true,"version":"7701286","steam_id":85568392924742821,"keywords":["beta","nocrits","nodmgspread","rd","uncletopia"],"game_id":440,"stv_port":27046,"stv_name":"Uncletopia | New York City | 4 | Community | STV","players":null},{"server_id":142,"name":"Uncletopia | São Paulo | 1 | All Maps","name_short":"sao-1","host":"sao-1.br.uncletopia.com","port":27015,"enabled":true,"region":"sa","cc":"br","latitude":-23.533773,"longitude":-46.62529,"reserved":0,"last_update":"0001-01-01T00:00:00Z","name_a2s":"Uncletopia | São Paulo | 1 | All Maps","protocol":17,"map":"pl_upward","folder":"tf","game":"Team Fortress","app_id":440,"player_count":0,"max_players":24,"Bots":0,"server_type":"Dedicated","server_os":"Linux","password":true,"vac":true,"version":"7701286","steam_id":85568392924469996,"keywords":["nocrits","nodmgspread","payload","uncletopia"],"game_id":440,"stv_port":27016,"stv_name":"Uncletopia | São Paulo | 1 | All Maps | STV","players":null},{"server_id":143,"name":"Uncletopia | São Paulo | 2 | All Maps","name_short":"sao-2","host":"sao-2.br.uncletopia.com","port":27015,"enabled":true,"region":"sa","cc":"br","latitude":-23.533773,"longitude":-46.62529,"reserved":0,"last_update":"0001-01-01T00:00:00Z","name_a2s":"Uncletopia | São Paulo | 2 | All Maps","protocol":17,"map":"pl_pier","folder":"tf","game":"Team Fortress","app_id":440,"player_count":0,"max_players":24,"Bots":0,"server_type":"Dedicated","server_os":"Linux","password":true,"vac":true,"version":"7701286","steam_id":85568392924485349,"keywords":["nocrits","nodmgspread","payload","uncletopia"],"game_id":440,"stv_port":27016,"stv_name":"Uncletopia | São Paulo | 2 | All Maps | STV","players":null},{"server_id":7,"name":"Uncletopia | Seattle | 1 | All Maps","name_short":"sea-1","host":"sea-1.us.uncletopia.com","port":27015,"enabled":true,"region":"us-west","cc":"us","latitude":47.608013,"longitude":-122.33517,"reserved":0,"last_update":"0001-01-01T00:00:00Z","name_a2s":"Uncletopia | Seattle | 1 | All Maps","protocol":17,"map":"pl_frostcliff","folder":"tf","game":"Team Fortress","app_id":440,"player_count":24,"max_players":24,"Bots":0,"server_type":"Dedicated","server_os":"Linux","password":true,"vac":true,"version":"7701286","steam_id":85568392924469997,"keywords":["nocrits","nodmgspread","payload","uncletopia"],"game_id":440,"stv_port":27016,"stv_name":"Uncletopia | Seattle | 1 | All Maps | STV","players":[{"user_id":134,"name":"Common","steam_id":76561198041083863,"connected_time":4135000000000,"state":"active","ping":56},{"user_id":163,"name":"DeadlyAnomalies","steam_id":76561198125818085,"connected_time":967000000000,"state":"active","ping":82},{"user_id":147,"name":"TüCold","steam_id":76561198111278197,"connected_time":2527000000000,"state":"active","ping":57},{"user_id":171,"name":"dust","steam_id":76561198045218909,"connected_time":552000000000,"state":"active","ping":45},{"user_id":150,"name":"Shifty Louie","steam_id":76561197990872608,"connected_time":2014000000000,"state":"active","ping":73},{"user_id":166,"name":"Misclick","steam_id":76561198050855911,"connected_time":926000000000,"state":"active","ping":107},{"user_id":126,"name":"PP_PhD","steam_id":76561198168851111,"connected_time":4244000000000,"state":"active","ping":60},{"user_id":164,"name":"ed","steam_id":76561198080475712,"connected_time":963000000000,"state":"active","ping":71},{"user_id":137,"name":"Arsonist Goose","steam_id":76561198147441830,"connected_time":3593000000000,"state":"active","ping":74},{"user_id":143,"name":"Super Mighty G","steam_id":76561198020932806,"connected_time":3062000000000,"state":"active","ping":77},{"user_id":167,"name":"Wormy Getting Coal","steam_id":76561198054539200,"connected_time":923000000000,"state":"active","ping":54},{"user_id":140,"name":"hedahman","steam_id":76561198052398134,"connected_time":3121000000000,"state":"active","ping":47},{"user_id":174,"name":"Ayayahuasca","steam_id":76561199002906056,"connected_time":226000000000,"state":"active","ping":48},{"user_id":154,"name":"The Mincer","steam_id":76561198209881263,"connected_time":1663000000000,"state":"active","ping":79},{"user_id":161,"name":"fL0","steam_id":76561197990989939,"connected_time":1025000000000,"state":"active","ping":45},{"user_id":138,"name":"agent 4 my beloved","steam_id":76561198035698704,"connected_time":3569000000000,"state":"active","ping":74},{"user_id":175,"name":"Chap","steam_id":76561198294226443,"connected_time":129000000000,"state":"active","ping":88},{"user_id":78,"name":"CheeseCake488","steam_id":76561199407617942,"connected_time":8427000000000,"state":"active","ping":165},{"user_id":74,"name":"Krazzle","steam_id":76561198029782412,"connected_time":9395000000000,"state":"active","ping":65},{"user_id":156,"name":"Drive-By-Fish-Guy","steam_id":76561198105513652,"connected_time":1598000000000,"state":"active","ping":102},{"user_id":146,"name":"Strength!!","steam_id":76561198001241984,"connected_time":2535000000000,"state":"active","ping":57},{"user_id":173,"name":"BleuCan2","steam_id":76561198043556993,"connected_time":377000000000,"state":"active","ping":66},{"user_id":159,"name":"Nyquil Gaming","steam_id":76561198154147029,"connected_time":1208000000000,"state":"active","ping":57},{"user_id":162,"name":"Shnakes","steam_id":76561198201649518,"connected_time":993000000000,"state":"active","ping":87}]},{"server_id":119,"name":"Uncletopia | Seattle | 2 | All Maps","name_short":"sea-2","host":"sea-1.us.uncletopia.com","port":27025,"enabled":true,"region":"us-west","cc":"us","latitude":47.608013,"longitude":-122.33517,"reserved":0,"last_update":"0001-01-01T00:00:00Z","name_a2s":"Uncletopia | Seattle | 2 | All Maps","protocol":17,"map":"cp_process_final","folder":"tf","game":"Team Fortress","app_id":440,"player_count":24,"max_players":24,"Bots":0,"server_type":"Dedicated","server_os":"Linux","password":true,"vac":true,"version":"7701286","steam_id":85568392924469998,"keywords":["cp","nocrits","nodmgspread","uncletopia"],"game_id":440,"stv_port":27026,"stv_name":"Uncletopia | Seattle | 2 | All Maps | STV","players":[{"user_id":170,"name":"NEX","steam_id":76561198122178634,"connected_time":295000000000,"state":"active","ping":50},{"user_id":174,"name":"Quietsharp","steam_id":76561198277968438,"connected_time":207000000000,"state":"active","ping":79},{"user_id":160,"name":"bombslut -  t.tv/blazedfaux","steam_id":76561198421913648,"connected_time":550000000000,"state":"active","ping":45},{"user_id":158,"name":"Fachedin","steam_id":76561198041850415,"connected_time":613000000000,"state":"active","ping":69},{"user_id":168,"name":"dougrocks421","steam_id":76561198165063918,"connected_time":329000000000,"state":"active","ping":35},{"user_id":71,"name":"General Fisticuffs","steam_id":76561198255721392,"connected_time":8002000000000,"state":"active","ping":106},{"user_id":148,"name":"weeb","steam_id":76561198106945226,"connected_time":1781000000000,"state":"active","ping":111},{"user_id":151,"name":"Tw1tch3r","steam_id":76561199093785937,"connected_time":1195000000000,"state":"active","ping":93},{"user_id":162,"name":"wile","steam_id":76561198125261443,"connected_time":514000000000,"state":"active","ping":50},{"user_id":144,"name":"Greskrendtregk","steam_id":76561197969553142,"connected_time":1878000000000,"state":"active","ping":51},{"user_id":163,"name":"graylie","steam_id":76561198108685037,"connected_time":498000000000,"state":"active","ping":77},{"user_id":167,"name":"cheechman512","steam_id":76561198322633048,"connected_time":427000000000,"state":"active","ping":57},{"user_id":123,"name":"ansoonii","steam_id":76561198092494136,"connected_time":3336000000000,"state":"active","ping":95},{"user_id":145,"name":"A UsedNom","steam_id":76561198402832756,"connected_time":1876000000000,"state":"active","ping":62},{"user_id":149,"name":"Peep the Horror","steam_id":76561198126219247,"connected_time":1763000000000,"state":"active","ping":80},{"user_id":129,"name":"hypotenuse","steam_id":76561198062479158,"connected_time":3053000000000,"state":"active","ping":50},{"user_id":152,"name":"Bagaboned","steam_id":76561198043761335,"connected_time":1195000000000,"state":"active","ping":50},{"user_id":141,"name":"M4 Sherman","steam_id":76561198011096132,"connected_time":2045000000000,"state":"active","ping":66},{"user_id":165,"name":"orthotic horse shoes","steam_id":76561198083242298,"connected_time":481000000000,"state":"active","ping":131},{"user_id":166,"name":"spare rib","steam_id":76561198126115646,"connected_time":476000000000,"state":"active","ping":40},{"user_id":175,"name":"Gilbert Clappton","steam_id":76561198086484233,"connected_time":190000000000,"state":"active","ping":49},{"user_id":154,"name":"Lonestar827","steam_id":76561198035533639,"connected_time":1045000000000,"state":"active","ping":49},{"user_id":117,"name":"bappo del taco","steam_id":76561199068510270,"connected_time":3859000000000,"state":"active","ping":58},{"user_id":119,"name":"goldhed","steam_id":76561198051751133,"connected_time":3622000000000,"state":"active","ping":58}]},{"server_id":17,"name":"Uncletopia | San Francisco | 1 | All Maps","name_short":"sfo-1","host":"sfo-1.us.uncletopia.com","port":27015,"enabled":true,"region":"us-west","cc":"us","latitude":37.77397,"longitude":-122.4313,"reserved":0,"last_update":"0001-01-01T00:00:00Z","name_a2s":"Uncletopia | San Francisco | 1 | All Maps","protocol":17,"map":"cp_snakewater_final1","folder":"tf","game":"Team Fortress","app_id":440,"player_count":0,"max_players":24,"Bots":0,"server_type":"Dedicated","server_os":"Linux","password":true,"vac":true,"version":"7701286","steam_id":85568392924469999,"keywords":["cp","nocrits","nodmgspread","uncletopia"],"game_id":440,"stv_port":27016,"stv_name":"Uncletopia | San Francisco | 1 | All Maps | STV","players":null},{"server_id":18,"name":"Uncletopia | San Francisco | 2 | All Maps","name_short":"sfo-2","host":"sfo-1.us.uncletopia.com","port":27025,"enabled":true,"region":"us-west","cc":"us","latitude":37.77397,"longitude":-122.4313,"reserved":0,"last_update":"0001-01-01T00:00:00Z","name_a2s":"Uncletopia | San Francisco | 2 | All Maps","protocol":17,"map":"pl_frontier_final","folder":"tf","game":"Team Fortress","app_id":440,"player_count":20,"max_players":24,"Bots":0,"server_type":"Dedicated","server_os":"Linux","password":true,"vac":true,"version":"7701286","steam_id":85568392924470000,"keywords":["nocrits","nodmgspread","payload","uncletopia"],"game_id":440,"stv_port":27026,"stv_name":"Uncletopia | San Francisco | 2 | All Maps | STV","players":[{"user_id":18,"name":"GrandpappyCripes","steam_id":76561198086994768,"connected_time":5812000000000,"state":"active","ping":46},{"user_id":28,"name":"Facepalm","steam_id":76561198001935226,"connected_time":2902000000000,"state":"active","ping":44},{"user_id":29,"name":"BrightOrangeMango","steam_id":76561198023144607,"connected_time":2810000000000,"state":"active","ping":63},{"user_id":33,"name":"El Doktor","steam_id":76561198413013439,"connected_time":1989000000000,"state":"active","ping":58},{"user_id":30,"name":"Arctanis","steam_id":76561198030906125,"connected_time":2647000000000,"state":"active","ping":50},{"user_id":25,"name":"El Monte","steam_id":76561198263562991,"connected_time":3751000000000,"state":"active","ping":52},{"user_id":50,"name":"Uncle Scruncle (real)","steam_id":76561198083414610,"connected_time":758000000000,"state":"active","ping":55},{"user_id":56,"name":"dewey","steam_id":76561198132791511,"connected_time":550000000000,"state":"active","ping":58},{"user_id":35,"name":"Nez","steam_id":76561197963109059,"connected_time":1550000000000,"state":"active","ping":65},{"user_id":37,"name":"ElectronX","steam_id":76561198116034988,"connected_time":1385000000000,"state":"active","ping":38},{"user_id":57,"name":"paint thinner victim","steam_id":76561198176069217,"connected_time":351000000000,"state":"active","ping":73},{"user_id":58,"name":"brae","steam_id":76561198047126327,"connected_time":23000000000,"state":"active","ping":76},{"user_id":41,"name":"LibraH","steam_id":76561198216066565,"connected_time":1264000000000,"state":"active","ping":45},{"user_id":54,"name":"BigHam","steam_id":76561198157249056,"connected_time":663000000000,"state":"active","ping":68},{"user_id":43,"name":"moe","steam_id":76561198929586245,"connected_time":1251000000000,"state":"active","ping":62},{"user_id":44,"name":"kenZino","steam_id":76561197967971192,"connected_time":1248000000000,"state":"active","ping":54},{"user_id":45,"name":"Pimplup","steam_id":76561198236007340,"connected_time":1205000000000,"state":"active","ping":59},{"user_id":52,"name":"Kuchio","steam_id":76561198161218914,"connected_time":707000000000,"state":"active","ping":46},{"user_id":55,"name":"OmniXVII","steam_id":76561198027183394,"connected_time":624000000000,"state":"active","ping":73},{"user_id":49,"name":"pooping.peter.2009","steam_id":76561198171368867,"connected_time":992000000000,"state":"active","ping":53}]},{"server_id":19,"name":"Uncletopia | San Francisco | 3 | No Payload","name_short":"sfo-3","host":"sfo-1.us.uncletopia.com","port":27035,"enabled":true,"region":"us-west","cc":"us","latitude":37.77397,"longitude":-122.4313,"reserved":0,"last_update":"0001-01-01T00:00:00Z","name_a2s":"Uncletopia | San Francisco | 3 | No Payload","protocol":17,"map":"cp_vanguard","folder":"tf","game":"Team Fortress","app_id":440,"player_count":0,"max_players":24,"Bots":0,"server_type":"Dedicated","server_os":"Linux","password":true,"vac":true,"version":"7701286","steam_id":85568392924742824,"keywords":["cp","nocrits","nodmgspread","uncletopia"],"game_id":440,"stv_port":27036,"stv_name":"Uncletopia | San Francisco | 3 | No Payload | STV","players":null},{"server_id":20,"name":"Uncletopia | San Francisco | 4 | Community","name_short":"sfo-4","host":"sfo-1.us.uncletopia.com","port":27045,"enabled":true,"region":"us-west","cc":"us","latitude":37.77397,"longitude":-122.4313,"reserved":0,"last_update":"0001-01-01T00:00:00Z","name_a2s":"Uncletopia | San Francisco | 4 | Community","protocol":17,"map":"workshop/koth_product_final.ugc454272353","folder":"tf","game":"Team Fortress","app_id":440,"player_count":3,"max_players":24,"Bots":0,"server_type":"Dedicated","server_os":"Linux","password":true,"vac":true,"version":"7701286","steam_id":85568392924742826,"keywords":["cp","nocrits","nodmgspread","uncletopia"],"game_id":440,"stv_port":27046,"stv_name":"Uncletopia | San Francisco | 4 | Community | STV","players":[{"user_id":127,"name":"Pootis Engage","steam_id":76561199207219175,"connected_time":491000000000,"state":"active","ping":98},{"user_id":128,"name":"ID_SNAIL_RU","steam_id":76561199105781727,"connected_time":40000000000,"state":"active","ping":299},{"user_id":123,"name":"boxy443 (f2p)","steam_id":76561199386363103,"connected_time":1443000000000,"state":"active","ping":65}]},{"server_id":141,"name":"Uncletopia | Sydney | 1 | All Maps","name_short":"syd-1","host":"syd-1.au.uncletopia.com","port":27015,"enabled":true,"region":"au","cc":"au","latitude":-33.865143,"longitude":151.2099,"reserved":0,"last_update":"0001-01-01T00:00:00Z","name_a2s":"Uncletopia | Sydney | 1 | All Maps","protocol":17,"map":"pl_barnblitz","folder":"tf","game":"Team Fortress","app_id":440,"player_count":24,"max_players":24,"Bots":0,"server_type":"Dedicated","server_os":"Linux","password":true,"vac":true,"version":"7701286","steam_id":85568392924470001,"keywords":["nocrits","nodmgspread","payload","uncletopia"],"game_id":440,"stv_port":27016,"stv_name":"Uncletopia | Sydney | 1 | All Maps | STV","players":[{"user_id":241,"name":"Mooty","steam_id":76561198301293435,"connected_time":411000000000,"state":"active","ping":54},{"user_id":242,"name":"Sinister80s","steam_id":76561198343540472,"connected_time":313000000000,"state":"active","ping":94},{"user_id":210,"name":"Phoish","steam_id":76561198442526296,"connected_time":2592000000000,"state":"active","ping":64},{"user_id":150,"name":"Kumbya Kumbya","steam_id":76561198117979249,"connected_time":6055000000000,"state":"active","ping":58},{"user_id":244,"name":"weakest engineer main","steam_id":76561199011086094,"connected_time":139000000000,"state":"active","ping":46},{"user_id":245,"name":"This Guy","steam_id":76561198082944097,"connected_time":123000000000,"state":"active","ping":83},{"user_id":237,"name":"gon","steam_id":76561198059906626,"connected_time":803000000000,"state":"active","ping":73},{"user_id":236,"name":"zen","steam_id":76561198302670452,"connected_time":891000000000,"state":"active","ping":60},{"user_id":225,"name":"blicky","steam_id":76561198029829077,"connected_time":1463000000000,"state":"active","ping":93},{"user_id":187,"name":"On My Way to Smooch You, I Am","steam_id":76561198041713339,"connected_time":4210000000000,"state":"active","ping":69},{"user_id":238,"name":"shirt without the r","steam_id":76561199071810220,"connected_time":625000000000,"state":"active","ping":57},{"user_id":222,"name":"PyroShark","steam_id":76561198199915279,"connected_time":1558000000000,"state":"active","ping":71},{"user_id":213,"name":"TooLongName","steam_id":76561198082203205,"connected_time":2373000000000,"state":"active","ping":62},{"user_id":246,"name":"lunaaa ♡♡♡","steam_id":76561199009912335,"connected_time":116000000000,"state":"active","ping":66},{"user_id":239,"name":"BOT Gаry","steam_id":76561198376950841,"connected_time":619000000000,"state":"active","ping":53},{"user_id":218,"name":"man ahhh","steam_id":76561198129577552,"connected_time":2077000000000,"state":"active","ping":81},{"user_id":205,"name":"♥ Sharpy \u003e v \u003c","steam_id":76561198091613743,"connected_time":3231000000000,"state":"active","ping":96},{"user_id":216,"name":"DelHasMangoes/yt","steam_id":76561198047183797,"connected_time":2277000000000,"state":"active","ping":90},{"user_id":175,"name":"Macca","steam_id":76561198010207998,"connected_time":4497000000000,"state":"active","ping":58},{"user_id":207,"name":"Gasoline","steam_id":76561198879023728,"connected_time":3075000000000,"state":"active","ping":81},{"user_id":226,"name":"SoyBoy","steam_id":76561197992447102,"connected_time":1462000000000,"state":"active","ping":46},{"user_id":229,"name":"cbpop","steam_id":76561198992538857,"connected_time":1306000000000,"state":"active","ping":51},{"user_id":235,"name":"nightjar","steam_id":76561198879777132,"connected_time":975000000000,"state":"active","ping":67},{"user_id":221,"name":"APVC","steam_id":76561199090168813,"connected_time":1778000000000,"state":"active","ping":47}]},{"server_id":123,"name":"Uncletopia | Sydney | 2 | All Maps","name_short":"syd-2","host":"syd-1.au.uncletopia.com","port":27025,"enabled":true,"region":"au","cc":"au","latitude":-33.865143,"longitude":151.2099,"reserved":0,"last_update":"0001-01-01T00:00:00Z","name_a2s":"Uncletopia | Sydney | 2 | All Maps","protocol":17,"map":"cp_dustbowl","folder":"tf","game":"Team Fortress","app_id":440,"player_count":24,"max_players":24,"Bots":0,"server_type":"Dedicated","server_os":"Linux","password":true,"vac":true,"version":"7701286","steam_id":85568392924470002,"keywords":["cp","nocrits","nodmgspread","uncletopia"],"game_id":440,"stv_port":27026,"stv_name":"Uncletopia | Sydney | 2 | All Maps | STV","players":[{"user_id":112,"name":"pigeonpumper1991","steam_id":76561197985197292,"connected_time":4006000000000,"state":"active","ping":57},{"user_id":139,"name":"MineSweeper2048","steam_id":76561198338746543,"connected_time":2582000000000,"state":"active","ping":52},{"user_id":176,"name":"1stdaughter7thchildof7thson","steam_id":76561198147963975,"connected_time":963000000000,"state":"active","ping":49},{"user_id":171,"name":"Who The Hell","steam_id":76561198871160226,"connected_time":1082000000000,"state":"active","ping":57},{"user_id":148,"name":"BestdogShadow","steam_id":76561199004014342,"connected_time":1929000000000,"state":"active","ping":62},{"user_id":199,"name":"tevell","steam_id":76561199429493084,"connected_time":42000000000,"state":"active","ping":106},{"user_id":172,"name":"Mr Asian","steam_id":76561199119648313,"connected_time":1022000000000,"state":"active","ping":80},{"user_id":192,"name":"Plank With Nail","steam_id":76561198386680404,"connected_time":621000000000,"state":"active","ping":62},{"user_id":196,"name":"Dangerous DPad","steam_id":76561198452829128,"connected_time":403000000000,"state":"active","ping":63},{"user_id":177,"name":"everybody do the FLOP!!","steam_id":76561198237667940,"connected_time":958000000000,"state":"active","ping":90},{"user_id":179,"name":"Qwerty","steam_id":76561199157092367,"connected_time":874000000000,"state":"active","ping":78},{"user_id":174,"name":"Tradginoloscopy","steam_id":76561198153699311,"connected_time":1015000000000,"state":"active","ping":59},{"user_id":156,"name":"RedEyes","steam_id":76561197973698135,"connected_time":1570000000000,"state":"active","ping":69},{"user_id":185,"name":"Dingo","steam_id":76561198315774295,"connected_time":799000000000,"state":"active","ping":64},{"user_id":202,"name":"Treggles","steam_id":76561198042806226,"connected_time":0,"state":"connecting","ping":0},{"user_id":134,"name":"fatheavytf2","steam_id":76561198369296417,"connected_time":2926000000000,"state":"active","ping":48},{"user_id":154,"name":"blackmanblack","steam_id":76561198309279405,"connected_time":1710000000000,"state":"active","ping":63},{"user_id":186,"name":"Lobarté","steam_id":76561198090116136,"connected_time":794000000000,"state":"active","ping":61},{"user_id":163,"name":"₱elica₦","steam_id":76561198123827973,"connected_time":1303000000000,"state":"active","ping":102},{"user_id":197,"name":"$löth","steam_id":76561197964204564,"connected_time":229000000000,"state":"active","ping":63},{"user_id":198,"name":"clout","steam_id":76561198073310502,"connected_time":207000000000,"state":"active","ping":77},{"user_id":190,"name":"Cocopowder","steam_id":76561198927912704,"connected_time":706000000000,"state":"active","ping":63},{"user_id":183,"name":"Nenguu","steam_id":76561198243952386,"connected_time":817000000000,"state":"active","ping":62},{"user_id":201,"name":"Phlog enthusiast","steam_id":76561198344085093,"connected_time":27000000000,"state":"spawning","ping":96}]},{"server_id":395,"name":"Uncletopia | Sydney | 3 | All Maps","name_short":"syd-3","host":"syd-1.au.uncletopia.com","port":27035,"enabled":true,"region":"au","cc":"au","latitude":-33.865143,"longitude":151.2099,"reserved":0,"last_update":"0001-01-01T00:00:00Z","name_a2s":"Uncletopia | Sydney | 3 | All Maps","protocol":17,"map":"pl_snowycoast","folder":"tf","game":"Team Fortress","app_id":440,"player_count":5,"max_players":24,"Bots":0,"server_type":"Dedicated","server_os":"Linux","password":true,"vac":true,"version":"7701286","steam_id":85568392925194467,"keywords":["nocrits","nodmgspread","payload","uncletopia"],"game_id":440,"stv_port":27036,"stv_name":"Uncletopia | Sydney | 3 | All Maps | STV","players":[{"user_id":5,"name":"fras","steam_id":76561198122748481,"connected_time":741000000000,"state":"active","ping":66},{"user_id":6,"name":"Reedy","steam_id":76561198155994395,"connected_time":740000000000,"state":"active","ping":59},{"user_id":9,"name":"Branko","steam_id":76561199262196710,"connected_time":347000000000,"state":"active","ping":41},{"user_id":10,"name":"Selling Anti-Matter for $543","steam_id":76561198070708382,"connected_time":185000000000,"state":"active","ping":55},{"user_id":15,"name":"var","steam_id":76561198164892406,"connected_time":47000000000,"state":"active","ping":86}]},{"server_id":396,"name":"Uncletopia | Sydney | 4 | All Maps","name_short":"syd-4","host":"syd-1.au.uncletopia.com","port":27045,"enabled":true,"region":"au","cc":"au","latitude":-33.865143,"longitude":151.2099,"reserved":0,"last_update":"0001-01-01T00:00:00Z","name_a2s":"Uncletopia | Sydney | 4 | All Maps","protocol":17,"map":"koth_highpass","folder":"tf","game":"Team Fortress","app_id":440,"player_count":4,"max_players":24,"Bots":0,"server_type":"Dedicated","server_os":"Linux","password":true,"vac":true,"version":"7701286","steam_id":85568392925397958,"keywords":["cp","nocrits","nodmgspread","uncletopia"],"game_id":440,"stv_port":0,"stv_name":"","players":[{"user_id":8,"name":"Lancer","steam_id":76561198122813810,"connected_time":1444000000000,"state":"active","ping":81},{"user_id":9,"name":"phill","steam_id":76561198088680889,"connected_time":1371000000000,"state":"active","ping":85},{"user_id":10,"name":"cimpact","steam_id":76561198452258917,"connected_time":1031000000000,"state":"active","ping":146},{"user_id":14,"name":"ScorpioX1","steam_id":76561198862407122,"connected_time":207000000000,"state":"active","ping":70}]},{"server_id":58,"name":"Uncletopia | Sydney | 5 | No Payload","name_short":"syd-5","host":"syd-1.au.uncletopia.com","port":27055,"enabled":true,"region":"au","cc":"au","latitude":-33.865143,"longitude":151.2099,"reserved":0,"last_update":"0001-01-01T00:00:00Z","name_a2s":"Uncletopia | Sydney | 5 | No Payload","protocol":17,"map":"cp_powerhouse","folder":"tf","game":"Team Fortress","app_id":440,"player_count":0,"max_players":24,"Bots":0,"server_type":"Dedicated","server_os":"Linux","password":true,"vac":true,"version":"7701286","steam_id":85568392925397959,"keywords":["cp","nocrits","nodmgspread","uncletopia"],"game_id":440,"stv_port":27056,"stv_name":"Uncletopia | Sydney | 5 | No Payload | STV","players":null},{"server_id":59,"name":"Uncletopia | Sydney | 6 | Community","name_short":"syd-6","host":"syd-1.au.uncletopia.com","port":27065,"enabled":true,"region":"au","cc":"au","latitude":-33.865143,"longitude":151.2099,"reserved":0,"last_update":"0001-01-01T00:00:00Z","name_a2s":"Uncletopia | Sydney | 6 | Community","protocol":17,"map":"workshop/cp_reckoner_rc6.ugc674719999","folder":"tf","game":"Team Fortress","app_id":440,"player_count":0,"max_players":24,"Bots":0,"server_type":"Dedicated","server_os":"Linux","password":true,"vac":true,"version":"7701286","steam_id":85568392925397960,"keywords":["cp","nocrits","nodmgspread","uncletopia"],"game_id":440,"stv_port":27066,"stv_name":"Uncletopia | Sydney | 6 | Community | STV","players":null},{"server_id":49,"name":"Uncletopia | Warsaw | 1 | All Maps","name_short":"waw-1","host":"waw-1.pl.uncletopia.com","port":27015,"enabled":true,"region":"eu","cc":"pl","latitude":52.2297,"longitude":21.017532,"reserved":0,"last_update":"0001-01-01T00:00:00Z","name_a2s":"Uncletopia | Warsaw | 1 | All Maps","protocol":17,"map":"pl_upward","folder":"tf","game":"Team Fortress","app_id":440,"player_count":0,"max_players":24,"Bots":0,"server_type":"Dedicated","server_os":"Linux","password":true,"vac":true,"version":"7701286","steam_id":85568392925397850,"keywords":["nocrits","nodmgspread","payload","uncletopia"],"game_id":440,"stv_port":0,"stv_name":"","players":null},{"server_id":50,"name":"Uncletopia | Warsaw | 2 | All Maps","name_short":"waw-2","host":"waw-1.pl.uncletopia.com","port":27025,"enabled":true,"region":"eu","cc":"pl","latitude":52.2297,"longitude":21.017532,"reserved":0,"last_update":"0001-01-01T00:00:00Z","name_a2s":"Uncletopia | Warsaw | 2 | All Maps","protocol":17,"map":"koth_highpass","folder":"tf","game":"Team Fortress","app_id":440,"player_count":0,"max_players":24,"Bots":0,"server_type":"Dedicated","server_os":"Linux","password":true,"vac":true,"version":"7701286","steam_id":85568392925397851,"keywords":["cp","nocrits","nodmgspread","uncletopia"],"game_id":440,"stv_port":0,"stv_name":"","players":null},{"server_id":51,"name":"Uncletopia | Warsaw | 3 | All Maps","name_short":"waw-3","host":"waw-1.pl.uncletopia.com","port":27035,"enabled":true,"region":"eu","cc":"pl","latitude":52.2297,"longitude":21.017532,"reserved":0,"last_update":"0001-01-01T00:00:00Z","name_a2s":"Uncletopia | Warsaw | 3 | All Maps","protocol":17,"map":"cp_mountainlab","folder":"tf","game":"Team Fortress","app_id":440,"player_count":0,"max_players":24,"Bots":0,"server_type":"Dedicated","server_os":"Linux","password":true,"vac":true,"version":"7701286","steam_id":85568392925397852,"keywords":["cp","nocrits","nodmgspread","uncletopia"],"game_id":440,"stv_port":0,"stv_name":"","players":null},{"server_id":52,"name":"Uncletopia | Warsaw | 4 | All Maps","name_short":"waw-4","host":"waw-1.pl.uncletopia.com","port":27045,"enabled":true,"region":"eu","cc":"pl","latitude":52.2297,"longitude":21.017532,"reserved":0,"last_update":"0001-01-01T00:00:00Z","name_a2s":"Uncletopia | Warsaw | 4 | All Maps","protocol":17,"map":"pl_borneo","folder":"tf","game":"Team Fortress","app_id":440,"player_count":0,"max_players":24,"Bots":0,"server_type":"Dedicated","server_os":"Linux","password":true,"vac":true,"version":"7701286","steam_id":85568392925397853,"keywords":["nocrits","nodmgspread","payload","uncletopia"],"game_id":440,"stv_port":0,"stv_name":"","players":null},{"server_id":53,"name":"Uncletopia | Warsaw | 5 | No Payload","name_short":"waw-5","host":"waw-1.pl.uncletopia.com","port":27055,"enabled":true,"region":"eu","cc":"pl","latitude":52.2297,"longitude":21.017532,"reserved":0,"last_update":"0001-01-01T00:00:00Z","name_a2s":"Uncletopia | Warsaw | 5 | No Payload","protocol":17,"map":"pl_frontier_final","folder":"tf","game":"Team Fortress","app_id":440,"player_count":0,"max_players":24,"Bots":0,"server_type":"Dedicated","server_os":"Linux","password":true,"vac":true,"version":"7701286","steam_id":85568392925397854,"keywords":["nocrits","nodmgspread","payload","uncletopia"],"game_id":440,"stv_port":0,"stv_name":"","players":null},{"server_id":54,"name":"Uncletopia | Warsaw | 6 | Community","name_short":"waw-6","host":"waw-1.pl.uncletopia.com","port":27065,"enabled":true,"region":"eu","cc":"pl","latitude":52.2297,"longitude":21.017532,"reserved":0,"last_update":"0001-01-01T00:00:00Z","name_a2s":"Uncletopia | Warsaw | 6 | Community","protocol":17,"map":"pl_pier","folder":"tf","game":"Team Fortress","app_id":440,"player_count":0,"max_players":24,"Bots":0,"server_type":"Dedicated","server_os":"Linux","password":true,"vac":true,"version":"7701286","steam_id":85568392925397856,"keywords":["nocrits","nodmgspread","payload","uncletopia"],"game_id":440,"stv_port":0,"stv_name":"","players":null}]}