{"status":true,"message":"","result":[{"server_id":9,"name":"Uncletopia | Atlanta | 1 | All Maps","name_short":"atl-1","host":"atl-1.us.uncletopia.com","port":27015,"enabled":true,"region":"us-east","cc":"us","latitude":33.753746,"longitude":-84.38633,"reserved":0,"last_update":"0001-01-01T00:00:00Z","name_a2s":"Uncletopia | Atlanta | 1 | All Maps","protocol":17,"map":"koth_cascade","folder":"tf","game":"Team Fortress","app_id":440,"player_count":0,"max_players":24,"Bots":0,"server_type":"Dedicated","server_os":"Linux","password":true,"vac":true,"version":"7695204","steam_id":85568392924469982,"keywords":["cp","nocrits","nodmgspread","uncletopia"],"game_id":440,"stv_port":0,"stv_name":"","players":null},{"server_id":400,"name":"Uncletopia | Atlanta | 3 | All Maps","name_short":"atl-3","host":"atl-1.us.uncletopia.com","port":27035,"enabled":true,"region":"us-east","cc":"us","latitude":33.753746,"longitude":-84.38633,"reserved":0,"last_update":"0001-01-01T00:00:00Z","name_a2s":"Uncletopia | Atlanta | 3 | All Maps","protocol":17,"map":"pl_frontier_final","folder":"tf","game":"Team Fortress","app_id":440,"player_count":0,"max_players":24,"Bots":0,"server_type":"Dedicated","server_os":"Linux","password":true,"vac":true,"version":"7695204","steam_id":85568392924515187,"keywords":["nocrits","nodmgspread","payload","uncletopia"],"game_id":440,"stv_port":0,"stv_name":"","players":null},{"server_id":401,"name":"Uncletopia | Atlanta | 4 | No Payload","name_short":"atl-4","host":"atl-1.us.uncletopia.com","port":27045,"enabled":true,"region":"us-east","cc":"us","latitude":33.753746,"longitude":-84.38633,"reserved":0,"last_update":"0001-01-01T00:00:00Z","name_a2s":"Uncletopia | Atlanta | 4 | No Payload","protocol":17,"map":"cp_snakewater_final1","folder":"tf","game":"Team Fortress","app_id":440,"player_count":0,"max_players":24,"Bots":0,"server_type":"Dedicated","server_os":"Linux","password":true,"vac":true,"version":"7695204","steam_id":85568392924515188,"keywords":["cp","nocrits","nodmgspread","uncletopia"],"game_id":440,"stv_port":0,"stv_name":"","players":null},{"server_id":2,"name":"Uncletopia | Chicago | 1 | All Maps","name_short":"chi-1","host":"chi-1.us.uncletopia.com","port":27015,"enabled":true,"region":"us-central","cc":"us","latitude":41.881832,"longitude":-87.62318,"reserved":0,"last_update":"0001-01-01T00:00:00Z","name_a2s":"Uncletopia | Chicago | 1 | All Maps","protocol":17,"map":"koth_highpass","folder":"tf","game":"Team Fortress","app_id":440,"player_count":11,"max_players":24,"Bots":0,"server_type":"Dedicated","server_os":"Linux","password":true,"vac":true,"version":"7695204","steam_id":85568392924469984,"keywords":["cp","nocrits","nodmgspread","uncletopia"],"game_id":440,"stv_port":27016,"stv_name":"Uncletopia | Chicago | 1 | All Maps | STV","players":[{"user_id":5,"name":"Sous-Chef","steam_id":76561198075705827,"connected_time":667000000000,"state":"active","ping":66},{"user_id":6,"name":"Jitters","steam_id":76561198078898336,"connected_time":588000000000,"state":"active","ping":48},{"user_id":7,"name":"Dancing Nuggets","steam_id":76561198307986253,"connected_time":483000000000,"state":"active","ping":60},{"user_id":8,"name":"asbestos","steam_id":76561198079178866,"connected_time":380000000000,"state":"active","ping":60},{"user_id":9,"name":"Sure, yeah, totally","steam_id":76561199210977804,"connected_time":374000000000,"state":"active","ping":50},{"user_id":10,"name":"a Cruel Angel wrote this Thesis","steam_id":76561198839967102,"connected_time":355000000000,"state":"active","ping":59},{"user_id":11,"name":"beta central","steam_id":76561198301876831,"connected_time":287000000000,"state":"active","ping":56},{"user_id":12,"name":"denzy_","steam_id":76561198873788683,"connected_time":263000000000,"state":"active","ping":64},{"user_id":13,"name":"Fiverka","steam_id":76561199214765253,"connected_time":216000000000,"state":"active","ping":163},{"user_id":15,"name":"God of bread","steam_id":76561198373688035,"connected_time":39000000000,"state":"active","ping":69},{"user_id":16,"name":"Fireman pyro","steam_id":76561199101808144,"connected_time":1000000000,"state":"spawning","ping":91}]},{"server_id":106,"name":"Uncletopia | Chicago | 2 | All Maps","name_short":"chi-2","host":"chi-1.us.uncletopia.com","port":27025,"enabled":true,"region":"us-central","cc":"us","latitude":41.881832,"longitude":-87.62318,"reserved":0,"last_update":"0001-01-01T00:00:00Z","name_a2s":"Uncletopia | Chicago | 2 | All Maps","protocol":17,"map":"cp_process_final","folder":"tf","game":"Team Fortress","app_id":440,"player_count":0,"max_players":24,"Bots":0,"server_type":"Dedicated","server_os":"Linux","password":true,"vac":true,"version":"7695204","steam_id":85568392924469985,"keywords":["cp","nocrits","nodmgspread","uncletopia"],"game_id":440,"stv_port":0,"stv_name":"","players":null},{"server_id":402,"name":"Uncletopia | Chicago | 3 | All Maps","name_short":"chi-3","host":"chi-1.us.uncletopia.com","port":27035,"enabled":true,"region":"us-central","cc":"us","latitude":41.881832,"longitude":-87.62318,"reserved":0,"last_update":"0001-01-01T00:00:00Z","name_a2s":"Uncletopia | Chicago | 3 | All Maps","protocol":17,"map":"pl_snowycoast","folder":"tf","game":"Team Fortress","app_id":440,"player_count":0,"max_players":24,"Bots":0,"server_type":"Dedicated","server_os":"Linux","password":true,"vac":true,"version":"7695204","steam_id":85568392924515191,"keywords":["nocrits","nodmgspread","payload","uncletopia"],"game_id":440,"stv_port":27036,"stv_name":"Uncletopia | Chicago | 3 | All Maps | STV","players":null},{"server_id":403,"name":"Uncletopia | Chicago | 4 | All Maps","name_short":"chi-4","host":"chi-1.us.uncletopia.com","port":27045,"enabled":true,"region":"us-central","cc":"us","latitude":41.881832,"longitude":-87.62318,"reserved":0,"last_update":"0001-01-01T00:00:00Z","name_a2s":"Uncletopia | Chicago | 4 | All Maps","protocol":17,"map":"koth_highpass","folder":"tf","game":"Team Fortress","app_id":440,"player_count":0,"max_players":24,"Bots":0,"server_type":"Dedicated","server_os":"Linux","password":true,"vac":true,"version":"7695204","steam_id":85568392924515193,"keywords":["cp","nocrits","nodmgspread","uncletopia"],"game_id":440,"stv_port":0,"stv_name":"","players":null},{"server_id":36,"name":"Uncletopia | Chicago | 5 | All Maps","name_short":"chi-5","host":"chi-2.us.uncletopia.com","port":27015,"enabled":true,"region":"us-central","cc":"us","latitude":41.881832,"longitude":-87.62318,"reserved":0,"last_update":"0001-01-01T00:00:00Z","name_a2s":"Uncletopia | Chicago | 5 | All Maps","protocol":17,"map":"cp_altitude","folder":"tf","game":"Team Fortress","app_id":440,"player_count":0,"max_players":24,"Bots":0,"server_type":"Dedicated","server_os":"Linux","password":true,"vac":true,"version":"7695204","steam_id":85568392924866362,"keywords":["cp","nocrits","nodmgspread","uncletopia"],"game_id":440,"stv_port":0,"stv_name":"","players":null},{"server_id":37,"name":"Uncletopia | Chicago | 6 | All Maps","name_short":"chi-6","host":"chi-2.us.uncletopia.com","port":27025,"enabled":true,"region":"us-central","cc":"us","latitude":41.881832,"longitude":-87.62318,"reserved":0,"last_update":"0001-01-01T00:00:00Z","name_a2s":"Uncletopia | Chicago | 6 | All Maps","protocol":17,"map":"cp_snakewater_final1","folder":"tf","game":"Team Fortress","app_id":440,"player_count":0,"max_players":24,"Bots":0,"server_type":"Dedicated","server_os":"Linux","password":true,"vac":true,"version":"7695204","steam_id":85568392924866363,"keywords":["cp","nocrits","nodmgspread","uncletopia"],"game_id":440,"stv_port":0,"stv_name":"","players":null},{"server_id":38,"name":"Uncletopia | Chicago | 7 | No Payload","name_short":"chi-7","host":"chi-2.us.uncletopia.com","port":27035,"enabled":true,"region":"us-central","cc":"us","latitude":41.881832,"longitude":-87.62318,"reserved":0,"last_update":"0001-01-01T00:00:00Z","name_a2s":"Uncletopia | Chicago | 7 | No Payload","protocol":17,"map":"cp_altitude","folder":"tf","game":"Team Fortress","app_id":440,"player_count":0,"max_players":24,"Bots":0,"server_type":"Dedicated","server_os":"Linux","password":true,"vac":true,"version":"7695204","steam_id":85568392924866364,"keywords":["cp","nocrits","nodmgspread","uncletopia"],"game_id":440,"stv_port":0,"stv_name":"","players":null},{"server_id":39,"name":"Uncletopia | Chicago | 8 | Community","name_short":"chi-8","host":"chi-2.us.uncletopia.com","port":27045,"enabled":true,"region":"us-central","cc":"us","latitude":41.881832,"longitude":-87.62318,"reserved":0,"last_update":"0001-01-01T00:00:00Z","name_a2s":"Uncletopia | Chicago | 8 | Community","protocol":17,"map":"cp_altitude","folder":"tf","game":"Team Fortress","app_id":440,"player_count":0,"max_players":24,"Bots":0,"server_type":"Dedicated","server_os":"Linux","password":true,"vac":true,"version":"7695204","steam_id":85568392924866365,"keywords":["cp","nocrits","nodmgspread","uncletopia"],"game_id":440,"stv_port":0,"stv_name":"","players":null},{"server_id":8,"name":"Uncletopia | Dallas | 1 | All Maps","name_short":"dal-1","host":"dal-1.us.uncletopia.com","port":27015,"enabled":true,"region":"us-central","cc":"us","latitude":32.779167,"longitude":-96.80889,"reserved":0,"last_update":"0001-01-01T00:00:00Z","name_a2s":"Uncletopia | Dallas | 1 | All Maps","protocol":17,"map":"pl_upward","folder":"tf","game":"Team Fortress","app_id":440,"player_count":24,"max_players":24,"Bots":0,"server_type":"Dedicated","server_os":"Linux","password":true,"vac":true,"version":"7695204","steam_id":85568392924469986,"keywords":["nocrits","nodmgspread","payload","uncletopia"],"game_id":440,"stv_port":27016,"stv_name":"Uncletopia | Dallas | 1 | All Maps | STV","players":[{"user_id":103,"name":"kiewass","steam_id":76561198870729709,"connected_time":3740000000000,"state":"active","ping":175},{"user_id":115,"name":"dead fucking frog","steam_id":76561198035969198,"connected_time":2855000000000,"state":"active","ping":62},{"user_id":152,"name":"baguette","steam_id":76561198066048980,"connected_time":103000000000,"state":"active","ping":62},{"user_id":134,"name":"Sigiferd","steam_id":76561198148788110,"connected_time":1614000000000,"state":"active","ping":122},{"user_id":140,"name":"Takumi Fujiwara","steam_id":76561198146281101,"connected_time":969000000000,"state":"active","ping":93},{"user_id":112,"name":"GREG","steam_id":76561198073021168,"connected_time":3089000000000,"state":"active","ping":63},{"user_id":129,"name":"obbeymaster19","steam_id":76561199197244143,"connected_time":1976000000000,"state":"active","ping":89},{"user_id":145,"name":"Chode Mode","steam_id":76561198353840477,"connected_time":500000000000,"state":"active","ping":70},{"user_id":147,"name":"MagicGnome","steam_id":76561198060886742,"connected_time":279000000000,"state":"active","ping":90},{"user_id":122,"name":"goober","steam_id":76561198127116199,"connected_time":2360000000000,"state":"active","ping":75},{"user_id":105,"name":"toq","steam_id":76561198400316620,"connected_time":3730000000000,"state":"active","ping":71},{"user_id":149,"name":"TATARA","steam_id":76561199098759517,"connected_time":226000000000,"state":"active","ping":145},{"user_id":142,"name":"Slug Warrior","steam_id":76561197996052704,"connected_time":775000000000,"state":"active","ping":90},{"user_id":137,"name":"Sputnix","steam_id":76561198236857310,"connected_time":1106000000000,"state":"active","ping":67},{"user_id":121,"name":"Chaotic Rushu","steam_id":76561198170054407,"connected_time":2372000000000,"state":"active","ping":120},{"user_id":144,"name":"GLG.Liz","steam_id":76561198021957956,"connected_time":599000000000,"state":"active","ping":48},{"user_id":150,"name":"Pennis the Menace","steam_id":76561198254878037,"connected_time":219000000000,"state":"active","ping":83},{"user_id":136,"name":"Pawn Cushman","steam_id":76561198221635676,"connected_time":1112000000000,"state":"active","ping":87},{"user_id":151,"name":"can you feel my 12-gauge slug","steam_id":76561198809577048,"connected_time":205000000000,"state":"active","ping":106},{"user_id":141,"name":"jan kili","steam_id":76561198289894834,"connected_time":799000000000,"state":"active","ping":80},{"user_id":125,"name":"Kiss Master","steam_id":76561198289572271,"connected_time":2224000000000,"state":"active","ping":76},{"user_id":146,"name":"Fuegan Ra","steam_id":76561198287923849,"connected_time":327000000000,"state":"active","ping":82},{"user_id":143,"name":"Poorkitten","steam_id":76561197995468170,"connected_time":738000000000,"state":"active","ping":75},{"user_id":139,"name":"Sad Sapling","steam_id":76561198075612150,"connected_time":1069000000000,"state":"active","ping":88}]},{"server_id":108,"name":"Uncletopia | Dallas | 2 | All Maps","name_short":"dal-2","host":"dal-1.us.uncletopia.com","port":27025,"enabled":true,"region":"us-central","cc":"us","latitude":32.779167,"longitude":-96.80889,"reserved":0,"last_update":"0001-01-01T00:00:00Z","name_a2s":"Uncletopia | Dallas | 2 | All Maps","protocol":17,"map":"cp_mountainlab","folder":"tf","game":"Team Fortress","app_id":440,"player_count":0,"max_players":24,"Bots":0,"server_type":"Dedicated","server_os":"Linux","password":true,"vac":true,"version":"7695204","steam_id":85568392924469988,"keywords":["cp","nocrits","nodmgspread","uncletopia"],"game_id":440,"stv_port":0,"stv_name":"","players":null},{"server_id":5,"name":"Uncletopia | Frankfurt | 1 | All Maps","name_short":"frk-1","host":"frk-1.de.uncletopia.com","port":27015,"enabled":true,"region":"eu","cc":"de","latitude":50.110924,"longitude":8.682127,"reserved":0,"last_update":"0001-01-01T00:00:00Z","name_a2s":"Uncletopia | Frankfurt | 1 | All Maps","protocol":17,"map":"pl_upward","folder":"tf","game":"Team Fortress","app_id":440,"player_count":24,"max_players":24,"Bots":0,"server_type":"Dedicated","server_os":"Linux","password":true,"vac":true,"version":"7695204","steam_id":85568392924469989,"keywords":["nocrits","nodmgspread","payload","uncletopia"],"game_id":440,"stv_port":27016,"stv_name":"Uncletopia | Frankfurt | 1 | All Maps | STV","players":[{"user_id":264,"name":"Dr.Dag","steam_id":76561198301430910,"connected_time":539000000000,"state":"active","ping":73},{"user_id":274,"name":"Mr.Twinkls","steam_id":76561197980803560,"connected_time":77000000000,"state":"active","ping":88},{"user_id":261,"name":"magnus","steam_id":76561198045570936,"connected_time":559000000000,"state":"active","ping":82},{"user_id":243,"name":"Jam","steam_id":76561198090409013,"connected_time":2005000000000,"state":"active","ping":81},{"user_id":248,"name":"Wujek Cacek","steam_id":76561198010267943,"connected_time":1854000000000,"state":"active","ping":74},{"user_id":249,"name":"Spaenny","steam_id":76561198035850165,"connected_time":1611000000000,"state":"active","ping":47},{"user_id":272,"name":"Paulie Enjoyer","steam_id":76561198364121077,"connected_time":106000000000,"state":"active","ping":93},{"user_id":250,"name":"walluu","steam_id":76561198121830870,"connected_time":1511000000000,"state":"active","ping":73},{"user_id":244,"name":"TITS!!!1!!1????","steam_id":76561198412197820,"connected_time":1989000000000,"state":"active","ping":75},{"user_id":255,"name":"Darkman","steam_id":76561198014330738,"connected_time":977000000000,"state":"active","ping":77},{"user_id":224,"name":"XPullaHiiri","steam_id":76561198031652375,"connected_time":3234000000000,"state":"active","ping":88},{"user_id":252,"name":"Average polish citizen","steam_id":76561198062107879,"connected_time":1033000000000,"state":"active","ping":77},{"user_id":267,"name":"Tercio","steam_id":76561197992230278,"connected_time":520000000000,"state":"active","ping":71},{"user_id":241,"name":"Animatic","steam_id":76561198186421601,"connected_time":2291000000000,"state":"active","ping":181},{"user_id":271,"name":"nori","steam_id":76561198099077097,"connected_time":128000000000,"state":"active","ping":89},{"user_id":263,"name":"I was good before.","steam_id":76561198187045217,"connected_time":548000000000,"state":"active","ping":71},{"user_id":270,"name":"fogings","steam_id":76561198044165284,"connected_time":306000000000,"state":"active","ping":45},{"user_id":266,"name":"quincy","steam_id":76561198059782462,"connected_time":538000000000,"state":"active","ping":55},{"user_id":273,"name":"dustwrld","steam_id":76561198152576682,"connected_time":104000000000,"state":"active","ping":74},{"user_id":259,"name":"7blak ‚ôø","steam_id":76561198078928120,"connected_time":877000000000,"state":"active","ping":80},{"user_id":227,"name":"Hardcore-man from Poland","steam_id":76561198126398022,"connected_time":3086000000000,"state":"active","ping":73},{"user_id":253,"name":"default","steam_id":76561198186182298,"connected_time":1033000000000,"state":"active","ping":46},{"user_id":183,"name":"boat","steam_id":76561198044915818,"connected_time":6961000000000,"state":"active","ping":71},{"user_id":257,"name":"dude","steam_id":76561198299412035,"connected_time":945000000000,"state":"active","ping":73}]},{"server_id":110,"name":"Uncletopia | Frankfurt | 2 | All Maps","name_short":"frk-2","host":"frk-1.de.uncletopia.com","port":27025,"enabled":true,"region":"eu","cc":"de","latitude":50.110924,"longitude":8.682127,"reserved":0,"last_update":"0001-01-01T00:00:00Z","name_a2s":"Uncletopia | Frankfurt | 2 | All Maps","protocol":17,"map":"koth_viaduct","folder":"tf","game":"Team Fortress","app_id":440,"player_count":2,"max_players":24,"Bots":0,"server_type":"Dedicated","server_os":"Linux","password":true,"vac":true,"version":"7695204","steam_id":85568392924469990,"keywords":["cp","nocrits","nodmgspread","uncletopia"],"game_id":440,"stv_port":27026,"stv_name":"Uncletopia | Frankfurt | 2 | All Maps | STV","players":[{"user_id":9,"name":"Xeno","steam_id":76561198975556646,"connected_time":209000000000,"state":"active","ping":45},{"user_id":10,"name":"Ivara","steam_id":76561199098006228,"connected_time":189000000000,"state":"active","ping":58}]},{"server_id":308,"name":"Uncletopia | Frankfurt | 3 | All Maps","name_short":"frk-3","host":"frk-1.de.uncletopia.com","port":27035,"enabled":true,"region":"eu","cc":"de","latitude":50.110924,"longitude":8.682127,"reserved":0,"last_update":"0001-01-01T00:00:00Z","name_a2s":"Uncletopia | Frankfurt | 3 | All Maps","protocol":17,"map":"cp_snakewater_final1","folder":"tf","game":"Team Fortress","app_id":440,"player_count":24,"max_players":24,"Bots":0,"server_type":"Dedicated","server_os":"Linux","password":true,"vac":true,"version":"7695204","steam_id":85568392924504274,"keywords":["cp","nocrits","nodmgspread","uncletopia"],"game_id":440,"stv_port":27036,"stv_name":"Uncletopia | Frankfurt | 3 | All Maps | STV","players":[{"user_id":135,"name":"Wrabchev* Just_Smile","steam_id":76561198040645344,"connected_time":4810000000000,"state":"active","ping":67},{"user_id":186,"name":"fierce_A2","steam_id":76561198301836443,"connected_time":1437000000000,"state":"active","ping":107},{"user_id":201,"name":"sperma gyerek","steam_id":76561198742407927,"connected_time":89000000000,"state":"spawning","ping":124},{"user_id":184,"name":"Pieck Finger","steam_id":76561198043743639,"connected_time":1532000000000,"state":"active","ping":60},{"user_id":198,"name":"sex haver","steam_id":76561198798892497,"connected_time":258000000000,"state":"active","ping":57},{"user_id":188,"name":"Udinese Dion","steam_id":76561198067931573,"connected_time":1052000000000,"state":"active","ping":45},{"user_id":89,"name":"Luke SpyWalker","steam_id":76561198008643276,"connected_time":8013000000000,"state":"active","ping":59},{"user_id":189,"name":"beanie_snail","steam_id":76561199111476299,"connected_time":957000000000,"state":"active","ping":73},{"user_id":169,"name":"Bob Sacamano","steam_id":76561198085610701,"connected_time":2303000000000,"state":"active","ping":72},{"user_id":194,"name":"jaime8D","steam_id":76561197980590671,"connected_time":456000000000,"state":"active","ping":87},{"user_id":126,"name":"Big Gamer (real)","steam_id":76561198160114532,"connected_time":5700000000000,"state":"active","ping":48},{"user_id":185,"name":"wasto-/-‚Ñ¢","steam_id":76561198102888038,"connected_time":1491000000000,"state":"active","ping":53},{"user_id":195,"name":"Watereater","steam_id":76561198833220967,"connected_time":404000000000,"state":"active","ping":67},{"user_id":155,"name":"Farmercy","steam_id":76561198000038039,"connected_time":3049000000000,"state":"active","ping":61},{"user_id":157,"name":"Alexey Rykov","steam_id":76561198450868147,"connected_time":3034000000000,"state":"active","ping":177},{"user_id":158,"name":"where is my egg?","steam_id":76561198172542535,"connected_time":2990000000000,"state":"active","ping":63},{"user_id":148,"name":"Stepoface","steam_id":76561198091569863,"connected_time":3789000000000,"state":"active","ping":56},{"user_id":191,"name":"allan","steam_id":76561198214848887,"connected_time":878000000000,"state":"active","ping":65},{"user_id":199,"name":"hallfelt","steam_id":76561199008716852,"connected_time":251000000000,"state":"active","ping":66},{"user_id":176,"name":"turntechCathead","steam_id":76561198351249088,"connected_time":1666000000000,"state":"active","ping":81},{"user_id":200,"name":"Him","steam_id":76561198155314925,"connected_time":248000000000,"state":"active","ping":73},{"user_id":196,"name":"!raven","steam_id":76561198320336543,"connected_time":403000000000,"state":"active","ping":94},{"user_id":202,"name":"miev","steam_id":76561198078278737,"connected_time":4000000000,"state":"spawning","ping":86},{"user_id":182,"name":"garbage mikuknight","steam_id":76561198361819054,"connected_time":1571000000000,"state":"active","ping":95}]},{"server_id":309,"name":"Uncletopia | Frankfurt | 4 | All Maps","name_short":"frk-4","host":"frk-1.de.uncletopia.com","port":27045,"enabled":true,"region":"eu","cc":"de","latitude":50.110924,"longitude":8.682127,"reserved":0,"last_update":"0001-01-01T00:00:00Z","name_a2s":"Uncletopia | Frankfurt | 4 | All Maps","protocol":17,"map":"cp_dustbowl","folder":"tf","game":"Team Fortress","app_id":440,"player_count":23,"max_players":24,"Bots":0,"server_type":"Dedicated","server_os":"Linux","password":true,"vac":true,"version":"7695204","steam_id":85568392924504275,"keywords":["cp","nocrits","nodmgspread","uncletopia"],"game_id":440,"stv_port":27046,"stv_name":"Uncletopia | Frankfurt | 4 | All Maps | STV","players":[{"user_id":26,"name":"1.99$ crippin","steam_id":76561198325760411,"connected_time":2501000000000,"state":"active","ping":80},{"user_id":27,"name":"\u003e:3","steam_id":76561198368312026,"connected_time":2481000000000,"state":"active","ping":75},{"user_id":28,"name":"Kapin","steam_id":76561199069712685,"connected_time":2473000000000,"state":"active","ping":93},{"user_id":29,"name":"cheesily","steam_id":76561198881367552,"connected_time":2442000000000,"state":"active","ping":73},{"user_id":69,"name":"–ù–µ—á—É–π-–õ–µ–≤–∏—Ü—å–∫–∏–π","steam_id":76561198870926865,"connected_time":599000000000,"state":"active","ping":56},{"user_id":78,"name":"BanjoAlto.mp3","steam_id":76561198374997628,"connected_time":5000000000,"state":"spawning","ping":90},{"user_id":34,"name":"VibeCheck","steam_id":76561198425961218,"connected_time":1686000000000,"state":"active","ping":108},{"user_id":35,"name":"business spy","steam_id":76561198215876044,"connected_time":1683000000000,"state":"active","ping":105},{"user_id":77,"name":"one","steam_id":76561198018763570,"connected_time":178000000000,"state":"active","ping":105},{"user_id":40,"name":"youtubelover64","steam_id":76561198082865040,"connected_time":1460000000000,"state":"active","ping":67},{"user_id":64,"name":"Far ‚àû","steam_id":76561199166149359,"connected_time":699000000000,"state":"active","ping":79},{"user_id":72,"name":"yippee!!","steam_id":76561198036486671,"connected_time":500000000000,"state":"active","ping":58},{"user_id":61,"name":"Rabizen","steam_id":76561198133242816,"connected_time":768000000000,"state":"active","ping":84},{"user_id":44,"name":"Greencoffee","steam_id":76561198842090589,"connected_time":1278000000000,"state":"active","ping":82},{"user_id":62,"name":"breedable","steam_id":76561198010300032,"connected_time":753000000000,"state":"active","ping":60},{"user_id":76,"name":"I fucking love ketamine","steam_id":76561198148919150,"connected_time":235000000000,"state":"active","ping":94},{"user_id":66,"name":"Madlero","steam_id":76561198363455929,"connected_time":676000000000,"state":"active","ping":48},{"user_id":67,"name":"Zyxel","steam_id":76561199219776751,"connected_time":671000000000,"state":"active","ping":152},{"user_id":68,"name":"Tomox","steam_id":76561198834729062,"connected_time":644000000000,"state":"active","ping":98},{"user_id":70,"name":"guy who snores hooonk mimimi","steam_id":76561198156394435,"connected_time":594000000000,"state":"active","ping":59},{"user_id":71,"name":"catgirlprostate","steam_id":76561198957056717,"connected_time":539000000000,"state":"active","ping":61},{"user_id":73,"name":"Kapitan Polska","steam_id":76561197968069413,"connected_time":469000000000,"state":"active","ping":61},{"user_id":74,"name":"NatP","steam_id":76561198012083811,"connected_time":467000000000,"state":"active","ping":86}]},{"server_id":310,"name":"Uncletopia | Frankfurt | 5 | All Maps","name_short":"frk-5","host":"frk-1.de.uncletopia.com","port":27055,"enabled":true,"region":"eu","cc":"de","latitude":50.110924,"longitude":8.682127,"reserved":0,"last_update":"0001-01-01T00:00:00Z","name_a2s":"Uncletopia | Frankfurt | 5 | All Maps","protocol":17,"map":"koth_highpass","folder":"tf","game":"Team Fortress","app_id":440,"player_count":3,"max_players":24,"Bots":0,"server_type":"Dedicated","server_os":"Linux","password":true,"vac":true,"version":"7695204","steam_id":85568392924504277,"keywords":["cp","nocrits","nodmgspread","uncletopia"],"game_id":440,"stv_port":27056,"stv_name":"Uncletopia | Frankfurt | 5 | All Maps | STV","players":[{"user_id":22,"name":"TheToxicShredder","steam_id":76561199159370663,"connected_time":218000000000,"state":"active","ping":63},{"user_id":23,"name":"captaine_007","steam_id":76561199387108422,"connected_time":164000000000,"state":"active","ping":72},{"user_id":24,"name":"Heura","steam_id":76561198328304087,"connected_time":63000000000,"state":"active","ping":82}]},{"server_id":311,"name":"Uncletopia | Frankfurt | 6 | All Maps","name_short":"frk-6","host":"frk-1.de.uncletopia.com","port":27065,"enabled":true,"region":"eu","cc":"de","latitude":50.110924,"longitude":8.682127,"reserved":0,"last_update":"0001-01-01T00:00:00Z","name_a2s":"Uncletopia | Frankfurt | 6 | All Maps","protocol":17,"map":"pl_snowycoast","folder":"tf","game":"Team Fortress","app_id":440,"player_count":14,"max_players":24,"Bots":0,"server_type":"Dedicated","server_os":"Linux","password":true,"vac":true,"version":"7695204","steam_id":85568392924504278,"keywords":["nocrits","nodmgspread","payload","uncletopia"],"game_id":440,"stv_port":27066,"stv_name":"Uncletopia | Frankfurt | 6 | All Maps | STV","players":[{"user_id":201,"name":"Ôº™ÔΩÖÔΩåÔΩëÔºßÔΩïÔΩíÔΩï","steam_id":76561198019878935,"connected_time":1346000000000,"state":"active","ping":78},{"user_id":218,"name":"Hoff","steam_id":76561198138540938,"connected_time":52000000000,"state":"spawning","ping":132},{"user_id":208,"name":"tealoverr.190","steam_id":76561199028497703,"connected_time":634000000000,"state":"active","ping":90},{"user_id":191,"name":"nudjura","steam_id":76561198281986139,"connected_time":2059000000000,"state":"active","ping":49},{"user_id":212,"name":"ZarcoinTheDuck","steam_id":76561198068250065,"connected_time":253000000000,"state":"active","ping":49},{"user_id":199,"name":"meat","steam_id":76561198093290934,"connected_time":1558000000000,"state":"active","ping":46},{"user_id":171,"name":"Carpet Tires","steam_id":76561198798428909,"connected_time":3394000000000,"state":"active","ping":80},{"user_id":203,"name":"possiblename","steam_id":76561199064350902,"connected_time":1044000000000,"state":"active","ping":103},{"user_id":217,"name":"MyAssOnFire","steam_id":76561199086565388,"connected_time":99000000000,"state":"active","ping":48},{"user_id":160,"name":"Untermenshh","steam_id":76561198284636705,"connected_time":3841000000000,"state":"active","ping":81},{"user_id":205,"name":"bigbeanBIG","steam_id":76561199051747395,"connected_time":1016000000000,"state":"active","ping":58},{"user_id":144,"name":"3te Liga","steam_id":76561198009922500,"connected_time":4640000000000,"state":"active","ping":56},{"user_id":198,"name":"üÉî Nugg1t(sme/lly)","steam_id":76561198065652251,"connected_time":1621000000000,"state":"active","ping":45},{"user_id":210,"name":"russell","steam_id":76561198879773477,"connected_time":370000000000,"state":"active","ping":58}]},{"server_id":23,"name":"Uncletopia | Frankfurt | 7 | No Payload","name_short":"frk-7","host":"frk-1.de.uncletopia.com","port":27075,"enabled":true,"region":"eu","cc":"de","latitude":50.110924,"longitude":8.682127,"reserved":0,"last_update":"0001-01-01T00:00:00Z","name_a2s":"Uncletopia | Frankfurt | 7 | No Payload","protocol":17,"map":"koth_badlands","folder":"tf","game":"Team Fortress","app_id":440,"player_count":1,"max_players":24,"Bots":0,"server_type":"Dedicated","server_os":"Linux","password":true,"vac":true,"version":"7695204","steam_id":85568392924742827,"keywords":["cp","nocrits","nodmgspread","uncletopia"],"game_id":440,"stv_port":27076,"stv_name":"Uncletopia | Frankfurt | 7 | No Payload | STV","players":[{"user_id":119,"name":"lilyinnit","steam_id":76561199002596884,"connected_time":13000000000,"state":"active","ping":58}]},{"server_id":24,"name":"Uncletopia | Frankfurt | 8 | Community","name_short":"frk-8","host":"frk-1.de.uncletopia.com","port":27085,"enabled":true,"region":"eu","cc":"de","latitude":50.110924,"longitude":8.682127,"reserved":0,"last_update":"0001-01-01T00:00:00Z","name_a2s":"Uncletopia | Frankfurt | 8 | Community","protocol":17,"map":"koth_lakeside_final","folder":"tf","game":"Team Fortress","app_id":440,"player_count":0,"max_players":24,"Bots":0,"server_type":"Dedicated","server_os":"Linux","password":true,"vac":true,"version":"7695204","steam_id":85568392924742828,"keywords":["cp","nocrits","nodmgspread","uncletopia"],"game_id":440,"stv_port":0,"stv_name":"","players":null},{"server_id":202,"name":"Uncletopia | Hong Kong | 1 | All Maps","name_short":"hgk-1","host":"hgk-1.hk.uncletopia.com","port":27015,"enabled":true,"region":"asia","cc":"hk","latitude":22.302711,"longitude":114.177216,"reserved":0,"last_update":"0001-01-01T00:00:00Z","name_a2s":"Uncletopia | Hong Kong | 1 | All Maps","protocol":17,"map":"pl_pier","folder":"tf","game":"Team Fortress","app_id":440,"player_count":24,"max_players":24,"Bots":0,"server_type":"Dedicated","server_os":"Linux","password":true,"vac":true,"version":"7695204","steam_id":85568392924494504,"keywords":["nocrits","nodmgspread","payload","uncletopia"],"game_id":440,"stv_port":27016,"stv_name":"Uncletopia | Hong Kong | 1 | All Maps | STV","players":[{"user_id":579,"name":"Firefly796","steam_id":76561199048899841,"connected_time":118000000000,"state":"active","ping":121},{"user_id":573,"name":"hog","steam_id":76561199206816701,"connected_time":755000000000,"state":"active","ping":71},{"user_id":572,"name":"cu m√¨","steam_id":76561198335444605,"connected_time":770000000000,"state":"active","ping":69},{"user_id":444,"name":"terrybl","steam_id":76561198055553140,"connected_time":12743000000000,"state":"active","ping":80},{"user_id":549,"name":"Puddin","steam_id":76561198140052918,"connected_time":2730000000000,"state":"active","ping":88},{"user_id":537,"name":"Core19","steam_id":76561198318126190,"connected_time":4349000000000,"state":"active","ping":102},{"user_id":576,"name":"HKzIsaiah","steam_id":76561198152133420,"connected_time":317000000000,"state":"active","ping":48},{"user_id":541,"name":"ÊØç„ÅÆËÇâÂõ£Â≠ê","steam_id":76561198069561896,"connected_time":3308000000000,"state":"active","ping":38},{"user_id":496,"name":"AmaiToxic","steam_id":76561199122491157,"connected_time":8349000000000,"state":"active","ping":72},{"user_id":577,"name":"xPhid","steam_id":76561199080808930,"connected_time":316000000000,"state":"active","ping":89},{"user_id":551,"name":"silversol","steam_id":76561198004570036,"connected_time":2728000000000,"state":"active","ping":98},{"user_id":578,"name":"cellum95","steam_id":76561198172146871,"connected_time":315000000000,"state":"active","ping":65},{"user_id":581,"name":"Wolfy","steam_id":76561198335507328,"connected_time":95000000000,"state":"active","ping":86},{"user_id":538,"name":"paga","steam_id":76561198296718007,"connected_time":4288000000000,"state":"active","ping":112},{"user_id":492,"name":"nick","steam_id":76561198400698408,"connected_time":8755000000000,"state":"active","ping":88},{"user_id":552,"name":"gave my love to a shooting star","steam_id":76561197990537324,"connected_time":2727000000000,"state":"active","ping":151},{"user_id":517,"name":"Du57Y","steam_id":76561198120973476,"connected_time":5976000000000,"state":"active","ping":81},{"user_id":540,"name":"Kurtie","steam_id":76561198144737876,"connected_time":3625000000000,"state":"active","ping":66},{"user_id":477,"name":"Rephex","steam_id":76561198308185574,"connected_time":9634000000000,"state":"active","ping":67},{"user_id":544,"name":"Toygar","steam_id":76561198023679830,"connected_time":2933000000000,"state":"active","ping":45},{"user_id":570,"name":"char siew pau","steam_id":76561198108851779,"connected_time":842000000000,"state":"active","ping":82},{"user_id":571,"name":"solo","steam_id":76561199221433871,"connected_time":809000000000,"state":"active","ping":123},{"user_id":532,"name":"godhood","steam_id":76561198412329672,"connected_time":4935000000000,"state":"active","ping":95},{"user_id":505,"name":"L√∫d","steam_id":76561198828840546,"connected_time":7772000000000,"state":"active","ping":71}]},{"server_id":1,"name":"Uncletopia | Los Angeles | 1 | All Maps","name_short":"lax-1","host":"lax-1.us.uncletopia.com","port":27015,"enabled":true,"region":"us-west","cc":"us","latitude":33.94279,"longitude":-118.41004,"reserved":0,"last_update":"0001-01-01T00:00:00Z","name_a2s":"Uncletopia | Los Angeles | 1 | All Maps","protocol":17,"map":"cp_sunshine","folder":"tf","game":"Team Fortress","app_id":440,"player_count":0,"max_players":24,"Bots":0,"server_type":"Dedicated","server_os":"Linux","password":true,"vac":true,"version":"7695204","steam_id":85568392924469991,"keywords":["cp","nocrits","nodmgspread","uncletopia"],"game_id":440,"stv_port":0,"stv_name":"","players":null},{"server_id":112,"name":"Uncletopia | Los Angeles | 2 | All Maps","name_short":"lax-2","host":"lax-1.us.uncletopia.com","port":27025,"enabled":true,"region":"us-west","cc":"us","latitude":33.94279,"longitude":-118.41004,"reserved":0,"last_update":"0001-01-01T00:00:00Z","name_a2s":"Uncletopia | Los Angeles | 2 | All Maps","protocol":17,"map":"cp_dustbowl","folder":"tf","game":"Team Fortress","app_id":440,"player_count":0,"max_players":24,"Bots":0,"server_type":"Dedicated","server_os":"Linux","password":true,"vac":true,"version":"7695204","steam_id":85568392924469992,"keywords":["cp","nocrits","nodmgspread","uncletopia"],"game_id":440,"stv_port":0,"stv_name":"","players":null},{"server_id":324,"name":"Uncletopia | Los Angeles | 3 | All Maps","name_short":"lax-3","host":"lax-1.us.uncletopia.com","port":27035,"enabled":true,"region":"us-west","cc":"us","latitude":33.94279,"longitude":-118.41004,"reserved":0,"last_update":"0001-01-01T00:00:00Z","name_a2s":"Uncletopia | Los Angeles | 3 | All Maps","protocol":17,"map":"cp_mountainlab","folder":"tf","game":"Team Fortress","app_id":440,"player_count":0,"max_players":24,"Bots":0,"server_type":"Dedicated","server_os":"Linux","password":true,"vac":true,"version":"7695204","steam_id":85568392924510198,"keywords":["cp","nocrits","nodmgspread","uncletopia"],"game_id":440,"stv_port":0,"stv_name":"","players":null},{"server_id":25,"name":"Uncletopia | Los Angeles | 4 | No Payload","name_short":"lax-4","host":"lax-1.us.uncletopia.com","port":27045,"enabled":true,"region":"us-west","cc":"us","latitude":33.94279,"longitude":-118.41004,"reserved":0,"last_update":"0001-01-01T00:00:00Z","name_a2s":"Uncletopia | Los Angeles | 4 | No Payload","protocol":17,"map":"pl_barnblitz","folder":"tf","game":"Team Fortress","app_id":440,"player_count":0,"max_players":24,"Bots":0,"server_type":"Dedicated","server_os":"Linux","password":true,"vac":true,"version":"7695204","steam_id":85568392924510199,"keywords":["nocrits","nodmgspread","payload","uncletopia"],"game_id":440,"stv_port":0,"stv_name":"","players":null},{"server_id":11,"name":"Uncletopia | London | 1 | All Maps","name_short":"lon-1","host":"lon-1.uk.uncletopia.com","port":27015,"enabled":true,"region":"eu","cc":"gb","latitude":51.509865,"longitude":-0.118092,"reserved":0,"last_update":"0001-01-01T00:00:00Z","name_a2s":"Uncletopia | London | 1 | All Maps","protocol":17,"map":"koth_lakeside_final","folder":"tf","game":"Team Fortress","app_id":440,"player_count":2,"max_players":24,"Bots":0,"server_type":"Dedicated","server_os":"Linux","password":true,"vac":true,"version":"7695204","steam_id":85568392924367362,"keywords":["cp","nocrits","nodmgspread","uncletopia"],"game_id":440,"stv_port":27016,"stv_name":"Uncletopia | London | 1 | All Maps | STV","players":[{"user_id":36,"name":"JOHN GAMING (based)","steam_id":76561199085822219,"connected_time":884000000000,"state":"active","ping":89},{"user_id":41,"name":"not clickbait","steam_id":76561198951275407,"connected_time":222000000000,"state":"active","ping":79}]},{"server_id":114,"name":"Uncletopia | London | 2 | All Maps","name_short":"lon-2","host":"lon-1.uk.uncletopia.com","port":27025,"enabled":true,"region":"eu","cc":"gb","latitude":51.509865,"longitude":-0.118092,"reserved":0,"last_update":"0001-01-01T00:00:00Z","name_a2s":"Uncletopia | London | 2 | All Maps","protocol":17,"map":"cp_sunshine","folder":"tf","game":"Team Fortress","app_id":440,"player_count":0,"max_players":24,"Bots":0,"server_type":"Dedicated","server_os":"Linux","password":true,"vac":true,"version":"7695204","steam_id":85568392924470941,"keywords":["cp","nocrits","nodmgspread","uncletopia"],"game_id":440,"stv_port":0,"stv_name":"","players":null},{"server_id":320,"name":"Uncletopia | London | 3 | All Maps","name_short":"lon-3","host":"lon-1.uk.uncletopia.com","port":27035,"enabled":true,"region":"eu","cc":"gb","latitude":51.509865,"longitude":-0.118092,"reserved":0,"last_update":"0001-01-01T00:00:00Z","name_a2s":"Uncletopia | London | 3 | All Maps","protocol":17,"map":"pl_badwater","folder":"tf","game":"Team Fortress","app_id":440,"player_count":24,"max_players":24,"Bots":0,"server_type":"Dedicated","server_os":"Linux","password":true,"vac":true,"version":"7695204","steam_id":85568392924510192,"keywords":["nocrits","nodmgspread","payload","uncletopia"],"game_id":440,"stv_port":27036,"stv_name":"Uncletopia | London | 3 | All Maps | STV","players":[{"user_id":75,"name":"name is NOBODY","steam_id":76561198436188791,"connected_time":801000000000,"state":"active","ping":74},{"user_id":66,"name":"Lovelessvaccuum","steam_id":76561198079555422,"connected_time":1056000000000,"state":"active","ping":32},{"user_id":67,"name":"Aphex triplet","steam_id":76561198047725816,"connected_time":1051000000000,"state":"active","ping":53},{"user_id":53,"name":"maakgis","steam_id":76561198851703804,"connected_time":2813000000000,"state":"active","ping":123},{"user_id":13,"name":"Blizzard","steam_id":76561198867563548,"connected_time":4375000000000,"state":"active","ping":89},{"user_id":30,"name":"phong","steam_id":76561198090990465,"connected_time":3240000000000,"state":"active","ping":57},{"user_id":84,"name":"Washburne","steam_id":76561198032810579,"connected_time":199000000000,"state":"active","ping":43},{"user_id":18,"name":"ViktorYoshi","steam_id":76561199157555246,"connected_time":3893000000000,"state":"active","ping":59},{"user_id":82,"name":"john fluidmasterballwasher doe","steam_id":76561199006462039,"connected_time":310000000000,"state":"active","ping":67},{"user_id":81,"name":"Prox","steam_id":76561198351490981,"connected_time":452000000000,"state":"active","ping":35},{"user_id":52,"name":"silicon based life form","steam_id":76561199127121346,"connected_time":2921000000000,"state":"active","ping":47},{"user_id":25,"name":"Micha≈Ç","steam_id":76561198320346362,"connected_time":3544000000000,"state":"active","ping":86},{"user_id":59,"name":"moon","steam_id":76561199212557251,"connected_time":2212000000000,"state":"active","ping":109},{"user_id":72,"name":"e","steam_id":76561198047359132,"connected_time":944000000000,"state":"active","ping":74},{"user_id":63,"name":"Diogenes","steam_id":76561198122527295,"connected_time":1542000000000,"state":"active","ping":125},{"user_id":65,"name":"Seizure Salad","steam_id":76561198406747803,"connected_time":1109000000000,"state":"active","ping":108},{"user_id":83,"name":"Maya","steam_id":76561198128616615,"connected_time":210000000000,"state":"active","ping":68},{"user_id":39,"name":"Dr Ludwig","steam_id":76561198397985739,"connected_time":3092000000000,"state":"active","ping":53},{"user_id":40,"name":"Alender","steam_id":76561198061122036,"connected_time":3084000000000,"state":"active","ping":54},{"user_id":74,"name":"Lyell","steam_id":76561198350329389,"connected_time":867000000000,"state":"active","ping":69},{"user_id":57,"name":"StabbyKnife","steam_id":76561198094010004,"connected_time":2486000000000,"state":"active","ping":92},{"user_id":78,"name":"Nin","steam_id":76561198227246584,"connected_time":517000000000,"state":"active","ping":65},{"user_id":62,"name":"Torben","steam_id":76561198377574408,"connected_time":2189000000000,"state":"active","ping":56},{"user_id":64,"name":"zaleek69","steam_id":76561198058877595,"connected_time":1541000000000,"state":"active","ping":78}]},{"server_id":321,"name":"Uncletopia | London | 4 | All Maps","name_short":"lon-4","host":"lon-1.uk.uncletopia.com","port":27045,"enabled":true,"region":"eu","cc":"gb","latitude":51.509865,"longitude":-0.118092,"reserved":0,"last_update":"0001-01-01T00:00:00Z","name_a2s":"Uncletopia | London | 4 | All Maps","protocol":17,"map":"pl_snowycoast","folder":"tf","game":"Team Fortress","app_id":440,"player_count":24,"max_players":24,"Bots":0,"server_type":"Dedicated","server_os":"Linux","password":true,"vac":true,"version":"7695204","steam_id":85568392924510193,"keywords":["nocrits","nodmgspread","payload","uncletopia"],"game_id":440,"stv_port":27046,"stv_name":"Uncletopia | London | 4 | All Maps | STV","players":[{"user_id":217,"name":"ToniGAM3S","steam_id":76561198128605351,"connected_time":1136000000000,"state":"active","ping":72},{"user_id":164,"name":"Pip","steam_id":76561198049587565,"connected_time":4534000000000,"state":"active","ping":36},{"user_id":160,"name":"Loop_Cat","steam_id":76561199045902145,"connected_time":5093000000000,"state":"active","ping":115},{"user_id":192,"name":"ecasbaby","steam_id":76561199105424910,"connected_time":2610000000000,"state":"active","ping":55},{"user_id":194,"name":"Posho","steam_id":76561198062396436,"connected_time":2582000000000,"state":"active","ping":38},{"user_id":163,"name":"rpgloaf","steam_id":76561198068648568,"connected_time":4582000000000,"state":"active","ping":56},{"user_id":214,"name":"R!not","steam_id":76561197986328786,"connected_time":1224000000000,"state":"active","ping":53},{"user_id":210,"name":"--","steam_id":76561199065917088,"connected_time":1546000000000,"state":"active","ping":56},{"user_id":218,"name":"TheEmeraldDuck","steam_id":76561197999692032,"connected_time":1134000000000,"state":"active","ping":119},{"user_id":227,"name":"Grim the lemon","steam_id":76561199083433988,"connected_time":794000000000,"state":"active","ping":49},{"user_id":139,"name":"Poor Fucking Infantry","steam_id":76561198055978522,"connected_time":6744000000000,"state":"active","ping":47},{"user_id":205,"name":"you (DK)","steam_id":76561198061472971,"connected_time":2244000000000,"state":"active","ping":62},{"user_id":228,"name":"Dr Ultraman","steam_id":76561198060787567,"connected_time":342000000000,"state":"active","ping":52},{"user_id":177,"name":"Oak","steam_id":76561198067315672,"connected_time":3900000000000,"state":"active","ping":43},{"user_id":224,"name":"Eugene","steam_id":76561199081399039,"connected_time":915000000000,"state":"active","ping":149},{"user_id":183,"name":"fayaman","steam_id":76561198111807532,"connected_time":3347000000000,"state":"active","ping":53},{"user_id":221,"name":"DEMURE","steam_id":76561198263299590,"connected_time":1010000000000,"state":"active","ping":67},{"user_id":222,"name":"Miedzan","steam_id":76561198405250516,"connected_time":1006000000000,"state":"active","ping":85},{"user_id":223,"name":"Revettah","steam_id":76561198040442214,"connected_time":940000000000,"state":"active","ping":45},{"user_id":213,"name":"K'aax Itzam","steam_id":76561198044024509,"connected_time":1361000000000,"state":"active","ping":69},{"user_id":225,"name":"‚ôÄgenos","steam_id":76561198149175366,"connected_time":904000000000,"state":"active","ping":90},{"user_id":189,"name":"Bones","steam_id":76561198065081225,"connected_time":2971000000000,"state":"active","ping":41},{"user_id":226,"name":"nur","steam_id":76561198093573429,"connected_time":901000000000,"state":"active","ping":62},{"user_id":208,"name":"most sane mentalist","steam_id":76561198310095220,"connected_time":1666000000000,"state":"active","ping":35}]},{"server_id":21,"name":"Uncletopia | London | 5 | All Maps","name_short":"lon-5","host":"lon-1.uk.uncletopia.com","port":27055,"enabled":true,"region":"eu","cc":"gb","latitude":51.509865,"longitude":-0.118092,"reserved":0,"last_update":"0001-01-01T00:00:00Z","name_a2s":"Uncletopia | London | 5 | All Maps","protocol":17,"map":"koth_cascade","folder":"tf","game":"Team Fortress","app_id":440,"player_count":0,"max_players":24,"Bots":0,"server_type":"Dedicated","server_os":"Linux","password":true,"vac":true,"version":"7695204","steam_id":85568392924742829,"keywords":["cp","nocrits","nodmgspread","uncletopia"],"game_id":440,"stv_port":0,"stv_name":"","players":null},{"server_id":22,"name":"Uncletopia | London | 6 | All Maps","name_short":"lon-6","host":"lon-1.uk.uncletopia.com","port":27065,"enabled":true,"region":"eu","cc":"gb","latitude":51.509865,"longitude":-0.118092,"reserved":0,"last_update":"0001-01-01T00:00:00Z","name_a2s":"Uncletopia | London | 6 | All Maps","protocol":17,"map":"pl_barnblitz","folder":"tf","game":"Team Fortress","app_id":440,"player_count":0,"max_players":24,"Bots":0,"server_type":"Dedicated","server_os":"Linux","password":true,"vac":true,"version":"7695204","steam_id":85568392924742830,"keywords":["nocrits","nodmgspread","payload","uncletopia"],"game_id":440,"stv_port":27066,"stv_name":"Uncletopia | London | 6 | All Maps | STV","players":null},{"server_id":40,"name":"Uncletopia | London | 7 | No Payload","name_short":"lon-7","host":"lon-1.uk.uncletopia.com","port":27075,"enabled":true,"region":"eu","cc":"gb","latitude":51.509865,"longitude":-0.118092,"reserved":0,"last_update":"0001-01-01T00:00:00Z","name_a2s":"Uncletopia | London | 7 | No Payload","protocol":17,"map":"ctf_2fort","folder":"tf","game":"Team Fortress","app_id":440,"player_count":23,"max_players":24,"Bots":0,"server_type":"Dedicated","server_os":"Linux","password":true,"vac":true,"version":"7695204","steam_id":85568392924964314,"keywords":["ctf","nocrits","nodmgspread","uncletopia"],"game_id":440,"stv_port":27076,"stv_name":"Uncletopia | London | 7 | No Payload | STV","players":[{"user_id":150,"name":"Welder","steam_id":76561198355300561,"connected_time":143000000000,"state":"active","ping":74},{"user_id":90,"name":"Jon","steam_id":76561198148858397,"connected_time":3973000000000,"state":"active","ping":48},{"user_id":115,"name":"hammer","steam_id":76561199251582775,"connected_time":2634000000000,"state":"active","ping":52},{"user_id":59,"name":"El_Kommadante","steam_id":76561198079551685,"connected_time":5318000000000,"state":"active","ping":54},{"user_id":152,"name":"Craig Crusade","steam_id":76561199225918086,"connected_time":130000000000,"state":"active","ping":52},{"user_id":136,"name":"Gloteran","steam_id":76561199092623161,"connected_time":1528000000000,"state":"active","ping":65},{"user_id":147,"name":"JustIzaiah","steam_id":76561199005562473,"connected_time":870000000000,"state":"active","ping":168},{"user_id":153,"name":"TheBoringEdward","steam_id":76561199061482992,"connected_time":51000000000,"state":"active","ping":56},{"user_id":116,"name":"BlueAlex11","steam_id":76561199176131372,"connected_time":2632000000000,"state":"active","ping":34},{"user_id":22,"name":"Milk","steam_id":76561198219146857,"connected_time":6698000000000,"state":"active","ping":83},{"user_id":104,"name":"Chaos","steam_id":76561199393904075,"connected_time":3282000000000,"state":"active","ping":52},{"user_id":154,"name":"Tywhip","steam_id":76561199207545191,"connected_time":49000000000,"state":"active","ping":86},{"user_id":149,"name":"UNRL","steam_id":76561198167986695,"connected_time":313000000000,"state":"active","ping":57},{"user_id":125,"name":"–°—ã—Ä–Ω–∞—è —Å —Å—ã—Ä–Ω–∏–∫–æ\ufffd","steam_id":76561198805094046,"connected_time":2138000000000,"state":"active","ping":84},{"user_id":134,"name":"Sebtacular","steam_id":76561198334284616,"connected_time":1787000000000,"state":"active","ping":51},{"user_id":144,"name":"Him","steam_id":76561198086400484,"connected_time":1127000000000,"state":"active","ping":64},{"user_id":155,"name":"sigma female","steam_id":76561198298576765,"connected_time":32000000000,"state":"active","ping":66},{"user_id":126,"name":"Soviet Sickle","steam_id":76561198151734237,"connected_time":2115000000000,"state":"active","ping":55},{"user_id":121,"name":"Aspartus","steam_id":76561198101385763,"connected_time":2445000000000,"state":"active","ping":43},{"user_id":106,"name":"Mechanf","steam_id":76561199160834389,"connected_time":3198000000000,"state":"active","ping":55},{"user_id":145,"name":"LadyMissfit","steam_id":76561198042236349,"connected_time":1084000000000,"state":"active","ping":79},{"user_id":58,"name":"Sham!","steam_id":76561198050434275,"connected_time":5346000000000,"state":"active","ping":51},{"user_id":52,"name":"Marukuso","steam_id":76561198154229845,"connected_time":5408000000000,"state":"active","ping":62}]},{"server_id":41,"name":"Uncletopia | London | 8 | Community","name_short":"lon-8","host":"lon-1.uk.uncletopia.com","port":27085,"enabled":true,"region":"eu","cc":"gb","latitude":51.509865,"longitude":-0.118092,"reserved":0,"last_update":"0001-01-01T00:00:00Z","name_a2s":"Uncletopia | London | 8 | Community","protocol":17,"map":"workshop/rd_asteroid_redux_rc9.ugc2154902912","folder":"tf","game":"Team Fortress","app_id":440,"player_count":0,"max_players":24,"Bots":0,"server_type":"Dedicated","server_os":"Linux","password":true,"vac":true,"version":"7695204","steam_id":85568392924964315,"keywords":["beta","nocrits","nodmgspread","rd","uncletopia"],"game_id":440,"stv_port":27086,"stv_name":"Uncletopia | London | 8 | Community | STV","players":null},{"server_id":300,"name":"Uncletopia | Montr√©al | 1 | All Maps","name_short":"mtl-1","host":"mtl-1.ca.uncletopia.com","port":27015,"enabled":true,"region":"us-east","cc":"ca","latitude":45.50889,"longitude":-73.56167,"reserved":0,"last_update":"0001-01-01T00:00:00Z","name_a2s":"Uncletopia | Montr√©al | 1 | All Maps","protocol":17,"map":"cp_dustbowl","folder":"tf","game":"Team Fortress","app_id":440,"player_count":0,"max_players":24,"Bots":0,"server_type":"Dedicated","server_os":"Linux","password":true,"vac":true,"version":"7695204","steam_id":85568392924500087,"keywords":["cp","nocrits","nodmgspread","uncletopia"],"game_id":440,"stv_port":0,"stv_name":"","players":null},{"server_id":301,"name":"Uncletopia | Montr√©al | 2 | All Maps","name_short":"mtl-2","host":"mtl-1.ca.uncletopia.com","port":27025,"enabled":true,"region":"us-east","cc":"ca","latitude":45.50889,"longitude":-73.56167,"reserved":0,"last_update":"0001-01-01T00:00:00Z","name_a2s":"Uncletopia | Montr√©al | 2 | All Maps","protocol":17,"map":"pl_snowycoast","folder":"tf","game":"Team Fortress","app_id":440,"player_count":0,"max_players":24,"Bots":0,"server_type":"Dedicated","server_os":"Linux","password":true,"vac":true,"version":"7695204","steam_id":85568392924500088,"keywords":["nocrits","nodmgspread","payload","uncletopia"],"game_id":440,"stv_port":0,"stv_name":"","players":null},{"server_id":302,"name":"Uncletopia | Montr√©al | 3 | All Maps","name_short":"mtl-3","host":"mtl-1.ca.uncletopia.com","port":27035,"enabled":true,"region":"us-east","cc":"ca","latitude":45.50889,"longitude":-73.56167,"reserved":0,"last_update":"0001-01-01T00:00:00Z","name_a2s":"Uncletopia | Montr√©al | 3 | All Maps","protocol":17,"map":"koth_viaduct","folder":"tf","game":"Team Fortress","app_id":440,"player_count":0,"max_players":24,"Bots":0,"server_type":"Dedicated","server_os":"Linux","password":true,"vac":true,"version":"7695204","steam_id":85568392924500089,"keywords":["cp","nocrits","nodmgspread","uncletopia"],"game_id":440,"stv_port":0,"stv_name":"","players":null},{"server_id":303,"name":"Uncletopia | Montr√©al | 4 | No Payload","name_short":"mtl-4","host":"mtl-1.ca.uncletopia.com","port":27045,"enabled":true,"region":"us-east","cc":"ca","latitude":45.50889,"longitude":-73.56167,"reserved":0,"last_update":"0001-01-01T00:00:00Z","name_a2s":"Uncletopia | Montr√©al | 4 | No Payload","protocol":17,"map":"cp_dustbowl","folder":"tf","game":"Team Fortress","app_id":440,"player_count":0,"max_players":24,"Bots":0,"server_type":"Dedicated","server_os":"Linux","password":true,"vac":true,"version":"7695204","steam_id":85568392924500090,"keywords":["cp","nocrits","nodmgspread","uncletopia"],"game_id":440,"stv_port":0,"stv_name":"","players":null},{"server_id":13,"name":"Uncletopia | New York City | 1 | All Maps","name_short":"nyc-1","host":"nyc-1.us.uncletopia.com","port":27015,"enabled":true,"region":"us-east","cc":"us","latitude":40.73061,"longitude":-73.93524,"reserved":0,"last_update":"0001-01-01T00:00:00Z","name_a2s":"Uncletopia | New York City | 1 | All Maps","protocol":17,"map":"koth_viaduct","folder":"tf","game":"Team Fortress","app_id":440,"player_count":0,"max_players":24,"Bots":0,"server_type":"Dedicated","server_os":"Linux","password":true,"vac":true,"version":"7695204","steam_id":85568392924469993,"keywords":["cp","nocrits","nodmgspread","uncletopia"],"game_id":440,"stv_port":27016,"stv_name":"Uncletopia | New York City | 1 | All Maps | STV","players":null},{"server_id":14,"name":"Uncletopia | New York City | 2 | All Maps","name_short":"nyc-2","host":"nyc-1.us.uncletopia.com","port":27025,"enabled":true,"region":"us-east","cc":"us","latitude":40.73061,"longitude":-73.93524,"reserved":0,"last_update":"0001-01-01T00:00:00Z","name_a2s":"Uncletopia | New York City | 2 | All Maps","protocol":17,"map":"pl_borneo","folder":"tf","game":"Team Fortress","app_id":440,"player_count":0,"max_players":24,"Bots":0,"server_type":"Dedicated","server_os":"Linux","password":true,"vac":true,"version":"7695204","steam_id":85568392924469994,"keywords":["nocrits","nodmgspread","payload","uncletopia"],"game_id":440,"stv_port":0,"stv_name":"","players":null},{"server_id":15,"name":"Uncletopia | New York City | 3 | All Maps","name_short":"nyc-3","host":"nyc-1.us.uncletopia.com","port":27035,"enabled":true,"region":"us-east","cc":"us","latitude":40.73061,"longitude":-73.93524,"reserved":0,"last_update":"0001-01-01T00:00:00Z","name_a2s":"Uncletopia | New York City | 3 | All Maps","protocol":17,"map":"pl_snowycoast","folder":"tf","game":"Team Fortress","app_id":440,"player_count":0,"max_players":24,"Bots":0,"server_type":"Dedicated","server_os":"Linux","password":true,"vac":true,"version":"7695204","steam_id":85568392924742820,"keywords":["nocrits","nodmgspread","payload","uncletopia"],"game_id":440,"stv_port":0,"stv_name":"","players":null},{"server_id":16,"name":"Uncletopia | New York City | 4 | Community","name_short":"nyc-4","host":"nyc-1.us.uncletopia.com","port":27045,"enabled":true,"region":"us-east","cc":"us","latitude":40.73061,"longitude":-73.93524,"reserved":0,"last_update":"0001-01-01T00:00:00Z","name_a2s":"Uncletopia | New York City | 4 | Community","protocol":17,"map":"workshop/koth_product_final.ugc454272353","folder":"tf","game":"Team Fortress","app_id":440,"player_count":0,"max_players":24,"Bots":0,"server_type":"Dedicated","server_os":"Linux","password":true,"vac":true,"version":"7695204","steam_id":85568392924742821,"keywords":["cp","nocrits","nodmgspread","uncletopia"],"game_id":440,"stv_port":27046,"stv_name":"Uncletopia | New York City | 4 | Community | STV","players":null},{"server_id":142,"name":"Uncletopia | S√£o Paulo | 1 | All Maps","name_short":"sao-1","host":"sao-1.br.uncletopia.com","port":27015,"enabled":true,"region":"sa","cc":"br","latitude":-23.533773,"longitude":-46.62529,"reserved":0,"last_update":"0001-01-01T00:00:00Z","name_a2s":"Uncletopia | S√£o Paulo | 1 | All Maps","protocol":17,"map":"koth_cascade","folder":"tf","game":"Team Fortress","app_id":440,"player_count":0,"max_players":24,"Bots":0,"server_type":"Dedicated","server_os":"Linux","password":true,"vac":true,"version":"7695204","steam_id":85568392924469996,"keywords":["cp","nocrits","nodmgspread","uncletopia"],"game_id":440,"stv_port":0,"stv_name":"","players":null},{"server_id":143,"name":"Uncletopia | S√£o Paulo | 2 | All Maps","name_short":"sao-2","host":"sao-2.br.uncletopia.com","port":27015,"enabled":true,"region":"sa","cc":"br","latitude":-23.533773,"longitude":-46.62529,"reserved":0,"last_update":"0001-01-01T00:00:00Z","name_a2s":"Uncletopia | S√£o Paulo | 2 | All Maps","protocol":17,"map":"cp_process_final","folder":"tf","game":"Team Fortress","app_id":440,"player_count":0,"max_players":24,"Bots":0,"server_type":"Dedicated","server_os":"Linux","password":true,"vac":true,"version":"7695204","steam_id":85568392924485349,"keywords":["cp","nocrits","nodmgspread","uncletopia"],"game_id":440,"stv_port":27016,"stv_name":"Uncletopia | S√£o Paulo | 2 | All Maps | STV","players":null},{"server_id":7,"name":"Uncletopia | Seattle | 1 | All Maps","name_short":"sea-1","host":"sea-1.us.uncletopia.com","port":27015,"enabled":true,"region":"us-west","cc":"us","latitude":47.608013,"longitude":-122.33517,"reserved":0,"last_update":"0001-01-01T00:00:00Z","name_a2s":"Uncletopia | Seattle | 1 | All Maps","protocol":17,"map":"pl_snowycoast","folder":"tf","game":"Team Fortress","app_id":440,"player_count":0,"max_players":24,"Bots":0,"server_type":"Dedicated","server_os":"Linux","password":true,"vac":true,"version":"7695204","steam_id":85568392924469997,"keywords":["nocrits","nodmgspread","payload","uncletopia"],"game_id":440,"stv_port":0,"stv_name":"","players":null},{"server_id":119,"name":"Uncletopia | Seattle | 2 | All Maps","name_short":"sea-2","host":"sea-1.us.uncletopia.com","port":27025,"enabled":true,"region":"us-west","cc":"us","latitude":47.608013,"longitude":-122.33517,"reserved":0,"last_update":"0001-01-01T00:00:00Z","name_a2s":"Uncletopia | Seattle | 2 | All Maps","protocol":17,"map":"pl_badwater","folder":"tf","game":"Team Fortress","app_id":440,"player_count":21,"max_players":24,"Bots":0,"server_type":"Dedicated","server_os":"Linux","password":true,"vac":true,"version":"7695204","steam_id":85568392924469998,"keywords":["nocrits","nodmgspread","payload","uncletopia"],"game_id":440,"stv_port":27026,"stv_name":"Uncletopia | Seattle | 2 | All Maps | STV","players":[{"user_id":43,"name":"Yoyo","steam_id":76561199122577289,"connected_time":465000000000,"state":"active","ping":123},{"user_id":3,"name":"J O S H¬≥¬≤","steam_id":76561198122603779,"connected_time":2485000000000,"state":"active","ping":78},{"user_id":39,"name":"THE NUT","steam_id":76561198067813626,"connected_time":531000000000,"state":"active","ping":48},{"user_id":5,"name":"Grill Skills","steam_id":76561198053575147,"connected_time":2480000000000,"state":"active","ping":47},{"user_id":44,"name":"GoldenX","steam_id":76561199040724918,"connected_time":430000000000,"state":"active","ping":98},{"user_id":24,"name":"mountain goat","steam_id":76561198326628884,"connected_time":1581000000000,"state":"active","ping":110},{"user_id":49,"name":"Fucken Tony","steam_id":76561198332613369,"connected_time":177000000000,"state":"active","ping":83},{"user_id":10,"name":"novacheri1","steam_id":76561198345120143,"connected_time":2466000000000,"state":"active","ping":105},{"user_id":11,"name":"Soap Man","steam_id":76561198000490235,"connected_time":2456000000000,"state":"active","ping":65},{"user_id":13,"name":"rat gets the cheese","steam_id":76561198031234032,"connected_time":2451000000000,"state":"active","ping":98},{"user_id":45,"name":"Ch4rl33","steam_id":76561198037008621,"connected_time":413000000000,"state":"active","ping":101},{"user_id":29,"name":"Red","steam_id":76561198037346199,"connected_time":1193000000000,"state":"active","ping":130},{"user_id":17,"name":"That Dude","steam_id":76561198980486227,"connected_time":2070000000000,"state":"active","ping":129},{"user_id":26,"name":"aqua","steam_id":76561199407709552,"connected_time":1454000000000,"state":"active","ping":90},{"user_id":33,"name":"gen","steam_id":76561199118569153,"connected_time":684000000000,"state":"active","ping":112},{"user_id":47,"name":"Kimberly","steam_id":76561199220049605,"connected_time":367000000000,"state":"active","ping":71},{"user_id":36,"name":"Okayokayokayokayokayokayokayoka","steam_id":76561198118754527,"connected_time":601000000000,"state":"active","ping":94},{"user_id":38,"name":"The Senate","steam_id":76561198143882626,"connected_time":550000000000,"state":"active","ping":60},{"user_id":40,"name":"trans gaming troll (she/her)","steam_id":76561198085410622,"connected_time":530000000000,"state":"active","ping":55},{"user_id":48,"name":"UNCLE_AL","steam_id":76561198035242797,"connected_time":332000000000,"state":"active","ping":108},{"user_id":42,"name":"iHateOverwatchiLoveTf2","steam_id":76561198081617990,"connected_time":521000000000,"state":"active","ping":117}]},{"server_id":17,"name":"Uncletopia | San Francisco | 1 | All Maps","name_short":"sfo-1","host":"sfo-1.us.uncletopia.com","port":27015,"enabled":true,"region":"us-west","cc":"us","latitude":37.77397,"longitude":-122.4313,"reserved":0,"last_update":"0001-01-01T00:00:00Z","name_a2s":"Uncletopia | San Francisco | 1 | All Maps","protocol":17,"map":"cp_sunshine","folder":"tf","game":"Team Fortress","app_id":440,"player_count":0,"max_players":24,"Bots":0,"server_type":"Dedicated","server_os":"Linux","password":true,"vac":true,"version":"7695204","steam_id":85568392924469999,"keywords":["cp","nocrits","nodmgspread","uncletopia"],"game_id":440,"stv_port":0,"stv_name":"","players":null},{"server_id":18,"name":"Uncletopia | San Francisco | 2 | All Maps","name_short":"sfo-2","host":"sfo-1.us.uncletopia.com","port":27025,"enabled":true,"region":"us-west","cc":"us","latitude":37.77397,"longitude":-122.4313,"reserved":0,"last_update":"0001-01-01T00:00:00Z","name_a2s":"Uncletopia | San Francisco | 2 | All Maps","protocol":17,"map":"pl_badwater","folder":"tf","game":"Team Fortress","app_id":440,"player_count":0,"max_players":24,"Bots":0,"server_type":"Dedicated","server_os":"Linux","password":true,"vac":true,"version":"7695204","steam_id":85568392924470000,"keywords":["nocrits","nodmgspread","payload","uncletopia"],"game_id":440,"stv_port":0,"stv_name":"","players":null},{"server_id":19,"name":"Uncletopia | San Francisco | 3 | No Payload","name_short":"sfo-3","host":"sfo-1.us.uncletopia.com","port":27035,"enabled":true,"region":"us-west","cc":"us","latitude":37.77397,"longitude":-122.4313,"reserved":0,"last_update":"0001-01-01T00:00:00Z","name_a2s":"Uncletopia | San Francisco | 3 | No Payload","protocol":17,"map":"cp_snakewater_final1","folder":"tf","game":"Team Fortress","app_id":440,"player_count":0,"max_players":24,"Bots":0,"server_type":"Dedicated","server_os":"Linux","password":true,"vac":true,"version":"7695204","steam_id":85568392924742824,"keywords":["cp","nocrits","nodmgspread","uncletopia"],"game_id":440,"stv_port":0,"stv_name":"","players":null},{"server_id":20,"name":"Uncletopia | San Francisco | 4 | Community","name_short":"sfo-4","host":"sfo-1.us.uncletopia.com","port":27045,"enabled":true,"region":"us-west","cc":"us","latitude":37.77397,"longitude":-122.4313,"reserved":0,"last_update":"0001-01-01T00:00:00Z","name_a2s":"Uncletopia | San Francisco | 4 | Community","protocol":17,"map":"koth_highpass","folder":"tf","game":"Team Fortress","app_id":440,"player_count":2,"max_players":24,"Bots":0,"server_type":"Dedicated","server_os":"Linux","password":true,"vac":true,"version":"7695204","steam_id":85568392924742826,"keywords":["cp","nocrits","nodmgspread","uncletopia"],"game_id":440,"stv_port":0,"stv_name":"","players":[{"user_id":2,"name":"Drizzx","steam_id":76561199208957086,"connected_time":476000000000,"state":"active","ping":110},{"user_id":3,"name":"Fizzyx","steam_id":76561198051865411,"connected_time":384000000000,"state":"active","ping":110}]},{"server_id":141,"name":"Uncletopia | Sydney | 1 | All Maps","name_short":"syd-1","host":"syd-1.au.uncletopia.com","port":27015,"enabled":true,"region":"au","cc":"au","latitude":-33.865143,"longitude":151.2099,"reserved":0,"last_update":"0001-01-01T00:00:00Z","name_a2s":"Uncletopia | Sydney | 1 | All Maps","protocol":17,"map":"pl_upward","folder":"tf","game":"Team Fortress","app_id":440,"player_count":0,"max_players":24,"Bots":0,"server_type":"Dedicated","server_os":"Linux","password":true,"vac":true,"version":"7695204","steam_id":85568392924470001,"keywords":["nocrits","nodmgspread","payload","uncletopia"],"game_id":440,"stv_port":27016,"stv_name":"Uncletopia | Sydney | 1 | All Maps | STV","players":null},{"server_id":123,"name":"Uncletopia | Sydney | 2 | All Maps","name_short":"syd-2","host":"syd-1.au.uncletopia.com","port":27025,"enabled":true,"region":"au","cc":"au","latitude":-33.865143,"longitude":151.2099,"reserved":0,"last_update":"0001-01-01T00:00:00Z","name_a2s":"Uncletopia | Sydney | 2 | All Maps","protocol":17,"map":"cp_dustbowl","folder":"tf","game":"Team Fortress","app_id":440,"player_count":24,"max_players":24,"Bots":0,"server_type":"Dedicated","server_os":"Linux","password":true,"vac":true,"version":"7695204","steam_id":85568392924470002,"keywords":["cp","nocrits","nodmgspread","uncletopia"],"game_id":440,"stv_port":27026,"stv_name":"Uncletopia | Sydney | 2 | All Maps | STV","players":[{"user_id":694,"name":"hawk","steam_id":76561198135164277,"connected_time":5394000000000,"state":"active","ping":51},{"user_id":716,"name":"Captain Canadia","steam_id":76561198167967735,"connected_time":3851000000000,"state":"active","ping":50},{"user_id":737,"name":"helton1 #RemoveCrossbow","steam_id":76561198841855657,"connected_time":1841000000000,"state":"active","ping":52},{"user_id":752,"name":"Mymixes","steam_id":76561198017612471,"connected_time":678000000000,"state":"active","ping":48},{"user_id":753,"name":"ohai","steam_id":76561198098622964,"connected_time":675000000000,"state":"active","ping":45},{"user_id":729,"name":"Sover blw.tf","steam_id":76561198136347837,"connected_time":2247000000000,"state":"active","ping":135},{"user_id":741,"name":"pink F2P","steam_id":76561199160972366,"connected_time":1282000000000,"state":"active","ping":143},{"user_id":742,"name":"mommi!","steam_id":76561198398653664,"connected_time":1212000000000,"state":"active","ping":55},{"user_id":754,"name":"Transgender Leonardo Da Vinci","steam_id":76561198056993432,"connected_time":633000000000,"state":"active","ping":89},{"user_id":714,"name":"xfol","steam_id":76561197973048879,"connected_time":4104000000000,"state":"active","ping":60},{"user_id":641,"name":"Rarity the Fabulous","steam_id":76561198077653287,"connected_time":9215000000000,"state":"active","ping":30},{"user_id":733,"name":"Colonel MF Stinkmeaner","steam_id":76561198059744886,"connected_time":1958000000000,"state":"active","ping":80},{"user_id":755,"name":"DelHasMangoes/yt","steam_id":76561198047183797,"connected_time":553000000000,"state":"active","ping":85},{"user_id":743,"name":"mushroom","steam_id":76561197992336470,"connected_time":1185000000000,"state":"active","ping":87},{"user_id":757,"name":"Phlog enthusiast","steam_id":76561198344085093,"connected_time":430000000000,"state":"active","ping":92},{"user_id":751,"name":"Phat Thot","steam_id":76561198048497307,"connected_time":682000000000,"state":"active","ping":45},{"user_id":734,"name":"baked with a bucket hat frankli","steam_id":76561198006535333,"connected_time":1952000000000,"state":"active","ping":85},{"user_id":758,"name":"\u003c blank \u003e","steam_id":76561199099548083,"connected_time":244000000000,"state":"active","ping":39},{"user_id":698,"name":"Charm","steam_id":76561198028891054,"connected_time":5295000000000,"state":"active","ping":62},{"user_id":750,"name":"Sansomar","steam_id":76561197983633428,"connected_time":779000000000,"state":"active","ping":95},{"user_id":720,"name":"beanslinger","steam_id":76561198063552783,"connected_time":3165000000000,"state":"active","ping":56},{"user_id":761,"name":"barbara 1.0","steam_id":76561198312337820,"connected_time":61000000000,"state":"active","ping":326},{"user_id":747,"name":"Birdy \u003c3","steam_id":76561198048743757,"connected_time":868000000000,"state":"active","ping":46},{"user_id":760,"name":"The Bomb","steam_id":76561199018446259,"connected_time":99000000000,"state":"active","ping":241}]},{"server_id":395,"name":"Uncletopia | Sydney | 3 | All Maps","name_short":"syd-3","host":"syd-1.au.uncletopia.com","port":27035,"enabled":true,"region":"au","cc":"au","latitude":-33.865143,"longitude":151.2099,"reserved":0,"last_update":"0001-01-01T00:00:00Z","name_a2s":"Uncletopia | Sydney | 3 | All Maps","protocol":17,"map":"koth_lakeside_final","folder":"tf","game":"Team Fortress","app_id":440,"player_count":0,"max_players":24,"Bots":0,"server_type":"Dedicated","server_os":"Linux","password":true,"vac":true,"version":"7695204","steam_id":85568392925194467,"keywords":["cp","nocrits","nodmgspread","uncletopia"],"game_id":440,"stv_port":27036,"stv_name":"Uncletopia | Sydney | 3 | All Maps | STV","players":null},{"server_id":396,"name":"Uncletopia | Sydney | 4 | All Maps","name_short":"syd-4","host":"syd-1.au.uncletopia.com","port":27045,"enabled":true,"region":"au","cc":"au","latitude":-33.865143,"longitude":151.2099,"reserved":0,"last_update":"0001-01-01T00:00:00Z","name_a2s":"Uncletopia | Sydney | 4 | All Maps","protocol":17,"map":"cp_sunshine","folder":"tf","game":"Team Fortress","app_id":440,"player_count":0,"max_players":24,"Bots":0,"server_type":"Dedicated","server_os":"Linux","password":true,"vac":true,"version":"7695204","steam_id":85568392925397958,"keywords":["cp","nocrits","nodmgspread","uncletopia"],"game_id":440,"stv_port":27046,"stv_name":"Uncletopia | Sydney | 4 | All Maps | STV","players":null},{"server_id":58,"name":"Uncletopia | Sydney | 5 | No Payload","name_short":"syd-5","host":"syd-1.au.uncletopia.com","port":27055,"enabled":true,"region":"au","cc":"au","latitude":-33.865143,"longitude":151.2099,"reserved":0,"last_update":"0001-01-01T00:00:00Z","name_a2s":"Uncletopia | Sydney | 5 | No Payload","protocol":17,"map":"plr_nightfall_final","folder":"tf","game":"Team Fortress","app_id":440,"player_count":0,"max_players":24,"Bots":0,"server_type":"Dedicated","server_os":"Linux","password":true,"vac":true,"version":"7695204","steam_id":85568392925397959,"keywords":["nocrits","nodmgspread","payload","uncletopia"],"game_id":440,"stv_port":27056,"stv_name":"Uncletopia | Sydney | 5 | No Payload | STV","players":null},{"server_id":59,"name":"Uncletopia | Sydney | 6 | Community","name_short":"syd-6","host":"syd-1.au.uncletopia.com","port":27065,"enabled":true,"region":"au","cc":"au","latitude":-33.865143,"longitude":151.2099,"reserved":0,"last_update":"0001-01-01T00:00:00Z","name_a2s":"Uncletopia | Sydney | 6 | Community","protocol":17,"map":"workshop/koth_product_final.ugc454272353","folder":"tf","game":"Team Fortress","app_id":440,"player_count":0,"max_players":24,"Bots":0,"server_type":"Dedicated","server_os":"Linux","password":true,"vac":true,"version":"7695204","steam_id":85568392925397960,"keywords":["cp","nocrits","nodmgspread","uncletopia"],"game_id":440,"stv_port":27066,"stv_name":"Uncletopia | Sydney | 6 | Community | STV","players":null},{"server_id":49,"name":"Uncletopia | Warsaw | 1 | All Maps","name_short":"waw-1","host":"waw-1.pl.uncletopia.com","port":27015,"enabled":true,"region":"eu","cc":"pl","latitude":52.2297,"longitude":21.017532,"reserved":0,"last_update":"0001-01-01T00:00:00Z","name_a2s":"Uncletopia | Warsaw | 1 | All Maps","protocol":17,"map":"cp_sunshine","folder":"tf","game":"Team Fortress","app_id":440,"player_count":0,"max_players":24,"Bots":0,"server_type":"Dedicated","server_os":"Linux","password":true,"vac":true,"version":"7695204","steam_id":85568392925397850,"keywords":["cp","nocrits","nodmgspread","uncletopia"],"game_id":440,"stv_port":27016,"stv_name":"Uncletopia | Warsaw | 1 | All Maps | STV","players":null},{"server_id":50,"name":"Uncletopia | Warsaw | 2 | All Maps","name_short":"waw-2","host":"waw-1.pl.uncletopia.com","port":27025,"enabled":true,"region":"eu","cc":"pl","latitude":52.2297,"longitude":21.017532,"reserved":0,"last_update":"0001-01-01T00:00:00Z","name_a2s":"Uncletopia | Warsaw | 2 | All Maps","protocol":17,"map":"cp_egypt_final","folder":"tf","game":"Team Fortress","app_id":440,"player_count":21,"max_players":24,"Bots":0,"server_type":"Dedicated","server_os":"Linux","password":true,"vac":true,"version":"7695204","steam_id":85568392925397851,"keywords":["cp","nocrits","nodmgspread","uncletopia"],"game_id":440,"stv_port":27026,"stv_name":"Uncletopia | Warsaw | 2 | All Maps | STV","players":[{"user_id":403,"name":"Clint is wood","steam_id":76561198078798799,"connected_time":299000000000,"state":"active","ping":80},{"user_id":405,"name":"tobyretka","steam_id":76561198086845387,"connected_time":266000000000,"state":"active","ping":99},{"user_id":399,"name":"Happy_Monkey","steam_id":76561199073561546,"connected_time":653000000000,"state":"active","ping":148},{"user_id":412,"name":"xeno_Y","steam_id":76561199009157261,"connected_time":134000000000,"state":"active","ping":85},{"user_id":402,"name":"404 bomb","steam_id":76561198115755832,"connected_time":360000000000,"state":"active","ping":113},{"user_id":407,"name":"Sedoy+3pillz","steam_id":76561198390666516,"connected_time":245000000000,"state":"active","ping":105},{"user_id":400,"name":"SvbK","steam_id":76561198201478866,"connected_time":505000000000,"state":"active","ping":59},{"user_id":408,"name":"LAKAKA","steam_id":76561199187453820,"connected_time":229000000000,"state":"active","ping":161},{"user_id":388,"name":"WEneedAgreatRESET","steam_id":76561199388295925,"connected_time":1428000000000,"state":"active","ping":85},{"user_id":359,"name":"ZazyLou_","steam_id":76561198411134617,"connected_time":2275000000000,"state":"active","ping":49},{"user_id":410,"name":"Earraping Hydralisk","steam_id":76561198083557259,"connected_time":181000000000,"state":"active","ping":95},{"user_id":413,"name":"jge","steam_id":76561198123186387,"connected_time":128000000000,"state":"active","ping":70},{"user_id":391,"name":"zdichuqs","steam_id":76561199123346048,"connected_time":1311000000000,"state":"active","ping":50},{"user_id":401,"name":"from the shadows","steam_id":76561198322217890,"connected_time":469000000000,"state":"active","ping":63},{"user_id":414,"name":"Belgorodec","steam_id":76561199383879505,"connected_time":76000000000,"state":"active","ping":117},{"user_id":380,"name":"404 lean","steam_id":76561198860332998,"connected_time":1701000000000,"state":"active","ping":66},{"user_id":394,"name":"Derbas","steam_id":76561198081749441,"connected_time":1214000000000,"state":"active","ping":147},{"user_id":389,"name":"KeNNy L.O.L","steam_id":76561198041918418,"connected_time":1413000000000,"state":"active","ping":78},{"user_id":386,"name":"MATT POKOSOURI","steam_id":76561197968575924,"connected_time":1537000000000,"state":"active","ping":92},{"user_id":379,"name":"Hantero aki titokban ruszki","steam_id":76561198972038742,"connected_time":1712000000000,"state":"active","ping":82},{"user_id":383,"name":"404 Mike Doe","steam_id":76561198331251922,"connected_time":1676000000000,"state":"active","ping":90}]},{"server_id":51,"name":"Uncletopia | Warsaw | 3 | All Maps","name_short":"waw-3","host":"waw-1.pl.uncletopia.com","port":27035,"enabled":true,"region":"eu","cc":"pl","latitude":52.2297,"longitude":21.017532,"reserved":0,"last_update":"0001-01-01T00:00:00Z","name_a2s":"Uncletopia | Warsaw | 3 | All Maps","protocol":17,"map":"pl_barnblitz","folder":"tf","game":"Team Fortress","app_id":440,"player_count":0,"max_players":24,"Bots":0,"server_type":"Dedicated","server_os":"Linux","password":true,"vac":true,"version":"7695204","steam_id":85568392925397852,"keywords":["nocrits","nodmgspread","payload","uncletopia"],"game_id":440,"stv_port":0,"stv_name":"","players":null},{"server_id":52,"name":"Uncletopia | Warsaw | 4 | All Maps","name_short":"waw-4","host":"waw-1.pl.uncletopia.com","port":27045,"enabled":true,"region":"eu","cc":"pl","latitude":52.2297,"longitude":21.017532,"reserved":0,"last_update":"0001-01-01T00:00:00Z","name_a2s":"Uncletopia | Warsaw | 4 | All Maps","protocol":17,"map":"pl_frontier_final","folder":"tf","game":"Team Fortress","app_id":440,"player_count":0,"max_players":24,"Bots":0,"server_type":"Dedicated","server_os":"Linux","password":true,"vac":true,"version":"7695204","steam_id":85568392925397853,"keywords":["nocrits","nodmgspread","payload","uncletopia"],"game_id":440,"stv_port":27046,"stv_name":"Uncletopia | Warsaw | 4 | All Maps | STV","players":null},{"server_id":53,"name":"Uncletopia | Warsaw | 5 | No Payload","name_short":"waw-5","host":"waw-1.pl.uncletopia.com","port":27055,"enabled":true,"region":"eu","cc":"pl","latitude":52.2297,"longitude":21.017532,"reserved":0,"last_update":"0001-01-01T00:00:00Z","name_a2s":"Uncletopia | Warsaw | 5 | No Payload","protocol":17,"map":"cp_mercenarypark","folder":"tf","game":"Team Fortress","app_id":440,"player_count":0,"max_players":24,"Bots":0,"server_type":"Dedicated","server_os":"Linux","password":true,"vac":true,"version":"7695204","steam_id":85568392925397854,"keywords":["cp","nocrits","nodmgspread","uncletopia"],"game_id":440,"stv_port":27056,"stv_name":"Uncletopia | Warsaw | 5 | No Payload | STV","players":null},{"server_id":54,"name":"Uncletopia | Warsaw | 6 | Community","name_short":"waw-6","host":"waw-1.pl.uncletopia.com","port":27065,"enabled":true,"region":"eu","cc":"pl","latitude":52.2297,"longitude":21.017532,"reserved":0,"last_update":"0001-01-01T00:00:00Z","name_a2s":"Uncletopia | Warsaw | 6 | Community","protocol":17,"map":"pl_barnblitz","folder":"tf","game":"Team Fortress","app_id":440,"player_count":0,"max_players":24,"Bots":0,"server_type":"Dedicated","server_os":"Linux","password":true,"vac":true,"version":"7695204","steam_id":85568392925397856,"keywords":["nocrits","nodmgspread","payload","uncletopia"],"game_id":440,"stv_port":0,"stv_name":"","players":null}]}