{"status":true,"message":"","result":[{"server_id":9,"name":"Uncletopia | Atlanta | 1 | All Maps","name_short":"atl-1","host":"atl-1.us.uncletopia.com","port":27015,"enabled":true,"region":"us-east","cc":"us","latitude":33.753746,"longitude":-84.38633,"reserved":0,"last_update":"0001-01-01T00:00:00Z","name_a2s":"Uncletopia | Atlanta | 1 | All Maps","protocol":17,"map":"pl_upward","folder":"tf","game":"Team Fortress","app_id":440,"player_count":24,"max_players":24,"Bots":0,"server_type":"Dedicated","server_os":"Linux","password":true,"vac":true,"version":"7757534","steam_id":85568392924469982,"keywords":["nocrits","nodmgspread","payload","uncletopia"],"game_id":440,"stv_port":27016,"stv_name":"Uncletopia | Atlanta | 1 | All Maps | STV","players":[{"user_id":313,"name":"A Man Named Pancho","steam_id":76561197984895522,"connected_time":482000000000,"state":"active","ping":124},{"user_id":290,"name":"hunky dory","steam_id":76561198030422254,"connected_time":1442000000000,"state":"active","ping":103},{"user_id":293,"name":"trilobita","steam_id":76561198428215606,"connected_time":1389000000000,"state":"active","ping":66},{"user_id":315,"name":"sylvia","steam_id":76561198217119457,"connected_time":441000000000,"state":"active","ping":71},{"user_id":286,"name":"Mikael_01","steam_id":76561199080253129,"connected_time":1552000000000,"state":"active","ping":182},{"user_id":231,"name":"Carrot^7","steam_id":76561198060034109,"connected_time":4849000000000,"state":"active","ping":79},{"user_id":303,"name":"bogginwater","steam_id":76561198155547142,"connected_time":1056000000000,"state":"active","ping":63},{"user_id":285,"name":"DocRabbot","steam_id":76561198073212975,"connected_time":1580000000000,"state":"active","ping":64},{"user_id":266,"name":"indi","steam_id":76561198045917538,"connected_time":3182000000000,"state":"active","ping":70},{"user_id":289,"name":"king dedede","steam_id":76561198965562679,"connected_time":1482000000000,"state":"active","ping":81},{"user_id":314,"name":"stepho","steam_id":76561199132035586,"connected_time":473000000000,"state":"active","ping":84},{"user_id":278,"name":"Spy_Is_Pye","steam_id":76561199439622967,"connected_time":2127000000000,"state":"active","ping":82},{"user_id":274,"name":"Genetic Komodo","steam_id":76561198174806758,"connected_time":2343000000000,"state":"active","ping":52},{"user_id":316,"name":"Try Gardening","steam_id":76561198120311340,"connected_time":413000000000,"state":"active","ping":65},{"user_id":279,"name":"William Wallace","steam_id":76561199343316814,"connected_time":2122000000000,"state":"active","ping":56},{"user_id":317,"name":"GrumpyGrampaKoala","steam_id":76561198020441036,"connected_time":409000000000,"state":"active","ping":108},{"user_id":320,"name":"RED1 | Avo","steam_id":76561197993340494,"connected_time":260000000000,"state":"active","ping":59},{"user_id":318,"name":"choi","steam_id":76561198053669887,"connected_time":389000000000,"state":"active","ping":114},{"user_id":309,"name":"Banana es","steam_id":76561199051216149,"connected_time":889000000000,"state":"active","ping":87},{"user_id":302,"name":"Rectal Rampage","steam_id":76561199379158751,"connected_time":1091000000000,"state":"active","ping":78},{"user_id":304,"name":"AFLH_David","steam_id":76561198964440034,"connected_time":1037000000000,"state":"active","ping":136},{"user_id":308,"name":"H_NGM_N","steam_id":76561199427024166,"connected_time":948000000000,"state":"active","ping":73},{"user_id":310,"name":"hamal cine","steam_id":76561198079619374,"connected_time":610000000000,"state":"active","ping":60},{"user_id":319,"name":"Marc G","steam_id":76561198062650363,"connected_time":372000000000,"state":"active","ping":75}]},{"server_id":400,"name":"Uncletopia | Atlanta | 3 | Stopwatch Beta","name_short":"atl-3","host":"atl-1.us.uncletopia.com","port":27035,"enabled":true,"region":"us-east","cc":"us","latitude":33.753746,"longitude":-84.38633,"reserved":0,"last_update":"0001-01-01T00:00:00Z","name_a2s":"Uncletopia | Atlanta | 3 | Stopwatch Beta","protocol":17,"map":"pl_upward","folder":"tf","game":"Team Fortress","app_id":440,"player_count":0,"max_players":24,"Bots":0,"server_type":"Dedicated","server_os":"Linux","password":true,"vac":true,"version":"7757534","steam_id":85568392924515187,"keywords":["nocrits","nodmgspread","payload","uncletopia"],"game_id":440,"stv_port":27036,"stv_name":"Uncletopia | Atlanta | 3 | Stopwatch Beta | STV","players":null},{"server_id":401,"name":"Uncletopia | Atlanta | 4 | No Payload","name_short":"atl-4","host":"atl-1.us.uncletopia.com","port":27045,"enabled":true,"region":"us-east","cc":"us","latitude":33.753746,"longitude":-84.38633,"reserved":0,"last_update":"0001-01-01T00:00:00Z","name_a2s":"Uncletopia | Atlanta | 4 | No Payload","protocol":17,"map":"pl_pier","folder":"tf","game":"Team Fortress","app_id":440,"player_count":0,"max_players":24,"Bots":0,"server_type":"Dedicated","server_os":"Linux","password":true,"vac":true,"version":"7723704","steam_id":85568392924515188,"keywords":["nocrits","nodmgspread","payload","uncletopia"],"game_id":440,"stv_port":27046,"stv_name":"Uncletopia | Atlanta | 4 | No Payload | STV","players":null},{"server_id":2,"name":"Uncletopia | Chicago | 1 | All Maps","name_short":"chi-1","host":"chi-1.us.uncletopia.com","port":27015,"enabled":true,"region":"us-central","cc":"us","latitude":41.881832,"longitude":-87.62318,"reserved":0,"last_update":"0001-01-01T00:00:00Z","name_a2s":"Uncletopia | Chicago | 1 | All Maps","protocol":17,"map":"pl_upward","folder":"tf","game":"Team Fortress","app_id":440,"player_count":24,"max_players":24,"Bots":0,"server_type":"Dedicated","server_os":"Linux","password":true,"vac":true,"version":"7757534","steam_id":85568392924469984,"keywords":["nocrits","nodmgspread","payload","uncletopia"],"game_id":440,"stv_port":27016,"stv_name":"Uncletopia | Chicago | 1 | All Maps | STV","players":[{"user_id":277,"name":"Banio Kaioie","steam_id":76561198153295874,"connected_time":1461000000000,"state":"active","ping":113},{"user_id":263,"name":"crs22","steam_id":76561198120149196,"connected_time":1591000000000,"state":"active","ping":54},{"user_id":266,"name":"AER0.exe","steam_id":76561198062940197,"connected_time":1574000000000,"state":"active","ping":59},{"user_id":284,"name":"theancientnut","steam_id":76561199396708880,"connected_time":935000000000,"state":"active","ping":56},{"user_id":279,"name":"TeeTree","steam_id":76561198862307874,"connected_time":1323000000000,"state":"active","ping":60},{"user_id":274,"name":"ouijajuice","steam_id":76561198207325057,"connected_time":1506000000000,"state":"active","ping":65},{"user_id":247,"name":"The Announcer's Feet","steam_id":76561199443456893,"connected_time":3362000000000,"state":"active","ping":91},{"user_id":181,"name":"Loyal Light","steam_id":76561198217338507,"connected_time":6732000000000,"state":"active","ping":87},{"user_id":256,"name":"Daksuki","steam_id":76561198084127751,"connected_time":2800000000000,"state":"active","ping":74},{"user_id":251,"name":"Reggievich","steam_id":76561198173252835,"connected_time":3196000000000,"state":"active","ping":54},{"user_id":222,"name":"Coffee with a Stranger","steam_id":76561198307422313,"connected_time":5663000000000,"state":"active","ping":87},{"user_id":264,"name":"Astoriae!","steam_id":76561199090168858,"connected_time":1588000000000,"state":"active","ping":78},{"user_id":282,"name":"Ah, so Jolly !","steam_id":76561198347621919,"connected_time":972000000000,"state":"active","ping":58},{"user_id":268,"name":"IAmAProfesonal","steam_id":76561199171858953,"connected_time":1549000000000,"state":"active","ping":48},{"user_id":285,"name":"kite","steam_id":76561198346516392,"connected_time":331000000000,"state":"active","ping":72},{"user_id":269,"name":"Roken","steam_id":76561198037836282,"connected_time":1548000000000,"state":"active","ping":78},{"user_id":249,"name":"Donnie Blasto","steam_id":76561198043432005,"connected_time":3257000000000,"state":"active","ping":51},{"user_id":265,"name":"Dokki","steam_id":76561198355935693,"connected_time":1588000000000,"state":"active","ping":46},{"user_id":280,"name":"Craig Isonychia","steam_id":76561198272013678,"connected_time":1015000000000,"state":"active","ping":77},{"user_id":177,"name":"R2D28MYFOOD","steam_id":76561198124315872,"connected_time":6851000000000,"state":"active","ping":87},{"user_id":252,"name":"HEAVYWHIP","steam_id":76561198188719767,"connected_time":3186000000000,"state":"active","ping":68},{"user_id":257,"name":"Ripheart","steam_id":76561198089661561,"connected_time":2783000000000,"state":"active","ping":42},{"user_id":275,"name":"chaffy","steam_id":76561198021754567,"connected_time":1493000000000,"state":"active","ping":58},{"user_id":283,"name":"Gigabars","steam_id":76561198119267479,"connected_time":971000000000,"state":"active","ping":66}]},{"server_id":106,"name":"Uncletopia | Chicago | 2 | All Maps","name_short":"chi-2","host":"chi-1.us.uncletopia.com","port":27025,"enabled":true,"region":"us-central","cc":"us","latitude":41.881832,"longitude":-87.62318,"reserved":0,"last_update":"0001-01-01T00:00:00Z","name_a2s":"Uncletopia | Chicago | 2 | All Maps","protocol":17,"map":"cp_steel","folder":"tf","game":"Team Fortress","app_id":440,"player_count":24,"max_players":24,"Bots":0,"server_type":"Dedicated","server_os":"Linux","password":true,"vac":true,"version":"7757534","steam_id":85568392924469985,"keywords":["cp","nocrits","nodmgspread","uncletopia"],"game_id":440,"stv_port":27026,"stv_name":"Uncletopia | Chicago | 2 | All Maps | STV","players":[{"user_id":373,"name":"Iggy Dogg","steam_id":76561198059602545,"connected_time":2077000000000,"state":"active","ping":52},{"user_id":380,"name":"rlty","steam_id":76561198009395055,"connected_time":1536000000000,"state":"active","ping":62},{"user_id":389,"name":"Green Icicle","steam_id":76561198069624529,"connected_time":412000000000,"state":"active","ping":91},{"user_id":390,"name":"Jango","steam_id":76561198121922413,"connected_time":392000000000,"state":"active","ping":96},{"user_id":357,"name":"Mrcheesey","steam_id":76561199078252493,"connected_time":3089000000000,"state":"active","ping":95},{"user_id":378,"name":"Nitrodex1","steam_id":76561198079618159,"connected_time":1846000000000,"state":"active","ping":90},{"user_id":391,"name":"SketchyEtchaSketch","steam_id":76561198143747486,"connected_time":387000000000,"state":"active","ping":102},{"user_id":318,"name":"xiphoidar","steam_id":76561198146044049,"connected_time":6708000000000,"state":"active","ping":74},{"user_id":393,"name":"magicbeetle","steam_id":76561199160422863,"connected_time":311000000000,"state":"active","ping":123},{"user_id":354,"name":"Awildrock","steam_id":76561198040401086,"connected_time":3172000000000,"state":"active","ping":83},{"user_id":207,"name":"Blart","steam_id":76561198101234582,"connected_time":15013000000000,"state":"active","ping":85},{"user_id":348,"name":"Iroquois Pliskin","steam_id":76561198056704533,"connected_time":4336000000000,"state":"active","ping":98},{"user_id":360,"name":"pumba","steam_id":76561198207881077,"connected_time":3019000000000,"state":"active","ping":87},{"user_id":399,"name":"CrazyMush","steam_id":76561198141783855,"connected_time":190000000000,"state":"active","ping":61},{"user_id":394,"name":"ｌｅ ｔｏａｓｔｅｒ","steam_id":76561198061636611,"connected_time":293000000000,"state":"active","ping":70},{"user_id":395,"name":"pest","steam_id":76561198052571208,"connected_time":274000000000,"state":"active","ping":71},{"user_id":400,"name":"LocaKola","steam_id":76561198173435430,"connected_time":178000000000,"state":"active","ping":72},{"user_id":362,"name":"ghostyAlchemist","steam_id":76561198448078291,"connected_time":3014000000000,"state":"active","ping":76},{"user_id":388,"name":"4d4","steam_id":76561198402360789,"connected_time":466000000000,"state":"active","ping":58},{"user_id":371,"name":"Lennu","steam_id":76561198060730154,"connected_time":2518000000000,"state":"active","ping":76},{"user_id":397,"name":"glizzy gladiator","steam_id":76561198015285052,"connected_time":253000000000,"state":"active","ping":48},{"user_id":398,"name":"Diesel","steam_id":76561198448815852,"connected_time":239000000000,"state":"active","ping":98},{"user_id":386,"name":"Deep Peepus","steam_id":76561198205395757,"connected_time":1353000000000,"state":"active","ping":100},{"user_id":387,"name":"McGangBang","steam_id":76561198862379865,"connected_time":470000000000,"state":"active","ping":55}]},{"server_id":402,"name":"Uncletopia | Chicago | 3 | All Maps","name_short":"chi-3","host":"chi-1.us.uncletopia.com","port":27035,"enabled":true,"region":"us-central","cc":"us","latitude":41.881832,"longitude":-87.62318,"reserved":0,"last_update":"0001-01-01T00:00:00Z","name_a2s":"Uncletopia | Chicago | 3 | All Maps","protocol":17,"map":"cp_dustbowl","folder":"tf","game":"Team Fortress","app_id":440,"player_count":24,"max_players":24,"Bots":0,"server_type":"Dedicated","server_os":"Linux","password":true,"vac":true,"version":"7757534","steam_id":85568392924515191,"keywords":["cp","nocrits","nodmgspread","uncletopia"],"game_id":440,"stv_port":27036,"stv_name":"Uncletopia | Chicago | 3 | All Maps | STV","players":[{"user_id":170,"name":"Dispenser (Twan)","steam_id":76561197991064908,"connected_time":815000000000,"state":"active","ping":59},{"user_id":151,"name":"flexer_2000","steam_id":76561198084422657,"connected_time":2704000000000,"state":"active","ping":89},{"user_id":156,"name":"yomokha","steam_id":76561198063175935,"connected_time":2376000000000,"state":"active","ping":74},{"user_id":136,"name":"Duckywinner","steam_id":76561198254828139,"connected_time":3643000000000,"state":"active","ping":85},{"user_id":81,"name":"Sapphireblitz","steam_id":76561198272635379,"connected_time":7451000000000,"state":"active","ping":85},{"user_id":166,"name":"FemboyNate","steam_id":76561198146636410,"connected_time":909000000000,"state":"active","ping":101},{"user_id":169,"name":"Maik","steam_id":76561198045257088,"connected_time":873000000000,"state":"active","ping":131},{"user_id":164,"name":"ze","steam_id":76561198041348890,"connected_time":1531000000000,"state":"active","ping":55},{"user_id":162,"name":"Cantaloaf","steam_id":76561198222164132,"connected_time":2030000000000,"state":"active","ping":101},{"user_id":152,"name":"SVVZ","steam_id":76561198383846940,"connected_time":2681000000000,"state":"active","ping":180},{"user_id":165,"name":"Albino Jellyfish","steam_id":76561198208561097,"connected_time":1512000000000,"state":"active","ping":79},{"user_id":149,"name":"deech","steam_id":76561198066429444,"connected_time":3057000000000,"state":"active","ping":70},{"user_id":155,"name":"Female Gamer","steam_id":76561199366482682,"connected_time":2397000000000,"state":"active","ping":127},{"user_id":171,"name":"conscripted monk","steam_id":76561199029246232,"connected_time":802000000000,"state":"active","ping":71},{"user_id":168,"name":"number 4","steam_id":76561198066867150,"connected_time":892000000000,"state":"active","ping":75},{"user_id":137,"name":"g00bur","steam_id":76561197993622520,"connected_time":3609000000000,"state":"active","ping":72},{"user_id":172,"name":"ecks","steam_id":76561197978114705,"connected_time":763000000000,"state":"active","ping":60},{"user_id":173,"name":"Wallabear","steam_id":76561198138404555,"connected_time":746000000000,"state":"active","ping":76},{"user_id":174,"name":"Pepsiman","steam_id":76561198436946165,"connected_time":728000000000,"state":"active","ping":77},{"user_id":175,"name":"nice","steam_id":76561198060447571,"connected_time":626000000000,"state":"active","ping":69},{"user_id":139,"name":"THE GOD KING","steam_id":76561198300349976,"connected_time":3567000000000,"state":"active","ping":89},{"user_id":29,"name":"heavy nft","steam_id":76561198068113077,"connected_time":9876000000000,"state":"active","ping":119},{"user_id":132,"name":"Cherri.mp4","steam_id":76561198867419734,"connected_time":4522000000000,"state":"active","ping":58},{"user_id":142,"name":"Samus","steam_id":76561198121933439,"connected_time":3478000000000,"state":"active","ping":86}]},{"server_id":403,"name":"Uncletopia | Chicago | 4 | All Maps","name_short":"chi-4","host":"chi-1.us.uncletopia.com","port":27045,"enabled":true,"region":"us-central","cc":"us","latitude":41.881832,"longitude":-87.62318,"reserved":0,"last_update":"0001-01-01T00:00:00Z","name_a2s":"Uncletopia | Chicago | 4 | All Maps","protocol":17,"map":"koth_viaduct","folder":"tf","game":"Team Fortress","app_id":440,"player_count":23,"max_players":24,"Bots":0,"server_type":"Dedicated","server_os":"Linux","password":true,"vac":true,"version":"7757534","steam_id":85568392924515193,"keywords":["cp","nocrits","nodmgspread","uncletopia"],"game_id":440,"stv_port":27046,"stv_name":"Uncletopia | Chicago | 4 | All Maps | STV","players":[{"user_id":167,"name":"scrapheap","steam_id":76561198202407087,"connected_time":421000000000,"state":"active","ping":77},{"user_id":153,"name":"Vision Spiya","steam_id":76561198095923905,"connected_time":1583000000000,"state":"active","ping":50},{"user_id":181,"name":"white ray","steam_id":76561198026664629,"connected_time":127000000000,"state":"active","ping":46},{"user_id":126,"name":"freaky lil buttumrump","steam_id":76561198314221897,"connected_time":3162000000000,"state":"active","ping":105},{"user_id":155,"name":"fridolin","steam_id":76561198005806915,"connected_time":1574000000000,"state":"active","ping":66},{"user_id":170,"name":"Green Tea","steam_id":76561198245996538,"connected_time":350000000000,"state":"active","ping":111},{"user_id":163,"name":"Evan","steam_id":76561198081165364,"connected_time":650000000000,"state":"active","ping":72},{"user_id":160,"name":"Tusk","steam_id":76561199066977033,"connected_time":1346000000000,"state":"active","ping":74},{"user_id":142,"name":"parm spagert with bassil","steam_id":76561198047476380,"connected_time":2199000000000,"state":"active","ping":58},{"user_id":161,"name":"Menachem","steam_id":76561198041226420,"connected_time":911000000000,"state":"active","ping":50},{"user_id":127,"name":"Baby Llama","steam_id":76561198407155682,"connected_time":3162000000000,"state":"active","ping":106},{"user_id":171,"name":"[YDK]JoeKewle","steam_id":76561197960688758,"connected_time":337000000000,"state":"active","ping":58},{"user_id":172,"name":"(1)Green Tea","steam_id":76561198097460255,"connected_time":305000000000,"state":"active","ping":87},{"user_id":151,"name":"ṽ⧉ cookie","steam_id":76561197998884823,"connected_time":1940000000000,"state":"active","ping":64},{"user_id":176,"name":"Quatts","steam_id":76561198051482153,"connected_time":259000000000,"state":"active","ping":61},{"user_id":154,"name":"Nephs","steam_id":76561198136763403,"connected_time":1578000000000,"state":"active","ping":71},{"user_id":132,"name":"b2023afy","steam_id":76561198084208649,"connected_time":2884000000000,"state":"active","ping":98},{"user_id":174,"name":"kallen","steam_id":76561198838043440,"connected_time":288000000000,"state":"active","ping":75},{"user_id":175,"name":"WillBot","steam_id":76561198019732091,"connected_time":268000000000,"state":"active","ping":57},{"user_id":177,"name":"Griffin","steam_id":76561198159339442,"connected_time":250000000000,"state":"active","ping":74},{"user_id":178,"name":"Huey","steam_id":76561198972816386,"connected_time":221000000000,"state":"active","ping":76},{"user_id":182,"name":"Spectre","steam_id":76561198025652246,"connected_time":60000000000,"state":"active","ping":37},{"user_id":119,"name":"moe5x","steam_id":76561198316877833,"connected_time":3571000000000,"state":"active","ping":101}]},{"server_id":36,"name":"Uncletopia | Chicago | 5 | All Maps","name_short":"chi-5","host":"chi-2.us.uncletopia.com","port":27015,"enabled":true,"region":"us-central","cc":"us","latitude":41.881832,"longitude":-87.62318,"reserved":0,"last_update":"0001-01-01T00:00:00Z","name_a2s":"Uncletopia | Chicago | 5 | All Maps","protocol":17,"map":"pl_snowycoast","folder":"tf","game":"Team Fortress","app_id":440,"player_count":0,"max_players":24,"Bots":0,"server_type":"Dedicated","server_os":"Linux","password":true,"vac":true,"version":"7757534","steam_id":85568392924866362,"keywords":["nocrits","nodmgspread","payload","uncletopia"],"game_id":440,"stv_port":27016,"stv_name":"Uncletopia | Chicago | 5 | All Maps | STV","players":null},{"server_id":37,"name":"Uncletopia | Chicago | 6 | All Maps","name_short":"chi-6","host":"chi-2.us.uncletopia.com","port":27025,"enabled":true,"region":"us-central","cc":"us","latitude":41.881832,"longitude":-87.62318,"reserved":0,"last_update":"0001-01-01T00:00:00Z","name_a2s":"Uncletopia | Chicago | 6 | All Maps","protocol":17,"map":"koth_viaduct","folder":"tf","game":"Team Fortress","app_id":440,"player_count":0,"max_players":24,"Bots":0,"server_type":"Dedicated","server_os":"Linux","password":true,"vac":true,"version":"7757534","steam_id":85568392924866363,"keywords":["cp","nocrits","nodmgspread","uncletopia"],"game_id":440,"stv_port":27026,"stv_name":"Uncletopia | Chicago | 6 | All Maps | STV","players":null},{"server_id":38,"name":"Uncletopia | Chicago | 7 | Stopwatch Beta","name_short":"chi-7","host":"chi-2.us.uncletopia.com","port":27035,"enabled":true,"region":"us-central","cc":"us","latitude":41.881832,"longitude":-87.62318,"reserved":0,"last_update":"0001-01-01T00:00:00Z","name_a2s":"Uncletopia | Chicago | 7 | Stopwatch Beta","protocol":17,"map":"cp_sunshine","folder":"tf","game":"Team Fortress","app_id":440,"player_count":0,"max_players":24,"Bots":0,"server_type":"Dedicated","server_os":"Linux","password":true,"vac":true,"version":"7757534","steam_id":85568392924866364,"keywords":["cp","nocrits","nodmgspread","uncletopia"],"game_id":440,"stv_port":27036,"stv_name":"Uncletopia | Chicago | 7 | Stopwatch Beta | STV","players":null},{"server_id":39,"name":"Uncletopia | Chicago | 8 | Community","name_short":"chi-8","host":"chi-2.us.uncletopia.com","port":27045,"enabled":true,"region":"us-central","cc":"us","latitude":41.881832,"longitude":-87.62318,"reserved":0,"last_update":"0001-01-01T00:00:00Z","name_a2s":"Uncletopia | Chicago | 8 | Community","protocol":17,"map":"pl_pier","folder":"tf","game":"Team Fortress","app_id":440,"player_count":0,"max_players":24,"Bots":0,"server_type":"Dedicated","server_os":"Linux","password":true,"vac":true,"version":"7757534","steam_id":85568392924866365,"keywords":["nocrits","nodmgspread","payload","uncletopia"],"game_id":440,"stv_port":27046,"stv_name":"Uncletopia | Chicago | 8 | Community | STV","players":null},{"server_id":8,"name":"Uncletopia | Dallas | 1 | All Maps","name_short":"dal-1","host":"dal-1.us.uncletopia.com","port":27015,"enabled":true,"region":"us-central","cc":"us","latitude":32.779167,"longitude":-96.80889,"reserved":0,"last_update":"0001-01-01T00:00:00Z","name_a2s":"Uncletopia | Dallas | 1 | All Maps","protocol":17,"map":"koth_harvest_final","folder":"tf","game":"Team Fortress","app_id":440,"player_count":23,"max_players":24,"Bots":0,"server_type":"Dedicated","server_os":"Linux","password":true,"vac":true,"version":"7757534","steam_id":85568392924469986,"keywords":["cp","nocrits","nodmgspread","uncletopia"],"game_id":440,"stv_port":27016,"stv_name":"Uncletopia | Dallas | 1 | All Maps | STV","players":[{"user_id":238,"name":"Brynkiwi","steam_id":76561198052177917,"connected_time":2104000000000,"state":"active","ping":90},{"user_id":246,"name":"MerlinTheWizard","steam_id":76561198171472393,"connected_time":1400000000000,"state":"active","ping":74},{"user_id":211,"name":"bo scrungulus","steam_id":76561198038036122,"connected_time":4084000000000,"state":"active","ping":66},{"user_id":257,"name":"Sagittarius","steam_id":76561198178502655,"connected_time":567000000000,"state":"active","ping":81},{"user_id":212,"name":"not a spy main (early demo main","steam_id":76561199184617467,"connected_time":4007000000000,"state":"active","ping":89},{"user_id":263,"name":"barbara","steam_id":76561198072417792,"connected_time":400000000000,"state":"active","ping":61},{"user_id":256,"name":"sly1","steam_id":76561198049014977,"connected_time":590000000000,"state":"active","ping":90},{"user_id":243,"name":"ElBentz","steam_id":76561199059582221,"connected_time":1733000000000,"state":"active","ping":80},{"user_id":264,"name":"Alexx","steam_id":76561198258332607,"connected_time":363000000000,"state":"active","ping":96},{"user_id":220,"name":"Charlie","steam_id":76561198798127908,"connected_time":2858000000000,"state":"active","ping":89},{"user_id":262,"name":"Quietsharp","steam_id":76561198277968438,"connected_time":410000000000,"state":"active","ping":81},{"user_id":236,"name":"FG7","steam_id":76561198381197197,"connected_time":2165000000000,"state":"active","ping":97},{"user_id":222,"name":"Pim","steam_id":76561198046050375,"connected_time":2841000000000,"state":"active","ping":101},{"user_id":259,"name":"ExodusMega","steam_id":76561199040286919,"connected_time":497000000000,"state":"active","ping":73},{"user_id":250,"name":"chicanery","steam_id":76561198081654907,"connected_time":882000000000,"state":"active","ping":89},{"user_id":240,"name":"Foomfa","steam_id":76561198007033616,"connected_time":1808000000000,"state":"active","ping":70},{"user_id":253,"name":"yoohb0330","steam_id":76561198274007110,"connected_time":717000000000,"state":"active","ping":76},{"user_id":248,"name":"VixianUwU","steam_id":76561198948815060,"connected_time":1171000000000,"state":"active","ping":77},{"user_id":247,"name":"Timon's high on crack cocaine!","steam_id":76561198180396430,"connected_time":1322000000000,"state":"active","ping":98},{"user_id":258,"name":"LaPatronaVrgiz","steam_id":76561199419231194,"connected_time":561000000000,"state":"active","ping":82},{"user_id":255,"name":"8core","steam_id":76561198131163454,"connected_time":642000000000,"state":"active","ping":68},{"user_id":268,"name":"flightkr","steam_id":76561199417907044,"connected_time":53000000000,"state":"active","ping":67},{"user_id":261,"name":"Recursive Gamer","steam_id":76561198042102952,"connected_time":418000000000,"state":"active","ping":78}]},{"server_id":108,"name":"Uncletopia | Dallas | 2 | All Maps","name_short":"dal-2","host":"dal-1.us.uncletopia.com","port":27025,"enabled":true,"region":"us-central","cc":"us","latitude":32.779167,"longitude":-96.80889,"reserved":0,"last_update":"0001-01-01T00:00:00Z","name_a2s":"Uncletopia | Dallas | 2 | All Maps","protocol":17,"map":"pl_snowycoast","folder":"tf","game":"Team Fortress","app_id":440,"player_count":24,"max_players":24,"Bots":0,"server_type":"Dedicated","server_os":"Linux","password":true,"vac":true,"version":"7757534","steam_id":85568392924469988,"keywords":["nocrits","nodmgspread","payload","uncletopia"],"game_id":440,"stv_port":27026,"stv_name":"Uncletopia | Dallas | 2 | All Maps | STV","players":[{"user_id":127,"name":"ThunderGunner","steam_id":76561198097721532,"connected_time":5639000000000,"state":"active","ping":75},{"user_id":89,"name":"asterismz","steam_id":76561198271895997,"connected_time":7259000000000,"state":"active","ping":115},{"user_id":130,"name":"THE NUT","steam_id":76561198067813626,"connected_time":5371000000000,"state":"active","ping":89},{"user_id":91,"name":"Wesudo *o*","steam_id":76561198995177194,"connected_time":7216000000000,"state":"active","ping":100},{"user_id":183,"name":"mikey | I'm Burning Bright!","steam_id":76561198985847893,"connected_time":1079000000000,"state":"active","ping":48},{"user_id":184,"name":"K.A.R.M.A.","steam_id":76561198240750142,"connected_time":1041000000000,"state":"active","ping":77},{"user_id":191,"name":"Chicken Blow Job","steam_id":76561198086185071,"connected_time":395000000000,"state":"active","ping":47},{"user_id":161,"name":"Wang of Wall St","steam_id":76561198047460598,"connected_time":2925000000000,"state":"active","ping":101},{"user_id":194,"name":"Emma","steam_id":76561198318093783,"connected_time":72000000000,"state":"active","ping":61},{"user_id":129,"name":"Pika","steam_id":76561198068063436,"connected_time":5581000000000,"state":"active","ping":61},{"user_id":177,"name":"Captain Red","steam_id":76561198191587983,"connected_time":1918000000000,"state":"active","ping":73},{"user_id":172,"name":"Sup m8","steam_id":76561198081659121,"connected_time":2157000000000,"state":"active","ping":58},{"user_id":176,"name":"Cam(era)","steam_id":76561198285054047,"connected_time":1944000000000,"state":"active","ping":70},{"user_id":182,"name":"Iron","steam_id":76561198247918478,"connected_time":1140000000000,"state":"active","ping":70},{"user_id":190,"name":"Theodore Roosevelt","steam_id":76561197993295656,"connected_time":644000000000,"state":"active","ping":68},{"user_id":157,"name":"crow","steam_id":76561198046802071,"connected_time":3666000000000,"state":"active","ping":54},{"user_id":178,"name":"SilvaDefault","steam_id":76561198155255282,"connected_time":1916000000000,"state":"active","ping":109},{"user_id":180,"name":"I Lead MLB In \"Bats Eaten\"","steam_id":76561198034079853,"connected_time":1821000000000,"state":"active","ping":56},{"user_id":179,"name":"stacey's mom","steam_id":76561198395577807,"connected_time":1911000000000,"state":"active","ping":82},{"user_id":188,"name":"leumas","steam_id":76561198240408540,"connected_time":736000000000,"state":"active","ping":91},{"user_id":192,"name":"viscodolante","steam_id":76561198013650292,"connected_time":255000000000,"state":"active","ping":105},{"user_id":140,"name":"HeroOfTime","steam_id":76561199096218001,"connected_time":4690000000000,"state":"active","ping":83},{"user_id":111,"name":"Zeora","steam_id":76561198799145251,"connected_time":6635000000000,"state":"active","ping":74},{"user_id":174,"name":"Lost","steam_id":76561198025933206,"connected_time":2077000000000,"state":"active","ping":60}]},{"server_id":5,"name":"Uncletopia | Frankfurt | 1 | All Maps","name_short":"frk-1","host":"frk-1.de.uncletopia.com","port":27015,"enabled":true,"region":"eu","cc":"de","latitude":50.110924,"longitude":8.682127,"reserved":0,"last_update":"0001-01-01T00:00:00Z","name_a2s":"Uncletopia | Frankfurt | 1 | All Maps","protocol":17,"map":"pl_frontier_final","folder":"tf","game":"Team Fortress","app_id":440,"player_count":24,"max_players":24,"Bots":0,"server_type":"Dedicated","server_os":"Linux","password":true,"vac":true,"version":"7757534","steam_id":85568392924469989,"keywords":["nocrits","nodmgspread","payload","uncletopia"],"game_id":440,"stv_port":27016,"stv_name":"Uncletopia | Frankfurt | 1 | All Maps | STV","players":[{"user_id":185,"name":"FoOzTV","steam_id":76561197998636728,"connected_time":273000000000,"state":"active","ping":71},{"user_id":192,"name":"Poeka","steam_id":76561198031180960,"connected_time":13000000000,"state":"spawning","ping":73},{"user_id":166,"name":"Äärik ♣","steam_id":76561198131871737,"connected_time":964000000000,"state":"active","ping":45},{"user_id":187,"name":"Holiday Fartcruise","steam_id":76561197972392837,"connected_time":98000000000,"state":"active","ping":55},{"user_id":150,"name":"Tuga inglesa","steam_id":76561198442803577,"connected_time":1474000000000,"state":"active","ping":82},{"user_id":90,"name":"sabaka jebanoia","steam_id":76561198147249160,"connected_time":5957000000000,"state":"active","ping":98},{"user_id":188,"name":"Juiceydough","steam_id":76561197997323419,"connected_time":88000000000,"state":"active","ping":90},{"user_id":175,"name":"tallen","steam_id":76561198061708595,"connected_time":642000000000,"state":"active","ping":79},{"user_id":88,"name":"posht0 ._.","steam_id":76561198106182078,"connected_time":6023000000000,"state":"active","ping":95},{"user_id":189,"name":"YEEET","steam_id":76561198914938199,"connected_time":74000000000,"state":"active","ping":94},{"user_id":173,"name":"Oreo Milkshake","steam_id":76561198287831015,"connected_time":719000000000,"state":"active","ping":128},{"user_id":176,"name":"weed fairy","steam_id":76561197998843096,"connected_time":640000000000,"state":"active","ping":75},{"user_id":167,"name":"TacoDragon","steam_id":76561198215345581,"connected_time":946000000000,"state":"active","ping":92},{"user_id":169,"name":"√(-Wolf)","steam_id":76561198024769704,"connected_time":827000000000,"state":"active","ping":96},{"user_id":177,"name":"Luke SpyWalker","steam_id":76561198008643276,"connected_time":607000000000,"state":"active","ping":60},{"user_id":183,"name":"Bosnian Ketamine Mafia","steam_id":76561198163571788,"connected_time":411000000000,"state":"active","ping":97},{"user_id":179,"name":"jpl8","steam_id":76561198077770726,"connected_time":555000000000,"state":"active","ping":92},{"user_id":180,"name":"Dolphy","steam_id":76561198842756892,"connected_time":554000000000,"state":"active","ping":82},{"user_id":190,"name":"weSt","steam_id":76561198000913325,"connected_time":28000000000,"state":"active","ping":58},{"user_id":148,"name":"Gabys","steam_id":76561198282892553,"connected_time":1631000000000,"state":"active","ping":119},{"user_id":132,"name":"TaroPlant","steam_id":76561198122927374,"connected_time":2486000000000,"state":"active","ping":66},{"user_id":191,"name":"Blooddream","steam_id":76561199084317500,"connected_time":26000000000,"state":"active","ping":65},{"user_id":174,"name":"Mrakan","steam_id":76561199239780769,"connected_time":712000000000,"state":"active","ping":55},{"user_id":154,"name":"lvl. 50 honkler","steam_id":76561198061688660,"connected_time":1426000000000,"state":"active","ping":100}]},{"server_id":110,"name":"Uncletopia | Frankfurt | 2 | All Maps","name_short":"frk-2","host":"frk-1.de.uncletopia.com","port":27025,"enabled":true,"region":"eu","cc":"de","latitude":50.110924,"longitude":8.682127,"reserved":0,"last_update":"0001-01-01T00:00:00Z","name_a2s":"Uncletopia | Frankfurt | 2 | All Maps","protocol":17,"map":"pl_frontier_final","folder":"tf","game":"Team Fortress","app_id":440,"player_count":24,"max_players":24,"Bots":0,"server_type":"Dedicated","server_os":"Linux","password":true,"vac":true,"version":"7757534","steam_id":85568392924469990,"keywords":["nocrits","nodmgspread","payload","uncletopia"],"game_id":440,"stv_port":27026,"stv_name":"Uncletopia | Frankfurt | 2 | All Maps | STV","players":[{"user_id":413,"name":"Michi ❀ (Ze/Zim/Zey)","steam_id":76561198972047944,"connected_time":404000000000,"state":"active","ping":69},{"user_id":388,"name":"Dr. Nooooo","steam_id":76561198094771716,"connected_time":2007000000000,"state":"active","ping":120},{"user_id":403,"name":"Scarlet","steam_id":76561198075966579,"connected_time":853000000000,"state":"active","ping":60},{"user_id":379,"name":"Shift","steam_id":76561198028296732,"connected_time":3013000000000,"state":"active","ping":55},{"user_id":414,"name":"3xample","steam_id":76561198805049375,"connected_time":393000000000,"state":"active","ping":61},{"user_id":362,"name":"PlasticVoid","steam_id":76561197997870306,"connected_time":4630000000000,"state":"active","ping":45},{"user_id":389,"name":"Spieller","steam_id":76561198057197847,"connected_time":1984000000000,"state":"active","ping":73},{"user_id":396,"name":"nils","steam_id":76561198254882979,"connected_time":1110000000000,"state":"active","ping":64},{"user_id":397,"name":"Dylan","steam_id":76561198324352845,"connected_time":1056000000000,"state":"active","ping":53},{"user_id":357,"name":"The Wheel (Live on KEXP)","steam_id":76561199064350902,"connected_time":4724000000000,"state":"active","ping":103},{"user_id":408,"name":"epic gamer moment","steam_id":76561198299515070,"connected_time":744000000000,"state":"active","ping":96},{"user_id":417,"name":"Teto","steam_id":76561198044866827,"connected_time":300000000000,"state":"active","ping":73},{"user_id":373,"name":"Redsy","steam_id":76561198360088412,"connected_time":3617000000000,"state":"active","ping":138},{"user_id":306,"name":"Penis Contortionist","steam_id":76561198073663784,"connected_time":8582000000000,"state":"active","ping":55},{"user_id":364,"name":"HungriSanta","steam_id":76561198020376441,"connected_time":4560000000000,"state":"active","ping":70},{"user_id":420,"name":"ethnar9","steam_id":76561198248881736,"connected_time":20000000000,"state":"spawning","ping":337},{"user_id":418,"name":"visual","steam_id":76561198998791746,"connected_time":232000000000,"state":"active","ping":69},{"user_id":419,"name":"r/sonofelicenellafece","steam_id":76561198262231733,"connected_time":175000000000,"state":"active","ping":75},{"user_id":401,"name":"dubysa","steam_id":76561198079774530,"connected_time":885000000000,"state":"active","ping":69},{"user_id":416,"name":"Daniele Antox","steam_id":76561198323879930,"connected_time":304000000000,"state":"active","ping":69},{"user_id":407,"name":"dYnamo","steam_id":76561198448443559,"connected_time":755000000000,"state":"active","ping":77},{"user_id":410,"name":"jelst","steam_id":76561198199305193,"connected_time":686000000000,"state":"active","ping":71},{"user_id":405,"name":"ash","steam_id":76561198004728744,"connected_time":833000000000,"state":"active","ping":54},{"user_id":406,"name":"BSantos57","steam_id":76561198000597094,"connected_time":797000000000,"state":"active","ping":89}]},{"server_id":308,"name":"Uncletopia | Frankfurt | 3 | All Maps","name_short":"frk-3","host":"frk-1.de.uncletopia.com","port":27035,"enabled":true,"region":"eu","cc":"de","latitude":50.110924,"longitude":8.682127,"reserved":0,"last_update":"0001-01-01T00:00:00Z","name_a2s":"Uncletopia | Frankfurt | 3 | All Maps","protocol":17,"map":"pl_barnblitz","folder":"tf","game":"Team Fortress","app_id":440,"player_count":24,"max_players":24,"Bots":0,"server_type":"Dedicated","server_os":"Linux","password":true,"vac":true,"version":"7757534","steam_id":85568392924504274,"keywords":["nocrits","nodmgspread","payload","uncletopia"],"game_id":440,"stv_port":27036,"stv_name":"Uncletopia | Frankfurt | 3 | All Maps | STV","players":[{"user_id":179,"name":"Tlad2","steam_id":76561198854897667,"connected_time":1595000000000,"state":"active","ping":75},{"user_id":124,"name":"Nightmare","steam_id":76561198260470304,"connected_time":4080000000000,"state":"active","ping":60},{"user_id":125,"name":"kerros.voikkari","steam_id":76561198121040230,"connected_time":4073000000000,"state":"active","ping":86},{"user_id":189,"name":"usia","steam_id":76561198120406679,"connected_time":1186000000000,"state":"active","ping":79},{"user_id":177,"name":"Piteras","steam_id":76561198858532207,"connected_time":1877000000000,"state":"active","ping":78},{"user_id":181,"name":"Alexandrovich0811","steam_id":76561199386822589,"connected_time":1316000000000,"state":"active","ping":61},{"user_id":132,"name":"mumbler","steam_id":76561197970641239,"connected_time":3767000000000,"state":"active","ping":45},{"user_id":182,"name":"Arturias","steam_id":76561198188720263,"connected_time":1301000000000,"state":"active","ping":45},{"user_id":195,"name":"The Deadly Doughnut","steam_id":76561198079049349,"connected_time":828000000000,"state":"active","ping":70},{"user_id":194,"name":"eeeeee","steam_id":76561198427092596,"connected_time":891000000000,"state":"active","ping":129},{"user_id":184,"name":"ムGeRmAn |×UA×ム","steam_id":76561199044754898,"connected_time":1293000000000,"state":"active","ping":62},{"user_id":185,"name":"Nickbro101","steam_id":76561198044271692,"connected_time":1279000000000,"state":"active","ping":60},{"user_id":136,"name":"ЮФ","steam_id":76561198044519039,"connected_time":3708000000000,"state":"active","ping":83},{"user_id":202,"name":"tf2 snake","steam_id":76561198193971167,"connected_time":325000000000,"state":"active","ping":51},{"user_id":178,"name":"Fish 'n' Chips","steam_id":76561198033476886,"connected_time":1827000000000,"state":"active","ping":45},{"user_id":203,"name":"eduardo","steam_id":76561198014491925,"connected_time":231000000000,"state":"active","ping":79},{"user_id":186,"name":"Adopted?","steam_id":76561198118667043,"connected_time":1218000000000,"state":"active","ping":66},{"user_id":187,"name":"1812","steam_id":76561198036824480,"connected_time":1208000000000,"state":"active","ping":73},{"user_id":180,"name":"Gwishin","steam_id":76561198257158275,"connected_time":1583000000000,"state":"active","ping":139},{"user_id":199,"name":"Julez","steam_id":76561198045505082,"connected_time":560000000000,"state":"active","ping":89},{"user_id":190,"name":"Better Call Medic","steam_id":76561198939711234,"connected_time":1140000000000,"state":"active","ping":112},{"user_id":191,"name":"Cobb Salads","steam_id":76561197971140507,"connected_time":1123000000000,"state":"active","ping":72},{"user_id":192,"name":"Mach |=|20BB|)","steam_id":76561198952487564,"connected_time":1113000000000,"state":"active","ping":81},{"user_id":193,"name":"Pablo.Fortnite.2011","steam_id":76561198259034983,"connected_time":1091000000000,"state":"active","ping":73}]},{"server_id":309,"name":"Uncletopia | Frankfurt | 4 | All Maps","name_short":"frk-4","host":"frk-1.de.uncletopia.com","port":27045,"enabled":true,"region":"eu","cc":"de","latitude":50.110924,"longitude":8.682127,"reserved":0,"last_update":"0001-01-01T00:00:00Z","name_a2s":"Uncletopia | Frankfurt | 4 | All Maps","protocol":17,"map":"koth_nucleus","folder":"tf","game":"Team Fortress","app_id":440,"player_count":23,"max_players":24,"Bots":0,"server_type":"Dedicated","server_os":"Linux","password":true,"vac":true,"version":"7757534","steam_id":85568392924504275,"keywords":["cp","nocrits","nodmgspread","uncletopia"],"game_id":440,"stv_port":27046,"stv_name":"Uncletopia | Frankfurt | 4 | All Maps | STV","players":[{"user_id":510,"name":"Nostradamus","steam_id":76561198349792686,"connected_time":3488000000000,"state":"active","ping":60},{"user_id":544,"name":"RIPChuck","steam_id":76561198000578962,"connected_time":636000000000,"state":"active","ping":70},{"user_id":526,"name":"Was_Wolf","steam_id":76561199153210310,"connected_time":2135000000000,"state":"active","ping":69},{"user_id":546,"name":"Asgaard","steam_id":76561198026516905,"connected_time":535000000000,"state":"active","ping":97},{"user_id":547,"name":"Station of Clouds","steam_id":76561199382538536,"connected_time":408000000000,"state":"active","ping":131},{"user_id":509,"name":"HwK!","steam_id":76561198287835588,"connected_time":3545000000000,"state":"active","ping":90},{"user_id":536,"name":"Blyatwork","steam_id":76561198825379598,"connected_time":1258000000000,"state":"active","ping":36},{"user_id":540,"name":"cosmetical","steam_id":76561198444036574,"connected_time":681000000000,"state":"active","ping":76},{"user_id":517,"name":"Hitori Gotoh","steam_id":76561198101532240,"connected_time":3172000000000,"state":"active","ping":74},{"user_id":541,"name":"Wyro","steam_id":76561199176835169,"connected_time":666000000000,"state":"active","ping":64},{"user_id":469,"name":"FireStorm","steam_id":76561198350478325,"connected_time":6056000000000,"state":"active","ping":59},{"user_id":542,"name":"DocTwoEight","steam_id":76561198153488940,"connected_time":662000000000,"state":"active","ping":77},{"user_id":543,"name":"doubleplusungoodgamer","steam_id":76561198136198006,"connected_time":659000000000,"state":"active","ping":41},{"user_id":545,"name":"Who?","steam_id":76561198271901063,"connected_time":620000000000,"state":"active","ping":67},{"user_id":548,"name":"Crimea a bridge","steam_id":76561198030898371,"connected_time":372000000000,"state":"active","ping":79},{"user_id":549,"name":"submackeen","steam_id":76561198799855913,"connected_time":261000000000,"state":"active","ping":178},{"user_id":550,"name":"one too many drinks","steam_id":76561199042470246,"connected_time":231000000000,"state":"active","ping":53},{"user_id":552,"name":"v0rt3x","steam_id":76561198034695233,"connected_time":192000000000,"state":"active","ping":60},{"user_id":553,"name":"Lempii","steam_id":76561198433507634,"connected_time":190000000000,"state":"active","ping":83},{"user_id":554,"name":"Gryoss","steam_id":76561197999837111,"connected_time":182000000000,"state":"active","ping":96},{"user_id":555,"name":"I.C. Wiener","steam_id":76561197999912254,"connected_time":175000000000,"state":"active","ping":87},{"user_id":407,"name":"ScarredPixel123","steam_id":76561199165112703,"connected_time":9208000000000,"state":"active","ping":76},{"user_id":556,"name":"SoupER","steam_id":76561198063056668,"connected_time":174000000000,"state":"active","ping":58}]},{"server_id":310,"name":"Uncletopia | Frankfurt | 5 | All Maps","name_short":"frk-5","host":"frk-1.de.uncletopia.com","port":27055,"enabled":true,"region":"eu","cc":"de","latitude":50.110924,"longitude":8.682127,"reserved":0,"last_update":"0001-01-01T00:00:00Z","name_a2s":"Uncletopia | Frankfurt | 5 | All Maps","protocol":17,"map":"pl_borneo","folder":"tf","game":"Team Fortress","app_id":440,"player_count":24,"max_players":24,"Bots":0,"server_type":"Dedicated","server_os":"Linux","password":true,"vac":true,"version":"7757534","steam_id":85568392924504277,"keywords":["nocrits","nodmgspread","payload","uncletopia"],"game_id":440,"stv_port":27056,"stv_name":"Uncletopia | Frankfurt | 5 | All Maps | STV","players":[{"user_id":333,"name":"subway vergil","steam_id":76561199110064166,"connected_time":3224000000000,"state":"active","ping":81},{"user_id":349,"name":"big noob","steam_id":76561198281332748,"connected_time":2572000000000,"state":"active","ping":60},{"user_id":359,"name":"Grønkjær","steam_id":76561198041075280,"connected_time":1810000000000,"state":"active","ping":73},{"user_id":332,"name":"niaerniopawrjnko","steam_id":76561198030408772,"connected_time":3440000000000,"state":"active","ping":56},{"user_id":335,"name":"Xie Xil Ling","steam_id":76561198053394831,"connected_time":3091000000000,"state":"active","ping":67},{"user_id":377,"name":"Leituga","steam_id":76561198051127598,"connected_time":230000000000,"state":"active","ping":94},{"user_id":367,"name":"Tortoise Guy","steam_id":76561199047825610,"connected_time":1389000000000,"state":"active","ping":71},{"user_id":364,"name":"Mr Eugene Business","steam_id":76561199073020660,"connected_time":1426000000000,"state":"active","ping":79},{"user_id":365,"name":"trite","steam_id":76561197983765323,"connected_time":1420000000000,"state":"active","ping":63},{"user_id":358,"name":"PlacebO.-","steam_id":76561197973577950,"connected_time":1848000000000,"state":"active","ping":55},{"user_id":336,"name":"s a i","steam_id":76561197970379754,"connected_time":3085000000000,"state":"active","ping":58},{"user_id":339,"name":"dddd","steam_id":76561198120894372,"connected_time":3028000000000,"state":"active","ping":110},{"user_id":372,"name":"Fizzy","steam_id":76561198929807785,"connected_time":941000000000,"state":"active","ping":60},{"user_id":355,"name":"Lennox","steam_id":76561198069063554,"connected_time":1874000000000,"state":"active","ping":45},{"user_id":357,"name":"Mingo","steam_id":76561199191245650,"connected_time":1852000000000,"state":"active","ping":86},{"user_id":368,"name":"Grinch Gun","steam_id":76561198097789669,"connected_time":1376000000000,"state":"active","ping":60},{"user_id":369,"name":"!!!!!!!!!!!!!!!!!!!!!!!!!!!!!!!","steam_id":76561198069649097,"connected_time":1329000000000,"state":"active","ping":61},{"user_id":360,"name":"Scrample","steam_id":76561198040422830,"connected_time":1743000000000,"state":"active","ping":60},{"user_id":376,"name":"G6 sherlock","steam_id":76561198802967796,"connected_time":431000000000,"state":"active","ping":118},{"user_id":374,"name":"Duke Fishlord","steam_id":76561198079928327,"connected_time":465000000000,"state":"active","ping":69},{"user_id":344,"name":"Deckard","steam_id":76561198004704647,"connected_time":2979000000000,"state":"active","ping":80},{"user_id":373,"name":"Vikep'S","steam_id":76561199002274689,"connected_time":791000000000,"state":"active","ping":85},{"user_id":371,"name":"Spanish Shy Cat","steam_id":76561198808819694,"connected_time":1294000000000,"state":"active","ping":50},{"user_id":310,"name":"テイルス","steam_id":76561198022403271,"connected_time":5300000000000,"state":"active","ping":48}]},{"server_id":311,"name":"Uncletopia | Frankfurt | 6 | All Maps","name_short":"frk-6","host":"frk-1.de.uncletopia.com","port":27065,"enabled":true,"region":"eu","cc":"de","latitude":50.110924,"longitude":8.682127,"reserved":0,"last_update":"0001-01-01T00:00:00Z","name_a2s":"Uncletopia | Frankfurt | 6 | All Maps","protocol":17,"map":"cp_dustbowl","folder":"tf","game":"Team Fortress","app_id":440,"player_count":24,"max_players":24,"Bots":0,"server_type":"Dedicated","server_os":"Linux","password":true,"vac":true,"version":"7757534","steam_id":85568392924504278,"keywords":["cp","nocrits","nodmgspread","uncletopia"],"game_id":440,"stv_port":27066,"stv_name":"Uncletopia | Frankfurt | 6 | All Maps | STV","players":[{"user_id":133,"name":"The Masterplan","steam_id":76561198158631465,"connected_time":7896000000000,"state":"active","ping":66},{"user_id":219,"name":"Florua","steam_id":76561198182297846,"connected_time":1712000000000,"state":"active","ping":58},{"user_id":228,"name":"hud_saytext_time 0","steam_id":76561198010327228,"connected_time":1177000000000,"state":"active","ping":60},{"user_id":227,"name":"MSLT","steam_id":76561198811386317,"connected_time":1210000000000,"state":"active","ping":63},{"user_id":232,"name":"Danger Noodle","steam_id":76561198874093656,"connected_time":214000000000,"state":"active","ping":135},{"user_id":193,"name":"Joker","steam_id":76561199208034454,"connected_time":3727000000000,"state":"active","ping":83},{"user_id":125,"name":"ViciousVinnyD","steam_id":76561198053822329,"connected_time":8367000000000,"state":"active","ping":75},{"user_id":208,"name":"RainbowGoat","steam_id":76561198381644315,"connected_time":2691000000000,"state":"active","ping":74},{"user_id":231,"name":"Dinges360","steam_id":76561198042032834,"connected_time":629000000000,"state":"active","ping":61},{"user_id":220,"name":"engie?","steam_id":76561198331852832,"connected_time":1682000000000,"state":"active","ping":61},{"user_id":217,"name":"Your dad","steam_id":76561199046215821,"connected_time":2071000000000,"state":"active","ping":45},{"user_id":185,"name":"Ducky[WADZ]🐤","steam_id":76561198060341245,"connected_time":3783000000000,"state":"active","ping":55},{"user_id":210,"name":"kbbq","steam_id":76561198346638308,"connected_time":2645000000000,"state":"active","ping":60},{"user_id":189,"name":"TrueCookieKing","steam_id":76561198115772708,"connected_time":3752000000000,"state":"active","ping":72},{"user_id":178,"name":"Dappana","steam_id":76561199442820274,"connected_time":4576000000000,"state":"active","ping":69},{"user_id":221,"name":"vaha","steam_id":76561198851860551,"connected_time":1657000000000,"state":"active","ping":78},{"user_id":222,"name":"Kudo","steam_id":76561199104571108,"connected_time":1651000000000,"state":"active","ping":175},{"user_id":192,"name":"deez","steam_id":76561198279159712,"connected_time":3732000000000,"state":"active","ping":58},{"user_id":229,"name":"Prism","steam_id":76561198075538312,"connected_time":1062000000000,"state":"active","ping":39},{"user_id":224,"name":"The Captain","steam_id":76561198136877350,"connected_time":1633000000000,"state":"active","ping":82},{"user_id":196,"name":"Vampire tampon","steam_id":76561198042593027,"connected_time":3724000000000,"state":"active","ping":102},{"user_id":225,"name":"Kaj0605","steam_id":76561198399198869,"connected_time":1612000000000,"state":"active","ping":79},{"user_id":211,"name":"Olaznot","steam_id":76561199111472610,"connected_time":2634000000000,"state":"active","ping":84},{"user_id":230,"name":"S4mura!","steam_id":76561198374412262,"connected_time":1005000000000,"state":"active","ping":75}]},{"server_id":23,"name":"Uncletopia | Frankfurt | 7 | Stopwatch Beta","name_short":"frk-7","host":"frk-1.de.uncletopia.com","port":27075,"enabled":true,"region":"eu","cc":"de","latitude":50.110924,"longitude":8.682127,"reserved":0,"last_update":"0001-01-01T00:00:00Z","name_a2s":"Uncletopia | Frankfurt | 7 | Stopwatch Beta","protocol":17,"map":"pl_borneo","folder":"tf","game":"Team Fortress","app_id":440,"player_count":0,"max_players":24,"Bots":0,"server_type":"Dedicated","server_os":"Linux","password":true,"vac":true,"version":"7757534","steam_id":85568392924742827,"keywords":["nocrits","nodmgspread","payload","uncletopia"],"game_id":440,"stv_port":27076,"stv_name":"Uncletopia | Frankfurt | 7 | Stopwatch Beta | STV","players":null},{"server_id":24,"name":"Uncletopia | Frankfurt | 8 | Community","name_short":"frk-8","host":"frk-1.de.uncletopia.com","port":27085,"enabled":true,"region":"eu","cc":"de","latitude":50.110924,"longitude":8.682127,"reserved":0,"last_update":"0001-01-01T00:00:00Z","name_a2s":"Uncletopia | Frankfurt | 8 | Community","protocol":17,"map":"workshop/cp_logjam_rc12.ugc454812035","folder":"tf","game":"Team Fortress","app_id":440,"player_count":0,"max_players":24,"Bots":0,"server_type":"Dedicated","server_os":"Linux","password":true,"vac":true,"version":"7757534","steam_id":85568392924742828,"keywords":["cp","nocrits","nodmgspread","uncletopia"],"game_id":440,"stv_port":27086,"stv_name":"Uncletopia | Frankfurt | 8 | Community | STV","players":null},{"server_id":202,"name":"Uncletopia | Hong Kong | 1 | All Maps","name_short":"hgk-1","host":"hgk-1.hk.uncletopia.com","port":27015,"enabled":true,"region":"asia","cc":"hk","latitude":22.302711,"longitude":114.177216,"reserved":0,"last_update":"0001-01-01T00:00:00Z","name_a2s":"Uncletopia | Hong Kong | 1 | All Maps","protocol":17,"map":"koth_suijin","folder":"tf","game":"Team Fortress","app_id":440,"player_count":0,"max_players":24,"Bots":0,"server_type":"Dedicated","server_os":"Linux","password":true,"vac":true,"version":"7757534","steam_id":85568392924494504,"keywords":["cp","nocrits","nodmgspread","uncletopia"],"game_id":440,"stv_port":27016,"stv_name":"Uncletopia | Hong Kong | 1 | All Maps | STV","players":null},{"server_id":1,"name":"Uncletopia | Los Angeles | 1 | All Maps","name_short":"lax-1","host":"lax-1.us.uncletopia.com","port":27015,"enabled":true,"region":"us-west","cc":"us","latitude":33.94279,"longitude":-118.41004,"reserved":0,"last_update":"0001-01-01T00:00:00Z","name_a2s":"Uncletopia | Los Angeles | 1 | All Maps","protocol":17,"map":"koth_lakeside_final","folder":"tf","game":"Team Fortress","app_id":440,"player_count":7,"max_players":24,"Bots":0,"server_type":"Dedicated","server_os":"Linux","password":true,"vac":true,"version":"7757534","steam_id":85568392924469991,"keywords":["cp","nocrits","nodmgspread","uncletopia"],"game_id":440,"stv_port":27016,"stv_name":"Uncletopia | Los Angeles | 1 | All Maps | STV","players":[{"user_id":20,"name":"Zelumie","steam_id":76561198147335801,"connected_time":24000000000,"state":"active","ping":119},{"user_id":14,"name":"Uprightmoss7528","steam_id":76561199200138486,"connected_time":734000000000,"state":"active","ping":54},{"user_id":15,"name":"xbox record that","steam_id":76561198150117455,"connected_time":572000000000,"state":"active","ping":55},{"user_id":16,"name":"swag","steam_id":76561198094615739,"connected_time":460000000000,"state":"active","ping":99},{"user_id":17,"name":"Doggo","steam_id":76561198313355373,"connected_time":425000000000,"state":"active","ping":61},{"user_id":18,"name":"76561198212421513","steam_id":76561198212421513,"connected_time":242000000000,"state":"active","ping":37},{"user_id":19,"name":"Detritrus","steam_id":76561198842014421,"connected_time":148000000000,"state":"active","ping":109}]},{"server_id":112,"name":"Uncletopia | Los Angeles | 2 | All Maps","name_short":"lax-2","host":"lax-1.us.uncletopia.com","port":27025,"enabled":true,"region":"us-west","cc":"us","latitude":33.94279,"longitude":-118.41004,"reserved":0,"last_update":"0001-01-01T00:00:00Z","name_a2s":"Uncletopia | Los Angeles | 2 | All Maps","protocol":17,"map":"pl_swiftwater_final1","folder":"tf","game":"Team Fortress","app_id":440,"player_count":0,"max_players":24,"Bots":0,"server_type":"Dedicated","server_os":"Linux","password":true,"vac":true,"version":"7757534","steam_id":85568392924469992,"keywords":["nocrits","nodmgspread","payload","uncletopia"],"game_id":440,"stv_port":27026,"stv_name":"Uncletopia | Los Angeles | 2 | All Maps | STV","players":null},{"server_id":324,"name":"Uncletopia | Los Angeles | 3 | All Maps","name_short":"lax-3","host":"lax-1.us.uncletopia.com","port":27035,"enabled":true,"region":"us-west","cc":"us","latitude":33.94279,"longitude":-118.41004,"reserved":0,"last_update":"0001-01-01T00:00:00Z","name_a2s":"Uncletopia | Los Angeles | 3 | All Maps","protocol":17,"map":"cp_mountainlab","folder":"tf","game":"Team Fortress","app_id":440,"player_count":0,"max_players":24,"Bots":0,"server_type":"Dedicated","server_os":"Linux","password":true,"vac":true,"version":"7757534","steam_id":85568392924510198,"keywords":["cp","nocrits","nodmgspread","uncletopia"],"game_id":440,"stv_port":27036,"stv_name":"Uncletopia | Los Angeles | 3 | All Maps | STV","players":null},{"server_id":25,"name":"Uncletopia | Los Angeles | 4 | Stopwatch Beta","name_short":"lax-4","host":"lax-1.us.uncletopia.com","port":27045,"enabled":true,"region":"us-west","cc":"us","latitude":33.94279,"longitude":-118.41004,"reserved":0,"last_update":"0001-01-01T00:00:00Z","name_a2s":"Uncletopia | Los Angeles | 4 | Stopwatch Beta","protocol":17,"map":"koth_viaduct","folder":"tf","game":"Team Fortress","app_id":440,"player_count":0,"max_players":24,"Bots":0,"server_type":"Dedicated","server_os":"Linux","password":true,"vac":true,"version":"7757534","steam_id":85568392924510199,"keywords":["cp","nocrits","nodmgspread","uncletopia"],"game_id":440,"stv_port":27046,"stv_name":"Uncletopia | Los Angeles | 4 | Stopwatch Beta | STV","players":null},{"server_id":11,"name":"Uncletopia | London | 1 | All Maps","name_short":"lon-1","host":"lon-1.uk.uncletopia.com","port":27015,"enabled":true,"region":"eu","cc":"gb","latitude":51.509865,"longitude":-0.118092,"reserved":0,"last_update":"0001-01-01T00:00:00Z","name_a2s":"Uncletopia | London | 1 | All Maps","protocol":17,"map":"pl_frontier_final","folder":"tf","game":"Team Fortress","app_id":440,"player_count":24,"max_players":24,"Bots":0,"server_type":"Dedicated","server_os":"Linux","password":true,"vac":true,"version":"7757534","steam_id":85568392924367362,"keywords":["nocrits","nodmgspread","payload","uncletopia"],"game_id":440,"stv_port":27016,"stv_name":"Uncletopia | London | 1 | All Maps | STV","players":[{"user_id":842,"name":"eeeeee","steam_id":76561198017786875,"connected_time":432000000000,"state":"active","ping":75},{"user_id":820,"name":"Cloud","steam_id":76561198020002014,"connected_time":1872000000000,"state":"active","ping":55},{"user_id":841,"name":"When Life gives you Lemons","steam_id":76561198318290663,"connected_time":531000000000,"state":"active","ping":49},{"user_id":843,"name":"Old Man Winter","steam_id":76561198007653168,"connected_time":419000000000,"state":"active","ping":58},{"user_id":840,"name":"gnarly business","steam_id":76561198832688767,"connected_time":536000000000,"state":"active","ping":47},{"user_id":849,"name":"Mr.Man","steam_id":76561199175688390,"connected_time":205000000000,"state":"active","ping":87},{"user_id":829,"name":"Kahvi","steam_id":76561198723244199,"connected_time":1356000000000,"state":"active","ping":85},{"user_id":801,"name":"the discord call sound. (real)","steam_id":76561198139404261,"connected_time":3793000000000,"state":"active","ping":46},{"user_id":838,"name":"el_ronia","steam_id":76561199203435546,"connected_time":567000000000,"state":"active","ping":78},{"user_id":831,"name":"J3LLY","steam_id":76561198048453764,"connected_time":1110000000000,"state":"active","ping":48},{"user_id":844,"name":"Katie","steam_id":76561198056193753,"connected_time":407000000000,"state":"active","ping":49},{"user_id":845,"name":"FhOsAn","steam_id":76561198057418427,"connected_time":397000000000,"state":"active","ping":73},{"user_id":846,"name":"Carrotcracker","steam_id":76561198034862396,"connected_time":387000000000,"state":"active","ping":91},{"user_id":827,"name":"dec","steam_id":76561198009660168,"connected_time":1509000000000,"state":"active","ping":57},{"user_id":814,"name":"Yatsuzume","steam_id":76561198059762108,"connected_time":2366000000000,"state":"active","ping":45},{"user_id":836,"name":"Gryphon","steam_id":76561198021269203,"connected_time":699000000000,"state":"active","ping":150},{"user_id":832,"name":"Yuval","steam_id":76561198241802390,"connected_time":1047000000000,"state":"active","ping":118},{"user_id":806,"name":"executioner","steam_id":76561198841844631,"connected_time":3286000000000,"state":"active","ping":52},{"user_id":797,"name":"willo","steam_id":76561198034442999,"connected_time":3983000000000,"state":"active","ping":59},{"user_id":850,"name":"Deur","steam_id":76561199014305863,"connected_time":191000000000,"state":"active","ping":91},{"user_id":815,"name":"Ott","steam_id":76561198276464481,"connected_time":2315000000000,"state":"active","ping":77},{"user_id":848,"name":"Cypher","steam_id":76561199023619899,"connected_time":352000000000,"state":"active","ping":63},{"user_id":839,"name":":3","steam_id":76561198301481739,"connected_time":549000000000,"state":"active","ping":59},{"user_id":785,"name":"Presten","steam_id":76561198116395897,"connected_time":4773000000000,"state":"active","ping":91}]},{"server_id":114,"name":"Uncletopia | London | 2 | All Maps","name_short":"lon-2","host":"lon-1.uk.uncletopia.com","port":27025,"enabled":true,"region":"eu","cc":"gb","latitude":51.509865,"longitude":-0.118092,"reserved":0,"last_update":"0001-01-01T00:00:00Z","name_a2s":"Uncletopia | London | 2 | All Maps","protocol":17,"map":"koth_lakeside_final","folder":"tf","game":"Team Fortress","app_id":440,"player_count":24,"max_players":24,"Bots":0,"server_type":"Dedicated","server_os":"Linux","password":true,"vac":true,"version":"7757534","steam_id":85568392924470941,"keywords":["cp","nocrits","nodmgspread","uncletopia"],"game_id":440,"stv_port":27026,"stv_name":"Uncletopia | London | 2 | All Maps | STV","players":[{"user_id":730,"name":"doc","steam_id":76561198000050301,"connected_time":838000000000,"state":"active","ping":55},{"user_id":732,"name":"Goran Kara","steam_id":76561197973893780,"connected_time":756000000000,"state":"active","ping":79},{"user_id":733,"name":"Holz is sleepy","steam_id":76561197994205997,"connected_time":755000000000,"state":"active","ping":44},{"user_id":692,"name":"Giga chat","steam_id":76561198935722892,"connected_time":2295000000000,"state":"active","ping":79},{"user_id":688,"name":"Stone","steam_id":76561198122475920,"connected_time":2718000000000,"state":"active","ping":89},{"user_id":691,"name":"The one who knocks","steam_id":76561198089341471,"connected_time":2339000000000,"state":"active","ping":80},{"user_id":739,"name":"Chikapu Xek #savetf2","steam_id":76561198428023493,"connected_time":571000000000,"state":"active","ping":76},{"user_id":680,"name":"Sniffz_2","steam_id":76561199433459491,"connected_time":3025000000000,"state":"active","ping":72},{"user_id":705,"name":"STiNGHAN","steam_id":76561198023989090,"connected_time":1446000000000,"state":"active","ping":117},{"user_id":693,"name":"Caskye","steam_id":76561198165430888,"connected_time":2282000000000,"state":"active","ping":80},{"user_id":706,"name":"ghenios","steam_id":76561198030011207,"connected_time":1435000000000,"state":"active","ping":92},{"user_id":734,"name":"Mr. Culture","steam_id":76561199073315428,"connected_time":753000000000,"state":"active","ping":78},{"user_id":690,"name":"timvs5","steam_id":76561198136646312,"connected_time":2674000000000,"state":"active","ping":65},{"user_id":698,"name":"SpeddyMeddy","steam_id":76561197999693825,"connected_time":1835000000000,"state":"active","ping":81},{"user_id":742,"name":"Dwevy","steam_id":76561198090379437,"connected_time":236000000000,"state":"active","ping":52},{"user_id":731,"name":"chef","steam_id":76561197991368897,"connected_time":772000000000,"state":"active","ping":61},{"user_id":702,"name":"Garden Freeman","steam_id":76561199073314677,"connected_time":1705000000000,"state":"active","ping":82},{"user_id":741,"name":"Night Fury","steam_id":76561197995207032,"connected_time":294000000000,"state":"active","ping":79},{"user_id":740,"name":"Superiumentarius","steam_id":76561198081642249,"connected_time":385000000000,"state":"active","ping":65},{"user_id":701,"name":"Albert Einstein","steam_id":76561198351190006,"connected_time":1815000000000,"state":"active","ping":83},{"user_id":634,"name":"Davey","steam_id":76561198256879107,"connected_time":5353000000000,"state":"active","ping":77},{"user_id":736,"name":"washed up","steam_id":76561198275742101,"connected_time":690000000000,"state":"active","ping":67},{"user_id":728,"name":"MANIEK_01","steam_id":76561199010051308,"connected_time":1080000000000,"state":"active","ping":84},{"user_id":737,"name":"Donaldinho","steam_id":76561198026490299,"connected_time":689000000000,"state":"active","ping":45}]},{"server_id":320,"name":"Uncletopia | London | 3 | All Maps","name_short":"lon-3","host":"lon-1.uk.uncletopia.com","port":27035,"enabled":true,"region":"eu","cc":"gb","latitude":51.509865,"longitude":-0.118092,"reserved":0,"last_update":"0001-01-01T00:00:00Z","name_a2s":"Uncletopia | London | 3 | All Maps","protocol":17,"map":"plr_bananabay","folder":"tf","game":"Team Fortress","app_id":440,"player_count":24,"max_players":24,"Bots":0,"server_type":"Dedicated","server_os":"Linux","password":true,"vac":true,"version":"7757534","steam_id":85568392924510192,"keywords":["nocrits","nodmgspread","payload","uncletopia"],"game_id":440,"stv_port":27036,"stv_name":"Uncletopia | London | 3 | All Maps | STV","players":[{"user_id":616,"name":"bluett","steam_id":76561198157207927,"connected_time":312000000000,"state":"active","ping":84},{"user_id":594,"name":"SilverSV","steam_id":76561198164579830,"connected_time":1504000000000,"state":"active","ping":58},{"user_id":588,"name":"moser23","steam_id":76561197960543171,"connected_time":2801000000000,"state":"active","ping":61},{"user_id":572,"name":"Blacksheep","steam_id":76561198019621063,"connected_time":4683000000000,"state":"active","ping":53},{"user_id":595,"name":"Stoned","steam_id":76561198334592485,"connected_time":1293000000000,"state":"active","ping":85},{"user_id":601,"name":"Luk3","steam_id":76561198340519063,"connected_time":1094000000000,"state":"active","ping":64},{"user_id":536,"name":"chronic bhop syndrome","steam_id":76561198193357946,"connected_time":7129000000000,"state":"active","ping":112},{"user_id":579,"name":"swagsam","steam_id":76561199023747241,"connected_time":4289000000000,"state":"active","ping":46},{"user_id":617,"name":"Titus","steam_id":76561198040144784,"connected_time":250000000000,"state":"active","ping":55},{"user_id":564,"name":"✪ m_br3","steam_id":76561198044981990,"connected_time":5725000000000,"state":"active","ping":75},{"user_id":586,"name":"=flashpoint=","steam_id":76561197976774456,"connected_time":2902000000000,"state":"active","ping":45},{"user_id":613,"name":"Bell","steam_id":76561199454586928,"connected_time":340000000000,"state":"active","ping":126},{"user_id":587,"name":"Rubi","steam_id":76561198139410003,"connected_time":2872000000000,"state":"active","ping":74},{"user_id":609,"name":"Durham.","steam_id":76561199013125141,"connected_time":435000000000,"state":"active","ping":60},{"user_id":584,"name":"Grumtsior","steam_id":76561198043563111,"connected_time":3648000000000,"state":"active","ping":79},{"user_id":614,"name":"Theodd857","steam_id":76561198451805725,"connected_time":324000000000,"state":"active","ping":77},{"user_id":610,"name":"Totally Something","steam_id":76561198916824935,"connected_time":429000000000,"state":"active","ping":90},{"user_id":605,"name":"Raldow","steam_id":76561198021389301,"connected_time":902000000000,"state":"active","ping":85},{"user_id":597,"name":"WMW","steam_id":76561198837706438,"connected_time":1247000000000,"state":"active","ping":64},{"user_id":606,"name":"Memesus","steam_id":76561199362236174,"connected_time":899000000000,"state":"active","ping":73},{"user_id":604,"name":"jameso","steam_id":76561198064042970,"connected_time":1037000000000,"state":"active","ping":53},{"user_id":615,"name":"Sacco","steam_id":76561199048451187,"connected_time":320000000000,"state":"active","ping":75},{"user_id":619,"name":"Saihtama","steam_id":76561198067497192,"connected_time":67000000000,"state":"active","ping":54},{"user_id":608,"name":"Rasta Moose","steam_id":76561198009747646,"connected_time":653000000000,"state":"active","ping":95}]},{"server_id":321,"name":"Uncletopia | London | 4 | All Maps","name_short":"lon-4","host":"lon-1.uk.uncletopia.com","port":27045,"enabled":true,"region":"eu","cc":"gb","latitude":51.509865,"longitude":-0.118092,"reserved":0,"last_update":"0001-01-01T00:00:00Z","name_a2s":"Uncletopia | London | 4 | All Maps","protocol":17,"map":"pl_pier","folder":"tf","game":"Team Fortress","app_id":440,"player_count":24,"max_players":24,"Bots":0,"server_type":"Dedicated","server_os":"Linux","password":true,"vac":true,"version":"7757534","steam_id":85568392924510193,"keywords":["nocrits","nodmgspread","payload","uncletopia"],"game_id":440,"stv_port":27046,"stv_name":"Uncletopia | London | 4 | All Maps | STV","players":[{"user_id":152,"name":"greg","steam_id":76561198047388059,"connected_time":971000000000,"state":"active","ping":84},{"user_id":146,"name":"le huegloto de poeboto","steam_id":76561198865957930,"connected_time":1063000000000,"state":"active","ping":115},{"user_id":90,"name":"VolcanicArts","steam_id":76561198063453246,"connected_time":5521000000000,"state":"active","ping":52},{"user_id":163,"name":"CRAZY VIKING","steam_id":76561198061440669,"connected_time":488000000000,"state":"active","ping":65},{"user_id":159,"name":"Mean Green Peen","steam_id":76561198228455736,"connected_time":774000000000,"state":"active","ping":47},{"user_id":108,"name":"Infinity","steam_id":76561199134919099,"connected_time":3423000000000,"state":"active","ping":124},{"user_id":111,"name":"ELON MUSK","steam_id":76561198132788284,"connected_time":3115000000000,"state":"active","ping":52},{"user_id":150,"name":"LF Savozi","steam_id":76561198118006754,"connected_time":1032000000000,"state":"active","ping":79},{"user_id":166,"name":"true","steam_id":76561198031145243,"connected_time":253000000000,"state":"active","ping":74},{"user_id":118,"name":"Sparky","steam_id":76561198036754195,"connected_time":2834000000000,"state":"active","ping":46},{"user_id":99,"name":"bigfutacock56","steam_id":76561198835619904,"connected_time":3829000000000,"state":"active","ping":111},{"user_id":160,"name":"Unvid","steam_id":76561198031588080,"connected_time":656000000000,"state":"active","ping":63},{"user_id":154,"name":"ptasznick","steam_id":76561198057947872,"connected_time":935000000000,"state":"active","ping":80},{"user_id":117,"name":"HellDarnTV","steam_id":76561197997893901,"connected_time":2861000000000,"state":"active","ping":59},{"user_id":83,"name":"CamoS1250","steam_id":76561198309917434,"connected_time":6230000000000,"state":"active","ping":148},{"user_id":155,"name":"Pork Soda","steam_id":76561198119575082,"connected_time":930000000000,"state":"active","ping":132},{"user_id":119,"name":"Bobkiller","steam_id":76561198296686427,"connected_time":2832000000000,"state":"active","ping":95},{"user_id":161,"name":"Rem","steam_id":76561198867480648,"connected_time":538000000000,"state":"active","ping":45},{"user_id":124,"name":"burger","steam_id":76561198071674964,"connected_time":2772000000000,"state":"active","ping":75},{"user_id":157,"name":"benibachi","steam_id":76561198190816499,"connected_time":897000000000,"state":"active","ping":84},{"user_id":125,"name":"skittish maiden","steam_id":76561198096856475,"connected_time":2769000000000,"state":"active","ping":59},{"user_id":106,"name":"Cosmetic brain","steam_id":76561198055936410,"connected_time":3544000000000,"state":"active","ping":87},{"user_id":158,"name":"aGreedGryphon","steam_id":76561198245175308,"connected_time":886000000000,"state":"active","ping":52},{"user_id":165,"name":"Crunchy","steam_id":76561198184973203,"connected_time":459000000000,"state":"active","ping":56}]},{"server_id":21,"name":"Uncletopia | London | 5 | All Maps","name_short":"lon-5","host":"lon-1.uk.uncletopia.com","port":27055,"enabled":true,"region":"eu","cc":"gb","latitude":51.509865,"longitude":-0.118092,"reserved":0,"last_update":"0001-01-01T00:00:00Z","name_a2s":"Uncletopia | London | 5 | All Maps","protocol":17,"map":"cp_dustbowl","folder":"tf","game":"Team Fortress","app_id":440,"player_count":21,"max_players":24,"Bots":0,"server_type":"Dedicated","server_os":"Linux","password":true,"vac":true,"version":"7757534","steam_id":85568392924742829,"keywords":["cp","nocrits","nodmgspread","uncletopia"],"game_id":440,"stv_port":27056,"stv_name":"Uncletopia | London | 5 | All Maps | STV","players":[{"user_id":339,"name":"Martinox","steam_id":76561198269100323,"connected_time":427000000000,"state":"active","ping":101},{"user_id":349,"name":"Tort","steam_id":76561198329646769,"connected_time":186000000000,"state":"active","ping":55},{"user_id":350,"name":"yyny","steam_id":76561198066287297,"connected_time":156000000000,"state":"active","ping":45},{"user_id":326,"name":"Fancy","steam_id":76561198350658462,"connected_time":1668000000000,"state":"active","ping":81},{"user_id":301,"name":"Lassesjov","steam_id":76561198089792081,"connected_time":2541000000000,"state":"active","ping":69},{"user_id":302,"name":"Officer Dan_dk","steam_id":76561198365053592,"connected_time":2536000000000,"state":"active","ping":78},{"user_id":341,"name":"Grape Juice","steam_id":76561198380337568,"connected_time":372000000000,"state":"active","ping":163},{"user_id":333,"name":"yuta","steam_id":76561198077922992,"connected_time":1261000000000,"state":"active","ping":35},{"user_id":342,"name":"DarmaniClan #savetf2","steam_id":76561199134103145,"connected_time":363000000000,"state":"active","ping":163},{"user_id":307,"name":"meriones","steam_id":76561198034234373,"connected_time":2357000000000,"state":"active","ping":44},{"user_id":343,"name":"A mischievous Femboy","steam_id":76561198248239796,"connected_time":343000000000,"state":"active","ping":56},{"user_id":351,"name":"Ohio Spy","steam_id":76561198104305188,"connected_time":135000000000,"state":"active","ping":68},{"user_id":337,"name":"plaier123457","steam_id":76561198993969194,"connected_time":889000000000,"state":"active","ping":88},{"user_id":346,"name":"foolproof","steam_id":76561198115801132,"connected_time":251000000000,"state":"active","ping":60},{"user_id":314,"name":"jacob?","steam_id":76561199025525354,"connected_time":2082000000000,"state":"active","ping":47},{"user_id":338,"name":"Ancient_PlayZ","steam_id":76561198832927020,"connected_time":607000000000,"state":"active","ping":58},{"user_id":316,"name":"Nuuskis","steam_id":76561198084042012,"connected_time":2039000000000,"state":"active","ping":89},{"user_id":325,"name":"Sonder","steam_id":76561198115893794,"connected_time":1726000000000,"state":"active","ping":89},{"user_id":352,"name":"iAmBack!\u003c3","steam_id":76561198004525276,"connected_time":127000000000,"state":"active","ping":83},{"user_id":319,"name":"Bottom of the barrel terrorist","steam_id":76561198929386604,"connected_time":1996000000000,"state":"active","ping":100},{"user_id":320,"name":"gxoul","steam_id":76561199091006994,"connected_time":1975000000000,"state":"active","ping":85}]},{"server_id":22,"name":"Uncletopia | London | 6 | All Maps","name_short":"lon-6","host":"lon-1.uk.uncletopia.com","port":27065,"enabled":true,"region":"eu","cc":"gb","latitude":51.509865,"longitude":-0.118092,"reserved":0,"last_update":"0001-01-01T00:00:00Z","name_a2s":"Uncletopia | London | 6 | All Maps","protocol":17,"map":"cp_snakewater_final1","folder":"tf","game":"Team Fortress","app_id":440,"player_count":22,"max_players":24,"Bots":0,"server_type":"Dedicated","server_os":"Linux","password":true,"vac":true,"version":"7757534","steam_id":85568392924742830,"keywords":["cp","nocrits","nodmgspread","uncletopia"],"game_id":440,"stv_port":27066,"stv_name":"Uncletopia | London | 6 | All Maps | STV","players":[{"user_id":192,"name":"Bumblebee","steam_id":76561198033551105,"connected_time":294000000000,"state":"active","ping":74},{"user_id":193,"name":"ralek","steam_id":76561198337027746,"connected_time":178000000000,"state":"active","ping":97},{"user_id":194,"name":"amjadgx9","steam_id":76561199388681087,"connected_time":150000000000,"state":"active","ping":118},{"user_id":131,"name":"not drunk","steam_id":76561199184873889,"connected_time":4710000000000,"state":"active","ping":55},{"user_id":120,"name":"Tengen","steam_id":76561199356990346,"connected_time":5598000000000,"state":"active","ping":108},{"user_id":173,"name":"firenickblood","steam_id":76561199302529256,"connected_time":1324000000000,"state":"active","ping":74},{"user_id":195,"name":"drippin jimmy","steam_id":76561198219243969,"connected_time":122000000000,"state":"spawning","ping":121},{"user_id":189,"name":"Frank","steam_id":76561198086672774,"connected_time":456000000000,"state":"active","ping":49},{"user_id":171,"name":"kryhu","steam_id":76561198293327713,"connected_time":1487000000000,"state":"active","ping":75},{"user_id":148,"name":"BasLutnya","steam_id":76561198050575776,"connected_time":3794000000000,"state":"active","ping":88},{"user_id":184,"name":"Spamton G. Spamton","steam_id":76561199006979486,"connected_time":653000000000,"state":"active","ping":61},{"user_id":196,"name":"zoinks!","steam_id":76561198068645362,"connected_time":120000000000,"state":"active","ping":38},{"user_id":175,"name":"The True Mr. Gustavo","steam_id":76561198119044649,"connected_time":1203000000000,"state":"active","ping":49},{"user_id":143,"name":"Ripper","steam_id":76561197977547003,"connected_time":4211000000000,"state":"active","ping":98},{"user_id":176,"name":"weasl","steam_id":76561198076388927,"connected_time":974000000000,"state":"active","ping":193},{"user_id":180,"name":"esheen","steam_id":76561198139376665,"connected_time":854000000000,"state":"active","ping":61},{"user_id":197,"name":"Redbows22","steam_id":76561199452479390,"connected_time":103000000000,"state":"active","ping":155},{"user_id":142,"name":"Fuvuk","steam_id":76561198044458593,"connected_time":4309000000000,"state":"active","ping":99},{"user_id":198,"name":"cloud","steam_id":76561198179768931,"connected_time":87000000000,"state":"active","ping":60},{"user_id":199,"name":"Karsapaali","steam_id":76561198322322739,"connected_time":50000000000,"state":"active","ping":94},{"user_id":200,"name":"Pyrolander","steam_id":76561198050785450,"connected_time":7000000000,"state":"spawning","ping":70},{"user_id":181,"name":"Threon","steam_id":76561198826783545,"connected_time":852000000000,"state":"active","ping":100}]},{"server_id":40,"name":"Uncletopia | London | 7 | No Payload","name_short":"lon-7","host":"lon-1.uk.uncletopia.com","port":27075,"enabled":true,"region":"eu","cc":"gb","latitude":51.509865,"longitude":-0.118092,"reserved":0,"last_update":"0001-01-01T00:00:00Z","name_a2s":"Uncletopia | London | 7 | No Payload","protocol":17,"map":"koth_nucleus","folder":"tf","game":"Team Fortress","app_id":440,"player_count":21,"max_players":24,"Bots":0,"server_type":"Dedicated","server_os":"Linux","password":true,"vac":true,"version":"7757534","steam_id":85568392924964314,"keywords":["cp","nocrits","nodmgspread","uncletopia"],"game_id":440,"stv_port":27076,"stv_name":"Uncletopia | London | 7 | No Payload | STV","players":[{"user_id":436,"name":"Zach #SaveTF2","steam_id":76561198336885684,"connected_time":3915000000000,"state":"active","ping":82},{"user_id":494,"name":"Obsidian","steam_id":76561198173359229,"connected_time":267000000000,"state":"active","ping":95},{"user_id":478,"name":"gus","steam_id":76561198876303958,"connected_time":1885000000000,"state":"active","ping":103},{"user_id":481,"name":"Shadowlenox","steam_id":76561198061332068,"connected_time":1739000000000,"state":"active","ping":70},{"user_id":446,"name":"Toastie","steam_id":76561198195077735,"connected_time":3646000000000,"state":"active","ping":46},{"user_id":486,"name":"dr. coom","steam_id":76561198172193711,"connected_time":1156000000000,"state":"active","ping":43},{"user_id":496,"name":"AwterSix","steam_id":76561198042561678,"connected_time":178000000000,"state":"active","ping":60},{"user_id":498,"name":"Doinnoid","steam_id":76561198262276139,"connected_time":39000000000,"state":"active","ping":163},{"user_id":396,"name":"fume.","steam_id":76561197960476801,"connected_time":6553000000000,"state":"active","ping":54},{"user_id":487,"name":"X45Y","steam_id":76561198112534025,"connected_time":936000000000,"state":"active","ping":59},{"user_id":495,"name":"Cthulhu","steam_id":76561198326381898,"connected_time":241000000000,"state":"active","ping":145},{"user_id":492,"name":"C L 1 Q","steam_id":76561198363021979,"connected_time":495000000000,"state":"active","ping":70},{"user_id":483,"name":"Neto","steam_id":76561198201204507,"connected_time":1380000000000,"state":"active","ping":76},{"user_id":401,"name":"Carl's Marx","steam_id":76561198059700045,"connected_time":6297000000000,"state":"active","ping":66},{"user_id":479,"name":"tiiyama","steam_id":76561198046196005,"connected_time":1816000000000,"state":"active","ping":52},{"user_id":472,"name":"kektuse","steam_id":76561198088426580,"connected_time":2506000000000,"state":"active","ping":73},{"user_id":475,"name":"ParisXavi","steam_id":76561199451487415,"connected_time":2417000000000,"state":"active","ping":85},{"user_id":484,"name":"Rift","steam_id":76561198239491040,"connected_time":1366000000000,"state":"active","ping":177},{"user_id":473,"name":"vicky got the sticky","steam_id":76561198181794353,"connected_time":2502000000000,"state":"active","ping":43},{"user_id":443,"name":"Sanlys","steam_id":76561198124403701,"connected_time":3811000000000,"state":"active","ping":63},{"user_id":493,"name":"Captain HandicappedCock","steam_id":76561198109850402,"connected_time":387000000000,"state":"active","ping":71}]},{"server_id":41,"name":"Uncletopia | London | 8 | Community","name_short":"lon-8","host":"lon-1.uk.uncletopia.com","port":27085,"enabled":true,"region":"eu","cc":"gb","latitude":51.509865,"longitude":-0.118092,"reserved":0,"last_update":"0001-01-01T00:00:00Z","name_a2s":"Uncletopia | London | 8 | Community","protocol":17,"map":"workshop/pl_vigil_rc9.ugc1266210012","folder":"tf","game":"Team Fortress","app_id":440,"player_count":0,"max_players":24,"Bots":0,"server_type":"Dedicated","server_os":"Linux","password":true,"vac":true,"version":"7757534","steam_id":85568392924964315,"keywords":["nocrits","nodmgspread","payload","uncletopia"],"game_id":440,"stv_port":27086,"stv_name":"Uncletopia | London | 8 | Community | STV","players":null},{"server_id":300,"name":"Uncletopia | Montréal | 1 | All Maps","name_short":"mtl-1","host":"mtl-1.ca.uncletopia.com","port":27015,"enabled":true,"region":"us-east","cc":"ca","latitude":45.50889,"longitude":-73.56167,"reserved":0,"last_update":"0001-01-01T00:00:00Z","name_a2s":"Uncletopia | Montréal | 1 | All Maps","protocol":17,"map":"koth_cascade","folder":"tf","game":"Team Fortress","app_id":440,"player_count":0,"max_players":24,"Bots":0,"server_type":"Dedicated","server_os":"Linux","password":true,"vac":true,"version":"7757534","steam_id":85568392924500087,"keywords":["cp","nocrits","nodmgspread","uncletopia"],"game_id":440,"stv_port":27016,"stv_name":"Uncletopia | Montréal | 1 | All Maps | STV","players":null},{"server_id":301,"name":"Uncletopia | Montréal | 2 | All Maps","name_short":"mtl-2","host":"mtl-1.ca.uncletopia.com","port":27025,"enabled":true,"region":"us-east","cc":"ca","latitude":45.50889,"longitude":-73.56167,"reserved":0,"last_update":"0001-01-01T00:00:00Z","name_a2s":"Uncletopia | Montréal | 2 | All Maps","protocol":17,"map":"pl_borneo","folder":"tf","game":"Team Fortress","app_id":440,"player_count":0,"max_players":24,"Bots":0,"server_type":"Dedicated","server_os":"Linux","password":true,"vac":true,"version":"7757534","steam_id":85568392924500088,"keywords":["nocrits","nodmgspread","payload","uncletopia"],"game_id":440,"stv_port":27026,"stv_name":"Uncletopia | Montréal | 2 | All Maps | STV","players":null},{"server_id":302,"name":"Uncletopia | Montréal | 3 | All Maps","name_short":"mtl-3","host":"mtl-1.ca.uncletopia.com","port":27035,"enabled":true,"region":"us-east","cc":"ca","latitude":45.50889,"longitude":-73.56167,"reserved":0,"last_update":"0001-01-01T00:00:00Z","name_a2s":"Uncletopia | Montréal | 3 | All Maps","protocol":17,"map":"koth_cascade","folder":"tf","game":"Team Fortress","app_id":440,"player_count":0,"max_players":24,"Bots":0,"server_type":"Dedicated","server_os":"Linux","password":true,"vac":true,"version":"7757534","steam_id":85568392924500089,"keywords":["cp","nocrits","nodmgspread","uncletopia"],"game_id":440,"stv_port":27036,"stv_name":"Uncletopia | Montréal | 3 | All Maps | STV","players":null},{"server_id":303,"name":"Uncletopia | Montréal | 4 | No Payload","name_short":"mtl-4","host":"mtl-1.ca.uncletopia.com","port":27045,"enabled":true,"region":"us-east","cc":"ca","latitude":45.50889,"longitude":-73.56167,"reserved":0,"last_update":"0001-01-01T00:00:00Z","name_a2s":"Uncletopia | Montréal | 4 | No Payload","protocol":17,"map":"koth_lakeside_final","folder":"tf","game":"Team Fortress","app_id":440,"player_count":0,"max_players":24,"Bots":0,"server_type":"Dedicated","server_os":"Linux","password":true,"vac":true,"version":"7757534","steam_id":85568392924500090,"keywords":["cp","nocrits","nodmgspread","uncletopia"],"game_id":440,"stv_port":27046,"stv_name":"Uncletopia | Montréal | 4 | No Payload | STV","players":null},{"server_id":13,"name":"Uncletopia | New York City | 1 | All Maps","name_short":"nyc-1","host":"nyc-1.us.uncletopia.com","port":27015,"enabled":true,"region":"us-east","cc":"us","latitude":40.73061,"longitude":-73.93524,"reserved":0,"last_update":"0001-01-01T00:00:00Z","name_a2s":"Uncletopia | New York City | 1 | All Maps","protocol":17,"map":"koth_harvest_final","folder":"tf","game":"Team Fortress","app_id":440,"player_count":22,"max_players":24,"Bots":0,"server_type":"Dedicated","server_os":"Linux","password":true,"vac":true,"version":"7757534","steam_id":85568392924469993,"keywords":["cp","nocrits","nodmgspread","uncletopia"],"game_id":440,"stv_port":27016,"stv_name":"Uncletopia | New York City | 1 | All Maps | STV","players":[{"user_id":141,"name":"joethefool","steam_id":76561199015436319,"connected_time":3013000000000,"state":"active","ping":58},{"user_id":168,"name":"Nice21","steam_id":76561199427548141,"connected_time":505000000000,"state":"active","ping":72},{"user_id":164,"name":"All 24 Pokémon movies at once","steam_id":76561198164738311,"connected_time":1107000000000,"state":"active","ping":90},{"user_id":176,"name":"Maelstrom manipulator","steam_id":76561198838282369,"connected_time":283000000000,"state":"active","ping":65},{"user_id":169,"name":"Nuts","steam_id":76561198072383659,"connected_time":488000000000,"state":"active","ping":51},{"user_id":163,"name":"THE CAPN","steam_id":76561198170210979,"connected_time":1195000000000,"state":"active","ping":132},{"user_id":170,"name":"BearAteMahoney","steam_id":76561198020439356,"connected_time":474000000000,"state":"active","ping":60},{"user_id":150,"name":"Sigiferd","steam_id":76561198148788110,"connected_time":2024000000000,"state":"active","ping":116},{"user_id":95,"name":"Pendrive","steam_id":76561199427354854,"connected_time":5914000000000,"state":"active","ping":152},{"user_id":107,"name":"Havok","steam_id":76561198063455003,"connected_time":5477000000000,"state":"active","ping":54},{"user_id":173,"name":"Kritzburgh","steam_id":76561198149466938,"connected_time":420000000000,"state":"active","ping":47},{"user_id":109,"name":"BLU1 | cola","steam_id":76561198374390458,"connected_time":5350000000000,"state":"active","ping":71},{"user_id":148,"name":"MILF Gaming","steam_id":76561198155378170,"connected_time":2040000000000,"state":"active","ping":50},{"user_id":157,"name":"Yatso Bagelmenson","steam_id":76561198004329919,"connected_time":1784000000000,"state":"active","ping":76},{"user_id":171,"name":"JamesSaysRelax","steam_id":76561198055687973,"connected_time":452000000000,"state":"active","ping":61},{"user_id":172,"name":"Venti The Owl","steam_id":76561198966265282,"connected_time":441000000000,"state":"active","ping":47},{"user_id":143,"name":"JoCaleb02","steam_id":76561198272389829,"connected_time":2626000000000,"state":"active","ping":75},{"user_id":156,"name":"Mr. Snatched Yo Nutsack","steam_id":76561199075873174,"connected_time":1824000000000,"state":"active","ping":185},{"user_id":153,"name":"Bubster","steam_id":76561199013499631,"connected_time":1980000000000,"state":"active","ping":77},{"user_id":165,"name":"Baron von Whoopsie","steam_id":76561197996691013,"connected_time":622000000000,"state":"active","ping":60},{"user_id":175,"name":"RaixaR","steam_id":76561198025289430,"connected_time":395000000000,"state":"active","ping":103},{"user_id":159,"name":"xen","steam_id":76561198048568188,"connected_time":1536000000000,"state":"active","ping":45}]},{"server_id":14,"name":"Uncletopia | New York City | 2 | All Maps","name_short":"nyc-2","host":"nyc-1.us.uncletopia.com","port":27025,"enabled":true,"region":"us-east","cc":"us","latitude":40.73061,"longitude":-73.93524,"reserved":0,"last_update":"0001-01-01T00:00:00Z","name_a2s":"Uncletopia | New York City | 2 | All Maps","protocol":17,"map":"pl_upward","folder":"tf","game":"Team Fortress","app_id":440,"player_count":24,"max_players":24,"Bots":0,"server_type":"Dedicated","server_os":"Linux","password":true,"vac":true,"version":"7757534","steam_id":85568392924469994,"keywords":["nocrits","nodmgspread","payload","uncletopia"],"game_id":440,"stv_port":27026,"stv_name":"Uncletopia | New York City | 2 | All Maps | STV","players":[{"user_id":18,"name":"CakeBlock","steam_id":76561198067238228,"connected_time":2227000000000,"state":"active","ping":42},{"user_id":25,"name":"name420","steam_id":76561198129374525,"connected_time":1685000000000,"state":"active","ping":67},{"user_id":21,"name":"Biddy","steam_id":76561198255305591,"connected_time":1757000000000,"state":"active","ping":80},{"user_id":54,"name":"Mug Maniac","steam_id":76561198120866920,"connected_time":624000000000,"state":"active","ping":68},{"user_id":56,"name":"Thaenrge","steam_id":76561198027234280,"connected_time":430000000000,"state":"active","ping":104},{"user_id":57,"name":"Feldspar","steam_id":76561198027437590,"connected_time":430000000000,"state":"active","ping":62},{"user_id":43,"name":"The World's Softest Sandwich","steam_id":76561198015577707,"connected_time":1121000000000,"state":"active","ping":97},{"user_id":27,"name":"money","steam_id":76561198311704368,"connected_time":1629000000000,"state":"active","ping":62},{"user_id":28,"name":"Asym29","steam_id":76561198991100651,"connected_time":1604000000000,"state":"active","ping":44},{"user_id":32,"name":"Chillin Turt","steam_id":76561198025796849,"connected_time":1366000000000,"state":"active","ping":69},{"user_id":33,"name":"wool","steam_id":76561198869689933,"connected_time":1362000000000,"state":"active","ping":59},{"user_id":34,"name":"craf","steam_id":76561198163535075,"connected_time":1359000000000,"state":"active","ping":55},{"user_id":35,"name":"Shmebulock","steam_id":76561198046941925,"connected_time":1340000000000,"state":"active","ping":62},{"user_id":59,"name":"iamoctopii","steam_id":76561198876901076,"connected_time":103000000000,"state":"active","ping":131},{"user_id":37,"name":"Fresh Lychee","steam_id":76561198045399559,"connected_time":1291000000000,"state":"active","ping":67},{"user_id":38,"name":"maji","steam_id":76561199147740808,"connected_time":1251000000000,"state":"active","ping":120},{"user_id":39,"name":"Stout","steam_id":76561199427897571,"connected_time":1237000000000,"state":"active","ping":144},{"user_id":58,"name":"DanFunTime","steam_id":76561199070914651,"connected_time":409000000000,"state":"active","ping":68},{"user_id":48,"name":"poiuytrewqwqwqwqwqwqwqwqwqwqwqw","steam_id":76561199105253001,"connected_time":972000000000,"state":"active","ping":53},{"user_id":42,"name":"Kawflynn","steam_id":76561198029885678,"connected_time":1135000000000,"state":"active","ping":106},{"user_id":44,"name":"ansoonii","steam_id":76561198092494136,"connected_time":1091000000000,"state":"active","ping":75},{"user_id":50,"name":"hoots","steam_id":76561198015609525,"connected_time":891000000000,"state":"active","ping":58},{"user_id":52,"name":"mystic5681","steam_id":76561199230977529,"connected_time":836000000000,"state":"active","ping":57},{"user_id":47,"name":"Penis but it rhymes with Venice","steam_id":76561197986420836,"connected_time":1067000000000,"state":"active","ping":54}]},{"server_id":15,"name":"Uncletopia | New York City | 3 | Stopwatch Beta","name_short":"nyc-3","host":"nyc-1.us.uncletopia.com","port":27035,"enabled":true,"region":"us-east","cc":"us","latitude":40.73061,"longitude":-73.93524,"reserved":0,"last_update":"0001-01-01T00:00:00Z","name_a2s":"Uncletopia | New York City | 3 | Stopwatch Beta","protocol":17,"map":"koth_lakeside_final","folder":"tf","game":"Team Fortress","app_id":440,"player_count":0,"max_players":24,"Bots":0,"server_type":"Dedicated","server_os":"Linux","password":true,"vac":true,"version":"7757534","steam_id":85568392924742820,"keywords":["cp","nocrits","nodmgspread","uncletopia"],"game_id":440,"stv_port":27036,"stv_name":"Uncletopia | New York City | 3 | Stopwatch Beta | STV","players":null},{"server_id":16,"name":"Uncletopia | New York City | 4 | Community","name_short":"nyc-4","host":"nyc-1.us.uncletopia.com","port":27045,"enabled":true,"region":"us-east","cc":"us","latitude":40.73061,"longitude":-73.93524,"reserved":0,"last_update":"0001-01-01T00:00:00Z","name_a2s":"Uncletopia | New York City | 4 | Community","protocol":17,"map":"workshop/cp_villa_b19.ugc2113052569","folder":"tf","game":"Team Fortress","app_id":440,"player_count":0,"max_players":24,"Bots":0,"server_type":"Dedicated","server_os":"Linux","password":true,"vac":true,"version":"7757534","steam_id":85568392924742821,"keywords":["cp","nocrits","nodmgspread","uncletopia"],"game_id":440,"stv_port":27046,"stv_name":"Uncletopia | New York City | 4 | Community | STV","players":null},{"server_id":142,"name":"Uncletopia | São Paulo | 1 | All Maps","name_short":"sao-1","host":"sao-1.br.uncletopia.com","port":27015,"enabled":true,"region":"sa","cc":"br","latitude":-23.533773,"longitude":-46.62529,"reserved":0,"last_update":"0001-01-01T00:00:00Z","name_a2s":"Uncletopia | São Paulo | 1 | All Maps","protocol":17,"map":"plr_pipeline","folder":"tf","game":"Team Fortress","app_id":440,"player_count":0,"max_players":24,"Bots":0,"server_type":"Dedicated","server_os":"Linux","password":true,"vac":true,"version":"7757534","steam_id":85568392924469996,"keywords":["nocrits","nodmgspread","payload","uncletopia"],"game_id":440,"stv_port":27016,"stv_name":"Uncletopia | São Paulo | 1 | All Maps | STV","players":null},{"server_id":143,"name":"Uncletopia | São Paulo | 2 | All Maps","name_short":"sao-2","host":"sao-2.br.uncletopia.com","port":27015,"enabled":true,"region":"sa","cc":"br","latitude":-23.533773,"longitude":-46.62529,"reserved":0,"last_update":"0001-01-01T00:00:00Z","name_a2s":"Uncletopia | São Paulo | 2 | All Maps","protocol":17,"map":"koth_cascade","folder":"tf","game":"Team Fortress","app_id":440,"player_count":0,"max_players":24,"Bots":0,"server_type":"Dedicated","server_os":"Linux","password":true,"vac":true,"version":"7757534","steam_id":85568392924485349,"keywords":["cp","nocrits","nodmgspread","uncletopia"],"game_id":440,"stv_port":27016,"stv_name":"Uncletopia | São Paulo | 2 | All Maps | STV","players":null},{"server_id":7,"name":"Uncletopia | Seattle | 1 | All Maps","name_short":"sea-1","host":"sea-1.us.uncletopia.com","port":27015,"enabled":true,"region":"us-west","cc":"us","latitude":47.608013,"longitude":-122.33517,"reserved":0,"last_update":"0001-01-01T00:00:00Z","name_a2s":"Uncletopia | Seattle | 1 | All Maps","protocol":17,"map":"pl_pier","folder":"tf","game":"Team Fortress","app_id":440,"player_count":24,"max_players":24,"Bots":0,"server_type":"Dedicated","server_os":"Linux","password":true,"vac":true,"version":"7757534","steam_id":85568392924469997,"keywords":["nocrits","nodmgspread","payload","uncletopia"],"game_id":440,"stv_port":27016,"stv_name":"Uncletopia | Seattle | 1 | All Maps | STV","players":[{"user_id":293,"name":"The Pepsi® Superbowl®!","steam_id":76561198080828981,"connected_time":360000000000,"state":"active","ping":76},{"user_id":234,"name":"Lily Thorn","steam_id":76561198305488625,"connected_time":6021000000000,"state":"active","ping":66},{"user_id":296,"name":"AmiableNebula","steam_id":76561198094306627,"connected_time":203000000000,"state":"active","ping":77},{"user_id":263,"name":"Rhymloh","steam_id":76561198056788413,"connected_time":3047000000000,"state":"active","ping":55},{"user_id":287,"name":"WeAreTheSpirits","steam_id":76561198191555728,"connected_time":1281000000000,"state":"active","ping":64},{"user_id":273,"name":"Defeat","steam_id":76561198065203818,"connected_time":2213000000000,"state":"active","ping":44},{"user_id":289,"name":"\\m/ Cyfun (she/it)","steam_id":76561197960882221,"connected_time":1004000000000,"state":"active","ping":92},{"user_id":260,"name":"Your_Local_CIA_Agent","steam_id":76561199469235407,"connected_time":3172000000000,"state":"active","ping":72},{"user_id":274,"name":"bronk","steam_id":76561198181109553,"connected_time":2208000000000,"state":"active","ping":72},{"user_id":265,"name":"Username","steam_id":76561198855586261,"connected_time":2971000000000,"state":"active","ping":63},{"user_id":283,"name":"Dimple","steam_id":76561198980324190,"connected_time":1461000000000,"state":"active","ping":49},{"user_id":243,"name":"UHHHHHHHHHHHHHHHHHHHHHHHHH","steam_id":76561198246760934,"connected_time":4285000000000,"state":"active","ping":113},{"user_id":284,"name":"Dargoos","steam_id":76561198366212046,"connected_time":1370000000000,"state":"active","ping":74},{"user_id":292,"name":"mobe","steam_id":76561198121633820,"connected_time":410000000000,"state":"active","ping":75},{"user_id":210,"name":"[SK] Punish ♥ 牧濑红莉栖","steam_id":76561198207987376,"connected_time":9015000000000,"state":"active","ping":103},{"user_id":276,"name":"weegeebad","steam_id":76561198280841437,"connected_time":2190000000000,"state":"active","ping":122},{"user_id":285,"name":"〣dust〣 -she/her-","steam_id":76561198045218909,"connected_time":1343000000000,"state":"active","ping":45},{"user_id":295,"name":"cookiegenius2398.r2","steam_id":76561198970759258,"connected_time":237000000000,"state":"active","ping":60},{"user_id":280,"name":"mumbles","steam_id":76561197994528974,"connected_time":1883000000000,"state":"active","ping":74},{"user_id":282,"name":"Sewer","steam_id":76561198803732690,"connected_time":1851000000000,"state":"active","ping":79},{"user_id":290,"name":"KingTinkerer","steam_id":76561198226856548,"connected_time":434000000000,"state":"active","ping":77},{"user_id":219,"name":"o o o o o o o o o","steam_id":76561197993757506,"connected_time":7620000000000,"state":"active","ping":71},{"user_id":291,"name":"pizzalover_2014","steam_id":76561198870649125,"connected_time":434000000000,"state":"active","ping":87},{"user_id":224,"name":"soulcantspeech","steam_id":76561198186690945,"connected_time":7003000000000,"state":"active","ping":49}]},{"server_id":119,"name":"Uncletopia | Seattle | 2 | All Maps","name_short":"sea-2","host":"sea-1.us.uncletopia.com","port":27025,"enabled":true,"region":"us-west","cc":"us","latitude":47.608013,"longitude":-122.33517,"reserved":0,"last_update":"0001-01-01T00:00:00Z","name_a2s":"Uncletopia | Seattle | 2 | All Maps","protocol":17,"map":"koth_cascade","folder":"tf","game":"Team Fortress","app_id":440,"player_count":0,"max_players":24,"Bots":0,"server_type":"Dedicated","server_os":"Linux","password":true,"vac":true,"version":"7757534","steam_id":85568392924469998,"keywords":["cp","nocrits","nodmgspread","uncletopia"],"game_id":440,"stv_port":27026,"stv_name":"Uncletopia | Seattle | 2 | All Maps | STV","players":null},{"server_id":406,"name":"Uncletopia | Seattle | 3 | Stopwatch Beta","name_short":"sea-3","host":"sea-1.us.uncletopia.com","port":27035,"enabled":true,"region":"us-west","cc":"us","latitude":47.608013,"longitude":-122.33517,"reserved":0,"last_update":"0001-01-01T00:00:00Z","name_a2s":"Uncletopia | Seattle | 3 | Stopwatch Beta","protocol":17,"map":"cp_process_final","folder":"tf","game":"Team Fortress","app_id":440,"player_count":0,"max_players":24,"Bots":0,"server_type":"Dedicated","server_os":"Linux","password":true,"vac":true,"version":"7757534","steam_id":85568392924515217,"keywords":["cp","nocrits","nodmgspread","uncletopia"],"game_id":440,"stv_port":27036,"stv_name":"Uncletopia | Seattle | 3 | Stopwatch Beta | STV","players":null},{"server_id":17,"name":"Uncletopia | San Francisco | 1 | All Maps","name_short":"sfo-1","host":"sfo-1.us.uncletopia.com","port":27015,"enabled":true,"region":"us-west","cc":"us","latitude":37.77397,"longitude":-122.4313,"reserved":0,"last_update":"0001-01-01T00:00:00Z","name_a2s":"Uncletopia | San Francisco | 1 | All Maps","protocol":17,"map":"pl_badwater","folder":"tf","game":"Team Fortress","app_id":440,"player_count":0,"max_players":24,"Bots":0,"server_type":"Dedicated","server_os":"Linux","password":true,"vac":true,"version":"7757534","steam_id":85568392924469999,"keywords":["nocrits","nodmgspread","payload","uncletopia"],"game_id":440,"stv_port":27016,"stv_name":"Uncletopia | San Francisco | 1 | All Maps | STV","players":null},{"server_id":18,"name":"Uncletopia | San Francisco | 2 | All Maps","name_short":"sfo-2","host":"sfo-1.us.uncletopia.com","port":27025,"enabled":true,"region":"us-west","cc":"us","latitude":37.77397,"longitude":-122.4313,"reserved":0,"last_update":"0001-01-01T00:00:00Z","name_a2s":"Uncletopia | San Francisco | 2 | All Maps","protocol":17,"map":"koth_highpass","folder":"tf","game":"Team Fortress","app_id":440,"player_count":0,"max_players":24,"Bots":0,"server_type":"Dedicated","server_os":"Linux","password":true,"vac":true,"version":"7757534","steam_id":85568392924470000,"keywords":["cp","nocrits","nodmgspread","uncletopia"],"game_id":440,"stv_port":27026,"stv_name":"Uncletopia | San Francisco | 2 | All Maps | STV","players":null},{"server_id":19,"name":"Uncletopia | San Francisco | 3 | Stopwatch Beta","name_short":"sfo-3","host":"sfo-1.us.uncletopia.com","port":27035,"enabled":true,"region":"us-west","cc":"us","latitude":37.77397,"longitude":-122.4313,"reserved":0,"last_update":"0001-01-01T00:00:00Z","name_a2s":"Uncletopia | San Francisco | 3 | Stopwatch Beta","protocol":17,"map":"koth_viaduct","folder":"tf","game":"Team Fortress","app_id":440,"player_count":0,"max_players":24,"Bots":0,"server_type":"Dedicated","server_os":"Linux","password":true,"vac":true,"version":"7757534","steam_id":85568392924742824,"keywords":["cp","nocrits","nodmgspread","uncletopia"],"game_id":440,"stv_port":27036,"stv_name":"Uncletopia | San Francisco | 3 | Stopwatch Beta | STV","players":null},{"server_id":20,"name":"Uncletopia | San Francisco | 4 | Community","name_short":"sfo-4","host":"sfo-1.us.uncletopia.com","port":27045,"enabled":true,"region":"us-west","cc":"us","latitude":37.77397,"longitude":-122.4313,"reserved":0,"last_update":"0001-01-01T00:00:00Z","name_a2s":"Uncletopia | San Francisco | 4 | Community","protocol":17,"map":"pl_borneo","folder":"tf","game":"Team Fortress","app_id":440,"player_count":0,"max_players":24,"Bots":0,"server_type":"Dedicated","server_os":"Linux","password":true,"vac":true,"version":"7757534","steam_id":85568392924742826,"keywords":["nocrits","nodmgspread","payload","uncletopia"],"game_id":440,"stv_port":27046,"stv_name":"Uncletopia | San Francisco | 4 | Community | STV","players":null},{"server_id":141,"name":"Uncletopia | Sydney | 1 | All Maps","name_short":"syd-1","host":"syd-1.au.uncletopia.com","port":27015,"enabled":true,"region":"au","cc":"au","latitude":-33.865143,"longitude":151.2099,"reserved":0,"last_update":"0001-01-01T00:00:00Z","name_a2s":"Uncletopia | Sydney | 1 | All Maps","protocol":17,"map":"koth_lakeside_final","folder":"tf","game":"Team Fortress","app_id":440,"player_count":0,"max_players":24,"Bots":0,"server_type":"Dedicated","server_os":"Linux","password":true,"vac":true,"version":"7757534","steam_id":85568392924470001,"keywords":["cp","nocrits","nodmgspread","uncletopia"],"game_id":440,"stv_port":27016,"stv_name":"Uncletopia | Sydney | 1 | All Maps | STV","players":null},{"server_id":123,"name":"Uncletopia | Sydney | 2 | All Maps","name_short":"syd-2","host":"syd-1.au.uncletopia.com","port":27025,"enabled":true,"region":"au","cc":"au","latitude":-33.865143,"longitude":151.2099,"reserved":0,"last_update":"0001-01-01T00:00:00Z","name_a2s":"Uncletopia | Sydney | 2 | All Maps","protocol":17,"map":"koth_viaduct","folder":"tf","game":"Team Fortress","app_id":440,"player_count":0,"max_players":24,"Bots":0,"server_type":"Dedicated","server_os":"Linux","password":true,"vac":true,"version":"7757534","steam_id":85568392924470002,"keywords":["cp","nocrits","nodmgspread","uncletopia"],"game_id":440,"stv_port":27026,"stv_name":"Uncletopia | Sydney | 2 | All Maps | STV","players":null},{"server_id":395,"name":"Uncletopia | Sydney | 3 | All Maps","name_short":"syd-3","host":"syd-1.au.uncletopia.com","port":27035,"enabled":true,"region":"au","cc":"au","latitude":-33.865143,"longitude":151.2099,"reserved":0,"last_update":"0001-01-01T00:00:00Z","name_a2s":"Uncletopia | Sydney | 3 | All Maps","protocol":17,"map":"koth_viaduct","folder":"tf","game":"Team Fortress","app_id":440,"player_count":0,"max_players":24,"Bots":0,"server_type":"Dedicated","server_os":"Linux","password":true,"vac":true,"version":"7757534","steam_id":85568392925194467,"keywords":["cp","nocrits","nodmgspread","uncletopia"],"game_id":440,"stv_port":27036,"stv_name":"Uncletopia | Sydney | 3 | All Maps | STV","players":null},{"server_id":396,"name":"Uncletopia | Sydney | 4 | All Maps","name_short":"syd-4","host":"syd-1.au.uncletopia.com","port":27045,"enabled":true,"region":"au","cc":"au","latitude":-33.865143,"longitude":151.2099,"reserved":0,"last_update":"0001-01-01T00:00:00Z","name_a2s":"Uncletopia | Sydney | 4 | All Maps","protocol":17,"map":"cp_snakewater_final1","folder":"tf","game":"Team Fortress","app_id":440,"player_count":0,"max_players":24,"Bots":0,"server_type":"Dedicated","server_os":"Linux","password":true,"vac":true,"version":"7757534","steam_id":85568392925397958,"keywords":["cp","nocrits","nodmgspread","uncletopia"],"game_id":440,"stv_port":27046,"stv_name":"Uncletopia | Sydney | 4 | All Maps | STV","players":null},{"server_id":58,"name":"Uncletopia | Sydney | 5 | Stopwatch Beta","name_short":"syd-5","host":"syd-1.au.uncletopia.com","port":27055,"enabled":true,"region":"au","cc":"au","latitude":-33.865143,"longitude":151.2099,"reserved":0,"last_update":"0001-01-01T00:00:00Z","name_a2s":"Uncletopia | Sydney | 5 | Stopwatch Beta","protocol":17,"map":"pl_barnblitz","folder":"tf","game":"Team Fortress","app_id":440,"player_count":0,"max_players":24,"Bots":0,"server_type":"Dedicated","server_os":"Linux","password":true,"vac":true,"version":"7757534","steam_id":85568392925397959,"keywords":["nocrits","nodmgspread","payload","uncletopia"],"game_id":440,"stv_port":27056,"stv_name":"Uncletopia | Sydney | 5 | Stopwatch Beta | STV","players":null},{"server_id":59,"name":"Uncletopia | Sydney | 6 | Community","name_short":"syd-6","host":"syd-1.au.uncletopia.com","port":27065,"enabled":true,"region":"au","cc":"au","latitude":-33.865143,"longitude":151.2099,"reserved":0,"last_update":"0001-01-01T00:00:00Z","name_a2s":"Uncletopia | Sydney | 6 | Community","protocol":17,"map":"cp_mountainlab","folder":"tf","game":"Team Fortress","app_id":440,"player_count":0,"max_players":24,"Bots":0,"server_type":"Dedicated","server_os":"Linux","password":true,"vac":true,"version":"7757534","steam_id":85568392925397960,"keywords":["cp","nocrits","nodmgspread","uncletopia"],"game_id":440,"stv_port":27066,"stv_name":"Uncletopia | Sydney | 6 | Community | STV","players":null},{"server_id":49,"name":"Uncletopia | Warsaw | 1 | All Maps","name_short":"waw-1","host":"waw-1.pl.uncletopia.com","port":27015,"enabled":true,"region":"eu","cc":"pl","latitude":52.2297,"longitude":21.017532,"reserved":0,"last_update":"0001-01-01T00:00:00Z","name_a2s":"","protocol":0,"map":"","folder":"","game":"","app_id":0,"player_count":0,"max_players":0,"Bots":0,"server_type":"","server_os":"","password":false,"vac":false,"version":"","steam_id":0,"keywords":null,"game_id":0,"stv_port":0,"stv_name":"","players":null},{"server_id":50,"name":"Uncletopia | Warsaw | 2 | All Maps","name_short":"waw-2","host":"waw-1.pl.uncletopia.com","port":27025,"enabled":true,"region":"eu","cc":"pl","latitude":52.2297,"longitude":21.017532,"reserved":0,"last_update":"0001-01-01T00:00:00Z","name_a2s":"Uncletopia | Warsaw | 2 | All Maps","protocol":17,"map":"cp_gravelpit","folder":"tf","game":"Team Fortress","app_id":440,"player_count":1,"max_players":24,"Bots":0,"server_type":"Dedicated","server_os":"Linux","password":true,"vac":true,"version":"7757534","steam_id":85568392925397851,"keywords":["cp","nocrits","nodmgspread","uncletopia"],"game_id":440,"stv_port":27026,"stv_name":"Uncletopia | Warsaw | 2 | All Maps | STV","players":[{"user_id":25,"name":"Żaba Mista Zajebista","steam_id":76561199228912887,"connected_time":12000000000,"state":"active","ping":66}]},{"server_id":51,"name":"Uncletopia | Warsaw | 3 | All Maps","name_short":"waw-3","host":"waw-1.pl.uncletopia.com","port":27035,"enabled":true,"region":"eu","cc":"pl","latitude":52.2297,"longitude":21.017532,"reserved":0,"last_update":"0001-01-01T00:00:00Z","name_a2s":"Uncletopia | Warsaw | 3 | All Maps","protocol":17,"map":"pl_badwater","folder":"tf","game":"Team Fortress","app_id":440,"player_count":0,"max_players":24,"Bots":0,"server_type":"Dedicated","server_os":"Linux","password":true,"vac":true,"version":"7757534","steam_id":85568392925397852,"keywords":["nocrits","nodmgspread","payload","uncletopia"],"game_id":440,"stv_port":27036,"stv_name":"Uncletopia | Warsaw | 3 | All Maps | STV","players":null},{"server_id":52,"name":"Uncletopia | Warsaw | 4 | All Maps","name_short":"waw-4","host":"waw-1.pl.uncletopia.com","port":27045,"enabled":true,"region":"eu","cc":"pl","latitude":52.2297,"longitude":21.017532,"reserved":0,"last_update":"0001-01-01T00:00:00Z","name_a2s":"Uncletopia | Warsaw | 4 | All Maps","protocol":17,"map":"koth_highpass","folder":"tf","game":"Team Fortress","app_id":440,"player_count":0,"max_players":24,"Bots":0,"server_type":"Dedicated","server_os":"Linux","password":true,"vac":true,"version":"7757534","steam_id":85568392925397853,"keywords":["cp","nocrits","nodmgspread","uncletopia"],"game_id":440,"stv_port":27046,"stv_name":"Uncletopia | Warsaw | 4 | All Maps | STV","players":null},{"server_id":53,"name":"Uncletopia | Warsaw | 5 | Stopwatch Beta","name_short":"waw-5","host":"waw-1.pl.uncletopia.com","port":27055,"enabled":true,"region":"eu","cc":"pl","latitude":52.2297,"longitude":21.017532,"reserved":0,"last_update":"0001-01-01T00:00:00Z","name_a2s":"Uncletopia | Warsaw | 5 | Stopwatch Beta","protocol":17,"map":"workshop/koth_product_final.ugc454272353","folder":"tf","game":"Team Fortress","app_id":440,"player_count":0,"max_players":24,"Bots":0,"server_type":"Dedicated","server_os":"Linux","password":true,"vac":true,"version":"7757534","steam_id":85568392925397854,"keywords":["cp","nocrits","nodmgspread","uncletopia"],"game_id":440,"stv_port":27056,"stv_name":"Uncletopia | Warsaw | 5 | Stopwatch Beta | STV","players":null},{"server_id":54,"name":"Uncletopia | Warsaw | 6 | Community","name_short":"waw-6","host":"waw-1.pl.uncletopia.com","port":27065,"enabled":true,"region":"eu","cc":"pl","latitude":52.2297,"longitude":21.017532,"reserved":0,"last_update":"0001-01-01T00:00:00Z","name_a2s":"Uncletopia | Warsaw | 6 | Community","protocol":17,"map":"workshop/cp_logjam_rc12.ugc454812035","folder":"tf","game":"Team Fortress","app_id":440,"player_count":0,"max_players":24,"Bots":0,"server_type":"Dedicated","server_os":"Linux","password":true,"vac":true,"version":"7757534","steam_id":85568392925397856,"keywords":["cp","nocrits","nodmgspread","uncletopia"],"game_id":440,"stv_port":27066,"stv_name":"Uncletopia | Warsaw | 6 | Community | STV","players":null}]}