{"status":true,"message":"","result":[{"server_id":9,"name":"Uncletopia | Atlanta | 1 | All Maps","name_short":"atl-1","host":"atl-1.us.uncletopia.com","port":27015,"enabled":true,"region":"us-east","cc":"us","latitude":33.753746,"longitude":-84.38633,"reserved":0,"last_update":"0001-01-01T00:00:00Z","name_a2s":"Uncletopia | Atlanta | 1 | All Maps","protocol":17,"map":"pl_pier","folder":"tf","game":"Team Fortress","app_id":440,"player_count":24,"max_players":24,"Bots":0,"server_type":"Dedicated","server_os":"Linux","password":true,"vac":true,"version":"7757534","steam_id":85568392924469982,"keywords":["nocrits","nodmgspread","payload","uncletopia"],"game_id":440,"stv_port":27016,"stv_name":"Uncletopia | Atlanta | 1 | All Maps | STV","players":[{"user_id":166,"name":"John Darksoul","steam_id":76561198999712284,"connected_time":587000000000,"state":"active","ping":92},{"user_id":98,"name":"Eins","steam_id":76561199030343810,"connected_time":1599000000000,"state":"active","ping":46},{"user_id":180,"name":"Deltaco","steam_id":76561198094572694,"connected_time":396000000000,"state":"active","ping":102},{"user_id":68,"name":"Lilac Lulamoon","steam_id":76561198111402757,"connected_time":2675000000000,"state":"active","ping":74},{"user_id":143,"name":"Life, Death, and Taxes","steam_id":76561198126734886,"connected_time":993000000000,"state":"active","ping":88},{"user_id":137,"name":"GailusTerran","steam_id":76561198319509387,"connected_time":1085000000000,"state":"active","ping":55},{"user_id":181,"name":"Bandee","steam_id":76561198974233692,"connected_time":327000000000,"state":"active","ping":87},{"user_id":168,"name":"El Bondin","steam_id":76561198820792434,"connected_time":550000000000,"state":"active","ping":83},{"user_id":106,"name":"CamelyKonas","steam_id":76561198097672992,"connected_time":1555000000000,"state":"active","ping":84},{"user_id":167,"name":"sirsmit1","steam_id":76561199129778001,"connected_time":567000000000,"state":"active","ping":76},{"user_id":178,"name":"Mr. Hankey","steam_id":76561198872852200,"connected_time":435000000000,"state":"active","ping":134},{"user_id":164,"name":"BackwardsEagle","steam_id":76561199013712612,"connected_time":616000000000,"state":"active","ping":82},{"user_id":171,"name":"name420","steam_id":76561198129374525,"connected_time":544000000000,"state":"active","ping":56},{"user_id":165,"name":"Ulrich Stern","steam_id":76561198101739682,"connected_time":611000000000,"state":"active","ping":86},{"user_id":154,"name":"Draco6257","steam_id":76561199147322448,"connected_time":827000000000,"state":"active","ping":53},{"user_id":182,"name":"cowgirl farmer","steam_id":76561198249206656,"connected_time":325000000000,"state":"active","ping":90},{"user_id":114,"name":"Gibby","steam_id":76561199336569123,"connected_time":1350000000000,"state":"active","ping":103},{"user_id":186,"name":"evnobev","steam_id":76561198038966462,"connected_time":261000000000,"state":"active","ping":54},{"user_id":173,"name":"DiscoTraveler","steam_id":76561199240168088,"connected_time":522000000000,"state":"active","ping":59},{"user_id":66,"name":"Monster","steam_id":76561198189429665,"connected_time":2809000000000,"state":"active","ping":63},{"user_id":176,"name":"post traumatic swag disorder","steam_id":76561198093105234,"connected_time":475000000000,"state":"active","ping":100},{"user_id":185,"name":"Chechens Spotted","steam_id":76561199028910893,"connected_time":281000000000,"state":"active","ping":86},{"user_id":79,"name":"Missing Minus","steam_id":76561198120822928,"connected_time":2324000000000,"state":"active","ping":52},{"user_id":90,"name":"could i be eating my sock rn?","steam_id":76561199097866312,"connected_time":1772000000000,"state":"active","ping":96}]},{"server_id":104,"name":"Uncletopia | Atlanta | 2 | All Maps","name_short":"atl-2","host":"atl-1.us.uncletopia.com","port":27025,"enabled":true,"region":"us-east","cc":"us","latitude":33.753746,"longitude":-84.38633,"reserved":0,"last_update":"0001-01-01T00:00:00Z","name_a2s":"Uncletopia | Atlanta | 2 | All Maps","protocol":17,"map":"cp_dustbowl","folder":"tf","game":"Team Fortress","app_id":440,"player_count":0,"max_players":24,"Bots":0,"server_type":"Dedicated","server_os":"Linux","password":true,"vac":true,"version":"7757534","steam_id":85568392924469983,"keywords":["cp","nocrits","nodmgspread","uncletopia"],"game_id":440,"stv_port":27026,"stv_name":"Uncletopia | Atlanta | 2 | All Maps | STV","players":null},{"server_id":400,"name":"Uncletopia | Atlanta | 3 | Community","name_short":"atl-3","host":"atl-1.us.uncletopia.com","port":27035,"enabled":true,"region":"us-east","cc":"us","latitude":33.753746,"longitude":-84.38633,"reserved":0,"last_update":"0001-01-01T00:00:00Z","name_a2s":"Uncletopia | Atlanta | 3 | Community","protocol":17,"map":"workshop/cp_logjam_rc12.ugc454812035","folder":"tf","game":"Team Fortress","app_id":440,"player_count":0,"max_players":24,"Bots":0,"server_type":"Dedicated","server_os":"Linux","password":true,"vac":true,"version":"7757534","steam_id":85568392924515187,"keywords":["cp","nocrits","nodmgspread","uncletopia"],"game_id":440,"stv_port":27036,"stv_name":"Uncletopia | Atlanta | 3 | Community | STV","players":null},{"server_id":401,"name":"Uncletopia | Atlanta | 4 | No Payload","name_short":"atl-4","host":"atl-1.us.uncletopia.com","port":27045,"enabled":true,"region":"us-east","cc":"us","latitude":33.753746,"longitude":-84.38633,"reserved":0,"last_update":"0001-01-01T00:00:00Z","name_a2s":"","protocol":0,"map":"","folder":"","game":"","app_id":0,"player_count":0,"max_players":0,"Bots":0,"server_type":"","server_os":"","password":false,"vac":false,"version":"","steam_id":0,"keywords":null,"game_id":0,"stv_port":0,"stv_name":"","players":null},{"server_id":2,"name":"Uncletopia | Chicago | 1 | All Maps","name_short":"chi-1","host":"chi-1.us.uncletopia.com","port":27015,"enabled":true,"region":"us-central","cc":"us","latitude":41.881832,"longitude":-87.62318,"reserved":0,"last_update":"0001-01-01T00:00:00Z","name_a2s":"Uncletopia | Chicago | 1 | All Maps","protocol":17,"map":"cp_dustbowl","folder":"tf","game":"Team Fortress","app_id":440,"player_count":24,"max_players":24,"Bots":0,"server_type":"Dedicated","server_os":"Linux","password":true,"vac":true,"version":"7757534","steam_id":85568392924469984,"keywords":["cp","nocrits","nodmgspread","uncletopia"],"game_id":440,"stv_port":27016,"stv_name":"Uncletopia | Chicago | 1 | All Maps | STV","players":[{"user_id":204,"name":"Coffee with a Stranger","steam_id":76561198307422313,"connected_time":1858000000000,"state":"active","ping":62},{"user_id":221,"name":"Im High","steam_id":76561198049954886,"connected_time":711000000000,"state":"active","ping":71},{"user_id":44,"name":"KBoneski ‚ô°","steam_id":76561198307409065,"connected_time":13169000000000,"state":"active","ping":97},{"user_id":190,"name":"Soju","steam_id":76561198044130442,"connected_time":3271000000000,"state":"active","ping":78},{"user_id":189,"name":"vv","steam_id":76561198134813102,"connected_time":3295000000000,"state":"active","ping":54},{"user_id":198,"name":"B.","steam_id":76561198040445907,"connected_time":2193000000000,"state":"active","ping":73},{"user_id":136,"name":"WatchWill","steam_id":76561198157237945,"connected_time":7556000000000,"state":"active","ping":76},{"user_id":168,"name":"Gildedire","steam_id":76561198063959574,"connected_time":4393000000000,"state":"active","ping":78},{"user_id":227,"name":"Dug","steam_id":76561198017691029,"connected_time":323000000000,"state":"active","ping":57},{"user_id":222,"name":"capybapy","steam_id":76561198798828328,"connected_time":682000000000,"state":"active","ping":51},{"user_id":230,"name":"Dewick","steam_id":76561198178526673,"connected_time":75000000000,"state":"active","ping":126},{"user_id":199,"name":"Mister Frank","steam_id":76561198161473385,"connected_time":2141000000000,"state":"active","ping":63},{"user_id":215,"name":"023e20902o0239ee02390o239e","steam_id":76561198175741741,"connected_time":1165000000000,"state":"active","ping":72},{"user_id":205,"name":"Dr Roach","steam_id":76561199242750887,"connected_time":1857000000000,"state":"active","ping":72},{"user_id":213,"name":"Tyco","steam_id":76561197978414167,"connected_time":1282000000000,"state":"active","ping":75},{"user_id":216,"name":"Lovedaddy","steam_id":76561198006569710,"connected_time":958000000000,"state":"active","ping":80},{"user_id":208,"name":"DASmallWorlds - Â§ßÂ≠∏‰∏≠","steam_id":76561198139546606,"connected_time":1533000000000,"state":"active","ping":87},{"user_id":124,"name":"nalezinik","steam_id":76561198030026119,"connected_time":8655000000000,"state":"active","ping":59},{"user_id":225,"name":"clack","steam_id":76561198966980576,"connected_time":375000000000,"state":"active","ping":65},{"user_id":202,"name":"‚û∑ eina ","steam_id":76561197975540289,"connected_time":2015000000000,"state":"active","ping":58},{"user_id":167,"name":"dankman","steam_id":76561198977064186,"connected_time":4406000000000,"state":"active","ping":65},{"user_id":224,"name":"[DEEP] Roz257","steam_id":76561198842844532,"connected_time":396000000000,"state":"active","ping":63},{"user_id":141,"name":"Brown_Dream","steam_id":76561198975766145,"connected_time":7257000000000,"state":"active","ping":85},{"user_id":229,"name":"TheBurrowKing","steam_id":76561198893883010,"connected_time":261000000000,"state":"active","ping":87}]},{"server_id":106,"name":"Uncletopia | Chicago | 2 | All Maps","name_short":"chi-2","host":"chi-1.us.uncletopia.com","port":27025,"enabled":true,"region":"us-central","cc":"us","latitude":41.881832,"longitude":-87.62318,"reserved":0,"last_update":"0001-01-01T00:00:00Z","name_a2s":"Uncletopia | Chicago | 2 | All Maps","protocol":17,"map":"koth_cascade","folder":"tf","game":"Team Fortress","app_id":440,"player_count":24,"max_players":24,"Bots":0,"server_type":"Dedicated","server_os":"Linux","password":true,"vac":true,"version":"7757534","steam_id":85568392924469985,"keywords":["cp","nocrits","nodmgspread","uncletopia"],"game_id":440,"stv_port":27026,"stv_name":"Uncletopia | Chicago | 2 | All Maps | STV","players":[{"user_id":119,"name":"my stummy hurt","steam_id":76561198137817319,"connected_time":964000000000,"state":"active","ping":62},{"user_id":122,"name":"truck nuts","steam_id":76561198053332483,"connected_time":737000000000,"state":"active","ping":77},{"user_id":48,"name":"andyiscolorless","steam_id":76561199239870921,"connected_time":4574000000000,"state":"active","ping":144},{"user_id":117,"name":"BambuBabyPackRunner","steam_id":76561198320866421,"connected_time":1255000000000,"state":"active","ping":70},{"user_id":126,"name":"Ann1ck","steam_id":76561198361129190,"connected_time":159000000000,"state":"active","ping":60},{"user_id":121,"name":"Providence, RI","steam_id":76561197998655347,"connected_time":763000000000,"state":"active","ping":79},{"user_id":81,"name":"Punished Kong","steam_id":76561198973620882,"connected_time":3207000000000,"state":"active","ping":83},{"user_id":109,"name":"Taco","steam_id":76561198034670953,"connected_time":1481000000000,"state":"active","ping":77},{"user_id":120,"name":"Esteban Delsin","steam_id":76561198433519639,"connected_time":963000000000,"state":"active","ping":142},{"user_id":69,"name":"myBaesia","steam_id":76561198046555114,"connected_time":3932000000000,"state":"active","ping":84},{"user_id":83,"name":"smellyloser86","steam_id":76561199198703435,"connected_time":3026000000000,"state":"active","ping":61},{"user_id":18,"name":"sword lesbian","steam_id":76561198019735460,"connected_time":5309000000000,"state":"active","ping":115},{"user_id":78,"name":"Cryonics","steam_id":76561198314197911,"connected_time":3440000000000,"state":"active","ping":61},{"user_id":123,"name":"Conic","steam_id":76561198422554916,"connected_time":720000000000,"state":"active","ping":197},{"user_id":73,"name":"LloydMann","steam_id":76561198025392778,"connected_time":3820000000000,"state":"active","ping":59},{"user_id":54,"name":"DualiTea","steam_id":76561198081733870,"connected_time":4514000000000,"state":"active","ping":47},{"user_id":97,"name":"Wamce","steam_id":76561198082187052,"connected_time":2363000000000,"state":"active","ping":60},{"user_id":25,"name":"Pendrive","steam_id":76561199427354854,"connected_time":5077000000000,"state":"active","ping":167},{"user_id":110,"name":"meghan trainor's bass","steam_id":76561198075858067,"connected_time":1391000000000,"state":"active","ping":59},{"user_id":124,"name":"eloressa","steam_id":76561198120330867,"connected_time":487000000000,"state":"active","ping":54},{"user_id":101,"name":"Bangushonkle","steam_id":76561198218887511,"connected_time":2222000000000,"state":"active","ping":98},{"user_id":94,"name":"Vordt","steam_id":76561198040942866,"connected_time":2565000000000,"state":"active","ping":63},{"user_id":104,"name":"Worse","steam_id":76561198043778324,"connected_time":2006000000000,"state":"active","ping":66},{"user_id":80,"name":"GoofyAhGamingGuy","steam_id":76561199331315881,"connected_time":3280000000000,"state":"active","ping":90}]},{"server_id":402,"name":"Uncletopia | Chicago | 3 | All Maps","name_short":"chi-3","host":"chi-1.us.uncletopia.com","port":27035,"enabled":true,"region":"us-central","cc":"us","latitude":41.881832,"longitude":-87.62318,"reserved":0,"last_update":"0001-01-01T00:00:00Z","name_a2s":"Uncletopia | Chicago | 3 | All Maps","protocol":17,"map":"pl_upward","folder":"tf","game":"Team Fortress","app_id":440,"player_count":24,"max_players":24,"Bots":0,"server_type":"Dedicated","server_os":"Linux","password":true,"vac":true,"version":"7757534","steam_id":85568392924515191,"keywords":["nocrits","nodmgspread","payload","uncletopia"],"game_id":440,"stv_port":27036,"stv_name":"Uncletopia | Chicago | 3 | All Maps | STV","players":[{"user_id":83,"name":"SUPREME CHAMPION","steam_id":76561198072112905,"connected_time":172000000000,"state":"active","ping":57},{"user_id":68,"name":"shadow6","steam_id":76561197979807910,"connected_time":216000000000,"state":"active","ping":103},{"user_id":16,"name":"Ghost","steam_id":76561198426370628,"connected_time":3196000000000,"state":"active","ping":60},{"user_id":69,"name":"Giorno_Giovanna","steam_id":76561199014402406,"connected_time":215000000000,"state":"active","ping":87},{"user_id":73,"name":"kaibow","steam_id":76561199245270298,"connected_time":188000000000,"state":"active","ping":114},{"user_id":71,"name":"viomagesds","steam_id":76561198025295263,"connected_time":211000000000,"state":"active","ping":73},{"user_id":84,"name":"The Paladin","steam_id":76561199110579692,"connected_time":170000000000,"state":"active","ping":68},{"user_id":49,"name":"Xenowo","steam_id":76561198120574708,"connected_time":1989000000000,"state":"active","ping":70},{"user_id":85,"name":"Ok then","steam_id":76561198891914787,"connected_time":151000000000,"state":"active","ping":107},{"user_id":26,"name":"Barlon","steam_id":76561198023717515,"connected_time":2808000000000,"state":"active","ping":74},{"user_id":86,"name":"4d4","steam_id":76561198402360789,"connected_time":143000000000,"state":"active","ping":55},{"user_id":29,"name":"i really like this dog :)","steam_id":76561198882404753,"connected_time":2733000000000,"state":"active","ping":75},{"user_id":58,"name":"GooniOoni","steam_id":76561198102154561,"connected_time":1423000000000,"state":"active","ping":48},{"user_id":59,"name":"bob","steam_id":76561198261060542,"connected_time":1286000000000,"state":"active","ping":76},{"user_id":66,"name":"s___ on the grass","steam_id":76561198008453104,"connected_time":367000000000,"state":"active","ping":60},{"user_id":35,"name":"LitlToast","steam_id":76561198353473171,"connected_time":2463000000000,"state":"active","ping":73},{"user_id":56,"name":"jzplr üé∑üêõ","steam_id":76561198091901520,"connected_time":1846000000000,"state":"active","ping":74},{"user_id":87,"name":"JetZ","steam_id":76561199122488957,"connected_time":138000000000,"state":"active","ping":69},{"user_id":61,"name":"skilaruh","steam_id":76561198413172611,"connected_time":1006000000000,"state":"active","ping":58},{"user_id":88,"name":"WE LOVE CASTING SPELLSüíØüíØ\ufffd","steam_id":76561198056871257,"connected_time":138000000000,"state":"active","ping":66},{"user_id":89,"name":"shake","steam_id":76561199064204750,"connected_time":118000000000,"state":"active","ping":77},{"user_id":45,"name":"4ling","steam_id":76561197994398381,"connected_time":2252000000000,"state":"active","ping":70},{"user_id":90,"name":"sarah palin parasailin","steam_id":76561198044858310,"connected_time":85000000000,"state":"active","ping":85},{"user_id":60,"name":"MrKokonut","steam_id":76561198879575825,"connected_time":1145000000000,"state":"active","ping":61}]},{"server_id":403,"name":"Uncletopia | Chicago | 4 | All Maps","name_short":"chi-4","host":"chi-1.us.uncletopia.com","port":27045,"enabled":true,"region":"us-central","cc":"us","latitude":41.881832,"longitude":-87.62318,"reserved":0,"last_update":"0001-01-01T00:00:00Z","name_a2s":"Uncletopia | Chicago | 4 | All Maps","protocol":17,"map":"koth_lakeside_final","folder":"tf","game":"Team Fortress","app_id":440,"player_count":0,"max_players":24,"Bots":0,"server_type":"Dedicated","server_os":"Linux","password":true,"vac":true,"version":"7757534","steam_id":85568392924515193,"keywords":["cp","nocrits","nodmgspread","uncletopia"],"game_id":440,"stv_port":27046,"stv_name":"Uncletopia | Chicago | 4 | All Maps | STV","players":null},{"server_id":36,"name":"Uncletopia | Chicago | 5 | All Maps","name_short":"chi-5","host":"chi-2.us.uncletopia.com","port":27015,"enabled":true,"region":"us-central","cc":"us","latitude":41.881832,"longitude":-87.62318,"reserved":0,"last_update":"0001-01-01T00:00:00Z","name_a2s":"Uncletopia | Chicago | 5 | All Maps","protocol":17,"map":"koth_cascade","folder":"tf","game":"Team Fortress","app_id":440,"player_count":0,"max_players":24,"Bots":0,"server_type":"Dedicated","server_os":"Linux","password":true,"vac":true,"version":"7757534","steam_id":85568392924866362,"keywords":["cp","nocrits","nodmgspread","uncletopia"],"game_id":440,"stv_port":27016,"stv_name":"Uncletopia | Chicago | 5 | All Maps | STV","players":null},{"server_id":37,"name":"Uncletopia | Chicago | 6 | All Maps","name_short":"chi-6","host":"chi-2.us.uncletopia.com","port":27025,"enabled":true,"region":"us-central","cc":"us","latitude":41.881832,"longitude":-87.62318,"reserved":0,"last_update":"0001-01-01T00:00:00Z","name_a2s":"Uncletopia | Chicago | 6 | All Maps","protocol":17,"map":"pl_borneo","folder":"tf","game":"Team Fortress","app_id":440,"player_count":0,"max_players":24,"Bots":0,"server_type":"Dedicated","server_os":"Linux","password":true,"vac":true,"version":"7757534","steam_id":85568392924866363,"keywords":["nocrits","nodmgspread","payload","uncletopia"],"game_id":440,"stv_port":27026,"stv_name":"Uncletopia | Chicago | 6 | All Maps | STV","players":null},{"server_id":38,"name":"Uncletopia | Chicago | 7 | Stopwatch Beta","name_short":"chi-7","host":"chi-2.us.uncletopia.com","port":27035,"enabled":true,"region":"us-central","cc":"us","latitude":41.881832,"longitude":-87.62318,"reserved":0,"last_update":"0001-01-01T00:00:00Z","name_a2s":"Uncletopia | Chicago | 7 | Stopwatch Beta","protocol":17,"map":"pl_barnblitz","folder":"tf","game":"Team Fortress","app_id":440,"player_count":0,"max_players":24,"Bots":0,"server_type":"Dedicated","server_os":"Linux","password":true,"vac":true,"version":"7757534","steam_id":85568392924866364,"keywords":["nocrits","nodmgspread","payload","uncletopia"],"game_id":440,"stv_port":27036,"stv_name":"Uncletopia | Chicago | 7 | Stopwatch Beta | STV","players":null},{"server_id":39,"name":"Uncletopia | Chicago | 8 | Community","name_short":"chi-8","host":"chi-2.us.uncletopia.com","port":27045,"enabled":true,"region":"us-central","cc":"us","latitude":41.881832,"longitude":-87.62318,"reserved":0,"last_update":"0001-01-01T00:00:00Z","name_a2s":"Uncletopia | Chicago | 8 | Community","protocol":17,"map":"workshop/koth_trenchfoot_b1a.ugc731436616","folder":"tf","game":"Team Fortress","app_id":440,"player_count":20,"max_players":24,"Bots":0,"server_type":"Dedicated","server_os":"Linux","password":true,"vac":true,"version":"7757534","steam_id":85568392924866365,"keywords":["cp","nocrits","nodmgspread","uncletopia"],"game_id":440,"stv_port":27046,"stv_name":"Uncletopia | Chicago | 8 | Community | STV","players":[{"user_id":34,"name":"Peri","steam_id":76561198255311543,"connected_time":121000000000,"state":"active","ping":63},{"user_id":5,"name":"DamerDoozle","steam_id":76561199121686201,"connected_time":1761000000000,"state":"active","ping":68},{"user_id":6,"name":"LalitoTV","steam_id":76561198334302951,"connected_time":1596000000000,"state":"active","ping":114},{"user_id":7,"name":"bobletoob","steam_id":76561199184464900,"connected_time":1332000000000,"state":"active","ping":100},{"user_id":10,"name":"chipperguy","steam_id":76561199060302023,"connected_time":1167000000000,"state":"active","ping":86},{"user_id":12,"name":"Adum","steam_id":76561198181162382,"connected_time":1016000000000,"state":"active","ping":60},{"user_id":35,"name":"UrFavFemboy","steam_id":76561199140460467,"connected_time":107000000000,"state":"active","ping":156},{"user_id":15,"name":"Luna the Milk Bringer","steam_id":76561198991791655,"connected_time":807000000000,"state":"active","ping":72},{"user_id":16,"name":"Belmore","steam_id":76561198009355231,"connected_time":803000000000,"state":"active","ping":108},{"user_id":19,"name":"BarrowBaron","steam_id":76561198013633236,"connected_time":729000000000,"state":"active","ping":64},{"user_id":20,"name":"The MilkMann","steam_id":76561199006503777,"connected_time":697000000000,"state":"active","ping":50},{"user_id":22,"name":"Karma's Camera","steam_id":76561198059385185,"connected_time":677000000000,"state":"active","ping":58},{"user_id":23,"name":"CHEWSDAY","steam_id":76561198839930170,"connected_time":573000000000,"state":"active","ping":90},{"user_id":24,"name":"XBOX 360","steam_id":76561198066590783,"connected_time":542000000000,"state":"active","ping":60},{"user_id":26,"name":"uhhhh","steam_id":76561199211193548,"connected_time":535000000000,"state":"active","ping":47},{"user_id":27,"name":"Goofy Goober","steam_id":76561198065361279,"connected_time":523000000000,"state":"active","ping":85},{"user_id":28,"name":"bredinstead","steam_id":76561199156464551,"connected_time":465000000000,"state":"active","ping":65},{"user_id":29,"name":"‡ºò ‚ãÜÀöüéßCaffeine‚òï*Àñ¬∞","steam_id":76561199259309294,"connected_time":411000000000,"state":"active","ping":68},{"user_id":30,"name":"BirBinGo","steam_id":76561198356529600,"connected_time":403000000000,"state":"active","ping":75},{"user_id":32,"name":"Trace #SAVETF2","steam_id":76561198009486000,"connected_time":210000000000,"state":"active","ping":73}]},{"server_id":8,"name":"Uncletopia | Dallas | 1 | All Maps","name_short":"dal-1","host":"dal-1.us.uncletopia.com","port":27015,"enabled":true,"region":"us-central","cc":"us","latitude":32.779167,"longitude":-96.80889,"reserved":0,"last_update":"0001-01-01T00:00:00Z","name_a2s":"Uncletopia | Dallas | 1 | All Maps","protocol":17,"map":"pl_swiftwater_final1","folder":"tf","game":"Team Fortress","app_id":440,"player_count":24,"max_players":24,"Bots":0,"server_type":"Dedicated","server_os":"Linux","password":true,"vac":true,"version":"7757534","steam_id":85568392924469986,"keywords":["nocrits","nodmgspread","payload","uncletopia"],"game_id":440,"stv_port":27016,"stv_name":"Uncletopia | Dallas | 1 | All Maps | STV","players":[{"user_id":160,"name":"BlueBoi2006","steam_id":76561199150475057,"connected_time":97000000000,"state":"active","ping":63},{"user_id":145,"name":"Connie","steam_id":76561198068661013,"connected_time":1384000000000,"state":"active","ping":71},{"user_id":115,"name":"LemonPoppyMuffin","steam_id":76561198044813750,"connected_time":4656000000000,"state":"active","ping":60},{"user_id":144,"name":"Wiggee","steam_id":76561197972792989,"connected_time":1469000000000,"state":"active","ping":37},{"user_id":156,"name":"happy camper","steam_id":76561198209813328,"connected_time":267000000000,"state":"active","ping":52},{"user_id":146,"name":"Pneumo.","steam_id":76561197987911883,"connected_time":1236000000000,"state":"active","ping":120},{"user_id":148,"name":"Blitz3k","steam_id":76561198055758741,"connected_time":1004000000000,"state":"active","ping":80},{"user_id":149,"name":"Fishstall","steam_id":76561198038126034,"connected_time":410000000000,"state":"active","ping":68},{"user_id":140,"name":"fumblom","steam_id":76561199389283507,"connected_time":1876000000000,"state":"active","ping":94},{"user_id":48,"name":"Darling","steam_id":76561198127525888,"connected_time":9153000000000,"state":"active","ping":47},{"user_id":73,"name":"76561198039763676","steam_id":76561198039763676,"connected_time":7297000000000,"state":"active","ping":75},{"user_id":151,"name":"yitz","steam_id":76561198375575841,"connected_time":393000000000,"state":"active","ping":75},{"user_id":153,"name":"Xecom","steam_id":76561198067868538,"connected_time":370000000000,"state":"active","ping":83},{"user_id":147,"name":"Fish","steam_id":76561199016308078,"connected_time":1234000000000,"state":"active","ping":90},{"user_id":150,"name":"Gaminglast","steam_id":76561198362927765,"connected_time":395000000000,"state":"active","ping":126},{"user_id":154,"name":"Sanic_Bum","steam_id":76561198094179822,"connected_time":331000000000,"state":"active","ping":76},{"user_id":155,"name":"just jazz","steam_id":76561198010637797,"connected_time":303000000000,"state":"active","ping":62},{"user_id":72,"name":"Blackmore","steam_id":76561199048177153,"connected_time":7379000000000,"state":"active","ping":138},{"user_id":157,"name":"TurtleReflexes","steam_id":76561198012157836,"connected_time":267000000000,"state":"active","ping":55},{"user_id":158,"name":"Larry from Pokemon SV","steam_id":76561198095245223,"connected_time":242000000000,"state":"active","ping":89},{"user_id":117,"name":"Chilling Bing","steam_id":76561198140651185,"connected_time":4470000000000,"state":"active","ping":57},{"user_id":130,"name":"Peter Popoff","steam_id":76561198027171160,"connected_time":2604000000000,"state":"active","ping":71},{"user_id":138,"name":"Doc{MDW}","steam_id":76561198075049640,"connected_time":2207000000000,"state":"active","ping":76},{"user_id":143,"name":"xXx_The_REAL_Marge_Simpson_xXx","steam_id":76561199116846851,"connected_time":1656000000000,"state":"active","ping":52}]},{"server_id":108,"name":"Uncletopia | Dallas | 2 | All Maps","name_short":"dal-2","host":"dal-1.us.uncletopia.com","port":27025,"enabled":true,"region":"us-central","cc":"us","latitude":32.779167,"longitude":-96.80889,"reserved":0,"last_update":"0001-01-01T00:00:00Z","name_a2s":"Uncletopia | Dallas | 2 | All Maps","protocol":17,"map":"koth_highpass","folder":"tf","game":"Team Fortress","app_id":440,"player_count":1,"max_players":24,"Bots":0,"server_type":"Dedicated","server_os":"Linux","password":true,"vac":true,"version":"7757534","steam_id":85568392924469988,"keywords":["cp","nocrits","nodmgspread","uncletopia"],"game_id":440,"stv_port":27026,"stv_name":"Uncletopia | Dallas | 2 | All Maps | STV","players":[{"user_id":11,"name":"nod45","steam_id":76561198114959385,"connected_time":130000000000,"state":"active","ping":85}]},{"server_id":5,"name":"Uncletopia | Frankfurt | 1 | All Maps","name_short":"frk-1","host":"frk-1.de.uncletopia.com","port":27015,"enabled":true,"region":"eu","cc":"de","latitude":50.110924,"longitude":8.682127,"reserved":0,"last_update":"0001-01-01T00:00:00Z","name_a2s":"Uncletopia | Frankfurt | 1 | All Maps","protocol":17,"map":"cp_dustbowl","folder":"tf","game":"Team Fortress","app_id":440,"player_count":24,"max_players":24,"Bots":0,"server_type":"Dedicated","server_os":"Linux","password":true,"vac":true,"version":"7757534","steam_id":85568392924469989,"keywords":["cp","nocrits","nodmgspread","uncletopia"],"game_id":440,"stv_port":27016,"stv_name":"Uncletopia | Frankfurt | 1 | All Maps | STV","players":[{"user_id":418,"name":"tv/klondike0x","steam_id":76561198110760108,"connected_time":2602000000000,"state":"active","ping":90},{"user_id":440,"name":"DocTwoEight","steam_id":76561198153488940,"connected_time":1015000000000,"state":"active","ping":75},{"user_id":457,"name":"Bilbo Ballbaggins","steam_id":76561198070593514,"connected_time":82000000000,"state":"active","ping":58},{"user_id":410,"name":"r06u3 #SummerUpdate_Coming","steam_id":76561198254099253,"connected_time":3768000000000,"state":"active","ping":165},{"user_id":401,"name":"Solarflame","steam_id":76561198158780844,"connected_time":4429000000000,"state":"active","ping":92},{"user_id":455,"name":"tchcea","steam_id":76561198444307012,"connected_time":174000000000,"state":"active","ping":100},{"user_id":403,"name":"John Noob","steam_id":76561197999170026,"connected_time":4414000000000,"state":"active","ping":89},{"user_id":408,"name":"knees","steam_id":76561198005924647,"connected_time":3902000000000,"state":"active","ping":68},{"user_id":437,"name":"Caliban","steam_id":76561197999696839,"connected_time":1529000000000,"state":"active","ping":100},{"user_id":453,"name":"fabacher","steam_id":76561198057905272,"connected_time":347000000000,"state":"active","ping":60},{"user_id":436,"name":"Rigby","steam_id":76561198021552128,"connected_time":1687000000000,"state":"active","ping":100},{"user_id":444,"name":"Art","steam_id":76561198823514629,"connected_time":978000000000,"state":"active","ping":134},{"user_id":416,"name":"Soerlssoelss√∂en","steam_id":76561197993060585,"connected_time":3032000000000,"state":"active","ping":72},{"user_id":446,"name":"Saucy Jack","steam_id":76561198894525288,"connected_time":853000000000,"state":"active","ping":59},{"user_id":411,"name":"tj","steam_id":76561198160466307,"connected_time":3767000000000,"state":"active","ping":74},{"user_id":454,"name":"FWDTRKR","steam_id":76561198060369427,"connected_time":296000000000,"state":"active","ping":139},{"user_id":429,"name":"Kotlin","steam_id":76561198443331716,"connected_time":2299000000000,"state":"active","ping":53},{"user_id":399,"name":"doopsuiker","steam_id":76561198025916703,"connected_time":4658000000000,"state":"active","ping":68},{"user_id":426,"name":"skai","steam_id":76561198184881255,"connected_time":2348000000000,"state":"active","ping":73},{"user_id":427,"name":"foof","steam_id":76561198308439257,"connected_time":2344000000000,"state":"active","ping":65},{"user_id":447,"name":"Chrikin","steam_id":76561198416301532,"connected_time":844000000000,"state":"active","ping":169},{"user_id":458,"name":"Fridge","steam_id":76561198071665589,"connected_time":33000000000,"state":"active","ping":105},{"user_id":459,"name":"midlpsyzl47","steam_id":76561199475972637,"connected_time":15000000000,"state":"active","ping":74},{"user_id":432,"name":"Francisco","steam_id":76561198074614581,"connected_time":2278000000000,"state":"active","ping":82}]},{"server_id":110,"name":"Uncletopia | Frankfurt | 2 | All Maps","name_short":"frk-2","host":"frk-1.de.uncletopia.com","port":27025,"enabled":true,"region":"eu","cc":"de","latitude":50.110924,"longitude":8.682127,"reserved":0,"last_update":"0001-01-01T00:00:00Z","name_a2s":"Uncletopia | Frankfurt | 2 | All Maps","protocol":17,"map":"pl_borneo","folder":"tf","game":"Team Fortress","app_id":440,"player_count":24,"max_players":24,"Bots":0,"server_type":"Dedicated","server_os":"Linux","password":true,"vac":true,"version":"7757534","steam_id":85568392924469990,"keywords":["nocrits","nodmgspread","payload","uncletopia"],"game_id":440,"stv_port":27026,"stv_name":"Uncletopia | Frankfurt | 2 | All Maps | STV","players":[{"user_id":328,"name":"Dr. Lambda","steam_id":76561198952939545,"connected_time":2635000000000,"state":"active","ping":114},{"user_id":326,"name":"sock","steam_id":76561198211198731,"connected_time":2673000000000,"state":"active","ping":45},{"user_id":363,"name":"Absolute_clamp","steam_id":76561198958563865,"connected_time":750000000000,"state":"active","ping":52},{"user_id":364,"name":"heavy sings (real)","steam_id":76561199023804405,"connected_time":726000000000,"state":"active","ping":77},{"user_id":374,"name":"Dr. Cox","steam_id":76561198246629218,"connected_time":607000000000,"state":"active","ping":81},{"user_id":385,"name":"PAN","steam_id":76561198118671779,"connected_time":122000000000,"state":"active","ping":69},{"user_id":375,"name":"bigwish | bmod.tf","steam_id":76561197997859723,"connected_time":594000000000,"state":"active","ping":74},{"user_id":372,"name":"LivEssense","steam_id":76561198052476979,"connected_time":641000000000,"state":"active","ping":73},{"user_id":382,"name":"DJ Dog Farts","steam_id":76561197988085026,"connected_time":451000000000,"state":"active","ping":60},{"user_id":334,"name":"Kati","steam_id":76561198007231088,"connected_time":2249000000000,"state":"active","ping":62},{"user_id":366,"name":"testiculartorsiontom","steam_id":76561199401705232,"connected_time":684000000000,"state":"active","ping":85},{"user_id":377,"name":"SaltyCupcakes","steam_id":76561198256386417,"connected_time":570000000000,"state":"active","ping":58},{"user_id":354,"name":"Trokmanaoul","steam_id":76561199148272568,"connected_time":1105000000000,"state":"active","ping":95},{"user_id":383,"name":"Dempo","steam_id":76561198309446165,"connected_time":354000000000,"state":"active","ping":102},{"user_id":367,"name":"Farmercy","steam_id":76561198000038039,"connected_time":673000000000,"state":"active","ping":59},{"user_id":338,"name":"nairolf","steam_id":76561198007055352,"connected_time":2172000000000,"state":"active","ping":54},{"user_id":373,"name":"ScaryTree","steam_id":76561199384362833,"connected_time":637000000000,"state":"active","ping":66},{"user_id":378,"name":"Kodutah","steam_id":76561198203405574,"connected_time":559000000000,"state":"active","ping":84},{"user_id":357,"name":"bapab","steam_id":76561198307556377,"connected_time":1058000000000,"state":"active","ping":61},{"user_id":369,"name":"quaking in my jammies","steam_id":76561199117720299,"connected_time":670000000000,"state":"active","ping":60},{"user_id":384,"name":"laser","steam_id":76561198036030697,"connected_time":237000000000,"state":"active","ping":65},{"user_id":370,"name":"SlowMode","steam_id":76561198039631442,"connected_time":664000000000,"state":"active","ping":77},{"user_id":387,"name":"slnc","steam_id":76561198041151496,"connected_time":51000000000,"state":"active","ping":60},{"user_id":381,"name":"AFestiveDude (No Delivery)","steam_id":76561198113246267,"connected_time":492000000000,"state":"active","ping":159}]},{"server_id":308,"name":"Uncletopia | Frankfurt | 3 | All Maps","name_short":"frk-3","host":"frk-1.de.uncletopia.com","port":27035,"enabled":true,"region":"eu","cc":"de","latitude":50.110924,"longitude":8.682127,"reserved":0,"last_update":"0001-01-01T00:00:00Z","name_a2s":"Uncletopia | Frankfurt | 3 | All Maps","protocol":17,"map":"pl_barnblitz","folder":"tf","game":"Team Fortress","app_id":440,"player_count":0,"max_players":24,"Bots":0,"server_type":"Dedicated","server_os":"Linux","password":true,"vac":true,"version":"7757534","steam_id":85568392924504274,"keywords":["nocrits","nodmgspread","payload","uncletopia"],"game_id":440,"stv_port":27036,"stv_name":"Uncletopia | Frankfurt | 3 | All Maps | STV","players":null},{"server_id":309,"name":"Uncletopia | Frankfurt | 4 | All Maps","name_short":"frk-4","host":"frk-1.de.uncletopia.com","port":27045,"enabled":true,"region":"eu","cc":"de","latitude":50.110924,"longitude":8.682127,"reserved":0,"last_update":"0001-01-01T00:00:00Z","name_a2s":"Uncletopia | Frankfurt | 4 | All Maps","protocol":17,"map":"koth_viaduct","folder":"tf","game":"Team Fortress","app_id":440,"player_count":0,"max_players":24,"Bots":0,"server_type":"Dedicated","server_os":"Linux","password":true,"vac":true,"version":"7757534","steam_id":85568392924504275,"keywords":["cp","nocrits","nodmgspread","uncletopia"],"game_id":440,"stv_port":27046,"stv_name":"Uncletopia | Frankfurt | 4 | All Maps | STV","players":null},{"server_id":310,"name":"Uncletopia | Frankfurt | 5 | All Maps","name_short":"frk-5","host":"frk-1.de.uncletopia.com","port":27055,"enabled":true,"region":"eu","cc":"de","latitude":50.110924,"longitude":8.682127,"reserved":0,"last_update":"0001-01-01T00:00:00Z","name_a2s":"Uncletopia | Frankfurt | 5 | All Maps","protocol":17,"map":"cp_sunshine","folder":"tf","game":"Team Fortress","app_id":440,"player_count":16,"max_players":24,"Bots":0,"server_type":"Dedicated","server_os":"Linux","password":true,"vac":true,"version":"7757534","steam_id":85568392924504277,"keywords":["cp","nocrits","nodmgspread","uncletopia"],"game_id":440,"stv_port":27056,"stv_name":"Uncletopia | Frankfurt | 5 | All Maps | STV","players":[{"user_id":291,"name":"JumpedWILLIGER","steam_id":76561199446329955,"connected_time":1955000000000,"state":"active","ping":147},{"user_id":326,"name":"Mr.Dies a lot","steam_id":76561199061602946,"connected_time":19000000000,"state":"active","ping":91},{"user_id":321,"name":"Kaishakunin","steam_id":76561198028123874,"connected_time":927000000000,"state":"active","ping":109},{"user_id":327,"name":"Bumblebee","steam_id":76561198033551105,"connected_time":16000000000,"state":"active","ping":55},{"user_id":274,"name":"Seb, Comrade","steam_id":76561198040279587,"connected_time":3322000000000,"state":"active","ping":98},{"user_id":294,"name":"WonderVaflya","steam_id":76561198077281374,"connected_time":1823000000000,"state":"active","ping":76},{"user_id":313,"name":"Juhkuu","steam_id":76561198079326000,"connected_time":1313000000000,"state":"active","ping":66},{"user_id":319,"name":"KAZAM | Tervez","steam_id":76561198045459068,"connected_time":1149000000000,"state":"active","ping":80},{"user_id":305,"name":"max","steam_id":76561198059206184,"connected_time":1428000000000,"state":"active","ping":46},{"user_id":287,"name":"HarMala","steam_id":76561198055298143,"connected_time":2328000000000,"state":"active","ping":67},{"user_id":322,"name":"Mr. Hunts","steam_id":76561197981910397,"connected_time":887000000000,"state":"active","ping":62},{"user_id":310,"name":"all mute","steam_id":76561198105739516,"connected_time":1353000000000,"state":"active","ping":32},{"user_id":311,"name":"gagalak","steam_id":76561198089979108,"connected_time":1328000000000,"state":"active","ping":89},{"user_id":315,"name":"Dictatorial Karelian","steam_id":76561198196736457,"connected_time":1275000000000,"state":"active","ping":80},{"user_id":317,"name":"Definitely not Ray","steam_id":76561197991390018,"connected_time":1230000000000,"state":"active","ping":47},{"user_id":318,"name":"Nope","steam_id":76561198069066522,"connected_time":1191000000000,"state":"active","ping":74}]},{"server_id":311,"name":"Uncletopia | Frankfurt | 6 | All Maps","name_short":"frk-6","host":"frk-1.de.uncletopia.com","port":27065,"enabled":true,"region":"eu","cc":"de","latitude":50.110924,"longitude":8.682127,"reserved":0,"last_update":"0001-01-01T00:00:00Z","name_a2s":"Uncletopia | Frankfurt | 6 | All Maps","protocol":17,"map":"plr_hightower","folder":"tf","game":"Team Fortress","app_id":440,"player_count":21,"max_players":24,"Bots":0,"server_type":"Dedicated","server_os":"Linux","password":true,"vac":true,"version":"7757534","steam_id":85568392924504278,"keywords":["nocrits","nodmgspread","payload","uncletopia"],"game_id":440,"stv_port":27066,"stv_name":"Uncletopia | Frankfurt | 6 | All Maps | STV","players":[{"user_id":331,"name":"Pilaarius","steam_id":76561198120273212,"connected_time":673000000000,"state":"active","ping":97},{"user_id":335,"name":"bricked","steam_id":76561198123562445,"connected_time":566000000000,"state":"active","ping":46},{"user_id":332,"name":"logan9544658","steam_id":76561199249408756,"connected_time":672000000000,"state":"active","ping":184},{"user_id":344,"name":"ArikMor","steam_id":76561199124472513,"connected_time":149000000000,"state":"active","ping":126},{"user_id":330,"name":"FancyFrog","steam_id":76561198302791773,"connected_time":716000000000,"state":"active","ping":190},{"user_id":325,"name":"DenIlly","steam_id":76561198303738931,"connected_time":908000000000,"state":"active","ping":55},{"user_id":326,"name":"sHIFTINGvORTEX","steam_id":76561198231648332,"connected_time":856000000000,"state":"active","ping":72},{"user_id":347,"name":"hasansaeedifar","steam_id":76561198974563618,"connected_time":21000000000,"state":"active","ping":186},{"user_id":334,"name":"xavier","steam_id":76561198076494034,"connected_time":637000000000,"state":"active","ping":51},{"user_id":329,"name":"PerskuleBenener","steam_id":76561198156899375,"connected_time":750000000000,"state":"active","ping":80},{"user_id":337,"name":"Enigmus","steam_id":76561197994063627,"connected_time":507000000000,"state":"active","ping":75},{"user_id":280,"name":"shadow39344","steam_id":76561198090639618,"connected_time":3894000000000,"state":"active","ping":65},{"user_id":338,"name":"pan","steam_id":76561198829879412,"connected_time":433000000000,"state":"active","ping":56},{"user_id":348,"name":"Economic crisis","steam_id":76561198063562843,"connected_time":13000000000,"state":"spawning","ping":53},{"user_id":340,"name":"the boston basher ;)","steam_id":76561199275094693,"connected_time":249000000000,"state":"active","ping":141},{"user_id":341,"name":"Malik794","steam_id":76561198967164437,"connected_time":199000000000,"state":"active","ping":94},{"user_id":342,"name":"Jonkheervanflep","steam_id":76561198006853101,"connected_time":193000000000,"state":"active","ping":85},{"user_id":343,"name":"F","steam_id":76561199149462792,"connected_time":177000000000,"state":"active","ping":69},{"user_id":304,"name":"a dollop of bird","steam_id":76561198089003514,"connected_time":2168000000000,"state":"active","ping":44},{"user_id":346,"name":"Rogue Biscuit","steam_id":76561198086447685,"connected_time":59000000000,"state":"active","ping":114},{"user_id":349,"name":"St√ºmpy","steam_id":76561198255904077,"connected_time":0,"state":"spawning","ping":29}]},{"server_id":23,"name":"Uncletopia | Frankfurt | 7 | Stopwatch Beta","name_short":"frk-7","host":"frk-1.de.uncletopia.com","port":27075,"enabled":true,"region":"eu","cc":"de","latitude":50.110924,"longitude":8.682127,"reserved":0,"last_update":"0001-01-01T00:00:00Z","name_a2s":"Uncletopia | Frankfurt | 7 | Stopwatch Beta","protocol":17,"map":"koth_lakeside_final","folder":"tf","game":"Team Fortress","app_id":440,"player_count":0,"max_players":24,"Bots":0,"server_type":"Dedicated","server_os":"Linux","password":true,"vac":true,"version":"7757534","steam_id":85568392924742827,"keywords":["cp","nocrits","nodmgspread","uncletopia"],"game_id":440,"stv_port":27076,"stv_name":"Uncletopia | Frankfurt | 7 | Stopwatch Beta | STV","players":null},{"server_id":24,"name":"Uncletopia | Frankfurt | 8 | Community","name_short":"frk-8","host":"frk-1.de.uncletopia.com","port":27085,"enabled":true,"region":"eu","cc":"de","latitude":50.110924,"longitude":8.682127,"reserved":0,"last_update":"0001-01-01T00:00:00Z","name_a2s":"Uncletopia | Frankfurt | 8 | Community","protocol":17,"map":"workshop/cp_caldera_rc2.ugc2834196889","folder":"tf","game":"Team Fortress","app_id":440,"player_count":0,"max_players":24,"Bots":0,"server_type":"Dedicated","server_os":"Linux","password":true,"vac":true,"version":"7757534","steam_id":85568392924742828,"keywords":["cp","nocrits","nodmgspread","uncletopia"],"game_id":440,"stv_port":27086,"stv_name":"Uncletopia | Frankfurt | 8 | Community | STV","players":null},{"server_id":202,"name":"Uncletopia | Hong Kong | 1 | All Maps","name_short":"hgk-1","host":"hgk-1.hk.uncletopia.com","port":27015,"enabled":true,"region":"asia","cc":"hk","latitude":22.302711,"longitude":114.177216,"reserved":0,"last_update":"0001-01-01T00:00:00Z","name_a2s":"Uncletopia | Hong Kong | 1 | All Maps","protocol":17,"map":"koth_lakeside_final","folder":"tf","game":"Team Fortress","app_id":440,"player_count":0,"max_players":24,"Bots":0,"server_type":"Dedicated","server_os":"Linux","password":true,"vac":true,"version":"7757534","steam_id":85568392924494504,"keywords":["cp","nocrits","nodmgspread","uncletopia"],"game_id":440,"stv_port":27016,"stv_name":"Uncletopia | Hong Kong | 1 | All Maps | STV","players":null},{"server_id":1,"name":"Uncletopia | Los Angeles | 1 | All Maps","name_short":"lax-1","host":"lax-1.us.uncletopia.com","port":27015,"enabled":true,"region":"us-west","cc":"us","latitude":33.94279,"longitude":-118.41004,"reserved":0,"last_update":"0001-01-01T00:00:00Z","name_a2s":"Uncletopia | Los Angeles | 1 | All Maps","protocol":17,"map":"koth_lakeside_final","folder":"tf","game":"Team Fortress","app_id":440,"player_count":0,"max_players":24,"Bots":0,"server_type":"Dedicated","server_os":"Linux","password":true,"vac":true,"version":"7757534","steam_id":85568392924469991,"keywords":["cp","nocrits","nodmgspread","uncletopia"],"game_id":440,"stv_port":27016,"stv_name":"Uncletopia | Los Angeles | 1 | All Maps | STV","players":null},{"server_id":112,"name":"Uncletopia | Los Angeles | 2 | All Maps","name_short":"lax-2","host":"lax-1.us.uncletopia.com","port":27025,"enabled":true,"region":"us-west","cc":"us","latitude":33.94279,"longitude":-118.41004,"reserved":0,"last_update":"0001-01-01T00:00:00Z","name_a2s":"Uncletopia | Los Angeles | 2 | All Maps","protocol":17,"map":"cp_snakewater_final1","folder":"tf","game":"Team Fortress","app_id":440,"player_count":0,"max_players":24,"Bots":0,"server_type":"Dedicated","server_os":"Linux","password":true,"vac":true,"version":"7757534","steam_id":85568392924469992,"keywords":["cp","nocrits","nodmgspread","uncletopia"],"game_id":440,"stv_port":27026,"stv_name":"Uncletopia | Los Angeles | 2 | All Maps | STV","players":null},{"server_id":324,"name":"Uncletopia | Los Angeles | 3 | All Maps","name_short":"lax-3","host":"lax-1.us.uncletopia.com","port":27035,"enabled":true,"region":"us-west","cc":"us","latitude":33.94279,"longitude":-118.41004,"reserved":0,"last_update":"0001-01-01T00:00:00Z","name_a2s":"Uncletopia | Los Angeles | 3 | All Maps","protocol":17,"map":"pl_barnblitz","folder":"tf","game":"Team Fortress","app_id":440,"player_count":0,"max_players":24,"Bots":0,"server_type":"Dedicated","server_os":"Linux","password":true,"vac":true,"version":"7757534","steam_id":85568392924510198,"keywords":["nocrits","nodmgspread","payload","uncletopia"],"game_id":440,"stv_port":27036,"stv_name":"Uncletopia | Los Angeles | 3 | All Maps | STV","players":null},{"server_id":25,"name":"Uncletopia | Los Angeles | 4 | Stopwatch Beta","name_short":"lax-4","host":"lax-1.us.uncletopia.com","port":27045,"enabled":true,"region":"us-west","cc":"us","latitude":33.94279,"longitude":-118.41004,"reserved":0,"last_update":"0001-01-01T00:00:00Z","name_a2s":"Uncletopia | Los Angeles | 4 | Stopwatch Beta","protocol":17,"map":"pl_swiftwater_final1","folder":"tf","game":"Team Fortress","app_id":440,"player_count":0,"max_players":24,"Bots":0,"server_type":"Dedicated","server_os":"Linux","password":true,"vac":true,"version":"7757534","steam_id":85568392924510199,"keywords":["nocrits","nodmgspread","payload","uncletopia"],"game_id":440,"stv_port":27046,"stv_name":"Uncletopia | Los Angeles | 4 | Stopwatch Beta | STV","players":null},{"server_id":11,"name":"Uncletopia | London | 1 | All Maps","name_short":"lon-1","host":"lon-1.uk.uncletopia.com","port":27015,"enabled":true,"region":"eu","cc":"gb","latitude":51.509865,"longitude":-0.118092,"reserved":0,"last_update":"0001-01-01T00:00:00Z","name_a2s":"Uncletopia | London | 1 | All Maps","protocol":17,"map":"cp_sunshine","folder":"tf","game":"Team Fortress","app_id":440,"player_count":24,"max_players":24,"Bots":0,"server_type":"Dedicated","server_os":"Linux","password":true,"vac":true,"version":"7757534","steam_id":85568392924367362,"keywords":["cp","nocrits","nodmgspread","uncletopia"],"game_id":440,"stv_port":27016,"stv_name":"Uncletopia | London | 1 | All Maps | STV","players":[{"user_id":258,"name":"beebo","steam_id":76561199120277007,"connected_time":6657000000000,"state":"active","ping":58},{"user_id":287,"name":"Fwebbie","steam_id":76561199006875621,"connected_time":4261000000000,"state":"active","ping":74},{"user_id":303,"name":"Milosz52","steam_id":76561199060940204,"connected_time":1567000000000,"state":"active","ping":91},{"user_id":308,"name":"Shyrem","steam_id":76561198409094815,"connected_time":379000000000,"state":"active","ping":58},{"user_id":296,"name":"Son Goku","steam_id":76561199383437138,"connected_time":2046000000000,"state":"active","ping":128},{"user_id":270,"name":"emmyyyyyyyyy","steam_id":76561198066298422,"connected_time":5646000000000,"state":"active","ping":81},{"user_id":305,"name":"Anonymous47007","steam_id":76561199005211417,"connected_time":448000000000,"state":"active","ping":79},{"user_id":289,"name":"a","steam_id":76561198063093802,"connected_time":3317000000000,"state":"active","ping":38},{"user_id":292,"name":"meow (they/them)","steam_id":76561198416657815,"connected_time":3014000000000,"state":"active","ping":89},{"user_id":283,"name":"I-I","steam_id":76561198267969436,"connected_time":5018000000000,"state":"active","ping":71},{"user_id":306,"name":"cherry powder","steam_id":76561199006915718,"connected_time":412000000000,"state":"active","ping":59},{"user_id":291,"name":"goff","steam_id":76561198118989010,"connected_time":3244000000000,"state":"active","ping":46},{"user_id":307,"name":"Magirby","steam_id":76561198818777390,"connected_time":395000000000,"state":"active","ping":109},{"user_id":298,"name":"CalzoneCarl456","steam_id":76561198846982793,"connected_time":1905000000000,"state":"active","ping":43},{"user_id":304,"name":"Christmas Ham","steam_id":76561198119601623,"connected_time":460000000000,"state":"active","ping":48},{"user_id":309,"name":"AAAAAAAAAAAAA","steam_id":76561198018826108,"connected_time":346000000000,"state":"active","ping":90},{"user_id":272,"name":"regimiro","steam_id":76561198120457008,"connected_time":5364000000000,"state":"active","ping":53},{"user_id":263,"name":"Depressed","steam_id":76561198154405093,"connected_time":6561000000000,"state":"active","ping":86},{"user_id":311,"name":"StyxTheQueer","steam_id":76561199472006568,"connected_time":304000000000,"state":"active","ping":133},{"user_id":300,"name":"vi","steam_id":76561198303147966,"connected_time":1904000000000,"state":"active","ping":37},{"user_id":226,"name":"whimsy.","steam_id":76561198878171763,"connected_time":10486000000000,"state":"active","ping":56},{"user_id":276,"name":"dochris.2","steam_id":76561198026478625,"connected_time":5332000000000,"state":"active","ping":59},{"user_id":278,"name":"sareena","steam_id":76561198810194062,"connected_time":5304000000000,"state":"active","ping":70},{"user_id":314,"name":"Hermitcrack","steam_id":76561198149216441,"connected_time":101000000000,"state":"active","ping":75}]},{"server_id":114,"name":"Uncletopia | London | 2 | All Maps","name_short":"lon-2","host":"lon-1.uk.uncletopia.com","port":27025,"enabled":true,"region":"eu","cc":"gb","latitude":51.509865,"longitude":-0.118092,"reserved":0,"last_update":"0001-01-01T00:00:00Z","name_a2s":"Uncletopia | London | 2 | All Maps","protocol":17,"map":"cp_dustbowl","folder":"tf","game":"Team Fortress","app_id":440,"player_count":0,"max_players":24,"Bots":0,"server_type":"Dedicated","server_os":"Linux","password":true,"vac":true,"version":"7757534","steam_id":85568392924470941,"keywords":["cp","nocrits","nodmgspread","uncletopia"],"game_id":440,"stv_port":27026,"stv_name":"Uncletopia | London | 2 | All Maps | STV","players":null},{"server_id":320,"name":"Uncletopia | London | 3 | All Maps","name_short":"lon-3","host":"lon-1.uk.uncletopia.com","port":27035,"enabled":true,"region":"eu","cc":"gb","latitude":51.509865,"longitude":-0.118092,"reserved":0,"last_update":"0001-01-01T00:00:00Z","name_a2s":"Uncletopia | London | 3 | All Maps","protocol":17,"map":"pl_swiftwater_final1","folder":"tf","game":"Team Fortress","app_id":440,"player_count":24,"max_players":24,"Bots":0,"server_type":"Dedicated","server_os":"Linux","password":true,"vac":true,"version":"7757534","steam_id":85568392924510192,"keywords":["nocrits","nodmgspread","payload","uncletopia"],"game_id":440,"stv_port":27036,"stv_name":"Uncletopia | London | 3 | All Maps | STV","players":[{"user_id":17,"name":"Striker","steam_id":76561198100173021,"connected_time":4132000000000,"state":"active","ping":60},{"user_id":19,"name":"Nemium","steam_id":76561198070757635,"connected_time":4053000000000,"state":"active","ping":66},{"user_id":60,"name":"Andy","steam_id":76561198136364381,"connected_time":869000000000,"state":"active","ping":69},{"user_id":21,"name":"Engi-Nearing","steam_id":76561199221172552,"connected_time":3637000000000,"state":"active","ping":61},{"user_id":63,"name":"Relix18144","steam_id":76561199202454318,"connected_time":445000000000,"state":"active","ping":75},{"user_id":23,"name":"Nassu","steam_id":76561198147367577,"connected_time":3442000000000,"state":"active","ping":161},{"user_id":59,"name":"Jaxonus, Lizard Supremacist","steam_id":76561198043845690,"connected_time":904000000000,"state":"active","ping":76},{"user_id":66,"name":"–ñ–æ–ø—É? –ù–µ –≤—ã—Ç–µ—Ä.","steam_id":76561198011725791,"connected_time":344000000000,"state":"active","ping":111},{"user_id":33,"name":"SaphriX","steam_id":76561198092239262,"connected_time":2005000000000,"state":"active","ping":51},{"user_id":68,"name":"FUKTARD2005","steam_id":76561198839121591,"connected_time":205000000000,"state":"active","ping":63},{"user_id":36,"name":"ja","steam_id":76561199228540618,"connected_time":1780000000000,"state":"active","ping":88},{"user_id":64,"name":"Halapatra","steam_id":76561199004923871,"connected_time":409000000000,"state":"active","ping":101},{"user_id":62,"name":"Dr.Sees [F2P]","steam_id":76561199219233587,"connected_time":767000000000,"state":"active","ping":77},{"user_id":69,"name":"CerealKiller154","steam_id":76561198831177630,"connected_time":166000000000,"state":"active","ping":99},{"user_id":40,"name":"kyuta","steam_id":76561198382281653,"connected_time":1618000000000,"state":"active","ping":87},{"user_id":58,"name":"SwayerDaGirlyEmo\u003c3","steam_id":76561198880760056,"connected_time":952000000000,"state":"active","ping":57},{"user_id":42,"name":"Cornelius Shacklebart","steam_id":76561198000735878,"connected_time":1588000000000,"state":"active","ping":60},{"user_id":43,"name":"Windows 95 Soda Can","steam_id":76561198378357559,"connected_time":1588000000000,"state":"active","ping":41},{"user_id":70,"name":"Cotton Eye Joe","steam_id":76561198080594207,"connected_time":65000000000,"state":"spawning","ping":61},{"user_id":53,"name":"Crazy Bath Salt Sniffer","steam_id":76561199147501514,"connected_time":1146000000000,"state":"active","ping":69},{"user_id":46,"name":"a Regurar Barroon","steam_id":76561198834913692,"connected_time":1554000000000,"state":"active","ping":77},{"user_id":47,"name":"Comfy Monkey","steam_id":76561197998434936,"connected_time":1543000000000,"state":"active","ping":116},{"user_id":67,"name":"2BCD","steam_id":76561198178254946,"connected_time":302000000000,"state":"active","ping":74},{"user_id":49,"name":"night.s","steam_id":76561198326287823,"connected_time":1536000000000,"state":"active","ping":71}]},{"server_id":321,"name":"Uncletopia | London | 4 | All Maps","name_short":"lon-4","host":"lon-1.uk.uncletopia.com","port":27045,"enabled":true,"region":"eu","cc":"gb","latitude":51.509865,"longitude":-0.118092,"reserved":0,"last_update":"0001-01-01T00:00:00Z","name_a2s":"Uncletopia | London | 4 | All Maps","protocol":17,"map":"pl_badwater","folder":"tf","game":"Team Fortress","app_id":440,"player_count":24,"max_players":24,"Bots":0,"server_type":"Dedicated","server_os":"Linux","password":true,"vac":true,"version":"7757534","steam_id":85568392924510193,"keywords":["nocrits","nodmgspread","payload","uncletopia"],"game_id":440,"stv_port":27046,"stv_name":"Uncletopia | London | 4 | All Maps | STV","players":[{"user_id":324,"name":"AreDaneel","steam_id":76561198204560201,"connected_time":423000000000,"state":"active","ping":147},{"user_id":330,"name":"Battery Acid Drinker","steam_id":76561198871136698,"connected_time":102000000000,"state":"active","ping":43},{"user_id":298,"name":"Koko","steam_id":76561199227724794,"connected_time":1649000000000,"state":"active","ping":159},{"user_id":275,"name":"Itai","steam_id":76561198804555329,"connected_time":2265000000000,"state":"active","ping":102},{"user_id":299,"name":"JustACoomer","steam_id":76561198151433181,"connected_time":1647000000000,"state":"active","ping":68},{"user_id":305,"name":"ProfessionalismTrash","steam_id":76561198154987376,"connected_time":1477000000000,"state":"active","ping":65},{"user_id":313,"name":"Yusa","steam_id":76561199479777554,"connected_time":1069000000000,"state":"active","ping":188},{"user_id":303,"name":"steve","steam_id":76561198335143890,"connected_time":1544000000000,"state":"active","ping":58},{"user_id":283,"name":"British Disapproval","steam_id":76561198001375260,"connected_time":2136000000000,"state":"active","ping":56},{"user_id":278,"name":"Skuld","steam_id":76561198064734905,"connected_time":2237000000000,"state":"active","ping":93},{"user_id":329,"name":"The Coom Assassin","steam_id":76561198437070985,"connected_time":322000000000,"state":"active","ping":51},{"user_id":322,"name":"Tekky","steam_id":76561197990987315,"connected_time":548000000000,"state":"active","ping":38},{"user_id":291,"name":"369","steam_id":76561198149967445,"connected_time":1867000000000,"state":"active","ping":29},{"user_id":294,"name":"Grillem Dafoe","steam_id":76561198306874574,"connected_time":1722000000000,"state":"active","ping":65},{"user_id":304,"name":"whyamialive","steam_id":76561199070008862,"connected_time":1511000000000,"state":"active","ping":41},{"user_id":331,"name":"Sir Skyber","steam_id":76561198064440004,"connected_time":66000000000,"state":"active","ping":99},{"user_id":318,"name":"TheTrashMann","steam_id":76561199174242639,"connected_time":786000000000,"state":"active","ping":161},{"user_id":264,"name":"Vashontrash99","steam_id":76561199250946319,"connected_time":3506000000000,"state":"active","ping":122},{"user_id":307,"name":"twitch.tv/vision515","steam_id":76561198065293729,"connected_time":1409000000000,"state":"active","ping":162},{"user_id":225,"name":"EZPK","steam_id":76561197987474355,"connected_time":5478000000000,"state":"active","ping":69},{"user_id":323,"name":"Xemson","steam_id":76561198394470244,"connected_time":517000000000,"state":"active","ping":87},{"user_id":327,"name":"Bigguysal","steam_id":76561198171204223,"connected_time":385000000000,"state":"active","ping":66},{"user_id":328,"name":"MadVillain2004","steam_id":76561199371402051,"connected_time":344000000000,"state":"active","ping":59},{"user_id":295,"name":"somehow danced","steam_id":76561198128250460,"connected_time":1722000000000,"state":"active","ping":110}]},{"server_id":21,"name":"Uncletopia | London | 5 | All Maps","name_short":"lon-5","host":"lon-1.uk.uncletopia.com","port":27055,"enabled":true,"region":"eu","cc":"gb","latitude":51.509865,"longitude":-0.118092,"reserved":0,"last_update":"0001-01-01T00:00:00Z","name_a2s":"Uncletopia | London | 5 | All Maps","protocol":17,"map":"pl_upward","folder":"tf","game":"Team Fortress","app_id":440,"player_count":24,"max_players":24,"Bots":0,"server_type":"Dedicated","server_os":"Linux","password":true,"vac":true,"version":"7757534","steam_id":85568392924742829,"keywords":["nocrits","nodmgspread","payload","uncletopia"],"game_id":440,"stv_port":27056,"stv_name":"Uncletopia | London | 5 | All Maps | STV","players":[{"user_id":82,"name":"Nope.avi","steam_id":76561198396687651,"connected_time":3788000000000,"state":"active","ping":90},{"user_id":116,"name":"Walle","steam_id":76561197995148937,"connected_time":649000000000,"state":"active","ping":76},{"user_id":109,"name":"Johan","steam_id":76561199380849468,"connected_time":1078000000000,"state":"active","ping":63},{"user_id":88,"name":"Sunshine","steam_id":76561198885528098,"connected_time":3188000000000,"state":"active","ping":119},{"user_id":119,"name":"bob","steam_id":76561198424363858,"connected_time":445000000000,"state":"active","ping":74},{"user_id":122,"name":"Per√§miehen√§","steam_id":76561197968945306,"connected_time":259000000000,"state":"active","ping":74},{"user_id":42,"name":"DrExplosive","steam_id":76561198063678579,"connected_time":6462000000000,"state":"active","ping":45},{"user_id":16,"name":"Nyhde","steam_id":76561198012771416,"connected_time":7481000000000,"state":"active","ping":98},{"user_id":118,"name":"I AM DOT","steam_id":76561198354118090,"connected_time":563000000000,"state":"active","ping":85},{"user_id":111,"name":"8 Ball","steam_id":76561197960988736,"connected_time":1055000000000,"state":"active","ping":49},{"user_id":107,"name":"Yuzu","steam_id":76561198121694613,"connected_time":1255000000000,"state":"active","ping":47},{"user_id":112,"name":"K","steam_id":76561198062330245,"connected_time":1053000000000,"state":"active","ping":42},{"user_id":46,"name":"‚úßTori Roach","steam_id":76561198170599306,"connected_time":6346000000000,"state":"active","ping":126},{"user_id":117,"name":"WHUSSKEY","steam_id":76561198137827441,"connected_time":614000000000,"state":"active","ping":71},{"user_id":102,"name":"wtabs","steam_id":76561198831766743,"connected_time":1827000000000,"state":"active","ping":75},{"user_id":121,"name":"panakid","steam_id":76561198364121077,"connected_time":335000000000,"state":"active","ping":105},{"user_id":63,"name":"Smurph","steam_id":76561197996539360,"connected_time":5495000000000,"state":"active","ping":87},{"user_id":31,"name":"Wardruna96","steam_id":76561199057083828,"connected_time":6818000000000,"state":"active","ping":79},{"user_id":75,"name":"Eggcracker","steam_id":76561199274850641,"connected_time":4829000000000,"state":"active","ping":94},{"user_id":79,"name":"Mr. Mietsch","steam_id":76561198077516818,"connected_time":3979000000000,"state":"active","ping":57},{"user_id":104,"name":"Portals","steam_id":76561198907913893,"connected_time":1780000000000,"state":"active","ping":133},{"user_id":115,"name":"Kaek","steam_id":76561197960283484,"connected_time":976000000000,"state":"active","ping":71},{"user_id":105,"name":"Storm's Foreshadow","steam_id":76561198098462526,"connected_time":1777000000000,"state":"active","ping":75},{"user_id":113,"name":"beheading video from 2009","steam_id":76561198834897089,"connected_time":1005000000000,"state":"active","ping":73}]},{"server_id":22,"name":"Uncletopia | London | 6 | All Maps","name_short":"lon-6","host":"lon-1.uk.uncletopia.com","port":27065,"enabled":true,"region":"eu","cc":"gb","latitude":51.509865,"longitude":-0.118092,"reserved":0,"last_update":"0001-01-01T00:00:00Z","name_a2s":"Uncletopia | London | 6 | All Maps","protocol":17,"map":"pl_badwater","folder":"tf","game":"Team Fortress","app_id":440,"player_count":0,"max_players":24,"Bots":0,"server_type":"Dedicated","server_os":"Linux","password":true,"vac":true,"version":"7757534","steam_id":85568392924742830,"keywords":["nocrits","nodmgspread","payload","uncletopia"],"game_id":440,"stv_port":27066,"stv_name":"Uncletopia | London | 6 | All Maps | STV","players":null},{"server_id":40,"name":"Uncletopia | London | 7 | No Payload","name_short":"lon-7","host":"lon-1.uk.uncletopia.com","port":27075,"enabled":true,"region":"eu","cc":"gb","latitude":51.509865,"longitude":-0.118092,"reserved":0,"last_update":"0001-01-01T00:00:00Z","name_a2s":"Uncletopia | London | 7 | No Payload","protocol":17,"map":"ctf_doublecross","folder":"tf","game":"Team Fortress","app_id":440,"player_count":0,"max_players":24,"Bots":0,"server_type":"Dedicated","server_os":"Linux","password":true,"vac":true,"version":"7757534","steam_id":85568392924964314,"keywords":["ctf","nocrits","nodmgspread","uncletopia"],"game_id":440,"stv_port":27076,"stv_name":"Uncletopia | London | 7 | No Payload | STV","players":null},{"server_id":41,"name":"Uncletopia | London | 8 | Community","name_short":"lon-8","host":"lon-1.uk.uncletopia.com","port":27085,"enabled":true,"region":"eu","cc":"gb","latitude":51.509865,"longitude":-0.118092,"reserved":0,"last_update":"0001-01-01T00:00:00Z","name_a2s":"Uncletopia | London | 8 | Community","protocol":17,"map":"workshop/pl_cactuscanyon_redux_final2.ugc2579644293","folder":"tf","game":"Team Fortress","app_id":440,"player_count":23,"max_players":24,"Bots":0,"server_type":"Dedicated","server_os":"Linux","password":true,"vac":true,"version":"7757534","steam_id":85568392924964315,"keywords":["nocrits","nodmgspread","payload","uncletopia"],"game_id":440,"stv_port":27086,"stv_name":"Uncletopia | London | 8 | Community | STV","players":[{"user_id":148,"name":"Mr. Luigi","steam_id":76561198167312951,"connected_time":44000000000,"state":"spawning","ping":202},{"user_id":15,"name":"Space","steam_id":76561198021572167,"connected_time":7265000000000,"state":"active","ping":45},{"user_id":16,"name":"Birdseye","steam_id":76561198025852216,"connected_time":7242000000000,"state":"active","ping":45},{"user_id":128,"name":"Dr. Funkenstein","steam_id":76561197977816210,"connected_time":920000000000,"state":"active","ping":72},{"user_id":150,"name":"wouris","steam_id":76561198876188003,"connected_time":3000000000,"state":"spawning","ping":73},{"user_id":135,"name":"two tonne menace of al mazrah","steam_id":76561198013232647,"connected_time":765000000000,"state":"active","ping":75},{"user_id":142,"name":"jm","steam_id":76561197996774870,"connected_time":374000000000,"state":"active","ping":123},{"user_id":10,"name":"Irbynx","steam_id":76561197980421195,"connected_time":7528000000000,"state":"active","ping":87},{"user_id":74,"name":"Spycrab101","steam_id":76561198141836805,"connected_time":4040000000000,"state":"active","ping":46},{"user_id":149,"name":"Even R√º√ºd","steam_id":76561197981144291,"connected_time":35000000000,"state":"active","ping":67},{"user_id":121,"name":"truebosnianking","steam_id":76561199440060597,"connected_time":1041000000000,"state":"active","ping":85},{"user_id":112,"name":"Jonathan","steam_id":76561198087988880,"connected_time":1519000000000,"state":"active","ping":56},{"user_id":143,"name":"FunnyCool","steam_id":76561198029843142,"connected_time":374000000000,"state":"active","ping":53},{"user_id":138,"name":"*Monkey Noises*","steam_id":76561198136529691,"connected_time":588000000000,"state":"active","ping":36},{"user_id":129,"name":"Ach Wheesht","steam_id":76561197996993222,"connected_time":918000000000,"state":"active","ping":46},{"user_id":92,"name":"Chill Spirit","steam_id":76561198845001725,"connected_time":2767000000000,"state":"active","ping":59},{"user_id":139,"name":"Cypher","steam_id":76561197996967254,"connected_time":588000000000,"state":"active","ping":65},{"user_id":85,"name":"sape","steam_id":76561198089322416,"connected_time":2968000000000,"state":"active","ping":96},{"user_id":93,"name":"randompixel","steam_id":76561198003941207,"connected_time":2762000000000,"state":"active","ping":64},{"user_id":109,"name":"saltin","steam_id":76561198018440443,"connected_time":1661000000000,"state":"active","ping":90},{"user_id":136,"name":"Not_Douglas","steam_id":76561199024184136,"connected_time":691000000000,"state":"active","ping":139},{"user_id":144,"name":"Artur ‚òª","steam_id":76561198264297604,"connected_time":273000000000,"state":"active","ping":78},{"user_id":147,"name":"Chris","steam_id":76561198018626828,"connected_time":218000000000,"state":"active","ping":49}]},{"server_id":300,"name":"Uncletopia | Montr√©al | 1 | All Maps","name_short":"mtl-1","host":"mtl-1.ca.uncletopia.com","port":27015,"enabled":true,"region":"us-east","cc":"ca","latitude":45.50889,"longitude":-73.56167,"reserved":0,"last_update":"0001-01-01T00:00:00Z","name_a2s":"Uncletopia | Montr√©al | 1 | All Maps","protocol":17,"map":"pl_upward","folder":"tf","game":"Team Fortress","app_id":440,"player_count":2,"max_players":24,"Bots":0,"server_type":"Dedicated","server_os":"Linux","password":true,"vac":true,"version":"7757534","steam_id":85568392924500087,"keywords":["nocrits","nodmgspread","payload","uncletopia"],"game_id":440,"stv_port":27016,"stv_name":"Uncletopia | Montr√©al | 1 | All Maps | STV","players":[{"user_id":7,"name":"The Rat King","steam_id":76561198913754180,"connected_time":821000000000,"state":"active","ping":59},{"user_id":10,"name":"Cybertruck","steam_id":76561197993623674,"connected_time":492000000000,"state":"active","ping":86}]},{"server_id":301,"name":"Uncletopia | Montr√©al | 2 | All Maps","name_short":"mtl-2","host":"mtl-1.ca.uncletopia.com","port":27025,"enabled":true,"region":"us-east","cc":"ca","latitude":45.50889,"longitude":-73.56167,"reserved":0,"last_update":"0001-01-01T00:00:00Z","name_a2s":"Uncletopia | Montr√©al | 2 | All Maps","protocol":17,"map":"pl_snowycoast","folder":"tf","game":"Team Fortress","app_id":440,"player_count":0,"max_players":24,"Bots":0,"server_type":"Dedicated","server_os":"Linux","password":true,"vac":true,"version":"7757534","steam_id":85568392924500088,"keywords":["nocrits","nodmgspread","payload","uncletopia"],"game_id":440,"stv_port":27026,"stv_name":"Uncletopia | Montr√©al | 2 | All Maps | STV","players":null},{"server_id":302,"name":"Uncletopia | Montr√©al | 3 | All Maps","name_short":"mtl-3","host":"mtl-1.ca.uncletopia.com","port":27035,"enabled":true,"region":"us-east","cc":"ca","latitude":45.50889,"longitude":-73.56167,"reserved":0,"last_update":"0001-01-01T00:00:00Z","name_a2s":"Uncletopia | Montr√©al | 3 | All Maps","protocol":17,"map":"pl_swiftwater_final1","folder":"tf","game":"Team Fortress","app_id":440,"player_count":0,"max_players":24,"Bots":0,"server_type":"Dedicated","server_os":"Linux","password":true,"vac":true,"version":"7757534","steam_id":85568392924500089,"keywords":["nocrits","nodmgspread","payload","uncletopia"],"game_id":440,"stv_port":27036,"stv_name":"Uncletopia | Montr√©al | 3 | All Maps | STV","players":null},{"server_id":303,"name":"Uncletopia | Montr√©al | 4 | No Payload","name_short":"mtl-4","host":"mtl-1.ca.uncletopia.com","port":27045,"enabled":true,"region":"us-east","cc":"ca","latitude":45.50889,"longitude":-73.56167,"reserved":0,"last_update":"0001-01-01T00:00:00Z","name_a2s":"Uncletopia | Montr√©al | 4 | No Payload","protocol":17,"map":"pl_pier","folder":"tf","game":"Team Fortress","app_id":440,"player_count":0,"max_players":24,"Bots":0,"server_type":"Dedicated","server_os":"Linux","password":true,"vac":true,"version":"7757534","steam_id":85568392924500090,"keywords":["nocrits","nodmgspread","payload","uncletopia"],"game_id":440,"stv_port":27046,"stv_name":"Uncletopia | Montr√©al | 4 | No Payload | STV","players":null},{"server_id":13,"name":"Uncletopia | New York City | 1 | All Maps","name_short":"nyc-1","host":"nyc-1.us.uncletopia.com","port":27015,"enabled":true,"region":"us-east","cc":"us","latitude":40.73061,"longitude":-73.93524,"reserved":0,"last_update":"0001-01-01T00:00:00Z","name_a2s":"Uncletopia | New York City | 1 | All Maps","protocol":17,"map":"koth_viaduct","folder":"tf","game":"Team Fortress","app_id":440,"player_count":0,"max_players":24,"Bots":0,"server_type":"Dedicated","server_os":"Linux","password":true,"vac":true,"version":"7757534","steam_id":85568392924469993,"keywords":["cp","nocrits","nodmgspread","uncletopia"],"game_id":440,"stv_port":27016,"stv_name":"Uncletopia | New York City | 1 | All Maps | STV","players":null},{"server_id":14,"name":"Uncletopia | New York City | 2 | All Maps","name_short":"nyc-2","host":"nyc-1.us.uncletopia.com","port":27025,"enabled":true,"region":"us-east","cc":"us","latitude":40.73061,"longitude":-73.93524,"reserved":0,"last_update":"0001-01-01T00:00:00Z","name_a2s":"Uncletopia | New York City | 2 | All Maps","protocol":17,"map":"pl_badwater","folder":"tf","game":"Team Fortress","app_id":440,"player_count":0,"max_players":24,"Bots":0,"server_type":"Dedicated","server_os":"Linux","password":true,"vac":true,"version":"7757534","steam_id":85568392924469994,"keywords":["nocrits","nodmgspread","payload","uncletopia"],"game_id":440,"stv_port":27026,"stv_name":"Uncletopia | New York City | 2 | All Maps | STV","players":null},{"server_id":15,"name":"Uncletopia | New York City | 3 | Stopwatch Beta","name_short":"nyc-3","host":"nyc-1.us.uncletopia.com","port":27035,"enabled":true,"region":"us-east","cc":"us","latitude":40.73061,"longitude":-73.93524,"reserved":0,"last_update":"0001-01-01T00:00:00Z","name_a2s":"Uncletopia | New York City | 3 | Stopwatch Beta","protocol":17,"map":"pl_upward","folder":"tf","game":"Team Fortress","app_id":440,"player_count":0,"max_players":24,"Bots":0,"server_type":"Dedicated","server_os":"Linux","password":true,"vac":true,"version":"7757534","steam_id":85568392924742820,"keywords":["nocrits","nodmgspread","payload","uncletopia"],"game_id":440,"stv_port":27036,"stv_name":"Uncletopia | New York City | 3 | Stopwatch Beta | STV","players":null},{"server_id":16,"name":"Uncletopia | New York City | 4 | Community","name_short":"nyc-4","host":"nyc-1.us.uncletopia.com","port":27045,"enabled":true,"region":"us-east","cc":"us","latitude":40.73061,"longitude":-73.93524,"reserved":0,"last_update":"0001-01-01T00:00:00Z","name_a2s":"Uncletopia | New York City | 4 | Community","protocol":17,"map":"workshop/pl_boundary_final1.ugc456799153","folder":"tf","game":"Team Fortress","app_id":440,"player_count":0,"max_players":24,"Bots":0,"server_type":"Dedicated","server_os":"Linux","password":true,"vac":true,"version":"7757534","steam_id":85568392924742821,"keywords":["nocrits","nodmgspread","payload","uncletopia"],"game_id":440,"stv_port":27046,"stv_name":"Uncletopia | New York City | 4 | Community | STV","players":null},{"server_id":142,"name":"Uncletopia | S√£o Paulo | 1 | All Maps","name_short":"sao-1","host":"sao-1.br.uncletopia.com","port":27015,"enabled":true,"region":"sa","cc":"br","latitude":-23.533773,"longitude":-46.62529,"reserved":0,"last_update":"0001-01-01T00:00:00Z","name_a2s":"Uncletopia | S√£o Paulo | 1 | All Maps","protocol":17,"map":"koth_harvest_final","folder":"tf","game":"Team Fortress","app_id":440,"player_count":0,"max_players":24,"Bots":0,"server_type":"Dedicated","server_os":"Linux","password":true,"vac":true,"version":"7757534","steam_id":85568392924469996,"keywords":["cp","nocrits","nodmgspread","uncletopia"],"game_id":440,"stv_port":27016,"stv_name":"Uncletopia | S√£o Paulo | 1 | All Maps | STV","players":null},{"server_id":143,"name":"Uncletopia | S√£o Paulo | 2 | All Maps","name_short":"sao-2","host":"sao-2.br.uncletopia.com","port":27015,"enabled":true,"region":"sa","cc":"br","latitude":-23.533773,"longitude":-46.62529,"reserved":0,"last_update":"0001-01-01T00:00:00Z","name_a2s":"Uncletopia | S√£o Paulo | 2 | All Maps","protocol":17,"map":"koth_viaduct","folder":"tf","game":"Team Fortress","app_id":440,"player_count":0,"max_players":24,"Bots":0,"server_type":"Dedicated","server_os":"Linux","password":true,"vac":true,"version":"7757534","steam_id":85568392924485349,"keywords":["cp","nocrits","nodmgspread","uncletopia"],"game_id":440,"stv_port":27016,"stv_name":"Uncletopia | S√£o Paulo | 2 | All Maps | STV","players":null},{"server_id":7,"name":"Uncletopia | Seattle | 1 | All Maps","name_short":"sea-1","host":"sea-1.us.uncletopia.com","port":27015,"enabled":true,"region":"us-west","cc":"us","latitude":47.608013,"longitude":-122.33517,"reserved":0,"last_update":"0001-01-01T00:00:00Z","name_a2s":"Uncletopia | Seattle | 1 | All Maps","protocol":17,"map":"pl_badwater","folder":"tf","game":"Team Fortress","app_id":440,"player_count":24,"max_players":24,"Bots":0,"server_type":"Dedicated","server_os":"Linux","password":true,"vac":true,"version":"7757534","steam_id":85568392924469997,"keywords":["nocrits","nodmgspread","payload","uncletopia"],"game_id":440,"stv_port":27016,"stv_name":"Uncletopia | Seattle | 1 | All Maps | STV","players":[{"user_id":63,"name":"D0VE","steam_id":76561198151618566,"connected_time":4437000000000,"state":"active","ping":61},{"user_id":4,"name":"spider_murphy","steam_id":76561198079057101,"connected_time":8191000000000,"state":"active","ping":53},{"user_id":111,"name":"Tom","steam_id":76561198070630154,"connected_time":433000000000,"state":"active","ping":76},{"user_id":6,"name":"Little Linguine","steam_id":76561198816986370,"connected_time":8186000000000,"state":"active","ping":59},{"user_id":91,"name":"TheDude","steam_id":76561198314764519,"connected_time":2269000000000,"state":"active","ping":159},{"user_id":81,"name":"Ivan I","steam_id":76561198341781527,"connected_time":2900000000000,"state":"active","ping":129},{"user_id":10,"name":"Rain","steam_id":76561198065612273,"connected_time":8151000000000,"state":"active","ping":45},{"user_id":55,"name":"Me, Smith, and Wesson","steam_id":76561199006388533,"connected_time":5148000000000,"state":"active","ping":127},{"user_id":16,"name":"Pyro410","steam_id":76561199241277109,"connected_time":8005000000000,"state":"active","ping":114},{"user_id":82,"name":"complete and utter fool","steam_id":76561199476364315,"connected_time":2892000000000,"state":"active","ping":70},{"user_id":109,"name":"UNKEY BLUSTY DA SENTY MISTA","steam_id":76561198838054669,"connected_time":451000000000,"state":"active","ping":113},{"user_id":119,"name":"Stupid_Cake","steam_id":76561198079566684,"connected_time":39000000000,"state":"active","ping":104},{"user_id":115,"name":"I'm in your walls","steam_id":76561198153502981,"connected_time":363000000000,"state":"active","ping":98},{"user_id":96,"name":"SibilantSerpent","steam_id":76561198154488754,"connected_time":1611000000000,"state":"active","ping":51},{"user_id":100,"name":"Patio","steam_id":76561197986082608,"connected_time":1274000000000,"state":"active","ping":54},{"user_id":89,"name":"MayaBon","steam_id":76561198797968261,"connected_time":2553000000000,"state":"active","ping":55},{"user_id":86,"name":"BreadQuest","steam_id":76561198082425960,"connected_time":2779000000000,"state":"active","ping":46},{"user_id":58,"name":"Crash Boar","steam_id":76561198024088429,"connected_time":5045000000000,"state":"active","ping":95},{"user_id":102,"name":"james may","steam_id":76561198043857339,"connected_time":954000000000,"state":"active","ping":79},{"user_id":88,"name":"ark","steam_id":76561198041066271,"connected_time":2634000000000,"state":"active","ping":75},{"user_id":112,"name":"MrrPickle","steam_id":76561198122046514,"connected_time":410000000000,"state":"active","ping":128},{"user_id":120,"name":"luismagana3621","steam_id":76561199468684283,"connected_time":17000000000,"state":"active","ping":128},{"user_id":117,"name":"River Rat","steam_id":76561198116383976,"connected_time":290000000000,"state":"active","ping":61},{"user_id":85,"name":"backup","steam_id":76561198300647370,"connected_time":2854000000000,"state":"active","ping":75}]},{"server_id":119,"name":"Uncletopia | Seattle | 2 | All Maps","name_short":"sea-2","host":"sea-1.us.uncletopia.com","port":27025,"enabled":true,"region":"us-west","cc":"us","latitude":47.608013,"longitude":-122.33517,"reserved":0,"last_update":"0001-01-01T00:00:00Z","name_a2s":"Uncletopia | Seattle | 2 | All Maps","protocol":17,"map":"pl_badwater","folder":"tf","game":"Team Fortress","app_id":440,"player_count":0,"max_players":24,"Bots":0,"server_type":"Dedicated","server_os":"Linux","password":true,"vac":true,"version":"7757534","steam_id":85568392924469998,"keywords":["nocrits","nodmgspread","payload","uncletopia"],"game_id":440,"stv_port":27026,"stv_name":"Uncletopia | Seattle | 2 | All Maps | STV","players":null},{"server_id":406,"name":"Uncletopia | Seattle | 3 | Stopwatch Beta","name_short":"sea-3","host":"sea-1.us.uncletopia.com","port":27035,"enabled":true,"region":"us-west","cc":"us","latitude":47.608013,"longitude":-122.33517,"reserved":0,"last_update":"0001-01-01T00:00:00Z","name_a2s":"Uncletopia | Seattle | 3 | Stopwatch Beta","protocol":17,"map":"cp_dustbowl","folder":"tf","game":"Team Fortress","app_id":440,"player_count":0,"max_players":24,"Bots":0,"server_type":"Dedicated","server_os":"Linux","password":true,"vac":true,"version":"7757534","steam_id":85568392924515217,"keywords":["cp","nocrits","nodmgspread","uncletopia"],"game_id":440,"stv_port":27036,"stv_name":"Uncletopia | Seattle | 3 | Stopwatch Beta | STV","players":null},{"server_id":17,"name":"Uncletopia | San Francisco | 1 | All Maps","name_short":"sfo-1","host":"sfo-1.us.uncletopia.com","port":27015,"enabled":true,"region":"us-west","cc":"us","latitude":37.77397,"longitude":-122.4313,"reserved":0,"last_update":"0001-01-01T00:00:00Z","name_a2s":"Uncletopia | San Francisco | 1 | All Maps","protocol":17,"map":"koth_highpass","folder":"tf","game":"Team Fortress","app_id":440,"player_count":0,"max_players":24,"Bots":0,"server_type":"Dedicated","server_os":"Linux","password":true,"vac":true,"version":"7757534","steam_id":85568392924469999,"keywords":["cp","nocrits","nodmgspread","uncletopia"],"game_id":440,"stv_port":27016,"stv_name":"Uncletopia | San Francisco | 1 | All Maps | STV","players":null},{"server_id":18,"name":"Uncletopia | San Francisco | 2 | All Maps","name_short":"sfo-2","host":"sfo-1.us.uncletopia.com","port":27025,"enabled":true,"region":"us-west","cc":"us","latitude":37.77397,"longitude":-122.4313,"reserved":0,"last_update":"0001-01-01T00:00:00Z","name_a2s":"Uncletopia | San Francisco | 2 | All Maps","protocol":17,"map":"koth_highpass","folder":"tf","game":"Team Fortress","app_id":440,"player_count":0,"max_players":24,"Bots":0,"server_type":"Dedicated","server_os":"Linux","password":true,"vac":true,"version":"7757534","steam_id":85568392924470000,"keywords":["cp","nocrits","nodmgspread","uncletopia"],"game_id":440,"stv_port":27026,"stv_name":"Uncletopia | San Francisco | 2 | All Maps | STV","players":null},{"server_id":19,"name":"Uncletopia | San Francisco | 3 | Stopwatch Beta","name_short":"sfo-3","host":"sfo-1.us.uncletopia.com","port":27035,"enabled":true,"region":"us-west","cc":"us","latitude":37.77397,"longitude":-122.4313,"reserved":0,"last_update":"0001-01-01T00:00:00Z","name_a2s":"Uncletopia | San Francisco | 3 | Stopwatch Beta","protocol":17,"map":"cp_snakewater_final1","folder":"tf","game":"Team Fortress","app_id":440,"player_count":0,"max_players":24,"Bots":0,"server_type":"Dedicated","server_os":"Linux","password":true,"vac":true,"version":"7757534","steam_id":85568392924742824,"keywords":["cp","nocrits","nodmgspread","uncletopia"],"game_id":440,"stv_port":27036,"stv_name":"Uncletopia | San Francisco | 3 | Stopwatch Beta | STV","players":null},{"server_id":20,"name":"Uncletopia | San Francisco | 4 | Community","name_short":"sfo-4","host":"sfo-1.us.uncletopia.com","port":27045,"enabled":true,"region":"us-west","cc":"us","latitude":37.77397,"longitude":-122.4313,"reserved":0,"last_update":"0001-01-01T00:00:00Z","name_a2s":"Uncletopia | San Francisco | 4 | Community","protocol":17,"map":"cp_altitude","folder":"tf","game":"Team Fortress","app_id":440,"player_count":0,"max_players":24,"Bots":0,"server_type":"Dedicated","server_os":"Linux","password":true,"vac":true,"version":"7757534","steam_id":85568392924742826,"keywords":["cp","nocrits","nodmgspread","uncletopia"],"game_id":440,"stv_port":27046,"stv_name":"Uncletopia | San Francisco | 4 | Community | STV","players":null},{"server_id":141,"name":"Uncletopia | Sydney | 1 | All Maps","name_short":"syd-1","host":"syd-1.au.uncletopia.com","port":27015,"enabled":true,"region":"au","cc":"au","latitude":-33.865143,"longitude":151.2099,"reserved":0,"last_update":"0001-01-01T00:00:00Z","name_a2s":"Uncletopia | Sydney | 1 | All Maps","protocol":17,"map":"cp_snakewater_final1","folder":"tf","game":"Team Fortress","app_id":440,"player_count":0,"max_players":24,"Bots":0,"server_type":"Dedicated","server_os":"Linux","password":true,"vac":true,"version":"7757534","steam_id":85568392924470001,"keywords":["cp","nocrits","nodmgspread","uncletopia"],"game_id":440,"stv_port":27016,"stv_name":"Uncletopia | Sydney | 1 | All Maps | STV","players":null},{"server_id":123,"name":"Uncletopia | Sydney | 2 | All Maps","name_short":"syd-2","host":"syd-1.au.uncletopia.com","port":27025,"enabled":true,"region":"au","cc":"au","latitude":-33.865143,"longitude":151.2099,"reserved":0,"last_update":"0001-01-01T00:00:00Z","name_a2s":"Uncletopia | Sydney | 2 | All Maps","protocol":17,"map":"cp_dustbowl","folder":"tf","game":"Team Fortress","app_id":440,"player_count":0,"max_players":24,"Bots":0,"server_type":"Dedicated","server_os":"Linux","password":true,"vac":true,"version":"7757534","steam_id":85568392924470002,"keywords":["cp","nocrits","nodmgspread","uncletopia"],"game_id":440,"stv_port":27026,"stv_name":"Uncletopia | Sydney | 2 | All Maps | STV","players":null},{"server_id":395,"name":"Uncletopia | Sydney | 3 | All Maps","name_short":"syd-3","host":"syd-1.au.uncletopia.com","port":27035,"enabled":true,"region":"au","cc":"au","latitude":-33.865143,"longitude":151.2099,"reserved":0,"last_update":"0001-01-01T00:00:00Z","name_a2s":"Uncletopia | Sydney | 3 | All Maps","protocol":17,"map":"pl_frontier_final","folder":"tf","game":"Team Fortress","app_id":440,"player_count":0,"max_players":24,"Bots":0,"server_type":"Dedicated","server_os":"Linux","password":true,"vac":true,"version":"7757534","steam_id":85568392925194467,"keywords":["nocrits","nodmgspread","payload","uncletopia"],"game_id":440,"stv_port":27036,"stv_name":"Uncletopia | Sydney | 3 | All Maps | STV","players":null},{"server_id":396,"name":"Uncletopia | Sydney | 4 | All Maps","name_short":"syd-4","host":"syd-1.au.uncletopia.com","port":27045,"enabled":true,"region":"au","cc":"au","latitude":-33.865143,"longitude":151.2099,"reserved":0,"last_update":"0001-01-01T00:00:00Z","name_a2s":"Uncletopia | Sydney | 4 | All Maps","protocol":17,"map":"koth_cascade","folder":"tf","game":"Team Fortress","app_id":440,"player_count":0,"max_players":24,"Bots":0,"server_type":"Dedicated","server_os":"Linux","password":true,"vac":true,"version":"7757534","steam_id":85568392925397958,"keywords":["cp","nocrits","nodmgspread","uncletopia"],"game_id":440,"stv_port":27046,"stv_name":"Uncletopia | Sydney | 4 | All Maps | STV","players":null},{"server_id":58,"name":"Uncletopia | Sydney | 5 | Stopwatch Beta","name_short":"syd-5","host":"syd-1.au.uncletopia.com","port":27055,"enabled":true,"region":"au","cc":"au","latitude":-33.865143,"longitude":151.2099,"reserved":0,"last_update":"0001-01-01T00:00:00Z","name_a2s":"Uncletopia | Sydney | 5 | Stopwatch Beta","protocol":17,"map":"cp_process_final","folder":"tf","game":"Team Fortress","app_id":440,"player_count":0,"max_players":24,"Bots":0,"server_type":"Dedicated","server_os":"Linux","password":true,"vac":true,"version":"7757534","steam_id":85568392925397959,"keywords":["cp","nocrits","nodmgspread","uncletopia"],"game_id":440,"stv_port":27056,"stv_name":"Uncletopia | Sydney | 5 | Stopwatch Beta | STV","players":null},{"server_id":59,"name":"Uncletopia | Sydney | 6 | Community","name_short":"syd-6","host":"syd-1.au.uncletopia.com","port":27065,"enabled":true,"region":"au","cc":"au","latitude":-33.865143,"longitude":151.2099,"reserved":0,"last_update":"0001-01-01T00:00:00Z","name_a2s":"Uncletopia | Sydney | 6 | Community","protocol":17,"map":"workshop/cp_fulgur_rc2a.ugc2068252300","folder":"tf","game":"Team Fortress","app_id":440,"player_count":0,"max_players":24,"Bots":0,"server_type":"Dedicated","server_os":"Linux","password":true,"vac":true,"version":"7757534","steam_id":85568392925397960,"keywords":["cp","nocrits","nodmgspread","uncletopia"],"game_id":440,"stv_port":27066,"stv_name":"Uncletopia | Sydney | 6 | Community | STV","players":null},{"server_id":49,"name":"Uncletopia | Warsaw | 1 | All Maps","name_short":"waw-1","host":"waw-1.pl.uncletopia.com","port":27015,"enabled":true,"region":"eu","cc":"pl","latitude":52.2297,"longitude":21.017532,"reserved":0,"last_update":"0001-01-01T00:00:00Z","name_a2s":"","protocol":0,"map":"","folder":"","game":"","app_id":0,"player_count":0,"max_players":0,"Bots":0,"server_type":"","server_os":"","password":false,"vac":false,"version":"","steam_id":0,"keywords":null,"game_id":0,"stv_port":0,"stv_name":"","players":null},{"server_id":50,"name":"Uncletopia | Warsaw | 2 | All Maps","name_short":"waw-2","host":"waw-1.pl.uncletopia.com","port":27025,"enabled":true,"region":"eu","cc":"pl","latitude":52.2297,"longitude":21.017532,"reserved":0,"last_update":"0001-01-01T00:00:00Z","name_a2s":"Uncletopia | Warsaw | 2 | All Maps","protocol":17,"map":"ctf_doublecross","folder":"tf","game":"Team Fortress","app_id":440,"player_count":19,"max_players":24,"Bots":0,"server_type":"Dedicated","server_os":"Linux","password":true,"vac":true,"version":"7757534","steam_id":85568392925397851,"keywords":["ctf","nocrits","nodmgspread","uncletopia"],"game_id":440,"stv_port":27026,"stv_name":"Uncletopia | Warsaw | 2 | All Maps | STV","players":[{"user_id":136,"name":"drake 'n drive","steam_id":76561199216923710,"connected_time":3284000000000,"state":"active","ping":135},{"user_id":181,"name":"balls","steam_id":76561199165864947,"connected_time":23000000000,"state":"spawning","ping":183},{"user_id":147,"name":"Osmo","steam_id":76561199286764992,"connected_time":2552000000000,"state":"active","ping":45},{"user_id":161,"name":"syrup","steam_id":76561198218036561,"connected_time":1430000000000,"state":"active","ping":82},{"user_id":163,"name":"tummaluppo taivaltaja","steam_id":76561198093458326,"connected_time":825000000000,"state":"active","ping":75},{"user_id":168,"name":"I.C. Wiener","steam_id":76561197999912254,"connected_time":706000000000,"state":"active","ping":63},{"user_id":182,"name":"Jatotz","steam_id":76561198317467283,"connected_time":13000000000,"state":"spawning","ping":193},{"user_id":183,"name":"GentleRex","steam_id":76561198136589162,"connected_time":1000000000,"state":"spawning","ping":40},{"user_id":153,"name":"go play project zomboid","steam_id":76561199397932924,"connected_time":2236000000000,"state":"active","ping":43},{"user_id":173,"name":"pomidor (not russian)","steam_id":76561197996127223,"connected_time":387000000000,"state":"active","ping":49},{"user_id":171,"name":"WOW i'm dead","steam_id":76561199082267619,"connected_time":606000000000,"state":"active","ping":76},{"user_id":178,"name":"chey","steam_id":76561198035380064,"connected_time":267000000000,"state":"active","ping":74},{"user_id":127,"name":"Highground","steam_id":76561199197544789,"connected_time":3799000000000,"state":"active","ping":188},{"user_id":130,"name":"smk","steam_id":76561198068027379,"connected_time":3655000000000,"state":"active","ping":98},{"user_id":131,"name":"lagzer","steam_id":76561198029295449,"connected_time":3630000000000,"state":"active","ping":51},{"user_id":132,"name":"TheEmeraldStar","steam_id":76561198072942529,"connected_time":3612000000000,"state":"active","ping":89},{"user_id":133,"name":"Pepelu","steam_id":76561198170725977,"connected_time":3519000000000,"state":"active","ping":86},{"user_id":175,"name":"Hyou","steam_id":76561198085771300,"connected_time":371000000000,"state":"active","ping":69},{"user_id":141,"name":"ElBaneazos","steam_id":76561198080830061,"connected_time":3097000000000,"state":"active","ping":96}]},{"server_id":51,"name":"Uncletopia | Warsaw | 3 | All Maps","name_short":"waw-3","host":"waw-1.pl.uncletopia.com","port":27035,"enabled":true,"region":"eu","cc":"pl","latitude":52.2297,"longitude":21.017532,"reserved":0,"last_update":"0001-01-01T00:00:00Z","name_a2s":"Uncletopia | Warsaw | 3 | All Maps","protocol":17,"map":"koth_highpass","folder":"tf","game":"Team Fortress","app_id":440,"player_count":0,"max_players":24,"Bots":0,"server_type":"Dedicated","server_os":"Linux","password":true,"vac":true,"version":"7757534","steam_id":85568392925397852,"keywords":["cp","nocrits","nodmgspread","uncletopia"],"game_id":440,"stv_port":27036,"stv_name":"Uncletopia | Warsaw | 3 | All Maps | STV","players":null},{"server_id":52,"name":"Uncletopia | Warsaw | 4 | All Maps","name_short":"waw-4","host":"waw-1.pl.uncletopia.com","port":27045,"enabled":true,"region":"eu","cc":"pl","latitude":52.2297,"longitude":21.017532,"reserved":0,"last_update":"0001-01-01T00:00:00Z","name_a2s":"Uncletopia | Warsaw | 4 | All Maps","protocol":17,"map":"koth_lakeside_final","folder":"tf","game":"Team Fortress","app_id":440,"player_count":0,"max_players":24,"Bots":0,"server_type":"Dedicated","server_os":"Linux","password":true,"vac":true,"version":"7757534","steam_id":85568392925397853,"keywords":["cp","nocrits","nodmgspread","uncletopia"],"game_id":440,"stv_port":27046,"stv_name":"Uncletopia | Warsaw | 4 | All Maps | STV","players":null},{"server_id":53,"name":"Uncletopia | Warsaw | 5 | Stopwatch Beta","name_short":"waw-5","host":"waw-1.pl.uncletopia.com","port":27055,"enabled":true,"region":"eu","cc":"pl","latitude":52.2297,"longitude":21.017532,"reserved":0,"last_update":"0001-01-01T00:00:00Z","name_a2s":"Uncletopia | Warsaw | 5 | Stopwatch Beta","protocol":17,"map":"pl_borneo","folder":"tf","game":"Team Fortress","app_id":440,"player_count":0,"max_players":24,"Bots":0,"server_type":"Dedicated","server_os":"Linux","password":true,"vac":true,"version":"7757534","steam_id":85568392925397854,"keywords":["nocrits","nodmgspread","payload","uncletopia"],"game_id":440,"stv_port":27056,"stv_name":"Uncletopia | Warsaw | 5 | Stopwatch Beta | STV","players":null},{"server_id":54,"name":"Uncletopia | Warsaw | 6 | Community","name_short":"waw-6","host":"waw-1.pl.uncletopia.com","port":27065,"enabled":true,"region":"eu","cc":"pl","latitude":52.2297,"longitude":21.017532,"reserved":0,"last_update":"0001-01-01T00:00:00Z","name_a2s":"Uncletopia | Warsaw | 6 | Community","protocol":17,"map":"workshop/cp_caldera_rc2.ugc2834196889","folder":"tf","game":"Team Fortress","app_id":440,"player_count":2,"max_players":24,"Bots":0,"server_type":"Dedicated","server_os":"Linux","password":true,"vac":true,"version":"7757534","steam_id":85568392925397856,"keywords":["cp","nocrits","nodmgspread","uncletopia"],"game_id":440,"stv_port":27066,"stv_name":"Uncletopia | Warsaw | 6 | Community | STV","players":[{"user_id":10,"name":"Peter Pammpim","steam_id":76561199103785290,"connected_time":4954000000000,"state":"active","ping":113},{"user_id":5,"name":"fried","steam_id":76561198307522022,"connected_time":7116000000000,"state":"active","ping":77}]}]}