{"status":true,"message":"","result":[{"server_id":9,"name":"Uncletopia | Atlanta | 1 | All Maps","name_short":"atl-1","host":"atl-1.us.uncletopia.com","port":27015,"enabled":true,"region":"us-east","cc":"us","latitude":33.753746,"longitude":-84.38633,"reserved":0,"last_update":"0001-01-01T00:00:00Z","name_a2s":"Uncletopia | Atlanta | 1 | All Maps","protocol":17,"map":"pl_snowycoast","folder":"tf","game":"Team Fortress","app_id":440,"player_count":24,"max_players":24,"Bots":0,"server_type":"Dedicated","server_os":"Linux","password":true,"vac":true,"version":"7695204","steam_id":85568392924469982,"keywords":["nocrits","nodmgspread","payload","uncletopia"],"game_id":440,"stv_port":27016,"stv_name":"Uncletopia | Atlanta | 1 | All Maps | STV","players":[{"user_id":424,"name":"merryy","steam_id":76561198968001329,"connected_time":1232000000000,"state":"active","ping":49},{"user_id":433,"name":"Avo","steam_id":76561197993340494,"connected_time":536000000000,"state":"active","ping":61},{"user_id":437,"name":"ATL1 | Vee (very jolly and cool","steam_id":76561198330432889,"connected_time":348000000000,"state":"active","ping":61},{"user_id":426,"name":"cece","steam_id":76561198862785401,"connected_time":1142000000000,"state":"active","ping":108},{"user_id":430,"name":"com lag","steam_id":76561198019019392,"connected_time":624000000000,"state":"active","ping":66},{"user_id":431,"name":"LynBoByn","steam_id":76561198052911142,"connected_time":581000000000,"state":"active","ping":66},{"user_id":434,"name":"woww","steam_id":76561199272630650,"connected_time":471000000000,"state":"active","ping":79},{"user_id":428,"name":"Samuel","steam_id":76561198045652639,"connected_time":922000000000,"state":"active","ping":118},{"user_id":357,"name":"Toest","steam_id":76561198076061844,"connected_time":6645000000000,"state":"active","ping":68},{"user_id":406,"name":"your xmas forecast","steam_id":76561198042243083,"connected_time":2176000000000,"state":"active","ping":52},{"user_id":411,"name":"DatCactusEater","steam_id":76561198318978504,"connected_time":1973000000000,"state":"active","ping":80},{"user_id":423,"name":"Krissy","steam_id":76561197960848174,"connected_time":1285000000000,"state":"active","ping":64},{"user_id":438,"name":"Hodeman","steam_id":76561197975982368,"connected_time":273000000000,"state":"active","ping":64},{"user_id":272,"name":"joe lft","steam_id":76561198045781320,"connected_time":15583000000000,"state":"active","ping":67},{"user_id":439,"name":"basil","steam_id":76561198075758026,"connected_time":264000000000,"state":"active","ping":75},{"user_id":405,"name":"ATL1 | Psionic Present","steam_id":76561198151019322,"connected_time":2441000000000,"state":"active","ping":61},{"user_id":440,"name":"cola","steam_id":76561198374390458,"connected_time":205000000000,"state":"active","ping":58},{"user_id":420,"name":"p_picklelol","steam_id":76561198129434533,"connected_time":1674000000000,"state":"active","ping":70},{"user_id":396,"name":"Smoky","steam_id":76561198418262145,"connected_time":3088000000000,"state":"active","ping":98},{"user_id":416,"name":"‚òô Corrupt ‚ùß","steam_id":76561197977631915,"connected_time":1857000000000,"state":"active","ping":49},{"user_id":429,"name":"mf","steam_id":76561198025668771,"connected_time":746000000000,"state":"active","ping":119},{"user_id":441,"name":"merry mommy","steam_id":76561199230929836,"connected_time":34000000000,"state":"spawning","ping":90},{"user_id":380,"name":"Dr. Professor PJ, Ph.D","steam_id":76561198004429398,"connected_time":4570000000000,"state":"active","ping":35},{"user_id":422,"name":"DingDongAnalog","steam_id":76561198850181994,"connected_time":1553000000000,"state":"active","ping":111}]},{"server_id":400,"name":"Uncletopia | Atlanta | 3 | All Maps","name_short":"atl-3","host":"atl-1.us.uncletopia.com","port":27035,"enabled":true,"region":"us-east","cc":"us","latitude":33.753746,"longitude":-84.38633,"reserved":0,"last_update":"0001-01-01T00:00:00Z","name_a2s":"Uncletopia | Atlanta | 3 | All Maps","protocol":17,"map":"pl_barnblitz","folder":"tf","game":"Team Fortress","app_id":440,"player_count":24,"max_players":24,"Bots":0,"server_type":"Dedicated","server_os":"Linux","password":true,"vac":true,"version":"7695204","steam_id":85568392924515187,"keywords":["nocrits","nodmgspread","payload","uncletopia"],"game_id":440,"stv_port":27036,"stv_name":"Uncletopia | Atlanta | 3 | All Maps | STV","players":[{"user_id":15,"name":"Aad","steam_id":76561198126263769,"connected_time":12253000000000,"state":"active","ping":79},{"user_id":154,"name":"SanryoBros.YT #SafeTF2","steam_id":76561198822303633,"connected_time":714000000000,"state":"active","ping":135},{"user_id":17,"name":"splatoon 3 enjoyer","steam_id":76561198306945757,"connected_time":12244000000000,"state":"active","ping":60},{"user_id":18,"name":"dogbreath","steam_id":76561198003883621,"connected_time":12244000000000,"state":"active","ping":93},{"user_id":19,"name":"im druhnk","steam_id":76561198025723087,"connected_time":12122000000000,"state":"active","ping":60},{"user_id":28,"name":"valky","steam_id":76561198046033522,"connected_time":11768000000000,"state":"active","ping":105},{"user_id":143,"name":"the big pisser","steam_id":76561198143132686,"connected_time":1457000000000,"state":"active","ping":90},{"user_id":123,"name":"$200 Shirt","steam_id":76561197977329534,"connected_time":3970000000000,"state":"active","ping":82},{"user_id":139,"name":"Pikiii","steam_id":76561198144526235,"connected_time":1750000000000,"state":"active","ping":69},{"user_id":148,"name":"Bishop","steam_id":76561198070191778,"connected_time":1195000000000,"state":"active","ping":74},{"user_id":161,"name":"BG.Chocc","steam_id":76561198068070211,"connected_time":372000000000,"state":"active","ping":126},{"user_id":151,"name":"Griffinsteed","steam_id":76561198042847912,"connected_time":823000000000,"state":"active","ping":73},{"user_id":164,"name":"mr.fart","steam_id":76561198363948501,"connected_time":242000000000,"state":"active","ping":74},{"user_id":162,"name":"Styx","steam_id":76561198104657428,"connected_time":290000000000,"state":"active","ping":63},{"user_id":150,"name":"Kostya2525","steam_id":76561199110609717,"connected_time":1123000000000,"state":"active","ping":51},{"user_id":55,"name":"coolkid #sextf2","steam_id":76561198072600034,"connected_time":10200000000000,"state":"active","ping":161},{"user_id":127,"name":"NotSoMewwo","steam_id":76561198130067099,"connected_time":3838000000000,"state":"active","ping":91},{"user_id":136,"name":"Snazzi","steam_id":76561198085208276,"connected_time":3060000000000,"state":"active","ping":74},{"user_id":67,"name":"Idot","steam_id":76561198049411491,"connected_time":9210000000000,"state":"active","ping":78},{"user_id":106,"name":"expresso","steam_id":76561198386233160,"connected_time":5101000000000,"state":"active","ping":88},{"user_id":146,"name":"kermitcreeper(ZAZA)","steam_id":76561199222829972,"connected_time":1336000000000,"state":"active","ping":82},{"user_id":112,"name":"Weerk | trade.tf","steam_id":76561199209543551,"connected_time":4946000000000,"state":"active","ping":99},{"user_id":101,"name":"toodleflower22","steam_id":76561198023888890,"connected_time":5509000000000,"state":"active","ping":75},{"user_id":163,"name":"Crackthecode","steam_id":76561199045567140,"connected_time":276000000000,"state":"active","ping":90}]},{"server_id":401,"name":"Uncletopia | Atlanta | 4 | No Payload","name_short":"atl-4","host":"atl-1.us.uncletopia.com","port":27045,"enabled":true,"region":"us-east","cc":"us","latitude":33.753746,"longitude":-84.38633,"reserved":0,"last_update":"0001-01-01T00:00:00Z","name_a2s":"Uncletopia | Atlanta | 4 | No Payload","protocol":17,"map":"koth_sawmill","folder":"tf","game":"Team Fortress","app_id":440,"player_count":0,"max_players":24,"Bots":0,"server_type":"Dedicated","server_os":"Linux","password":true,"vac":true,"version":"7695204","steam_id":85568392924515188,"keywords":["cp","nocrits","nodmgspread","uncletopia"],"game_id":440,"stv_port":27046,"stv_name":"Uncletopia | Atlanta | 4 | No Payload | STV","players":null},{"server_id":2,"name":"Uncletopia | Chicago | 1 | All Maps","name_short":"chi-1","host":"chi-1.us.uncletopia.com","port":27015,"enabled":true,"region":"us-central","cc":"us","latitude":41.881832,"longitude":-87.62318,"reserved":0,"last_update":"0001-01-01T00:00:00Z","name_a2s":"Uncletopia | Chicago | 1 | All Maps","protocol":17,"map":"cp_snakewater_final1","folder":"tf","game":"Team Fortress","app_id":440,"player_count":24,"max_players":24,"Bots":0,"server_type":"Dedicated","server_os":"Linux","password":true,"vac":true,"version":"7695204","steam_id":85568392924469984,"keywords":["cp","nocrits","nodmgspread","uncletopia"],"game_id":440,"stv_port":27016,"stv_name":"Uncletopia | Chicago | 1 | All Maps | STV","players":[{"user_id":508,"name":"Mythical Lag","steam_id":76561198347031281,"connected_time":2603000000000,"state":"active","ping":75},{"user_id":537,"name":"evil creep weirdo","steam_id":76561198077158332,"connected_time":307000000000,"state":"active","ping":61},{"user_id":517,"name":"√íw√ì","steam_id":76561197997304387,"connected_time":1036000000000,"state":"active","ping":71},{"user_id":465,"name":"Ben Shapiro Gaming","steam_id":76561198113651011,"connected_time":4621000000000,"state":"active","ping":65},{"user_id":530,"name":"Scorpsy","steam_id":76561198024477688,"connected_time":728000000000,"state":"active","ping":67},{"user_id":499,"name":"defcon","steam_id":76561198100656328,"connected_time":2859000000000,"state":"active","ping":77},{"user_id":529,"name":"Iroh's Ramshackle Catamaran","steam_id":76561198012951411,"connected_time":773000000000,"state":"active","ping":51},{"user_id":519,"name":"Noire","steam_id":76561198077601563,"connected_time":1027000000000,"state":"active","ping":96},{"user_id":472,"name":"i duckinf hatw you","steam_id":76561198066585785,"connected_time":4538000000000,"state":"active","ping":76},{"user_id":468,"name":"Lullaby","steam_id":76561198061103166,"connected_time":4607000000000,"state":"active","ping":60},{"user_id":536,"name":"Legion","steam_id":76561199036242643,"connected_time":419000000000,"state":"active","ping":71},{"user_id":535,"name":"PurplePond","steam_id":76561199062421006,"connected_time":581000000000,"state":"active","ping":37},{"user_id":523,"name":"nines","steam_id":76561198078992548,"connected_time":936000000000,"state":"active","ping":76},{"user_id":531,"name":"Sicko Mode (Chris Pratt Cover)","steam_id":76561198315786174,"connected_time":724000000000,"state":"active","ping":89},{"user_id":490,"name":"daBaby","steam_id":76561198108365570,"connected_time":4132000000000,"state":"active","ping":75},{"user_id":486,"name":"Pinecone the Lynx","steam_id":76561198313192553,"connected_time":4289000000000,"state":"active","ping":48},{"user_id":501,"name":"ABRAXAS","steam_id":76561198091151925,"connected_time":2738000000000,"state":"active","ping":81},{"user_id":538,"name":"Noodlebox","steam_id":76561197993846770,"connected_time":270000000000,"state":"active","ping":96},{"user_id":493,"name":"[S]Mr. X [No Monitor]","steam_id":76561197963746035,"connected_time":3994000000000,"state":"active","ping":120},{"user_id":532,"name":"ThatTechDude","steam_id":76561198342630635,"connected_time":719000000000,"state":"active","ping":52},{"user_id":540,"name":"Raniel Dicciardo","steam_id":76561198053859538,"connected_time":110000000000,"state":"active","ping":69},{"user_id":539,"name":"Lawnmower","steam_id":76561198186680197,"connected_time":161000000000,"state":"active","ping":88},{"user_id":534,"name":"cheetaz","steam_id":76561198224614084,"connected_time":675000000000,"state":"active","ping":71},{"user_id":541,"name":"world's dumbest himbo","steam_id":76561199143725014,"connected_time":83000000000,"state":"active","ping":97}]},{"server_id":106,"name":"Uncletopia | Chicago | 2 | All Maps","name_short":"chi-2","host":"chi-1.us.uncletopia.com","port":27025,"enabled":true,"region":"us-central","cc":"us","latitude":41.881832,"longitude":-87.62318,"reserved":0,"last_update":"0001-01-01T00:00:00Z","name_a2s":"Uncletopia | Chicago | 2 | All Maps","protocol":17,"map":"pl_upward","folder":"tf","game":"Team Fortress","app_id":440,"player_count":24,"max_players":24,"Bots":0,"server_type":"Dedicated","server_os":"Linux","password":true,"vac":true,"version":"7695204","steam_id":85568392924469985,"keywords":["nocrits","nodmgspread","payload","uncletopia"],"game_id":440,"stv_port":27026,"stv_name":"Uncletopia | Chicago | 2 | All Maps | STV","players":[{"user_id":401,"name":"Misha","steam_id":76561198066174041,"connected_time":3166000000000,"state":"active","ping":54},{"user_id":423,"name":"the crust","steam_id":76561198361999761,"connected_time":1445000000000,"state":"active","ping":104},{"user_id":435,"name":"psy","steam_id":76561198013195018,"connected_time":316000000000,"state":"active","ping":82},{"user_id":419,"name":"Reggievich","steam_id":76561198173252835,"connected_time":1981000000000,"state":"active","ping":57},{"user_id":429,"name":"unhinged fembot","steam_id":76561198016826789,"connected_time":503000000000,"state":"active","ping":42},{"user_id":424,"name":"rawjuq","steam_id":76561198421544681,"connected_time":1443000000000,"state":"active","ping":57},{"user_id":425,"name":"indec","steam_id":76561198978404397,"connected_time":1101000000000,"state":"active","ping":106},{"user_id":399,"name":"Pixeled","steam_id":76561198088917077,"connected_time":3211000000000,"state":"active","ping":76},{"user_id":415,"name":"Lomba","steam_id":76561198136329102,"connected_time":2247000000000,"state":"active","ping":68},{"user_id":430,"name":"GusyPls","steam_id":76561198058423925,"connected_time":492000000000,"state":"active","ping":55},{"user_id":431,"name":"Miner2495","steam_id":76561198445904523,"connected_time":464000000000,"state":"active","ping":67},{"user_id":422,"name":"Bob the Minion","steam_id":76561197972389354,"connected_time":1477000000000,"state":"active","ping":71},{"user_id":356,"name":"MedRed‚Ñ¢ #IATAH","steam_id":76561198002962970,"connected_time":6487000000000,"state":"active","ping":96},{"user_id":432,"name":"Kaywan","steam_id":76561198068271015,"connected_time":448000000000,"state":"active","ping":74},{"user_id":370,"name":"Hoops Johnson","steam_id":76561197996633662,"connected_time":5250000000000,"state":"active","ping":62},{"user_id":365,"name":"TallBit","steam_id":76561199059748976,"connected_time":5792000000000,"state":"active","ping":60},{"user_id":416,"name":"taky0n","steam_id":76561198103759716,"connected_time":2247000000000,"state":"active","ping":71},{"user_id":437,"name":"Grimm","steam_id":76561198355935693,"connected_time":239000000000,"state":"active","ping":47},{"user_id":439,"name":"TheSnipersHat","steam_id":76561198057684066,"connected_time":71000000000,"state":"spawning","ping":148},{"user_id":409,"name":"brae","steam_id":76561198047126327,"connected_time":3063000000000,"state":"active","ping":80},{"user_id":440,"name":"Muffin","steam_id":76561198050715053,"connected_time":66000000000,"state":"active","ping":76},{"user_id":427,"name":"Cap'n Short Legs","steam_id":76561198164139410,"connected_time":736000000000,"state":"active","ping":66},{"user_id":438,"name":"201rudolf","steam_id":76561197999260528,"connected_time":216000000000,"state":"active","ping":83},{"user_id":428,"name":"Beef Wellington","steam_id":76561197995635241,"connected_time":676000000000,"state":"active","ping":63}]},{"server_id":402,"name":"Uncletopia | Chicago | 3 | All Maps","name_short":"chi-3","host":"chi-1.us.uncletopia.com","port":27035,"enabled":true,"region":"us-central","cc":"us","latitude":41.881832,"longitude":-87.62318,"reserved":0,"last_update":"0001-01-01T00:00:00Z","name_a2s":"Uncletopia | Chicago | 3 | All Maps","protocol":17,"map":"pl_borneo","folder":"tf","game":"Team Fortress","app_id":440,"player_count":23,"max_players":24,"Bots":0,"server_type":"Dedicated","server_os":"Linux","password":true,"vac":true,"version":"7695204","steam_id":85568392924515191,"keywords":["nocrits","nodmgspread","payload","uncletopia"],"game_id":440,"stv_port":27036,"stv_name":"Uncletopia | Chicago | 3 | All Maps | STV","players":[{"user_id":346,"name":"BEN FRANKLYN KNOWS MY NAME","steam_id":76561199007029763,"connected_time":355000000000,"state":"active","ping":74},{"user_id":343,"name":"EagleEye2000","steam_id":76561198233776704,"connected_time":828000000000,"state":"active","ping":65},{"user_id":331,"name":"Gugomo","steam_id":76561198121428316,"connected_time":1639000000000,"state":"active","ping":90},{"user_id":286,"name":"Avem","steam_id":76561198058763710,"connected_time":4933000000000,"state":"active","ping":93},{"user_id":304,"name":"Dat Dere Kirby","steam_id":76561198084054568,"connected_time":3907000000000,"state":"active","ping":75},{"user_id":305,"name":"Nuruko","steam_id":76561198066698922,"connected_time":3893000000000,"state":"active","ping":46},{"user_id":306,"name":"Liquid Metal Slime from DQ9","steam_id":76561198061621275,"connected_time":3881000000000,"state":"active","ping":70},{"user_id":351,"name":"404","steam_id":76561198031391621,"connected_time":26000000000,"state":"active","ping":56},{"user_id":312,"name":"Vivi from Final","steam_id":76561198119809263,"connected_time":2979000000000,"state":"active","ping":108},{"user_id":288,"name":"toastman","steam_id":76561198207073088,"connected_time":4919000000000,"state":"active","ping":65},{"user_id":313,"name":"Bob","steam_id":76561198052978289,"connected_time":2978000000000,"state":"active","ping":75},{"user_id":336,"name":"Zykio","steam_id":76561198122490182,"connected_time":1046000000000,"state":"active","ping":79},{"user_id":332,"name":"Artillerymanüí£","steam_id":76561198103503066,"connected_time":1597000000000,"state":"active","ping":80},{"user_id":337,"name":"leumas","steam_id":76561198240408540,"connected_time":1024000000000,"state":"active","ping":61},{"user_id":348,"name":"Milkboxxy","steam_id":76561198059944128,"connected_time":118000000000,"state":"active","ping":92},{"user_id":347,"name":"crankshaft","steam_id":76561197992798282,"connected_time":342000000000,"state":"active","ping":99},{"user_id":352,"name":"Kylebutt‚Ñ¢ üá∫üá¶","steam_id":76561197966575426,"connected_time":14000000000,"state":"active","ping":50},{"user_id":322,"name":"morbidly a beast","steam_id":76561199079614516,"connected_time":2697000000000,"state":"active","ping":47},{"user_id":333,"name":"Bidoofus","steam_id":76561198047726667,"connected_time":1551000000000,"state":"active","ping":46},{"user_id":353,"name":"b2brawler","steam_id":76561198037174169,"connected_time":6000000000,"state":"spawning","ping":55},{"user_id":339,"name":"Brendan","steam_id":76561198041079914,"connected_time":1001000000000,"state":"active","ping":68},{"user_id":340,"name":"ZOME","steam_id":76561198098035337,"connected_time":989000000000,"state":"active","ping":69},{"user_id":341,"name":"Foreskin Mage","steam_id":76561198077359444,"connected_time":982000000000,"state":"active","ping":53}]},{"server_id":403,"name":"Uncletopia | Chicago | 4 | All Maps","name_short":"chi-4","host":"chi-1.us.uncletopia.com","port":27045,"enabled":true,"region":"us-central","cc":"us","latitude":41.881832,"longitude":-87.62318,"reserved":0,"last_update":"0001-01-01T00:00:00Z","name_a2s":"Uncletopia | Chicago | 4 | All Maps","protocol":17,"map":"pl_frontier_final","folder":"tf","game":"Team Fortress","app_id":440,"player_count":24,"max_players":24,"Bots":0,"server_type":"Dedicated","server_os":"Linux","password":true,"vac":true,"version":"7695204","steam_id":85568392924515193,"keywords":["nocrits","nodmgspread","payload","uncletopia"],"game_id":440,"stv_port":27046,"stv_name":"Uncletopia | Chicago | 4 | All Maps | STV","players":[{"user_id":438,"name":"SSBM Pelican","steam_id":76561198040697907,"connected_time":599000000000,"state":"active","ping":75},{"user_id":387,"name":"Assilio","steam_id":76561198371102414,"connected_time":4793000000000,"state":"active","ping":72},{"user_id":398,"name":"dailyspesh","steam_id":76561197988072369,"connected_time":3722000000000,"state":"active","ping":74},{"user_id":433,"name":"Raydn","steam_id":76561198418414338,"connected_time":827000000000,"state":"active","ping":71},{"user_id":439,"name":"[DATS‚û°] Sugar Meowth","steam_id":76561197995251793,"connected_time":353000000000,"state":"active","ping":90},{"user_id":384,"name":"My controller broke","steam_id":76561198157280577,"connected_time":4853000000000,"state":"active","ping":75},{"user_id":434,"name":"A Rope, for big pits","steam_id":76561198068044782,"connected_time":820000000000,"state":"active","ping":70},{"user_id":432,"name":"Amogous Supreme","steam_id":76561198025476774,"connected_time":1033000000000,"state":"active","ping":102},{"user_id":435,"name":"raya","steam_id":76561198051504581,"connected_time":814000000000,"state":"active","ping":73},{"user_id":374,"name":"Horus","steam_id":76561198166215370,"connected_time":5834000000000,"state":"active","ping":109},{"user_id":436,"name":"Quansen","steam_id":76561198151594550,"connected_time":793000000000,"state":"active","ping":55},{"user_id":437,"name":"Zpan0317","steam_id":76561198243792280,"connected_time":784000000000,"state":"active","ping":60},{"user_id":399,"name":"xxballfondlerxx","steam_id":76561197991546630,"connected_time":3712000000000,"state":"active","ping":45},{"user_id":427,"name":"atserc","steam_id":76561197997570349,"connected_time":1957000000000,"state":"active","ping":99},{"user_id":440,"name":"rlty","steam_id":76561198009395055,"connected_time":295000000000,"state":"active","ping":73},{"user_id":420,"name":"Cassius Money","steam_id":76561197979696414,"connected_time":2563000000000,"state":"active","ping":49},{"user_id":423,"name":"badass skeleten","steam_id":76561198198460711,"connected_time":2283000000000,"state":"active","ping":51},{"user_id":385,"name":"ApertureCity","steam_id":76561198004153607,"connected_time":4848000000000,"state":"active","ping":77},{"user_id":424,"name":"Pierce","steam_id":76561198043747953,"connected_time":2252000000000,"state":"active","ping":60},{"user_id":425,"name":"Rocky","steam_id":76561198048158539,"connected_time":2211000000000,"state":"active","ping":89},{"user_id":284,"name":"McGangBang","steam_id":76561198862379865,"connected_time":14224000000000,"state":"active","ping":57},{"user_id":429,"name":"Virtual-Gamer","steam_id":76561198046628392,"connected_time":1229000000000,"state":"active","ping":93},{"user_id":431,"name":"PapaBluss","steam_id":76561198023499564,"connected_time":1116000000000,"state":"active","ping":51},{"user_id":406,"name":"Chagalicious","steam_id":76561198044128240,"connected_time":3551000000000,"state":"active","ping":77}]},{"server_id":36,"name":"Uncletopia | Chicago | 5 | All Maps","name_short":"chi-5","host":"chi-2.us.uncletopia.com","port":27015,"enabled":true,"region":"us-central","cc":"us","latitude":41.881832,"longitude":-87.62318,"reserved":0,"last_update":"0001-01-01T00:00:00Z","name_a2s":"Uncletopia | Chicago | 5 | All Maps","protocol":17,"map":"pl_upward","folder":"tf","game":"Team Fortress","app_id":440,"player_count":24,"max_players":24,"Bots":0,"server_type":"Dedicated","server_os":"Linux","password":true,"vac":true,"version":"7695204","steam_id":85568392924866362,"keywords":["nocrits","nodmgspread","payload","uncletopia"],"game_id":440,"stv_port":27016,"stv_name":"Uncletopia | Chicago | 5 | All Maps | STV","players":[{"user_id":392,"name":"Spearit5464","steam_id":76561199241807676,"connected_time":237000000000,"state":"active","ping":88},{"user_id":369,"name":"SL164","steam_id":76561197970800276,"connected_time":1807000000000,"state":"active","ping":38},{"user_id":336,"name":"osplo","steam_id":76561198047229461,"connected_time":4044000000000,"state":"active","ping":70},{"user_id":354,"name":"D3AC0N 44","steam_id":76561198115695203,"connected_time":2915000000000,"state":"active","ping":46},{"user_id":383,"name":"SHADOW","steam_id":76561198207768148,"connected_time":1279000000000,"state":"active","ping":104},{"user_id":386,"name":"Lore","steam_id":76561198098407538,"connected_time":766000000000,"state":"active","ping":53},{"user_id":277,"name":"Tideflat","steam_id":76561198179850851,"connected_time":8610000000000,"state":"active","ping":91},{"user_id":391,"name":"PHAL","steam_id":76561197993622012,"connected_time":421000000000,"state":"active","ping":74},{"user_id":375,"name":"ùñöùñé","steam_id":76561198049238840,"connected_time":1692000000000,"state":"active","ping":75},{"user_id":363,"name":"Ping","steam_id":76561199206514106,"connected_time":2492000000000,"state":"active","ping":46},{"user_id":379,"name":"Anth","steam_id":76561198091363063,"connected_time":1625000000000,"state":"active","ping":51},{"user_id":376,"name":"slep.py","steam_id":76561197988287144,"connected_time":1687000000000,"state":"active","ping":60},{"user_id":396,"name":"chilis baby back ribs","steam_id":76561198813516435,"connected_time":100000000000,"state":"active","ping":90},{"user_id":384,"name":"Ralph","steam_id":76561198065860459,"connected_time":1262000000000,"state":"active","ping":76},{"user_id":343,"name":"votre m√®re mdr","steam_id":76561198167299951,"connected_time":3915000000000,"state":"active","ping":75},{"user_id":394,"name":"Rust","steam_id":76561198063959574,"connected_time":178000000000,"state":"active","ping":82},{"user_id":329,"name":"pablo.gonzales.2004","steam_id":76561199217620385,"connected_time":5522000000000,"state":"active","ping":73},{"user_id":388,"name":"ManHandledLemons","steam_id":76561198119547375,"connected_time":658000000000,"state":"active","ping":45},{"user_id":389,"name":"42","steam_id":76561198043965184,"connected_time":562000000000,"state":"active","ping":103},{"user_id":390,"name":"Shaggy Rogers","steam_id":76561198855559452,"connected_time":478000000000,"state":"active","ping":92},{"user_id":382,"name":"Mischief of Rats","steam_id":76561198106307068,"connected_time":1557000000000,"state":"active","ping":53},{"user_id":385,"name":"comet sooicidy","steam_id":76561198025173479,"connected_time":1099000000000,"state":"active","ping":90},{"user_id":395,"name":"johnboi","steam_id":76561198142582772,"connected_time":167000000000,"state":"active","ping":61},{"user_id":350,"name":"Young-OG","steam_id":76561198058800479,"connected_time":3367000000000,"state":"active","ping":81}]},{"server_id":37,"name":"Uncletopia | Chicago | 6 | All Maps","name_short":"chi-6","host":"chi-2.us.uncletopia.com","port":27025,"enabled":true,"region":"us-central","cc":"us","latitude":41.881832,"longitude":-87.62318,"reserved":0,"last_update":"0001-01-01T00:00:00Z","name_a2s":"Uncletopia | Chicago | 6 | All Maps","protocol":17,"map":"pl_barnblitz","folder":"tf","game":"Team Fortress","app_id":440,"player_count":23,"max_players":24,"Bots":0,"server_type":"Dedicated","server_os":"Linux","password":true,"vac":true,"version":"7695204","steam_id":85568392924866363,"keywords":["nocrits","nodmgspread","payload","uncletopia"],"game_id":440,"stv_port":27026,"stv_name":"Uncletopia | Chicago | 6 | All Maps | STV","players":[{"user_id":219,"name":"AlecTheMildlyNotorious","steam_id":76561198010019214,"connected_time":803000000000,"state":"active","ping":45},{"user_id":210,"name":"trans gaming troll (she/her)","steam_id":76561198085410622,"connected_time":1429000000000,"state":"active","ping":98},{"user_id":206,"name":"gyozaking","steam_id":76561197972312696,"connected_time":1816000000000,"state":"active","ping":41},{"user_id":180,"name":"Pep Seeman","steam_id":76561198038393007,"connected_time":4309000000000,"state":"active","ping":50},{"user_id":222,"name":"Phos","steam_id":76561198122339506,"connected_time":756000000000,"state":"active","ping":73},{"user_id":211,"name":"VerociousVee","steam_id":76561198289106015,"connected_time":1397000000000,"state":"active","ping":95},{"user_id":212,"name":"obbeymaster19","steam_id":76561199197244143,"connected_time":1395000000000,"state":"active","ping":84},{"user_id":221,"name":"Miss PeaceTea","steam_id":76561198279236985,"connected_time":789000000000,"state":"active","ping":142},{"user_id":220,"name":"AlecTheNefarious","steam_id":76561198035291230,"connected_time":801000000000,"state":"active","ping":66},{"user_id":207,"name":"MILK MAN","steam_id":76561199012860639,"connected_time":1778000000000,"state":"active","ping":81},{"user_id":197,"name":"Ecliptica","steam_id":76561198171951333,"connected_time":2450000000000,"state":"active","ping":86},{"user_id":154,"name":"Your Local Jester","steam_id":76561199120223717,"connected_time":6490000000000,"state":"active","ping":65},{"user_id":202,"name":"Bulk","steam_id":76561199009814535,"connected_time":2195000000000,"state":"active","ping":73},{"user_id":213,"name":"ICBMonkey","steam_id":76561198033351821,"connected_time":1387000000000,"state":"active","ping":71},{"user_id":214,"name":"lOs","steam_id":76561198994761483,"connected_time":1382000000000,"state":"active","ping":104},{"user_id":226,"name":"Scita","steam_id":76561198066861559,"connected_time":336000000000,"state":"active","ping":65},{"user_id":228,"name":"vaderbento","steam_id":76561198277191465,"connected_time":130000000000,"state":"active","ping":71},{"user_id":217,"name":"sithreis","steam_id":76561198000564263,"connected_time":1337000000000,"state":"active","ping":72},{"user_id":159,"name":"dispentry","steam_id":76561198862784149,"connected_time":6266000000000,"state":"active","ping":54},{"user_id":218,"name":"java","steam_id":76561198030276792,"connected_time":1333000000000,"state":"active","ping":70},{"user_id":196,"name":"DavidBowiesPackage","steam_id":76561198148729253,"connected_time":2562000000000,"state":"active","ping":89},{"user_id":225,"name":"CrisCaffeine","steam_id":76561198868293685,"connected_time":488000000000,"state":"active","ping":94},{"user_id":158,"name":"Balerion the Black Dread","steam_id":76561198003728369,"connected_time":6335000000000,"state":"active","ping":58}]},{"server_id":38,"name":"Uncletopia | Chicago | 7 | No Payload","name_short":"chi-7","host":"chi-2.us.uncletopia.com","port":27035,"enabled":true,"region":"us-central","cc":"us","latitude":41.881832,"longitude":-87.62318,"reserved":0,"last_update":"0001-01-01T00:00:00Z","name_a2s":"Uncletopia | Chicago | 7 | No Payload","protocol":17,"map":"cp_egypt_final","folder":"tf","game":"Team Fortress","app_id":440,"player_count":24,"max_players":24,"Bots":0,"server_type":"Dedicated","server_os":"Linux","password":true,"vac":true,"version":"7695204","steam_id":85568392924866364,"keywords":["cp","nocrits","nodmgspread","uncletopia"],"game_id":440,"stv_port":27036,"stv_name":"Uncletopia | Chicago | 7 | No Payload | STV","players":[{"user_id":75,"name":"Antknee","steam_id":76561198263793809,"connected_time":1926000000000,"state":"active","ping":76},{"user_id":84,"name":"Nexxii (They/She)","steam_id":76561198323633947,"connected_time":1500000000000,"state":"active","ping":80},{"user_id":63,"name":"jojobinks613","steam_id":76561198841293111,"connected_time":3433000000000,"state":"active","ping":48},{"user_id":71,"name":"TheAilingSword","steam_id":76561198250350844,"connected_time":2453000000000,"state":"active","ping":64},{"user_id":88,"name":"MantisTobboggan","steam_id":76561197969447887,"connected_time":772000000000,"state":"active","ping":133},{"user_id":24,"name":"The Hamburger Helper","steam_id":76561199043015346,"connected_time":5355000000000,"state":"active","ping":44},{"user_id":25,"name":"pray tell. dost thou fart?","steam_id":76561198149666258,"connected_time":5346000000000,"state":"active","ping":73},{"user_id":87,"name":"Gues","steam_id":76561198058022955,"connected_time":840000000000,"state":"active","ping":65},{"user_id":89,"name":"TheMadDoctor","steam_id":76561198846198407,"connected_time":478000000000,"state":"active","ping":88},{"user_id":91,"name":"The Goat","steam_id":76561197960432083,"connected_time":286000000000,"state":"active","ping":63},{"user_id":72,"name":"DarkForce8","steam_id":76561198853892261,"connected_time":2241000000000,"state":"active","ping":113},{"user_id":85,"name":"xd","steam_id":76561198216035995,"connected_time":909000000000,"state":"active","ping":155},{"user_id":94,"name":"Alex Narex","steam_id":76561198814364412,"connected_time":120000000000,"state":"active","ping":110},{"user_id":32,"name":"Fred","steam_id":76561197983870604,"connected_time":5056000000000,"state":"active","ping":91},{"user_id":92,"name":"oof man","steam_id":76561199041116412,"connected_time":242000000000,"state":"active","ping":113},{"user_id":35,"name":"Dr.Eggman","steam_id":76561198070858815,"connected_time":4957000000000,"state":"active","ping":47},{"user_id":52,"name":"Azrazel","steam_id":76561198821691005,"connected_time":4222000000000,"state":"active","ping":75},{"user_id":77,"name":"The Convention","steam_id":76561198445006943,"connected_time":1921000000000,"state":"active","ping":85},{"user_id":73,"name":"Anarchy","steam_id":76561199062545363,"connected_time":2218000000000,"state":"active","ping":169},{"user_id":40,"name":"Evolution","steam_id":76561198144767370,"connected_time":4750000000000,"state":"active","ping":49},{"user_id":74,"name":"Retrowave","steam_id":76561198061921346,"connected_time":2206000000000,"state":"active","ping":65},{"user_id":78,"name":"rentobox","steam_id":76561198291587093,"connected_time":1920000000000,"state":"active","ping":85},{"user_id":79,"name":"Mr Plen","steam_id":76561198002292894,"connected_time":1905000000000,"state":"active","ping":69},{"user_id":95,"name":"slayy","steam_id":76561197994492154,"connected_time":101000000000,"state":"active","ping":175}]},{"server_id":39,"name":"Uncletopia | Chicago | 8 | Community","name_short":"chi-8","host":"chi-2.us.uncletopia.com","port":27045,"enabled":true,"region":"us-central","cc":"us","latitude":41.881832,"longitude":-87.62318,"reserved":0,"last_update":"0001-01-01T00:00:00Z","name_a2s":"Uncletopia | Chicago | 8 | Community","protocol":17,"map":"workshop/pl_fifthcurve_rc1.ugc648227046","folder":"tf","game":"Team Fortress","app_id":440,"player_count":3,"max_players":24,"Bots":0,"server_type":"Dedicated","server_os":"Linux","password":true,"vac":true,"version":"7695204","steam_id":85568392924866365,"keywords":["nocrits","nodmgspread","payload","uncletopia"],"game_id":440,"stv_port":27046,"stv_name":"Uncletopia | Chicago | 8 | Community | STV","players":[{"user_id":98,"name":"pa","steam_id":76561198235698718,"connected_time":225000000000,"state":"active","ping":79},{"user_id":94,"name":"bevta","steam_id":76561198081689870,"connected_time":1862000000000,"state":"active","ping":70},{"user_id":97,"name":"Yman830","steam_id":76561199185692465,"connected_time":946000000000,"state":"active","ping":75}]},{"server_id":8,"name":"Uncletopia | Dallas | 1 | All Maps","name_short":"dal-1","host":"dal-1.us.uncletopia.com","port":27015,"enabled":true,"region":"us-central","cc":"us","latitude":32.779167,"longitude":-96.80889,"reserved":0,"last_update":"0001-01-01T00:00:00Z","name_a2s":"Uncletopia | Dallas | 1 | All Maps","protocol":17,"map":"pl_pier","folder":"tf","game":"Team Fortress","app_id":440,"player_count":23,"max_players":24,"Bots":0,"server_type":"Dedicated","server_os":"Linux","password":true,"vac":true,"version":"7695204","steam_id":85568392924469986,"keywords":["nocrits","nodmgspread","payload","uncletopia"],"game_id":440,"stv_port":27016,"stv_name":"Uncletopia | Dallas | 1 | All Maps | STV","players":[{"user_id":374,"name":"coal","steam_id":76561198027252280,"connected_time":4268000000000,"state":"active","ping":55},{"user_id":348,"name":"The Shiv","steam_id":76561198021385778,"connected_time":6570000000000,"state":"active","ping":87},{"user_id":428,"name":"Guwahavel","steam_id":76561198246181902,"connected_time":690000000000,"state":"active","ping":46},{"user_id":422,"name":"–î–æ–∫—Ç–æ—Ä –õ–∏–≤—Å–∏","steam_id":76561199086600844,"connected_time":937000000000,"state":"active","ping":34},{"user_id":429,"name":"ChefBoiHardD","steam_id":76561198139949783,"connected_time":624000000000,"state":"active","ping":98},{"user_id":388,"name":"Smiles","steam_id":76561198107197973,"connected_time":3238000000000,"state":"active","ping":103},{"user_id":426,"name":"DUCKY PUPPET","steam_id":76561198030119710,"connected_time":791000000000,"state":"active","ping":128},{"user_id":418,"name":"The Krinkler","steam_id":76561198020308956,"connected_time":964000000000,"state":"active","ping":62},{"user_id":399,"name":"RYMAXRULES","steam_id":76561198841603682,"connected_time":2714000000000,"state":"active","ping":95},{"user_id":423,"name":"+","steam_id":76561198262422184,"connected_time":936000000000,"state":"active","ping":52},{"user_id":411,"name":"Tirlby","steam_id":76561198045231233,"connected_time":1770000000000,"state":"active","ping":80},{"user_id":407,"name":"SpinnerSpecial","steam_id":76561198065661869,"connected_time":1980000000000,"state":"active","ping":98},{"user_id":389,"name":"Ascendance","steam_id":76561198065357068,"connected_time":3235000000000,"state":"active","ping":104},{"user_id":417,"name":"iluvtoust","steam_id":76561198869269207,"connected_time":970000000000,"state":"active","ping":52},{"user_id":397,"name":"gibbon divorce","steam_id":76561198046111695,"connected_time":2885000000000,"state":"active","ping":44},{"user_id":431,"name":"plink","steam_id":76561198057829889,"connected_time":35000000000,"state":"active","ping":46},{"user_id":414,"name":"Spaceman","steam_id":76561198098025074,"connected_time":1559000000000,"state":"active","ping":51},{"user_id":425,"name":"GameGuru the Green Gryphon","steam_id":76561198118495354,"connected_time":877000000000,"state":"active","ping":64},{"user_id":416,"name":"JUCE","steam_id":76561198057835518,"connected_time":1119000000000,"state":"active","ping":46},{"user_id":381,"name":"Van Tastic","steam_id":76561198063855523,"connected_time":3774000000000,"state":"active","ping":45},{"user_id":345,"name":"The Phoenix Commissar | APP","steam_id":76561198013286146,"connected_time":6857000000000,"state":"active","ping":55},{"user_id":419,"name":"Apollo","steam_id":76561199051493681,"connected_time":964000000000,"state":"active","ping":32},{"user_id":420,"name":"Levi","steam_id":76561198089832776,"connected_time":964000000000,"state":"active","ping":54}]},{"server_id":108,"name":"Uncletopia | Dallas | 2 | All Maps","name_short":"dal-2","host":"dal-1.us.uncletopia.com","port":27025,"enabled":true,"region":"us-central","cc":"us","latitude":32.779167,"longitude":-96.80889,"reserved":0,"last_update":"0001-01-01T00:00:00Z","name_a2s":"Uncletopia | Dallas | 2 | All Maps","protocol":17,"map":"koth_nucleus","folder":"tf","game":"Team Fortress","app_id":440,"player_count":14,"max_players":24,"Bots":0,"server_type":"Dedicated","server_os":"Linux","password":true,"vac":true,"version":"7695204","steam_id":85568392924469988,"keywords":["cp","nocrits","nodmgspread","uncletopia"],"game_id":440,"stv_port":27026,"stv_name":"Uncletopia | Dallas | 2 | All Maps | STV","players":[{"user_id":358,"name":"smugdoug","steam_id":76561198021381678,"connected_time":388000000000,"state":"active","ping":79},{"user_id":342,"name":"Mr Doctor","steam_id":76561199014497193,"connected_time":2215000000000,"state":"active","ping":67},{"user_id":281,"name":"xX_matias.gamer_Xx","steam_id":76561199187226776,"connected_time":6391000000000,"state":"active","ping":51},{"user_id":363,"name":"skyttle","steam_id":76561198069153352,"connected_time":1000000000,"state":"spawning","ping":74},{"user_id":359,"name":"Varius","steam_id":76561198384409154,"connected_time":159000000000,"state":"active","ping":44},{"user_id":360,"name":"Zaid","steam_id":76561199142840666,"connected_time":140000000000,"state":"active","ping":155},{"user_id":348,"name":"kloo_","steam_id":76561199090218013,"connected_time":1817000000000,"state":"active","ping":60},{"user_id":340,"name":"Lospolloshermano","steam_id":76561199157627437,"connected_time":2324000000000,"state":"active","ping":69},{"user_id":361,"name":"Dr. Bonair","steam_id":76561198129237487,"connected_time":97000000000,"state":"active","ping":63},{"user_id":362,"name":"weed woman (smokes weed)","steam_id":76561198036901822,"connected_time":45000000000,"state":"active","ping":48},{"user_id":352,"name":"Dripless The Poor","steam_id":76561198090546454,"connected_time":1548000000000,"state":"active","ping":74},{"user_id":322,"name":"Digit","steam_id":76561198156589157,"connected_time":3977000000000,"state":"active","ping":81},{"user_id":341,"name":"CaptainSquables","steam_id":76561198113869000,"connected_time":2297000000000,"state":"active","ping":60},{"user_id":319,"name":"craf","steam_id":76561198163535075,"connected_time":4033000000000,"state":"active","ping":95}]},{"server_id":5,"name":"Uncletopia | Frankfurt | 1 | All Maps","name_short":"frk-1","host":"frk-1.de.uncletopia.com","port":27015,"enabled":true,"region":"eu","cc":"de","latitude":50.110924,"longitude":8.682127,"reserved":0,"last_update":"0001-01-01T00:00:00Z","name_a2s":"Uncletopia | Frankfurt | 1 | All Maps","protocol":17,"map":"cp_mountainlab","folder":"tf","game":"Team Fortress","app_id":440,"player_count":0,"max_players":24,"Bots":0,"server_type":"Dedicated","server_os":"Linux","password":true,"vac":true,"version":"7695204","steam_id":85568392924469989,"keywords":["cp","nocrits","nodmgspread","uncletopia"],"game_id":440,"stv_port":27016,"stv_name":"Uncletopia | Frankfurt | 1 | All Maps | STV","players":null},{"server_id":110,"name":"Uncletopia | Frankfurt | 2 | All Maps","name_short":"frk-2","host":"frk-1.de.uncletopia.com","port":27025,"enabled":true,"region":"eu","cc":"de","latitude":50.110924,"longitude":8.682127,"reserved":0,"last_update":"0001-01-01T00:00:00Z","name_a2s":"Uncletopia | Frankfurt | 2 | All Maps","protocol":17,"map":"koth_viaduct","folder":"tf","game":"Team Fortress","app_id":440,"player_count":0,"max_players":24,"Bots":0,"server_type":"Dedicated","server_os":"Linux","password":true,"vac":true,"version":"7695204","steam_id":85568392924469990,"keywords":["cp","nocrits","nodmgspread","uncletopia"],"game_id":440,"stv_port":27026,"stv_name":"Uncletopia | Frankfurt | 2 | All Maps | STV","players":null},{"server_id":308,"name":"Uncletopia | Frankfurt | 3 | All Maps","name_short":"frk-3","host":"frk-1.de.uncletopia.com","port":27035,"enabled":true,"region":"eu","cc":"de","latitude":50.110924,"longitude":8.682127,"reserved":0,"last_update":"0001-01-01T00:00:00Z","name_a2s":"Uncletopia | Frankfurt | 3 | All Maps","protocol":17,"map":"koth_lakeside_final","folder":"tf","game":"Team Fortress","app_id":440,"player_count":0,"max_players":24,"Bots":0,"server_type":"Dedicated","server_os":"Linux","password":true,"vac":true,"version":"7695204","steam_id":85568392924504274,"keywords":["cp","nocrits","nodmgspread","uncletopia"],"game_id":440,"stv_port":27036,"stv_name":"Uncletopia | Frankfurt | 3 | All Maps | STV","players":null},{"server_id":309,"name":"Uncletopia | Frankfurt | 4 | All Maps","name_short":"frk-4","host":"frk-1.de.uncletopia.com","port":27045,"enabled":true,"region":"eu","cc":"de","latitude":50.110924,"longitude":8.682127,"reserved":0,"last_update":"0001-01-01T00:00:00Z","name_a2s":"Uncletopia | Frankfurt | 4 | All Maps","protocol":17,"map":"koth_cascade","folder":"tf","game":"Team Fortress","app_id":440,"player_count":0,"max_players":24,"Bots":0,"server_type":"Dedicated","server_os":"Linux","password":true,"vac":true,"version":"7695204","steam_id":85568392924504275,"keywords":["cp","nocrits","nodmgspread","uncletopia"],"game_id":440,"stv_port":27046,"stv_name":"Uncletopia | Frankfurt | 4 | All Maps | STV","players":null},{"server_id":310,"name":"Uncletopia | Frankfurt | 5 | All Maps","name_short":"frk-5","host":"frk-1.de.uncletopia.com","port":27055,"enabled":true,"region":"eu","cc":"de","latitude":50.110924,"longitude":8.682127,"reserved":0,"last_update":"0001-01-01T00:00:00Z","name_a2s":"Uncletopia | Frankfurt | 5 | All Maps","protocol":17,"map":"koth_cascade","folder":"tf","game":"Team Fortress","app_id":440,"player_count":0,"max_players":24,"Bots":0,"server_type":"Dedicated","server_os":"Linux","password":true,"vac":true,"version":"7695204","steam_id":85568392924504277,"keywords":["cp","nocrits","nodmgspread","uncletopia"],"game_id":440,"stv_port":27056,"stv_name":"Uncletopia | Frankfurt | 5 | All Maps | STV","players":null},{"server_id":311,"name":"Uncletopia | Frankfurt | 6 | All Maps","name_short":"frk-6","host":"frk-1.de.uncletopia.com","port":27065,"enabled":true,"region":"eu","cc":"de","latitude":50.110924,"longitude":8.682127,"reserved":0,"last_update":"0001-01-01T00:00:00Z","name_a2s":"Uncletopia | Frankfurt | 6 | All Maps","protocol":17,"map":"cp_snakewater_final1","folder":"tf","game":"Team Fortress","app_id":440,"player_count":0,"max_players":24,"Bots":0,"server_type":"Dedicated","server_os":"Linux","password":true,"vac":true,"version":"7695204","steam_id":85568392924504278,"keywords":["cp","nocrits","nodmgspread","uncletopia"],"game_id":440,"stv_port":27066,"stv_name":"Uncletopia | Frankfurt | 6 | All Maps | STV","players":null},{"server_id":23,"name":"Uncletopia | Frankfurt | 7 | No Payload","name_short":"frk-7","host":"frk-1.de.uncletopia.com","port":27075,"enabled":true,"region":"eu","cc":"de","latitude":50.110924,"longitude":8.682127,"reserved":0,"last_update":"0001-01-01T00:00:00Z","name_a2s":"Uncletopia | Frankfurt | 7 | No Payload","protocol":17,"map":"plr_hightower","folder":"tf","game":"Team Fortress","app_id":440,"player_count":0,"max_players":24,"Bots":0,"server_type":"Dedicated","server_os":"Linux","password":true,"vac":true,"version":"7695204","steam_id":85568392924742827,"keywords":["nocrits","nodmgspread","payload","uncletopia"],"game_id":440,"stv_port":27076,"stv_name":"Uncletopia | Frankfurt | 7 | No Payload | STV","players":null},{"server_id":24,"name":"Uncletopia | Frankfurt | 8 | Community","name_short":"frk-8","host":"frk-1.de.uncletopia.com","port":27085,"enabled":true,"region":"eu","cc":"de","latitude":50.110924,"longitude":8.682127,"reserved":0,"last_update":"0001-01-01T00:00:00Z","name_a2s":"Uncletopia | Frankfurt | 8 | Community","protocol":17,"map":"koth_lakeside_final","folder":"tf","game":"Team Fortress","app_id":440,"player_count":0,"max_players":24,"Bots":0,"server_type":"Dedicated","server_os":"Linux","password":true,"vac":true,"version":"7695204","steam_id":85568392924742828,"keywords":["cp","nocrits","nodmgspread","uncletopia"],"game_id":440,"stv_port":0,"stv_name":"","players":null},{"server_id":202,"name":"Uncletopia | Hong Kong | 1 | All Maps","name_short":"hgk-1","host":"hgk-1.hk.uncletopia.com","port":27015,"enabled":true,"region":"asia","cc":"hk","latitude":22.302711,"longitude":114.177216,"reserved":0,"last_update":"0001-01-01T00:00:00Z","name_a2s":"Uncletopia | Hong Kong | 1 | All Maps","protocol":17,"map":"pl_upward","folder":"tf","game":"Team Fortress","app_id":440,"player_count":14,"max_players":24,"Bots":0,"server_type":"Dedicated","server_os":"Linux","password":true,"vac":true,"version":"7695204","steam_id":85568392924494504,"keywords":["nocrits","nodmgspread","payload","uncletopia"],"game_id":440,"stv_port":27016,"stv_name":"Uncletopia | Hong Kong | 1 | All Maps | STV","players":[{"user_id":154,"name":"99999999999999999999","steam_id":76561199438407706,"connected_time":546000000000,"state":"active","ping":88},{"user_id":156,"name":"TW Grenade","steam_id":76561198027659491,"connected_time":348000000000,"state":"active","ping":60},{"user_id":157,"name":"ÁÖôÊµ∑ | Enkai","steam_id":76561198050460825,"connected_time":191000000000,"state":"active","ping":78},{"user_id":141,"name":"KillerKurt64(F2p)#SaveTf2","steam_id":76561199225224942,"connected_time":1347000000000,"state":"active","ping":76},{"user_id":142,"name":"Not So Balanced","steam_id":76561199404958139,"connected_time":1324000000000,"state":"active","ping":123},{"user_id":153,"name":"Teampangit","steam_id":76561198087774626,"connected_time":658000000000,"state":"active","ping":80},{"user_id":158,"name":"Miniature Medic","steam_id":76561199073984594,"connected_time":20000000000,"state":"spawning","ping":75},{"user_id":159,"name":"mercenary","steam_id":76561198977389874,"connected_time":4000000000,"state":"spawning","ping":260},{"user_id":150,"name":"Sperky","steam_id":76561199234527388,"connected_time":746000000000,"state":"active","ping":81},{"user_id":79,"name":"hornblende","steam_id":76561199200797337,"connected_time":7107000000000,"state":"active","ping":43},{"user_id":137,"name":"‚òÖscoutie‚çü","steam_id":76561198819218675,"connected_time":1731000000000,"state":"active","ping":89},{"user_id":128,"name":"2232","steam_id":76561198074339034,"connected_time":2500000000000,"state":"active","ping":75},{"user_id":44,"name":"MS PowerPoint","steam_id":76561198369523192,"connected_time":9865000000000,"state":"active","ping":60},{"user_id":78,"name":"bakabazooka(badplayer)","steam_id":76561198061628689,"connected_time":7504000000000,"state":"active","ping":47}]},{"server_id":1,"name":"Uncletopia | Los Angeles | 1 | All Maps","name_short":"lax-1","host":"lax-1.us.uncletopia.com","port":27015,"enabled":true,"region":"us-west","cc":"us","latitude":33.94279,"longitude":-118.41004,"reserved":0,"last_update":"0001-01-01T00:00:00Z","name_a2s":"Uncletopia | Los Angeles | 1 | All Maps","protocol":17,"map":"pl_badwater","folder":"tf","game":"Team Fortress","app_id":440,"player_count":24,"max_players":24,"Bots":0,"server_type":"Dedicated","server_os":"Linux","password":true,"vac":true,"version":"7695204","steam_id":85568392924469991,"keywords":["nocrits","nodmgspread","payload","uncletopia"],"game_id":440,"stv_port":27016,"stv_name":"Uncletopia | Los Angeles | 1 | All Maps | STV","players":[{"user_id":63,"name":"grumbo","steam_id":76561198428029447,"connected_time":3901000000000,"state":"active","ping":62},{"user_id":119,"name":"Wirt","steam_id":76561198272327629,"connected_time":1663000000000,"state":"active","ping":52},{"user_id":70,"name":"Goofy","steam_id":76561198853442506,"connected_time":3697000000000,"state":"active","ping":94},{"user_id":129,"name":"An00bis","steam_id":76561198044084508,"connected_time":1336000000000,"state":"active","ping":55},{"user_id":94,"name":"Mao Zedong","steam_id":76561199156131540,"connected_time":2540000000000,"state":"active","ping":124},{"user_id":124,"name":"Tw1tch3r","steam_id":76561199093785937,"connected_time":1526000000000,"state":"active","ping":62},{"user_id":105,"name":"Verde","steam_id":76561198035623915,"connected_time":2061000000000,"state":"active","ping":85},{"user_id":137,"name":"Justin","steam_id":76561198110865423,"connected_time":842000000000,"state":"active","ping":46},{"user_id":138,"name":"Weakest Uncletopia Demo","steam_id":76561198236109724,"connected_time":371000000000,"state":"active","ping":59},{"user_id":130,"name":"dewey","steam_id":76561198132791511,"connected_time":1242000000000,"state":"active","ping":50},{"user_id":87,"name":"FROYO b4nny","steam_id":76561197970669109,"connected_time":2760000000000,"state":"active","ping":49},{"user_id":69,"name":"Spaghetti Cat","steam_id":76561198027168510,"connected_time":3740000000000,"state":"active","ping":70},{"user_id":123,"name":"pooping.peter.2009","steam_id":76561198171368867,"connected_time":1544000000000,"state":"active","ping":52},{"user_id":132,"name":"Navigatxr","steam_id":76561199185153789,"connected_time":974000000000,"state":"active","ping":51},{"user_id":73,"name":"Furious George","steam_id":76561198405111646,"connected_time":3357000000000,"state":"active","ping":54},{"user_id":103,"name":"HAT-WEARING‚Ñ¢ Maggot Gamer Cat","steam_id":76561197973992705,"connected_time":2251000000000,"state":"active","ping":62},{"user_id":139,"name":"Aspect1","steam_id":76561199006943927,"connected_time":224000000000,"state":"active","ping":45},{"user_id":134,"name":"walrooos ‚úø","steam_id":76561198024521839,"connected_time":871000000000,"state":"active","ping":47},{"user_id":77,"name":"Your childhood","steam_id":76561198799385466,"connected_time":3268000000000,"state":"active","ping":109},{"user_id":118,"name":"Jaded","steam_id":76561198272575611,"connected_time":1682000000000,"state":"active","ping":91},{"user_id":100,"name":"Xi Jinping","steam_id":76561198296780401,"connected_time":2372000000000,"state":"active","ping":64},{"user_id":82,"name":"Bluedemons","steam_id":76561199212058684,"connected_time":3080000000000,"state":"active","ping":59},{"user_id":83,"name":"flo rida","steam_id":76561198226169704,"connected_time":3079000000000,"state":"active","ping":50},{"user_id":125,"name":"Sparks","steam_id":76561198050950496,"connected_time":1514000000000,"state":"active","ping":84}]},{"server_id":112,"name":"Uncletopia | Los Angeles | 2 | All Maps","name_short":"lax-2","host":"lax-1.us.uncletopia.com","port":27025,"enabled":true,"region":"us-west","cc":"us","latitude":33.94279,"longitude":-118.41004,"reserved":0,"last_update":"0001-01-01T00:00:00Z","name_a2s":"Uncletopia | Los Angeles | 2 | All Maps","protocol":17,"map":"pl_badwater","folder":"tf","game":"Team Fortress","app_id":440,"player_count":0,"max_players":24,"Bots":0,"server_type":"Dedicated","server_os":"Linux","password":true,"vac":true,"version":"7695204","steam_id":85568392924469992,"keywords":["nocrits","nodmgspread","payload","uncletopia"],"game_id":440,"stv_port":27026,"stv_name":"Uncletopia | Los Angeles | 2 | All Maps | STV","players":null},{"server_id":324,"name":"Uncletopia | Los Angeles | 3 | All Maps","name_short":"lax-3","host":"lax-1.us.uncletopia.com","port":27035,"enabled":true,"region":"us-west","cc":"us","latitude":33.94279,"longitude":-118.41004,"reserved":0,"last_update":"0001-01-01T00:00:00Z","name_a2s":"Uncletopia | Los Angeles | 3 | All Maps","protocol":17,"map":"koth_cascade","folder":"tf","game":"Team Fortress","app_id":440,"player_count":0,"max_players":24,"Bots":0,"server_type":"Dedicated","server_os":"Linux","password":true,"vac":true,"version":"7695204","steam_id":85568392924510198,"keywords":["cp","nocrits","nodmgspread","uncletopia"],"game_id":440,"stv_port":27036,"stv_name":"Uncletopia | Los Angeles | 3 | All Maps | STV","players":null},{"server_id":25,"name":"Uncletopia | Los Angeles | 4 | No Payload","name_short":"lax-4","host":"lax-1.us.uncletopia.com","port":27045,"enabled":true,"region":"us-west","cc":"us","latitude":33.94279,"longitude":-118.41004,"reserved":0,"last_update":"0001-01-01T00:00:00Z","name_a2s":"Uncletopia | Los Angeles | 4 | No Payload","protocol":17,"map":"cp_process_final","folder":"tf","game":"Team Fortress","app_id":440,"player_count":2,"max_players":24,"Bots":0,"server_type":"Dedicated","server_os":"Linux","password":true,"vac":true,"version":"7695204","steam_id":85568392924510199,"keywords":["cp","nocrits","nodmgspread","uncletopia"],"game_id":440,"stv_port":27046,"stv_name":"Uncletopia | Los Angeles | 4 | No Payload | STV","players":[{"user_id":81,"name":"PersonWhoJustDiedMaybeIDontKnow","steam_id":76561199109564855,"connected_time":387000000000,"state":"active","ping":91},{"user_id":82,"name":"Zaya7709","steam_id":76561199274247868,"connected_time":361000000000,"state":"active","ping":129}]},{"server_id":11,"name":"Uncletopia | London | 1 | All Maps","name_short":"lon-1","host":"lon-1.uk.uncletopia.com","port":27015,"enabled":true,"region":"eu","cc":"gb","latitude":51.509865,"longitude":-0.118092,"reserved":0,"last_update":"0001-01-01T00:00:00Z","name_a2s":"Uncletopia | London | 1 | All Maps","protocol":17,"map":"pl_swiftwater_final1","folder":"tf","game":"Team Fortress","app_id":440,"player_count":15,"max_players":24,"Bots":0,"server_type":"Dedicated","server_os":"Linux","password":true,"vac":true,"version":"7695204","steam_id":85568392924367362,"keywords":["nocrits","nodmgspread","payload","uncletopia"],"game_id":440,"stv_port":27016,"stv_name":"Uncletopia | London | 1 | All Maps | STV","players":[{"user_id":461,"name":"Hammy","steam_id":76561198158585628,"connected_time":3737000000000,"state":"active","ping":40},{"user_id":398,"name":"Grey","steam_id":76561198187190267,"connected_time":9246000000000,"state":"active","ping":44},{"user_id":456,"name":"DrHappiness","steam_id":76561198132854516,"connected_time":4078000000000,"state":"active","ping":41},{"user_id":500,"name":"varven","steam_id":76561197965907387,"connected_time":214000000000,"state":"active","ping":47},{"user_id":494,"name":"Severeburrito16","steam_id":76561198353155991,"connected_time":1148000000000,"state":"active","ping":121},{"user_id":474,"name":"PyroShark #savetf2","steam_id":76561198386154179,"connected_time":2466000000000,"state":"active","ping":57},{"user_id":231,"name":"nalapl3","steam_id":76561198197607383,"connected_time":21734000000000,"state":"active","ping":66},{"user_id":501,"name":"Schmax_zockt603","steam_id":76561198397898616,"connected_time":98000000000,"state":"active","ping":60},{"user_id":499,"name":"The Office","steam_id":76561198109422481,"connected_time":630000000000,"state":"active","ping":54},{"user_id":502,"name":"when gaming","steam_id":76561198101120557,"connected_time":64000000000,"state":"spawning","ping":71},{"user_id":457,"name":"rat performance","steam_id":76561198065854668,"connected_time":4078000000000,"state":"active","ping":40},{"user_id":476,"name":"y√ºseong","steam_id":76561198040588109,"connected_time":2407000000000,"state":"active","ping":75},{"user_id":477,"name":"pl_badwater","steam_id":76561198152184280,"connected_time":2256000000000,"state":"active","ping":47},{"user_id":468,"name":"schizo gamer moment","steam_id":76561199414716848,"connected_time":3237000000000,"state":"active","ping":85},{"user_id":488,"name":"Kaizah Kuma","steam_id":76561198822640882,"connected_time":1591000000000,"state":"active","ping":40}]},{"server_id":114,"name":"Uncletopia | London | 2 | All Maps","name_short":"lon-2","host":"lon-1.uk.uncletopia.com","port":27025,"enabled":true,"region":"eu","cc":"gb","latitude":51.509865,"longitude":-0.118092,"reserved":0,"last_update":"0001-01-01T00:00:00Z","name_a2s":"Uncletopia | London | 2 | All Maps","protocol":17,"map":"koth_viaduct","folder":"tf","game":"Team Fortress","app_id":440,"player_count":0,"max_players":24,"Bots":0,"server_type":"Dedicated","server_os":"Linux","password":true,"vac":true,"version":"7695204","steam_id":85568392924470941,"keywords":["cp","nocrits","nodmgspread","uncletopia"],"game_id":440,"stv_port":27026,"stv_name":"Uncletopia | London | 2 | All Maps | STV","players":null},{"server_id":320,"name":"Uncletopia | London | 3 | All Maps","name_short":"lon-3","host":"lon-1.uk.uncletopia.com","port":27035,"enabled":true,"region":"eu","cc":"gb","latitude":51.509865,"longitude":-0.118092,"reserved":0,"last_update":"0001-01-01T00:00:00Z","name_a2s":"Uncletopia | London | 3 | All Maps","protocol":17,"map":"cp_mountainlab","folder":"tf","game":"Team Fortress","app_id":440,"player_count":2,"max_players":24,"Bots":0,"server_type":"Dedicated","server_os":"Linux","password":true,"vac":true,"version":"7695204","steam_id":85568392924510192,"keywords":["cp","nocrits","nodmgspread","uncletopia"],"game_id":440,"stv_port":27036,"stv_name":"Uncletopia | London | 3 | All Maps | STV","players":[{"user_id":301,"name":"grammerca2","steam_id":76561198993241319,"connected_time":1088000000000,"state":"active","ping":164},{"user_id":302,"name":"DjGamz","steam_id":76561198934740864,"connected_time":1082000000000,"state":"active","ping":152}]},{"server_id":321,"name":"Uncletopia | London | 4 | All Maps","name_short":"lon-4","host":"lon-1.uk.uncletopia.com","port":27045,"enabled":true,"region":"eu","cc":"gb","latitude":51.509865,"longitude":-0.118092,"reserved":0,"last_update":"0001-01-01T00:00:00Z","name_a2s":"Uncletopia | London | 4 | All Maps","protocol":17,"map":"koth_cascade","folder":"tf","game":"Team Fortress","app_id":440,"player_count":0,"max_players":24,"Bots":0,"server_type":"Dedicated","server_os":"Linux","password":true,"vac":true,"version":"7695204","steam_id":85568392924510193,"keywords":["cp","nocrits","nodmgspread","uncletopia"],"game_id":440,"stv_port":27046,"stv_name":"Uncletopia | London | 4 | All Maps | STV","players":null},{"server_id":21,"name":"Uncletopia | London | 5 | All Maps","name_short":"lon-5","host":"lon-1.uk.uncletopia.com","port":27055,"enabled":true,"region":"eu","cc":"gb","latitude":51.509865,"longitude":-0.118092,"reserved":0,"last_update":"0001-01-01T00:00:00Z","name_a2s":"Uncletopia | London | 5 | All Maps","protocol":17,"map":"koth_cascade","folder":"tf","game":"Team Fortress","app_id":440,"player_count":0,"max_players":24,"Bots":0,"server_type":"Dedicated","server_os":"Linux","password":true,"vac":true,"version":"7695204","steam_id":85568392924742829,"keywords":["cp","nocrits","nodmgspread","uncletopia"],"game_id":440,"stv_port":0,"stv_name":"","players":null},{"server_id":22,"name":"Uncletopia | London | 6 | All Maps","name_short":"lon-6","host":"lon-1.uk.uncletopia.com","port":27065,"enabled":true,"region":"eu","cc":"gb","latitude":51.509865,"longitude":-0.118092,"reserved":0,"last_update":"0001-01-01T00:00:00Z","name_a2s":"Uncletopia | London | 6 | All Maps","protocol":17,"map":"plr_bananabay","folder":"tf","game":"Team Fortress","app_id":440,"player_count":0,"max_players":24,"Bots":0,"server_type":"Dedicated","server_os":"Linux","password":true,"vac":true,"version":"7695204","steam_id":85568392924742830,"keywords":["nocrits","nodmgspread","payload","uncletopia"],"game_id":440,"stv_port":27066,"stv_name":"Uncletopia | London | 6 | All Maps | STV","players":null},{"server_id":40,"name":"Uncletopia | London | 7 | No Payload","name_short":"lon-7","host":"lon-1.uk.uncletopia.com","port":27075,"enabled":true,"region":"eu","cc":"gb","latitude":51.509865,"longitude":-0.118092,"reserved":0,"last_update":"0001-01-01T00:00:00Z","name_a2s":"Uncletopia | London | 7 | No Payload","protocol":17,"map":"koth_sawmill","folder":"tf","game":"Team Fortress","app_id":440,"player_count":0,"max_players":24,"Bots":0,"server_type":"Dedicated","server_os":"Linux","password":true,"vac":true,"version":"7695204","steam_id":85568392924964314,"keywords":["cp","nocrits","nodmgspread","uncletopia"],"game_id":440,"stv_port":27076,"stv_name":"Uncletopia | London | 7 | No Payload | STV","players":null},{"server_id":41,"name":"Uncletopia | London | 8 | Community","name_short":"lon-8","host":"lon-1.uk.uncletopia.com","port":27085,"enabled":true,"region":"eu","cc":"gb","latitude":51.509865,"longitude":-0.118092,"reserved":0,"last_update":"0001-01-01T00:00:00Z","name_a2s":"Uncletopia | London | 8 | Community","protocol":17,"map":"cp_dustbowl","folder":"tf","game":"Team Fortress","app_id":440,"player_count":0,"max_players":24,"Bots":0,"server_type":"Dedicated","server_os":"Linux","password":true,"vac":true,"version":"7695204","steam_id":85568392924964315,"keywords":["cp","nocrits","nodmgspread","uncletopia"],"game_id":440,"stv_port":0,"stv_name":"","players":null},{"server_id":300,"name":"Uncletopia | Montr√©al | 1 | All Maps","name_short":"mtl-1","host":"mtl-1.ca.uncletopia.com","port":27015,"enabled":true,"region":"us-east","cc":"ca","latitude":45.50889,"longitude":-73.56167,"reserved":0,"last_update":"0001-01-01T00:00:00Z","name_a2s":"Uncletopia | Montr√©al | 1 | All Maps","protocol":17,"map":"koth_highpass","folder":"tf","game":"Team Fortress","app_id":440,"player_count":0,"max_players":24,"Bots":0,"server_type":"Dedicated","server_os":"Linux","password":true,"vac":true,"version":"7695204","steam_id":85568392924500087,"keywords":["cp","nocrits","nodmgspread","uncletopia"],"game_id":440,"stv_port":27016,"stv_name":"Uncletopia | Montr√©al | 1 | All Maps | STV","players":null},{"server_id":301,"name":"Uncletopia | Montr√©al | 2 | All Maps","name_short":"mtl-2","host":"mtl-1.ca.uncletopia.com","port":27025,"enabled":true,"region":"us-east","cc":"ca","latitude":45.50889,"longitude":-73.56167,"reserved":0,"last_update":"0001-01-01T00:00:00Z","name_a2s":"Uncletopia | Montr√©al | 2 | All Maps","protocol":17,"map":"koth_lakeside_final","folder":"tf","game":"Team Fortress","app_id":440,"player_count":0,"max_players":24,"Bots":0,"server_type":"Dedicated","server_os":"Linux","password":true,"vac":true,"version":"7695204","steam_id":85568392924500088,"keywords":["cp","nocrits","nodmgspread","uncletopia"],"game_id":440,"stv_port":27026,"stv_name":"Uncletopia | Montr√©al | 2 | All Maps | STV","players":null},{"server_id":302,"name":"Uncletopia | Montr√©al | 3 | All Maps","name_short":"mtl-3","host":"mtl-1.ca.uncletopia.com","port":27035,"enabled":true,"region":"us-east","cc":"ca","latitude":45.50889,"longitude":-73.56167,"reserved":0,"last_update":"0001-01-01T00:00:00Z","name_a2s":"Uncletopia | Montr√©al | 3 | All Maps","protocol":17,"map":"koth_viaduct","folder":"tf","game":"Team Fortress","app_id":440,"player_count":3,"max_players":24,"Bots":0,"server_type":"Dedicated","server_os":"Linux","password":true,"vac":true,"version":"7695204","steam_id":85568392924500089,"keywords":["cp","nocrits","nodmgspread","uncletopia"],"game_id":440,"stv_port":0,"stv_name":"","players":[{"user_id":20,"name":"jakexsists","steam_id":76561199025696785,"connected_time":549000000000,"state":"active","ping":82},{"user_id":21,"name":"muffetsimp3","steam_id":76561199388694376,"connected_time":533000000000,"state":"active","ping":87},{"user_id":22,"name":"DIELL","steam_id":76561198079269886,"connected_time":105000000000,"state":"active","ping":64}]},{"server_id":303,"name":"Uncletopia | Montr√©al | 4 | No Payload","name_short":"mtl-4","host":"mtl-1.ca.uncletopia.com","port":27045,"enabled":true,"region":"us-east","cc":"ca","latitude":45.50889,"longitude":-73.56167,"reserved":0,"last_update":"0001-01-01T00:00:00Z","name_a2s":"Uncletopia | Montr√©al | 4 | No Payload","protocol":17,"map":"cp_standin_final","folder":"tf","game":"Team Fortress","app_id":440,"player_count":0,"max_players":24,"Bots":0,"server_type":"Dedicated","server_os":"Linux","password":true,"vac":true,"version":"7695204","steam_id":85568392924500090,"keywords":["cp","nocrits","nodmgspread","uncletopia"],"game_id":440,"stv_port":27046,"stv_name":"Uncletopia | Montr√©al | 4 | No Payload | STV","players":null},{"server_id":13,"name":"Uncletopia | New York City | 1 | All Maps","name_short":"nyc-1","host":"nyc-1.us.uncletopia.com","port":27015,"enabled":true,"region":"us-east","cc":"us","latitude":40.73061,"longitude":-73.93524,"reserved":0,"last_update":"0001-01-01T00:00:00Z","name_a2s":"Uncletopia | New York City | 1 | All Maps","protocol":17,"map":"ctf_well","folder":"tf","game":"Team Fortress","app_id":440,"player_count":20,"max_players":24,"Bots":0,"server_type":"Dedicated","server_os":"Linux","password":true,"vac":true,"version":"7695204","steam_id":85568392924469993,"keywords":["ctf","nocrits","nodmgspread","uncletopia"],"game_id":440,"stv_port":27016,"stv_name":"Uncletopia | New York City | 1 | All Maps | STV","players":[{"user_id":382,"name":"slowboygofast","steam_id":76561198004907943,"connected_time":3115000000000,"state":"active","ping":53},{"user_id":413,"name":"Super Nintendo Chalmers","steam_id":76561197965489606,"connected_time":631000000000,"state":"active","ping":97},{"user_id":420,"name":"Poopy-Head","steam_id":76561198875794824,"connected_time":178000000000,"state":"active","ping":76},{"user_id":361,"name":"crupe","steam_id":76561198032582983,"connected_time":4279000000000,"state":"active","ping":60},{"user_id":407,"name":"whisperr","steam_id":76561198147342700,"connected_time":830000000000,"state":"active","ping":68},{"user_id":406,"name":"jinsa315","steam_id":76561199433723319,"connected_time":845000000000,"state":"active","ping":58},{"user_id":374,"name":"Lancewiu","steam_id":76561198010985573,"connected_time":3489000000000,"state":"active","ping":39},{"user_id":411,"name":"Chechens Spotted","steam_id":76561199028910893,"connected_time":680000000000,"state":"active","ping":70},{"user_id":412,"name":"Ether","steam_id":76561198054806528,"connected_time":679000000000,"state":"active","ping":49},{"user_id":425,"name":"squid game","steam_id":76561199248960166,"connected_time":95000000000,"state":"active","ping":104},{"user_id":416,"name":"jackskywalker10","steam_id":76561198176851907,"connected_time":546000000000,"state":"active","ping":45},{"user_id":417,"name":"B E H I N D  Y O U","steam_id":76561199094085006,"connected_time":525000000000,"state":"active","ping":48},{"user_id":428,"name":"ClumsyRobin","steam_id":76561198131915815,"connected_time":52000000000,"state":"active","ping":94},{"user_id":419,"name":"leonardo da bingi","steam_id":76561197978678262,"connected_time":224000000000,"state":"active","ping":60},{"user_id":423,"name":"Minion Bob","steam_id":76561198023938170,"connected_time":146000000000,"state":"active","ping":53},{"user_id":388,"name":"Yse","steam_id":76561198844464681,"connected_time":2758000000000,"state":"active","ping":57},{"user_id":424,"name":"therealtricker","steam_id":76561198041298108,"connected_time":119000000000,"state":"active","ping":52},{"user_id":427,"name":"SumDrunkAuzzy","steam_id":76561199105353362,"connected_time":64000000000,"state":"active","ping":67},{"user_id":386,"name":"Bedell","steam_id":76561198124296450,"connected_time":2852000000000,"state":"active","ping":113},{"user_id":364,"name":"The Big Slap","steam_id":76561198046225968,"connected_time":4068000000000,"state":"active","ping":55}]},{"server_id":14,"name":"Uncletopia | New York City | 2 | All Maps","name_short":"nyc-2","host":"nyc-1.us.uncletopia.com","port":27025,"enabled":true,"region":"us-east","cc":"us","latitude":40.73061,"longitude":-73.93524,"reserved":0,"last_update":"0001-01-01T00:00:00Z","name_a2s":"Uncletopia | New York City | 2 | All Maps","protocol":17,"map":"cp_dustbowl","folder":"tf","game":"Team Fortress","app_id":440,"player_count":21,"max_players":24,"Bots":0,"server_type":"Dedicated","server_os":"Linux","password":true,"vac":true,"version":"7695204","steam_id":85568392924469994,"keywords":["cp","nocrits","nodmgspread","uncletopia"],"game_id":440,"stv_port":27026,"stv_name":"Uncletopia | New York City | 2 | All Maps | STV","players":[{"user_id":424,"name":"kob","steam_id":76561198065109021,"connected_time":2721000000000,"state":"active","ping":59},{"user_id":412,"name":"Jr Rolly","steam_id":76561199060340794,"connected_time":4977000000000,"state":"active","ping":46},{"user_id":450,"name":"Jimmy","steam_id":76561197970838363,"connected_time":1445000000000,"state":"active","ping":62},{"user_id":466,"name":"Abysl","steam_id":76561198991216341,"connected_time":52000000000,"state":"active","ping":99},{"user_id":442,"name":"Spirit","steam_id":76561199069322627,"connected_time":2024000000000,"state":"active","ping":58},{"user_id":446,"name":"CrunchCisco","steam_id":76561199162724832,"connected_time":1837000000000,"state":"active","ping":78},{"user_id":429,"name":"Santa Gaming","steam_id":76561198168987146,"connected_time":2545000000000,"state":"active","ping":71},{"user_id":452,"name":"Engineer who looks at intel","steam_id":76561198824340621,"connected_time":1333000000000,"state":"active","ping":46},{"user_id":395,"name":"Pigeon","steam_id":76561199232498885,"connected_time":6798000000000,"state":"active","ping":148},{"user_id":431,"name":"jumboxcoco","steam_id":76561199086049988,"connected_time":2524000000000,"state":"active","ping":65},{"user_id":463,"name":"Erwin","steam_id":76561198149011751,"connected_time":757000000000,"state":"active","ping":99},{"user_id":465,"name":"Turnabout","steam_id":76561198883325162,"connected_time":113000000000,"state":"active","ping":67},{"user_id":454,"name":"Buddy Holly Fan","steam_id":76561198353279617,"connected_time":1312000000000,"state":"active","ping":58},{"user_id":455,"name":"ShaqtusHD","steam_id":76561199138286233,"connected_time":1280000000000,"state":"active","ping":59},{"user_id":435,"name":"Mally","steam_id":76561198025013765,"connected_time":2385000000000,"state":"active","ping":66},{"user_id":416,"name":"Tiny waffle","steam_id":76561199007206192,"connected_time":3948000000000,"state":"active","ping":132},{"user_id":398,"name":"FrostedBlakes","steam_id":76561199091619928,"connected_time":6693000000000,"state":"active","ping":76},{"user_id":462,"name":"Temper","steam_id":76561198044123690,"connected_time":913000000000,"state":"active","ping":64},{"user_id":423,"name":"‚ö°Mr.Muff ·Éö‡πä","steam_id":76561198217103553,"connected_time":3149000000000,"state":"active","ping":43},{"user_id":464,"name":"bob","steam_id":76561198974161184,"connected_time":188000000000,"state":"active","ping":74},{"user_id":458,"name":"KingTinkerer","steam_id":76561198226856548,"connected_time":1192000000000,"state":"active","ping":96}]},{"server_id":15,"name":"Uncletopia | New York City | 3 | All Maps","name_short":"nyc-3","host":"nyc-1.us.uncletopia.com","port":27035,"enabled":true,"region":"us-east","cc":"us","latitude":40.73061,"longitude":-73.93524,"reserved":0,"last_update":"0001-01-01T00:00:00Z","name_a2s":"Uncletopia | New York City | 3 | All Maps","protocol":17,"map":"cp_dustbowl","folder":"tf","game":"Team Fortress","app_id":440,"player_count":23,"max_players":24,"Bots":0,"server_type":"Dedicated","server_os":"Linux","password":true,"vac":true,"version":"7695204","steam_id":85568392924742820,"keywords":["cp","nocrits","nodmgspread","uncletopia"],"game_id":440,"stv_port":27036,"stv_name":"Uncletopia | New York City | 3 | All Maps | STV","players":[{"user_id":460,"name":"yeyoi","steam_id":76561198069821885,"connected_time":3636000000000,"state":"active","ping":58},{"user_id":485,"name":"Cecil","steam_id":76561199309028776,"connected_time":2588000000000,"state":"active","ping":63},{"user_id":461,"name":"BigGreenBeast","steam_id":76561199052862674,"connected_time":3607000000000,"state":"active","ping":52},{"user_id":508,"name":"Toonice","steam_id":76561198402994885,"connected_time":1062000000000,"state":"active","ping":49},{"user_id":499,"name":"Fat Man","steam_id":76561198118957055,"connected_time":1643000000000,"state":"active","ping":40},{"user_id":510,"name":"feurolant","steam_id":76561198050929765,"connected_time":801000000000,"state":"active","ping":60},{"user_id":484,"name":"PizzaPasta","steam_id":76561199125109082,"connected_time":2642000000000,"state":"active","ping":58},{"user_id":506,"name":"Godfinger","steam_id":76561198426346549,"connected_time":1300000000000,"state":"active","ping":72},{"user_id":465,"name":"JustSomePest","steam_id":76561198185573363,"connected_time":3518000000000,"state":"active","ping":88},{"user_id":502,"name":"boo_thefeared","steam_id":76561198127967685,"connected_time":1460000000000,"state":"active","ping":119},{"user_id":466,"name":"Splinter1619","steam_id":76561198040466438,"connected_time":3513000000000,"state":"active","ping":94},{"user_id":491,"name":"aspartame enjoyer","steam_id":76561198117033273,"connected_time":2069000000000,"state":"active","ping":123},{"user_id":512,"name":"DeadSea","steam_id":76561198060532840,"connected_time":541000000000,"state":"active","ping":61},{"user_id":468,"name":"Mickey","steam_id":76561197976868960,"connected_time":3485000000000,"state":"active","ping":142},{"user_id":469,"name":"tminator64","steam_id":76561197997576273,"connected_time":3483000000000,"state":"active","ping":41},{"user_id":470,"name":"the real babytron","steam_id":76561197989627918,"connected_time":3467000000000,"state":"active","ping":75},{"user_id":472,"name":"st4rwave","steam_id":76561198092050894,"connected_time":3410000000000,"state":"active","ping":69},{"user_id":503,"name":"Doober","steam_id":76561198056661095,"connected_time":1333000000000,"state":"active","ping":80},{"user_id":495,"name":"Sean","steam_id":76561199367470003,"connected_time":1925000000000,"state":"active","ping":128},{"user_id":475,"name":"FairHeadcrab","steam_id":76561197999148535,"connected_time":3355000000000,"state":"active","ping":73},{"user_id":507,"name":"evil smurf","steam_id":76561198274489376,"connected_time":1230000000000,"state":"active","ping":49},{"user_id":505,"name":"yoyogoat","steam_id":76561198821238700,"connected_time":1320000000000,"state":"active","ping":58},{"user_id":511,"name":"mr.edderkopper","steam_id":76561198152614478,"connected_time":742000000000,"state":"active","ping":75}]},{"server_id":16,"name":"Uncletopia | New York City | 4 | Community","name_short":"nyc-4","host":"nyc-1.us.uncletopia.com","port":27045,"enabled":true,"region":"us-east","cc":"us","latitude":40.73061,"longitude":-73.93524,"reserved":0,"last_update":"0001-01-01T00:00:00Z","name_a2s":"Uncletopia | New York City | 4 | Community","protocol":17,"map":"workshop/koth_product_final.ugc454272353","folder":"tf","game":"Team Fortress","app_id":440,"player_count":0,"max_players":24,"Bots":0,"server_type":"Dedicated","server_os":"Linux","password":true,"vac":true,"version":"7695204","steam_id":85568392924742821,"keywords":["cp","nocrits","nodmgspread","uncletopia"],"game_id":440,"stv_port":27046,"stv_name":"Uncletopia | New York City | 4 | Community | STV","players":null},{"server_id":142,"name":"Uncletopia | S√£o Paulo | 1 | All Maps","name_short":"sao-1","host":"sao-1.br.uncletopia.com","port":27015,"enabled":true,"region":"sa","cc":"br","latitude":-23.533773,"longitude":-46.62529,"reserved":0,"last_update":"0001-01-01T00:00:00Z","name_a2s":"Uncletopia | S√£o Paulo | 1 | All Maps","protocol":17,"map":"cp_process_final","folder":"tf","game":"Team Fortress","app_id":440,"player_count":0,"max_players":24,"Bots":0,"server_type":"Dedicated","server_os":"Linux","password":true,"vac":true,"version":"7695204","steam_id":85568392924469996,"keywords":["cp","nocrits","nodmgspread","uncletopia"],"game_id":440,"stv_port":27016,"stv_name":"Uncletopia | S√£o Paulo | 1 | All Maps | STV","players":null},{"server_id":143,"name":"Uncletopia | S√£o Paulo | 2 | All Maps","name_short":"sao-2","host":"sao-2.br.uncletopia.com","port":27015,"enabled":true,"region":"sa","cc":"br","latitude":-23.533773,"longitude":-46.62529,"reserved":0,"last_update":"0001-01-01T00:00:00Z","name_a2s":"Uncletopia | S√£o Paulo | 2 | All Maps","protocol":17,"map":"koth_harvest_final","folder":"tf","game":"Team Fortress","app_id":440,"player_count":9,"max_players":24,"Bots":0,"server_type":"Dedicated","server_os":"Linux","password":true,"vac":true,"version":"7695204","steam_id":85568392924485349,"keywords":["cp","nocrits","nodmgspread","uncletopia"],"game_id":440,"stv_port":27016,"stv_name":"Uncletopia | S√£o Paulo | 2 | All Maps | STV","players":[{"user_id":309,"name":"feli_potter","steam_id":76561198965109010,"connected_time":2659000000000,"state":"active","ping":39},{"user_id":318,"name":"Out of scrumpy f2p","steam_id":76561198985108739,"connected_time":531000000000,"state":"active","ping":78},{"user_id":310,"name":"Capit√£o pootis  Ô∏ªËä´","steam_id":76561198324583080,"connected_time":2641000000000,"state":"active","ping":61},{"user_id":316,"name":"Luciel.zip","steam_id":76561198276958226,"connected_time":567000000000,"state":"active","ping":62},{"user_id":314,"name":"Angel","steam_id":76561199010842733,"connected_time":1677000000000,"state":"active","ping":49},{"user_id":313,"name":"Maicxer","steam_id":76561199439629278,"connected_time":1852000000000,"state":"active","ping":114},{"user_id":319,"name":"WalkingBomber","steam_id":76561199085155976,"connected_time":116000000000,"state":"active","ping":167},{"user_id":320,"name":"Funhouse2810","steam_id":76561199081529278,"connected_time":107000000000,"state":"active","ping":180},{"user_id":281,"name":"flamingo","steam_id":76561198854099251,"connected_time":5846000000000,"state":"active","ping":69}]},{"server_id":7,"name":"Uncletopia | Seattle | 1 | All Maps","name_short":"sea-1","host":"sea-1.us.uncletopia.com","port":27015,"enabled":true,"region":"us-west","cc":"us","latitude":47.608013,"longitude":-122.33517,"reserved":0,"last_update":"0001-01-01T00:00:00Z","name_a2s":"Uncletopia | Seattle | 1 | All Maps","protocol":17,"map":"pl_wutville_event","folder":"tf","game":"Team Fortress","app_id":440,"player_count":24,"max_players":24,"Bots":0,"server_type":"Dedicated","server_os":"Linux","password":true,"vac":true,"version":"7695204","steam_id":85568392924469997,"keywords":["nocrits","nodmgspread","payload","uncletopia"],"game_id":440,"stv_port":27016,"stv_name":"Uncletopia | Seattle | 1 | All Maps | STV","players":[{"user_id":330,"name":"Mason","steam_id":76561198125358775,"connected_time":339000000000,"state":"active","ping":56},{"user_id":249,"name":"cybercat","steam_id":76561199120774107,"connected_time":1876000000000,"state":"active","ping":65},{"user_id":301,"name":"–≥—Ä—É—Å—Ç–Ω—ã–π","steam_id":76561198274550638,"connected_time":978000000000,"state":"active","ping":107},{"user_id":219,"name":"Mexican Player","steam_id":76561199120320194,"connected_time":2685000000000,"state":"active","ping":143},{"user_id":214,"name":"oo","steam_id":76561198119626492,"connected_time":2808000000000,"state":"active","ping":90},{"user_id":331,"name":"dysesthesia","steam_id":76561198027159018,"connected_time":312000000000,"state":"active","ping":132},{"user_id":220,"name":"spacetoven","steam_id":76561198115821131,"connected_time":2670000000000,"state":"active","ping":71},{"user_id":338,"name":"The Hamburglar","steam_id":76561199094048718,"connected_time":190000000000,"state":"active","ping":67},{"user_id":332,"name":"Wormy Getting Coal","steam_id":76561198054539200,"connected_time":308000000000,"state":"active","ping":49},{"user_id":333,"name":"Coolgoat2007","steam_id":76561198284935250,"connected_time":296000000000,"state":"active","ping":80},{"user_id":335,"name":"Robyn Goodfellowe","steam_id":76561198074719241,"connected_time":207000000000,"state":"active","ping":113},{"user_id":212,"name":"Can of Oranges","steam_id":76561199121813529,"connected_time":2838000000000,"state":"active","ping":49},{"user_id":306,"name":"Thequirka (bad player)","steam_id":76561198968058652,"connected_time":875000000000,"state":"active","ping":42},{"user_id":272,"name":"Barton","steam_id":76561198203088523,"connected_time":1369000000000,"state":"active","ping":74},{"user_id":336,"name":"Luca","steam_id":76561198125087140,"connected_time":205000000000,"state":"active","ping":46},{"user_id":267,"name":"Big Smoke","steam_id":76561198278375987,"connected_time":1437000000000,"state":"active","ping":109},{"user_id":337,"name":"LalitoTV","steam_id":76561198334302951,"connected_time":202000000000,"state":"active","ping":118},{"user_id":339,"name":"lavender","steam_id":76561199069518286,"connected_time":139000000000,"state":"active","ping":68},{"user_id":201,"name":"The Pepsi¬Æ Superbowl¬Æ!","steam_id":76561198080828981,"connected_time":4386000000000,"state":"active","ping":62},{"user_id":278,"name":"Dosario","steam_id":76561198298095535,"connected_time":1245000000000,"state":"active","ping":47},{"user_id":287,"name":"BackToSchoolAds","steam_id":76561198870281128,"connected_time":1160000000000,"state":"active","ping":90},{"user_id":158,"name":"Gerbias","steam_id":76561198001002427,"connected_time":9312000000000,"state":"active","ping":72},{"user_id":258,"name":"mumbles","steam_id":76561197994528974,"connected_time":1637000000000,"state":"active","ping":81},{"user_id":282,"name":"Syrup","steam_id":76561198004623229,"connected_time":1234000000000,"state":"active","ping":91}]},{"server_id":119,"name":"Uncletopia | Seattle | 2 | All Maps","name_short":"sea-2","host":"sea-1.us.uncletopia.com","port":27025,"enabled":true,"region":"us-west","cc":"us","latitude":47.608013,"longitude":-122.33517,"reserved":0,"last_update":"0001-01-01T00:00:00Z","name_a2s":"Uncletopia | Seattle | 2 | All Maps","protocol":17,"map":"pl_upward","folder":"tf","game":"Team Fortress","app_id":440,"player_count":24,"max_players":24,"Bots":0,"server_type":"Dedicated","server_os":"Linux","password":true,"vac":true,"version":"7695204","steam_id":85568392924469998,"keywords":["nocrits","nodmgspread","payload","uncletopia"],"game_id":440,"stv_port":27026,"stv_name":"Uncletopia | Seattle | 2 | All Maps | STV","players":[{"user_id":461,"name":"SvicidalBug","steam_id":76561198221390504,"connected_time":2242000000000,"state":"active","ping":69},{"user_id":487,"name":"molested by 16 autistic clowns","steam_id":76561198267946606,"connected_time":262000000000,"state":"active","ping":84},{"user_id":482,"name":"[JBX] SealMemeSix","steam_id":76561198165153267,"connected_time":329000000000,"state":"active","ping":75},{"user_id":479,"name":"Juntao","steam_id":76561199389584938,"connected_time":503000000000,"state":"active","ping":39},{"user_id":465,"name":"tayzik","steam_id":76561199391478575,"connected_time":2207000000000,"state":"active","ping":62},{"user_id":466,"name":"corbenis","steam_id":76561199012442511,"connected_time":2188000000000,"state":"active","ping":76},{"user_id":453,"name":"Crake","steam_id":76561198001959071,"connected_time":3731000000000,"state":"active","ping":53},{"user_id":467,"name":"Grnny","steam_id":76561198115699456,"connected_time":2162000000000,"state":"active","ping":86},{"user_id":491,"name":"barf","steam_id":76561198219718701,"connected_time":195000000000,"state":"active","ping":84},{"user_id":483,"name":"Zuriel","steam_id":76561198149673080,"connected_time":326000000000,"state":"active","ping":67},{"user_id":484,"name":"goon","steam_id":76561198146228439,"connected_time":311000000000,"state":"active","ping":50},{"user_id":485,"name":"ayaya?","steam_id":76561199000188109,"connected_time":307000000000,"state":"active","ping":81},{"user_id":463,"name":"Seagoll","steam_id":76561198017953606,"connected_time":2224000000000,"state":"active","ping":84},{"user_id":486,"name":"Clint","steam_id":76561198071271287,"connected_time":278000000000,"state":"active","ping":58},{"user_id":413,"name":"What are you doing?!","steam_id":76561198405248691,"connected_time":6150000000000,"state":"active","ping":85},{"user_id":454,"name":"snorlax_gamer","steam_id":76561199084972996,"connected_time":3596000000000,"state":"active","ping":57},{"user_id":464,"name":"DJHyper777","steam_id":76561198304548526,"connected_time":2223000000000,"state":"active","ping":69},{"user_id":456,"name":"General Fisticuffs","steam_id":76561198255721392,"connected_time":3445000000000,"state":"active","ping":106},{"user_id":492,"name":"Pronounced30","steam_id":76561198070127606,"connected_time":115000000000,"state":"active","ping":133},{"user_id":489,"name":"Gunslinger Rafa","steam_id":76561198070140106,"connected_time":225000000000,"state":"active","ping":48},{"user_id":460,"name":"incineratedbread","steam_id":76561198133619079,"connected_time":2489000000000,"state":"active","ping":83},{"user_id":490,"name":"Perry_The_Platypus","steam_id":76561198842310418,"connected_time":221000000000,"state":"active","ping":58},{"user_id":477,"name":"Vibe‚Ñ¢","steam_id":76561198156083411,"connected_time":1647000000000,"state":"active","ping":122},{"user_id":375,"name":"Soap","steam_id":76561198074619142,"connected_time":9143000000000,"state":"active","ping":105}]},{"server_id":17,"name":"Uncletopia | San Francisco | 1 | All Maps","name_short":"sfo-1","host":"sfo-1.us.uncletopia.com","port":27015,"enabled":true,"region":"us-west","cc":"us","latitude":37.77397,"longitude":-122.4313,"reserved":0,"last_update":"0001-01-01T00:00:00Z","name_a2s":"Uncletopia | San Francisco | 1 | All Maps","protocol":17,"map":"pl_borneo","folder":"tf","game":"Team Fortress","app_id":440,"player_count":24,"max_players":24,"Bots":0,"server_type":"Dedicated","server_os":"Linux","password":true,"vac":true,"version":"7695204","steam_id":85568392924469999,"keywords":["nocrits","nodmgspread","payload","uncletopia"],"game_id":440,"stv_port":27016,"stv_name":"Uncletopia | San Francisco | 1 | All Maps | STV","players":[{"user_id":68,"name":"Seltzer","steam_id":76561198171095847,"connected_time":627000000000,"state":"active","ping":53},{"user_id":40,"name":"Spooks ‚òÜ","steam_id":76561198118095626,"connected_time":1151000000000,"state":"active","ping":61},{"user_id":43,"name":"Pretty Boy's Pocket Pussy","steam_id":76561198050582941,"connected_time":1089000000000,"state":"active","ping":98},{"user_id":74,"name":"bingsoyenjoyer","steam_id":76561198442870007,"connected_time":89000000000,"state":"active","ping":83},{"user_id":59,"name":"Sad Sapling","steam_id":76561198075612150,"connected_time":827000000000,"state":"active","ping":59},{"user_id":46,"name":"bobbiboi34","steam_id":76561199213277493,"connected_time":1042000000000,"state":"active","ping":66},{"user_id":69,"name":"loco503","steam_id":76561198827495121,"connected_time":592000000000,"state":"active","ping":57},{"user_id":75,"name":"Wacks","steam_id":76561198079476100,"connected_time":86000000000,"state":"active","ping":55},{"user_id":41,"name":"h2O","steam_id":76561198353200311,"connected_time":1147000000000,"state":"active","ping":79},{"user_id":35,"name":"CrackedSanity","steam_id":76561198279841251,"connected_time":1574000000000,"state":"active","ping":60},{"user_id":76,"name":"trackpad gaming | f2p","steam_id":76561198840414371,"connected_time":74000000000,"state":"active","ping":73},{"user_id":72,"name":"superbad","steam_id":76561198065913973,"connected_time":465000000000,"state":"active","ping":59},{"user_id":51,"name":"DogoPogo","steam_id":76561198260918610,"connected_time":952000000000,"state":"active","ping":60},{"user_id":77,"name":"poey","steam_id":76561198865346767,"connected_time":48000000000,"state":"active","ping":66},{"user_id":54,"name":"slowdance","steam_id":76561198097427947,"connected_time":890000000000,"state":"active","ping":102},{"user_id":55,"name":"Deliverer of Sex","steam_id":76561198353982260,"connected_time":871000000000,"state":"active","ping":64},{"user_id":56,"name":"DistantJragon","steam_id":76561198117563641,"connected_time":864000000000,"state":"active","ping":103},{"user_id":67,"name":"Pacemaker","steam_id":76561198046865217,"connected_time":638000000000,"state":"active","ping":44},{"user_id":78,"name":"adapt","steam_id":76561198156181017,"connected_time":15000000000,"state":"spawning","ping":59},{"user_id":71,"name":"Vivi","steam_id":76561198402450455,"connected_time":497000000000,"state":"active","ping":58},{"user_id":64,"name":"pmvshchlk","steam_id":76561198335687579,"connected_time":690000000000,"state":"active","ping":85},{"user_id":65,"name":"You Dont Slay","steam_id":76561198796982454,"connected_time":667000000000,"state":"active","ping":59},{"user_id":66,"name":"zinnk","steam_id":76561198092081825,"connected_time":650000000000,"state":"active","ping":54},{"user_id":73,"name":"azureglxy","steam_id":76561198861388315,"connected_time":372000000000,"state":"active","ping":46}]},{"server_id":18,"name":"Uncletopia | San Francisco | 2 | All Maps","name_short":"sfo-2","host":"sfo-1.us.uncletopia.com","port":27025,"enabled":true,"region":"us-west","cc":"us","latitude":37.77397,"longitude":-122.4313,"reserved":0,"last_update":"0001-01-01T00:00:00Z","name_a2s":"Uncletopia | San Francisco | 2 | All Maps","protocol":17,"map":"pl_frontier_final","folder":"tf","game":"Team Fortress","app_id":440,"player_count":18,"max_players":24,"Bots":0,"server_type":"Dedicated","server_os":"Linux","password":true,"vac":true,"version":"7695204","steam_id":85568392924470000,"keywords":["nocrits","nodmgspread","payload","uncletopia"],"game_id":440,"stv_port":27026,"stv_name":"Uncletopia | San Francisco | 2 | All Maps | STV","players":[{"user_id":536,"name":"Frank","steam_id":76561198126681511,"connected_time":21000000000,"state":"active","ping":133},{"user_id":535,"name":"jamey431","steam_id":76561198076043961,"connected_time":27000000000,"state":"connecting","ping":190},{"user_id":512,"name":"BlueCinema","steam_id":76561198376605350,"connected_time":2359000000000,"state":"active","ping":215},{"user_id":531,"name":"‚ù§ Ashley ‚ù§","steam_id":76561198056428303,"connected_time":622000000000,"state":"active","ping":77},{"user_id":506,"name":"Humus","steam_id":76561198175286355,"connected_time":2861000000000,"state":"spawning","ping":54},{"user_id":526,"name":"SPREAD CHRISTMAS CHEER AND JOY","steam_id":76561198800386026,"connected_time":809000000000,"state":"active","ping":92},{"user_id":534,"name":"supcupman","steam_id":76561198051513866,"connected_time":296000000000,"state":"spawning","ping":62},{"user_id":528,"name":"Sardinio","steam_id":76561198065097426,"connected_time":796000000000,"state":"spawning","ping":161},{"user_id":516,"name":"Kitto","steam_id":76561198053851877,"connected_time":2122000000000,"state":"spawning","ping":66},{"user_id":514,"name":"Jax O'Gaytor","steam_id":76561198288922168,"connected_time":2292000000000,"state":"spawning","ping":73},{"user_id":532,"name":"Ricelover","steam_id":76561198064631164,"connected_time":546000000000,"state":"active","ping":116},{"user_id":521,"name":"xxashketchup712","steam_id":76561198067232540,"connected_time":1629000000000,"state":"active","ping":124},{"user_id":529,"name":"Testicular Torsion","steam_id":76561197968179862,"connected_time":738000000000,"state":"spawning","ping":98},{"user_id":437,"name":"jodie.blend","steam_id":76561198140701807,"connected_time":6564000000000,"state":"spawning","ping":94},{"user_id":460,"name":"MG","steam_id":76561197980131846,"connected_time":5686000000000,"state":"spawning","ping":293},{"user_id":281,"name":"tweet","steam_id":76561198166515735,"connected_time":17662000000000,"state":"active","ping":200},{"user_id":530,"name":"GreenApples","steam_id":76561198120559543,"connected_time":703000000000,"state":"active","ping":61},{"user_id":502,"name":"mean penguin","steam_id":76561198174751517,"connected_time":2970000000000,"state":"spawning","ping":64}]},{"server_id":19,"name":"Uncletopia | San Francisco | 3 | No Payload","name_short":"sfo-3","host":"sfo-1.us.uncletopia.com","port":27035,"enabled":true,"region":"us-west","cc":"us","latitude":37.77397,"longitude":-122.4313,"reserved":0,"last_update":"0001-01-01T00:00:00Z","name_a2s":"Uncletopia | San Francisco | 3 | No Payload","protocol":17,"map":"ctf_turbine","folder":"tf","game":"Team Fortress","app_id":440,"player_count":0,"max_players":24,"Bots":0,"server_type":"Dedicated","server_os":"Linux","password":true,"vac":true,"version":"7695204","steam_id":85568392924742824,"keywords":["ctf","nocrits","nodmgspread","uncletopia"],"game_id":440,"stv_port":27036,"stv_name":"Uncletopia | San Francisco | 3 | No Payload | STV","players":null},{"server_id":20,"name":"Uncletopia | San Francisco | 4 | Community","name_short":"sfo-4","host":"sfo-1.us.uncletopia.com","port":27045,"enabled":true,"region":"us-west","cc":"us","latitude":37.77397,"longitude":-122.4313,"reserved":0,"last_update":"0001-01-01T00:00:00Z","name_a2s":"Uncletopia | San Francisco | 4 | Community","protocol":17,"map":"koth_highpass","folder":"tf","game":"Team Fortress","app_id":440,"player_count":0,"max_players":24,"Bots":0,"server_type":"Dedicated","server_os":"Linux","password":true,"vac":true,"version":"7695204","steam_id":85568392924742826,"keywords":["cp","nocrits","nodmgspread","uncletopia"],"game_id":440,"stv_port":0,"stv_name":"","players":null},{"server_id":141,"name":"Uncletopia | Sydney | 1 | All Maps","name_short":"syd-1","host":"syd-1.au.uncletopia.com","port":27015,"enabled":true,"region":"au","cc":"au","latitude":-33.865143,"longitude":151.2099,"reserved":0,"last_update":"0001-01-01T00:00:00Z","name_a2s":"Uncletopia | Sydney | 1 | All Maps","protocol":17,"map":"cp_mountainlab","folder":"tf","game":"Team Fortress","app_id":440,"player_count":15,"max_players":24,"Bots":0,"server_type":"Dedicated","server_os":"Linux","password":true,"vac":true,"version":"7695204","steam_id":85568392924470001,"keywords":["cp","nocrits","nodmgspread","uncletopia"],"game_id":440,"stv_port":27016,"stv_name":"Uncletopia | Sydney | 1 | All Maps | STV","players":[{"user_id":333,"name":"cullen","steam_id":76561198128695488,"connected_time":2120000000000,"state":"active","ping":58},{"user_id":351,"name":"cjconstantine73","steam_id":76561198848953291,"connected_time":1033000000000,"state":"active","ping":59},{"user_id":366,"name":"nite","steam_id":76561198797671189,"connected_time":121000000000,"state":"active","ping":42},{"user_id":363,"name":"plainNsane","steam_id":76561198204747579,"connected_time":420000000000,"state":"active","ping":78},{"user_id":364,"name":"Aaeras","steam_id":76561199010662157,"connected_time":406000000000,"state":"active","ping":83},{"user_id":352,"name":"Henry VI","steam_id":76561198024262242,"connected_time":890000000000,"state":"active","ping":68},{"user_id":353,"name":"‚úªF—èostbite","steam_id":76561198035353612,"connected_time":884000000000,"state":"active","ping":98},{"user_id":357,"name":"Glaistig Uaine","steam_id":76561198056798610,"connected_time":575000000000,"state":"active","ping":83},{"user_id":334,"name":"pooass","steam_id":76561198217959591,"connected_time":2032000000000,"state":"active","ping":63},{"user_id":358,"name":"floppinv2","steam_id":76561198213566569,"connected_time":572000000000,"state":"active","ping":95},{"user_id":347,"name":"Big M","steam_id":76561199052493829,"connected_time":1319000000000,"state":"active","ping":169},{"user_id":367,"name":"toaster","steam_id":76561198858085224,"connected_time":119000000000,"state":"active","ping":37},{"user_id":354,"name":"kevinruddshaircut","steam_id":76561198867224434,"connected_time":864000000000,"state":"active","ping":41},{"user_id":361,"name":"Rarity the Fabulous","steam_id":76561198077653287,"connected_time":482000000000,"state":"active","ping":39},{"user_id":362,"name":"Catface","steam_id":76561198123193701,"connected_time":481000000000,"state":"active","ping":58}]},{"server_id":123,"name":"Uncletopia | Sydney | 2 | All Maps","name_short":"syd-2","host":"syd-1.au.uncletopia.com","port":27025,"enabled":true,"region":"au","cc":"au","latitude":-33.865143,"longitude":151.2099,"reserved":0,"last_update":"0001-01-01T00:00:00Z","name_a2s":"Uncletopia | Sydney | 2 | All Maps","protocol":17,"map":"pl_snowycoast","folder":"tf","game":"Team Fortress","app_id":440,"player_count":21,"max_players":24,"Bots":0,"server_type":"Dedicated","server_os":"Linux","password":true,"vac":true,"version":"7695204","steam_id":85568392924470002,"keywords":["nocrits","nodmgspread","payload","uncletopia"],"game_id":440,"stv_port":27026,"stv_name":"Uncletopia | Sydney | 2 | All Maps | STV","players":[{"user_id":284,"name":"DIY Miracle","steam_id":76561198046228152,"connected_time":986000000000,"state":"active","ping":63},{"user_id":285,"name":"Esiotrot101","steam_id":76561199017575950,"connected_time":950000000000,"state":"active","ping":55},{"user_id":293,"name":"rhanger","steam_id":76561198178150811,"connected_time":82000000000,"state":"active","ping":104},{"user_id":291,"name":"bucko","steam_id":76561198113662788,"connected_time":103000000000,"state":"active","ping":59},{"user_id":253,"name":"tetrx","steam_id":76561197996427098,"connected_time":2515000000000,"state":"active","ping":89},{"user_id":281,"name":"Wolf","steam_id":76561198067256350,"connected_time":1136000000000,"state":"active","ping":58},{"user_id":254,"name":"Bread","steam_id":76561198421454803,"connected_time":2483000000000,"state":"active","ping":74},{"user_id":234,"name":"Gasoline","steam_id":76561198879023728,"connected_time":4463000000000,"state":"active","ping":69},{"user_id":262,"name":"Granola-rama","steam_id":76561198059129270,"connected_time":2221000000000,"state":"active","ping":60},{"user_id":287,"name":"AfroNinja","steam_id":76561198120372011,"connected_time":785000000000,"state":"active","ping":62},{"user_id":273,"name":"blicky","steam_id":76561198029829077,"connected_time":1660000000000,"state":"active","ping":91},{"user_id":259,"name":"hyak","steam_id":76561198175700625,"connected_time":2306000000000,"state":"active","ping":85},{"user_id":240,"name":"Mooty","steam_id":76561198301293435,"connected_time":3897000000000,"state":"active","ping":55},{"user_id":268,"name":"Pak'n'Save","steam_id":76561199199754055,"connected_time":1814000000000,"state":"active","ping":61},{"user_id":267,"name":"TheSaltyKoi","steam_id":76561198816704624,"connected_time":1910000000000,"state":"active","ping":46},{"user_id":283,"name":"Shtinky","steam_id":76561199186320078,"connected_time":1039000000000,"state":"active","ping":49},{"user_id":265,"name":"Parachuting_Parakeet","steam_id":76561198049986399,"connected_time":1966000000000,"state":"active","ping":44},{"user_id":294,"name":"yeezy","steam_id":76561198317072182,"connected_time":28000000000,"state":"active","ping":48},{"user_id":286,"name":"UglyBarnicle","steam_id":76561198075921599,"connected_time":842000000000,"state":"active","ping":92},{"user_id":275,"name":"Scopic","steam_id":76561199236845261,"connected_time":1625000000000,"state":"active","ping":65},{"user_id":261,"name":"Mr Gizard The Lizard Wizard","steam_id":76561197965528021,"connected_time":2259000000000,"state":"active","ping":63}]},{"server_id":395,"name":"Uncletopia | Sydney | 3 | All Maps","name_short":"syd-3","host":"syd-1.au.uncletopia.com","port":27035,"enabled":true,"region":"au","cc":"au","latitude":-33.865143,"longitude":151.2099,"reserved":0,"last_update":"0001-01-01T00:00:00Z","name_a2s":"Uncletopia | Sydney | 3 | All Maps","protocol":17,"map":"koth_cascade","folder":"tf","game":"Team Fortress","app_id":440,"player_count":16,"max_players":24,"Bots":0,"server_type":"Dedicated","server_os":"Linux","password":true,"vac":true,"version":"7695204","steam_id":85568392925194467,"keywords":["cp","nocrits","nodmgspread","uncletopia"],"game_id":440,"stv_port":27036,"stv_name":"Uncletopia | Sydney | 3 | All Maps | STV","players":[{"user_id":49,"name":"danno!","steam_id":76561198091848946,"connected_time":1096000000000,"state":"active","ping":45},{"user_id":52,"name":"slime","steam_id":76561199176020333,"connected_time":1084000000000,"state":"active","ping":51},{"user_id":51,"name":"evelyn (beanie fan)","steam_id":76561198107733201,"connected_time":1088000000000,"state":"active","ping":48},{"user_id":53,"name":"iuberTSD","steam_id":76561198843961169,"connected_time":1080000000000,"state":"active","ping":90},{"user_id":61,"name":"Dart","steam_id":76561198288698038,"connected_time":416000000000,"state":"active","ping":43},{"user_id":39,"name":"Madison Ivy","steam_id":76561198074674290,"connected_time":1354000000000,"state":"active","ping":60},{"user_id":62,"name":"ratgoon","steam_id":76561199062794178,"connected_time":144000000000,"state":"active","ping":50},{"user_id":63,"name":"Big Booty Llama","steam_id":76561198074422721,"connected_time":139000000000,"state":"active","ping":59},{"user_id":64,"name":"Locker633","steam_id":76561198132624042,"connected_time":102000000000,"state":"active","ping":90},{"user_id":65,"name":"McAle Gorbitrough","steam_id":76561198799842401,"connected_time":73000000000,"state":"active","ping":99},{"user_id":36,"name":"A Burnt Cheeseburger","steam_id":76561198044178223,"connected_time":1598000000000,"state":"active","ping":65},{"user_id":37,"name":"kill","steam_id":76561198271690459,"connected_time":1572000000000,"state":"active","ping":53},{"user_id":56,"name":"toots","steam_id":76561198094589768,"connected_time":1049000000000,"state":"active","ping":68},{"user_id":45,"name":"Charm","steam_id":76561198028891054,"connected_time":1235000000000,"state":"active","ping":62},{"user_id":60,"name":"mycelph","steam_id":76561197993987500,"connected_time":614000000000,"state":"active","ping":51},{"user_id":46,"name":"theeg","steam_id":76561198985005836,"connected_time":1209000000000,"state":"active","ping":49}]},{"server_id":396,"name":"Uncletopia | Sydney | 4 | All Maps","name_short":"syd-4","host":"syd-1.au.uncletopia.com","port":27045,"enabled":true,"region":"au","cc":"au","latitude":-33.865143,"longitude":151.2099,"reserved":0,"last_update":"0001-01-01T00:00:00Z","name_a2s":"Uncletopia | Sydney | 4 | All Maps","protocol":17,"map":"koth_lakeside_final","folder":"tf","game":"Team Fortress","app_id":440,"player_count":0,"max_players":24,"Bots":0,"server_type":"Dedicated","server_os":"Linux","password":true,"vac":true,"version":"7695204","steam_id":85568392925397958,"keywords":["cp","nocrits","nodmgspread","uncletopia"],"game_id":440,"stv_port":27046,"stv_name":"Uncletopia | Sydney | 4 | All Maps | STV","players":null},{"server_id":58,"name":"Uncletopia | Sydney | 5 | No Payload","name_short":"syd-5","host":"syd-1.au.uncletopia.com","port":27055,"enabled":true,"region":"au","cc":"au","latitude":-33.865143,"longitude":151.2099,"reserved":0,"last_update":"0001-01-01T00:00:00Z","name_a2s":"Uncletopia | Sydney | 5 | No Payload","protocol":17,"map":"cp_gullywash_final1","folder":"tf","game":"Team Fortress","app_id":440,"player_count":2,"max_players":24,"Bots":0,"server_type":"Dedicated","server_os":"Linux","password":true,"vac":true,"version":"7695204","steam_id":85568392925397959,"keywords":["cp","nocrits","nodmgspread","uncletopia"],"game_id":440,"stv_port":27056,"stv_name":"Uncletopia | Sydney | 5 | No Payload | STV","players":[{"user_id":10,"name":"Tophatgaming","steam_id":76561199142504761,"connected_time":1157000000000,"state":"active","ping":47},{"user_id":5,"name":"yuna1925!","steam_id":76561199076842421,"connected_time":2412000000000,"state":"active","ping":30}]},{"server_id":59,"name":"Uncletopia | Sydney | 6 | Community","name_short":"syd-6","host":"syd-1.au.uncletopia.com","port":27065,"enabled":true,"region":"au","cc":"au","latitude":-33.865143,"longitude":151.2099,"reserved":0,"last_update":"0001-01-01T00:00:00Z","name_a2s":"Uncletopia | Sydney | 6 | Community","protocol":17,"map":"workshop/koth_product_final.ugc454272353","folder":"tf","game":"Team Fortress","app_id":440,"player_count":0,"max_players":24,"Bots":0,"server_type":"Dedicated","server_os":"Linux","password":true,"vac":true,"version":"7695204","steam_id":85568392925397960,"keywords":["cp","nocrits","nodmgspread","uncletopia"],"game_id":440,"stv_port":27066,"stv_name":"Uncletopia | Sydney | 6 | Community | STV","players":null},{"server_id":49,"name":"Uncletopia | Warsaw | 1 | All Maps","name_short":"waw-1","host":"waw-1.pl.uncletopia.com","port":27015,"enabled":true,"region":"eu","cc":"pl","latitude":52.2297,"longitude":21.017532,"reserved":0,"last_update":"0001-01-01T00:00:00Z","name_a2s":"Uncletopia | Warsaw | 1 | All Maps","protocol":17,"map":"koth_highpass","folder":"tf","game":"Team Fortress","app_id":440,"player_count":0,"max_players":24,"Bots":0,"server_type":"Dedicated","server_os":"Linux","password":true,"vac":true,"version":"7695204","steam_id":85568392925397850,"keywords":["cp","nocrits","nodmgspread","uncletopia"],"game_id":440,"stv_port":27016,"stv_name":"Uncletopia | Warsaw | 1 | All Maps | STV","players":null},{"server_id":50,"name":"Uncletopia | Warsaw | 2 | All Maps","name_short":"waw-2","host":"waw-1.pl.uncletopia.com","port":27025,"enabled":true,"region":"eu","cc":"pl","latitude":52.2297,"longitude":21.017532,"reserved":0,"last_update":"0001-01-01T00:00:00Z","name_a2s":"Uncletopia | Warsaw | 2 | All Maps","protocol":17,"map":"pl_pier","folder":"tf","game":"Team Fortress","app_id":440,"player_count":0,"max_players":24,"Bots":0,"server_type":"Dedicated","server_os":"Linux","password":true,"vac":true,"version":"7695204","steam_id":85568392925397851,"keywords":["nocrits","nodmgspread","payload","uncletopia"],"game_id":440,"stv_port":27026,"stv_name":"Uncletopia | Warsaw | 2 | All Maps | STV","players":null},{"server_id":51,"name":"Uncletopia | Warsaw | 3 | All Maps","name_short":"waw-3","host":"waw-1.pl.uncletopia.com","port":27035,"enabled":true,"region":"eu","cc":"pl","latitude":52.2297,"longitude":21.017532,"reserved":0,"last_update":"0001-01-01T00:00:00Z","name_a2s":"Uncletopia | Warsaw | 3 | All Maps","protocol":17,"map":"koth_highpass","folder":"tf","game":"Team Fortress","app_id":440,"player_count":0,"max_players":24,"Bots":0,"server_type":"Dedicated","server_os":"Linux","password":true,"vac":true,"version":"7695204","steam_id":85568392925397852,"keywords":["cp","nocrits","nodmgspread","uncletopia"],"game_id":440,"stv_port":27036,"stv_name":"Uncletopia | Warsaw | 3 | All Maps | STV","players":null},{"server_id":52,"name":"Uncletopia | Warsaw | 4 | All Maps","name_short":"waw-4","host":"waw-1.pl.uncletopia.com","port":27045,"enabled":true,"region":"eu","cc":"pl","latitude":52.2297,"longitude":21.017532,"reserved":0,"last_update":"0001-01-01T00:00:00Z","name_a2s":"Uncletopia | Warsaw | 4 | All Maps","protocol":17,"map":"pl_swiftwater_final1","folder":"tf","game":"Team Fortress","app_id":440,"player_count":0,"max_players":24,"Bots":0,"server_type":"Dedicated","server_os":"Linux","password":true,"vac":true,"version":"7695204","steam_id":85568392925397853,"keywords":["nocrits","nodmgspread","payload","uncletopia"],"game_id":440,"stv_port":27046,"stv_name":"Uncletopia | Warsaw | 4 | All Maps | STV","players":null},{"server_id":53,"name":"Uncletopia | Warsaw | 5 | No Payload","name_short":"waw-5","host":"waw-1.pl.uncletopia.com","port":27055,"enabled":true,"region":"eu","cc":"pl","latitude":52.2297,"longitude":21.017532,"reserved":0,"last_update":"0001-01-01T00:00:00Z","name_a2s":"Uncletopia | Warsaw | 5 | No Payload","protocol":17,"map":"koth_harvest_final","folder":"tf","game":"Team Fortress","app_id":440,"player_count":0,"max_players":24,"Bots":0,"server_type":"Dedicated","server_os":"Linux","password":true,"vac":true,"version":"7695204","steam_id":85568392925397854,"keywords":["cp","nocrits","nodmgspread","uncletopia"],"game_id":440,"stv_port":27056,"stv_name":"Uncletopia | Warsaw | 5 | No Payload | STV","players":null},{"server_id":54,"name":"Uncletopia | Warsaw | 6 | Community","name_short":"waw-6","host":"waw-1.pl.uncletopia.com","port":27065,"enabled":true,"region":"eu","cc":"pl","latitude":52.2297,"longitude":21.017532,"reserved":0,"last_update":"0001-01-01T00:00:00Z","name_a2s":"Uncletopia | Warsaw | 6 | Community","protocol":17,"map":"workshop/cp_reckoner_rc6.ugc674719999","folder":"tf","game":"Team Fortress","app_id":440,"player_count":0,"max_players":24,"Bots":0,"server_type":"Dedicated","server_os":"Linux","password":true,"vac":true,"version":"7695204","steam_id":85568392925397856,"keywords":["cp","nocrits","nodmgspread","uncletopia"],"game_id":440,"stv_port":27066,"stv_name":"Uncletopia | Warsaw | 6 | Community | STV","players":null}]}