{"status":true,"message":"","result":[{"server_id":9,"name":"Uncletopia | Atlanta | 1 | All Maps","name_short":"atl-1","host":"atl-1.us.uncletopia.com","port":27015,"enabled":true,"region":"us-east","cc":"us","latitude":33.753746,"longitude":-84.38633,"reserved":0,"last_update":"0001-01-01T00:00:00Z","name_a2s":"Uncletopia | Atlanta | 1 | All Maps","protocol":17,"map":"pl_upward","folder":"tf","game":"Team Fortress","app_id":440,"player_count":24,"max_players":24,"Bots":0,"server_type":"Dedicated","server_os":"Linux","password":true,"vac":true,"version":"7961495","steam_id":85568392924469982,"keywords":["nocrits","nodmgspread","payload","uncletopia"],"game_id":440,"stv_port":27016,"stv_name":"Uncletopia | Atlanta | 1 | All Maps | STV","players":[{"user_id":299,"name":"phantom","steam_id":76561197963860777,"connected_time":2373000000000,"state":"active","ping":55},{"user_id":323,"name":"Peter griffin","steam_id":76561198277602752,"connected_time":637000000000,"state":"active","ping":164},{"user_id":306,"name":"loot","steam_id":76561198069954956,"connected_time":1697000000000,"state":"active","ping":46},{"user_id":296,"name":"Nic0","steam_id":76561198305690218,"connected_time":2732000000000,"state":"active","ping":86},{"user_id":252,"name":"Sucsubot","steam_id":76561198106456128,"connected_time":5811000000000,"state":"active","ping":60},{"user_id":254,"name":"Zoratunictoon","steam_id":76561199475066871,"connected_time":5740000000000,"state":"active","ping":60},{"user_id":302,"name":"Shame","steam_id":76561198100490994,"connected_time":1728000000000,"state":"active","ping":73},{"user_id":316,"name":"hyazz","steam_id":76561199100342013,"connected_time":1129000000000,"state":"active","ping":93},{"user_id":298,"name":"com lag","steam_id":76561198019019392,"connected_time":2470000000000,"state":"active","ping":63},{"user_id":287,"name":"kacks","steam_id":76561198069407519,"connected_time":3195000000000,"state":"active","ping":80},{"user_id":282,"name":"chiswola","steam_id":76561198046920142,"connected_time":3566000000000,"state":"active","ping":80},{"user_id":319,"name":"Chris Duo","steam_id":76561198312765677,"connected_time":1048000000000,"state":"active","ping":55},{"user_id":320,"name":"Wingm4n","steam_id":76561198064127012,"connected_time":985000000000,"state":"active","ping":53},{"user_id":325,"name":"Sinta","steam_id":76561198098398841,"connected_time":624000000000,"state":"active","ping":62},{"user_id":265,"name":"Intro Bonito","steam_id":76561198119478838,"connected_time":4865000000000,"state":"active","ping":48},{"user_id":155,"name":"Sythoo","steam_id":76561198220893788,"connected_time":13413000000000,"state":"active","ping":74},{"user_id":213,"name":"ATL1 | cola","steam_id":76561198374390458,"connected_time":8871000000000,"state":"active","ping":63},{"user_id":295,"name":"THE STINK","steam_id":76561199226110975,"connected_time":2771000000000,"state":"active","ping":68},{"user_id":314,"name":"Sprrw","steam_id":76561198060380419,"connected_time":1253000000000,"state":"active","ping":57},{"user_id":318,"name":"Kc","steam_id":76561198210734407,"connected_time":1078000000000,"state":"active","ping":52},{"user_id":290,"name":"Grazzunk","steam_id":76561198290227691,"connected_time":3162000000000,"state":"active","ping":67},{"user_id":304,"name":"Le4n!!!","steam_id":76561198045522596,"connected_time":1725000000000,"state":"active","ping":66},{"user_id":321,"name":"Traceback","steam_id":76561197993212340,"connected_time":881000000000,"state":"active","ping":83},{"user_id":328,"name":"NeptuneÀñ‚Å∫ÔΩ°Àö‚ãÜÀô‚ô•","steam_id":76561199054203198,"connected_time":419000000000,"state":"active","ping":59}]},{"server_id":104,"name":"Uncletopia | Atlanta | 2 | All Maps","name_short":"atl-2","host":"atl-1.us.uncletopia.com","port":27025,"enabled":true,"region":"us-east","cc":"us","latitude":33.753746,"longitude":-84.38633,"reserved":0,"last_update":"0001-01-01T00:00:00Z","name_a2s":"Uncletopia | Atlanta | 2 | All Maps","protocol":17,"map":"pl_upward","folder":"tf","game":"Team Fortress","app_id":440,"player_count":24,"max_players":24,"Bots":0,"server_type":"Dedicated","server_os":"Linux","password":true,"vac":true,"version":"7961495","steam_id":85568392924469983,"keywords":["nocrits","nodmgspread","payload","uncletopia"],"game_id":440,"stv_port":27026,"stv_name":"Uncletopia | Atlanta | 2 | All Maps | STV","players":[{"user_id":238,"name":"her","steam_id":76561198817968375,"connected_time":363000000000,"state":"active","ping":121},{"user_id":184,"name":"Rated_C","steam_id":76561199226478414,"connected_time":5236000000000,"state":"active","ping":85},{"user_id":149,"name":"metalfan666","steam_id":76561198386344068,"connected_time":7559000000000,"state":"active","ping":69},{"user_id":212,"name":"dingle dongler","steam_id":76561198072986994,"connected_time":2800000000000,"state":"active","ping":69},{"user_id":202,"name":"ndvr (femboy (REAL))","steam_id":76561199379200102,"connected_time":3665000000000,"state":"active","ping":57},{"user_id":231,"name":"hayes","steam_id":76561198057101042,"connected_time":1143000000000,"state":"active","ping":68},{"user_id":233,"name":"Egg","steam_id":76561199075359963,"connected_time":1103000000000,"state":"active","ping":74},{"user_id":204,"name":"Bomb Squirtle‚Ñ¢","steam_id":76561197998931145,"connected_time":3448000000000,"state":"active","ping":79},{"user_id":229,"name":"‚ô° Cursed ‚ô°","steam_id":76561199161458959,"connected_time":1285000000000,"state":"active","ping":87},{"user_id":198,"name":"El Bondin","steam_id":76561198820792434,"connected_time":4490000000000,"state":"active","ping":90},{"user_id":239,"name":"The jesus guy (FRNK)","steam_id":76561198237997622,"connected_time":340000000000,"state":"active","ping":150},{"user_id":234,"name":"shitass | troutsupply.net","steam_id":76561198210572481,"connected_time":775000000000,"state":"active","ping":76},{"user_id":230,"name":"I. C. Wiener","steam_id":76561198062777610,"connected_time":1191000000000,"state":"active","ping":97},{"user_id":237,"name":"Dinosaur","steam_id":76561199079626189,"connected_time":582000000000,"state":"active","ping":57},{"user_id":215,"name":"You Don't Nomi.","steam_id":76561197969137836,"connected_time":2706000000000,"state":"active","ping":60},{"user_id":223,"name":"Ziddia","steam_id":76561198044734442,"connected_time":1748000000000,"state":"active","ping":53},{"user_id":209,"name":"beats its 16:38","steam_id":76561199245717718,"connected_time":2888000000000,"state":"active","ping":75},{"user_id":227,"name":"J The Jounin","steam_id":76561198034583622,"connected_time":1618000000000,"state":"active","ping":48},{"user_id":235,"name":"barbecuesteve","steam_id":76561198048819671,"connected_time":660000000000,"state":"active","ping":52},{"user_id":216,"name":"Notsocreative","steam_id":76561198236372202,"connected_time":2685000000000,"state":"active","ping":79},{"user_id":240,"name":"gatlinevan79","steam_id":76561199465817675,"connected_time":169000000000,"state":"active","ping":72},{"user_id":232,"name":"Uung","steam_id":76561198183956731,"connected_time":1124000000000,"state":"active","ping":77},{"user_id":241,"name":"Tanner Jarring","steam_id":76561198172024365,"connected_time":166000000000,"state":"active","ping":78},{"user_id":218,"name":"Nestor","steam_id":76561198070782619,"connected_time":2612000000000,"state":"active","ping":74}]},{"server_id":400,"name":"Uncletopia | Atlanta | 3 | Stopwatch","name_short":"atl-3","host":"atl-1.us.uncletopia.com","port":27035,"enabled":true,"region":"us-east","cc":"us","latitude":33.753746,"longitude":-84.38633,"reserved":0,"last_update":"0001-01-01T00:00:00Z","name_a2s":"Uncletopia | Atlanta | 3 | Stopwatch","protocol":17,"map":"workshop/koth_product_final.ugc454272353","folder":"tf","game":"Team Fortress","app_id":440,"player_count":0,"max_players":24,"Bots":0,"server_type":"Dedicated","server_os":"Linux","password":true,"vac":true,"version":"7961495","steam_id":85568392924515187,"keywords":["cp","nocrits","nodmgspread","uncletopia"],"game_id":440,"stv_port":27036,"stv_name":"Uncletopia | Atlanta | 3 | Stopwatch | STV","players":null},{"server_id":401,"name":"Uncletopia | Atlanta | 4 | Community","name_short":"atl-4","host":"atl-1.us.uncletopia.com","port":27045,"enabled":true,"region":"us-east","cc":"us","latitude":33.753746,"longitude":-84.38633,"reserved":0,"last_update":"0001-01-01T00:00:00Z","name_a2s":"Uncletopia | Atlanta | 4 | Community","protocol":17,"map":"workshop/pl_boundary_final1.ugc456799153","folder":"tf","game":"Team Fortress","app_id":440,"player_count":0,"max_players":24,"Bots":0,"server_type":"Dedicated","server_os":"Linux","password":true,"vac":true,"version":"7961495","steam_id":85568392924515188,"keywords":["nocrits","nodmgspread","payload","uncletopia"],"game_id":440,"stv_port":27046,"stv_name":"Uncletopia | Atlanta | 4 | Community | STV","players":null},{"server_id":2,"name":"Uncletopia | Chicago | 1 | All Maps","name_short":"chi-1","host":"chi-1.us.uncletopia.com","port":27015,"enabled":true,"region":"us-central","cc":"us","latitude":41.881832,"longitude":-87.62318,"reserved":0,"last_update":"0001-01-01T00:00:00Z","name_a2s":"Uncletopia | Chicago | 1 | All Maps","protocol":17,"map":"cp_dustbowl","folder":"tf","game":"Team Fortress","app_id":440,"player_count":24,"max_players":24,"Bots":0,"server_type":"Dedicated","server_os":"Linux","password":true,"vac":true,"version":"7961495","steam_id":85568392924469984,"keywords":["cp","nocrits","nodmgspread","uncletopia"],"game_id":440,"stv_port":27016,"stv_name":"Uncletopia | Chicago | 1 | All Maps | STV","players":[{"user_id":442,"name":"FinnaBust","steam_id":76561198397669078,"connected_time":1629000000000,"state":"active","ping":64},{"user_id":446,"name":"Grenade_Addict","steam_id":76561199212037850,"connected_time":1586000000000,"state":"active","ping":88},{"user_id":423,"name":"Laventhey","steam_id":76561198977523626,"connected_time":2583000000000,"state":"active","ping":67},{"user_id":400,"name":"Comradical","steam_id":76561197990808285,"connected_time":4791000000000,"state":"active","ping":60},{"user_id":378,"name":"Chadmander","steam_id":76561197974136337,"connected_time":6132000000000,"state":"active","ping":40},{"user_id":402,"name":"Danger Dwarf","steam_id":76561198059490571,"connected_time":4400000000000,"state":"active","ping":66},{"user_id":443,"name":"CrŒªf227","steam_id":76561198196211121,"connected_time":1628000000000,"state":"active","ping":82},{"user_id":445,"name":"Natsuki the Scunt","steam_id":76561199175922684,"connected_time":1597000000000,"state":"active","ping":121},{"user_id":451,"name":"SCROWEN","steam_id":76561198150382695,"connected_time":1399000000000,"state":"active","ping":75},{"user_id":463,"name":"goose","steam_id":76561198015445848,"connected_time":304000000000,"state":"active","ping":61},{"user_id":368,"name":"Siz","steam_id":76561198072962154,"connected_time":7285000000000,"state":"active","ping":67},{"user_id":447,"name":"Jason","steam_id":76561198107058140,"connected_time":1581000000000,"state":"active","ping":59},{"user_id":457,"name":"m.a.d.","steam_id":76561198040553982,"connected_time":358000000000,"state":"active","ping":63},{"user_id":428,"name":"wincel hampton","steam_id":76561198083095146,"connected_time":2520000000000,"state":"active","ping":75},{"user_id":454,"name":"Skab E¬≤r","steam_id":76561199126112357,"connected_time":1306000000000,"state":"active","ping":80},{"user_id":460,"name":"Strange Diplomat","steam_id":76561198428191920,"connected_time":333000000000,"state":"active","ping":65},{"user_id":456,"name":"Local Eliksni Enjoyer","steam_id":76561198122725834,"connected_time":526000000000,"state":"active","ping":53},{"user_id":461,"name":"you forgot the sauce","steam_id":76561198387016713,"connected_time":321000000000,"state":"active","ping":55},{"user_id":416,"name":"Yam Jazzy Jim","steam_id":76561198000788950,"connected_time":3141000000000,"state":"active","ping":73},{"user_id":449,"name":"ark","steam_id":76561198041066271,"connected_time":1574000000000,"state":"active","ping":75},{"user_id":418,"name":"pikasalt","steam_id":76561198060890973,"connected_time":3067000000000,"state":"active","ping":72},{"user_id":462,"name":"maelis","steam_id":76561198008673282,"connected_time":319000000000,"state":"active","ping":69},{"user_id":459,"name":"beep","steam_id":76561199096448766,"connected_time":345000000000,"state":"active","ping":61},{"user_id":466,"name":"dandanostar","steam_id":76561198313293205,"connected_time":215000000000,"state":"active","ping":70}]},{"server_id":106,"name":"Uncletopia | Chicago | 2 | All Maps","name_short":"chi-2","host":"chi-1.us.uncletopia.com","port":27025,"enabled":true,"region":"us-central","cc":"us","latitude":41.881832,"longitude":-87.62318,"reserved":0,"last_update":"0001-01-01T00:00:00Z","name_a2s":"Uncletopia | Chicago | 2 | All Maps","protocol":17,"map":"pl_upward","folder":"tf","game":"Team Fortress","app_id":440,"player_count":24,"max_players":24,"Bots":0,"server_type":"Dedicated","server_os":"Linux","password":true,"vac":true,"version":"7961495","steam_id":85568392924469985,"keywords":["nocrits","nodmgspread","payload","uncletopia"],"game_id":440,"stv_port":27026,"stv_name":"Uncletopia | Chicago | 2 | All Maps | STV","players":[{"user_id":298,"name":"JobsDone2","steam_id":76561198159158870,"connected_time":1914000000000,"state":"active","ping":60},{"user_id":319,"name":"Zozbieta","steam_id":76561198010336265,"connected_time":193000000000,"state":"active","ping":77},{"user_id":316,"name":"dave strider","steam_id":76561198065112186,"connected_time":607000000000,"state":"active","ping":65},{"user_id":322,"name":"on my backup mouse","steam_id":76561198072179483,"connected_time":158000000000,"state":"active","ping":95},{"user_id":294,"name":"Scarecrow","steam_id":76561198045870511,"connected_time":2142000000000,"state":"active","ping":47},{"user_id":315,"name":"sillylokisparkles","steam_id":76561198872251615,"connected_time":792000000000,"state":"active","ping":97},{"user_id":311,"name":"Kirby.exe","steam_id":76561198242714582,"connected_time":1034000000000,"state":"active","ping":75},{"user_id":325,"name":"LiamTehPro","steam_id":76561198970855909,"connected_time":64000000000,"state":"active","ping":64},{"user_id":273,"name":"THE Shovel Knight","steam_id":76561198306811759,"connected_time":3030000000000,"state":"active","ping":123},{"user_id":268,"name":"loscemo","steam_id":76561197994884609,"connected_time":3242000000000,"state":"active","ping":55},{"user_id":312,"name":"Monty","steam_id":76561197993567253,"connected_time":1009000000000,"state":"active","ping":94},{"user_id":249,"name":"mark!","steam_id":76561198184639801,"connected_time":4817000000000,"state":"active","ping":93},{"user_id":277,"name":"runescape legend","steam_id":76561198077791373,"connected_time":2771000000000,"state":"active","ping":52},{"user_id":323,"name":"DragonHunter994","steam_id":76561199076203907,"connected_time":144000000000,"state":"active","ping":74},{"user_id":303,"name":"Chezaus","steam_id":76561198317397837,"connected_time":1517000000000,"state":"active","ping":58},{"user_id":324,"name":"you just got dyked on","steam_id":76561198018977723,"connected_time":138000000000,"state":"active","ping":86},{"user_id":289,"name":"CuRe","steam_id":76561198846367482,"connected_time":2309000000000,"state":"active","ping":90},{"user_id":235,"name":"Sprucelass","steam_id":76561197998391724,"connected_time":6186000000000,"state":"active","ping":59},{"user_id":295,"name":"Mr. Tickle","steam_id":76561198126684647,"connected_time":1947000000000,"state":"active","ping":59},{"user_id":318,"name":"SexySpectacles","steam_id":76561198211449103,"connected_time":468000000000,"state":"active","ping":50},{"user_id":308,"name":"Greg","steam_id":76561198803498467,"connected_time":1275000000000,"state":"active","ping":128},{"user_id":305,"name":"JAKandBEL","steam_id":76561198213060931,"connected_time":1458000000000,"state":"active","ping":50},{"user_id":287,"name":"KrashBoomBang","steam_id":76561199002978777,"connected_time":2463000000000,"state":"active","ping":65},{"user_id":321,"name":"inshallah","steam_id":76561198165212575,"connected_time":183000000000,"state":"active","ping":69}]},{"server_id":402,"name":"Uncletopia | Chicago | 3 | All Maps","name_short":"chi-3","host":"chi-1.us.uncletopia.com","port":27035,"enabled":true,"region":"us-central","cc":"us","latitude":41.881832,"longitude":-87.62318,"reserved":0,"last_update":"0001-01-01T00:00:00Z","name_a2s":"Uncletopia | Chicago | 3 | All Maps","protocol":17,"map":"plr_pipeline","folder":"tf","game":"Team Fortress","app_id":440,"player_count":0,"max_players":24,"Bots":0,"server_type":"Dedicated","server_os":"Linux","password":true,"vac":true,"version":"7961495","steam_id":85568392924515191,"keywords":["nocrits","nodmgspread","payload","uncletopia"],"game_id":440,"stv_port":27036,"stv_name":"Uncletopia | Chicago | 3 | All Maps | STV","players":null},{"server_id":403,"name":"Uncletopia | Chicago | 4 | All Maps","name_short":"chi-4","host":"chi-1.us.uncletopia.com","port":27045,"enabled":true,"region":"us-central","cc":"us","latitude":41.881832,"longitude":-87.62318,"reserved":0,"last_update":"0001-01-01T00:00:00Z","name_a2s":"Uncletopia | Chicago | 4 | All Maps","protocol":17,"map":"cp_mountainlab","folder":"tf","game":"Team Fortress","app_id":440,"player_count":25,"max_players":24,"Bots":0,"server_type":"Dedicated","server_os":"Linux","password":true,"vac":true,"version":"7961495","steam_id":85568392924515193,"keywords":["cp","nocrits","nodmgspread","uncletopia"],"game_id":440,"stv_port":27046,"stv_name":"Uncletopia | Chicago | 4 | All Maps | STV","players":[{"user_id":233,"name":"ShaqtusHD(She/Her)","steam_id":76561199138286233,"connected_time":1447000000000,"state":"active","ping":53},{"user_id":228,"name":"SpycyNoodles","steam_id":76561198309439750,"connected_time":1719000000000,"state":"active","ping":42},{"user_id":242,"name":"SandBaked","steam_id":76561198134208585,"connected_time":707000000000,"state":"active","ping":62},{"user_id":254,"name":"PhantaZm","steam_id":76561198049362351,"connected_time":152000000000,"state":"active","ping":90},{"user_id":229,"name":"Deeply","steam_id":76561199000786530,"connected_time":1716000000000,"state":"active","ping":85},{"user_id":255,"name":"mr ploobmeister","steam_id":76561198128908529,"connected_time":131000000000,"state":"active","ping":78},{"user_id":241,"name":"Piyono","steam_id":76561197962188504,"connected_time":797000000000,"state":"active","ping":54},{"user_id":196,"name":"waluigi fortnite balls","steam_id":76561198083060760,"connected_time":3671000000000,"state":"active","ping":63},{"user_id":256,"name":"‚úß.*Remzy‚úß.*","steam_id":76561199239412094,"connected_time":118000000000,"state":"active","ping":133},{"user_id":261,"name":"·µê·µâ·µí ∑","steam_id":76561199200969139,"connected_time":63000000000,"state":"active","ping":69},{"user_id":257,"name":"RyInc","steam_id":76561198874261643,"connected_time":116000000000,"state":"active","ping":46},{"user_id":156,"name":"Newborn In wet paper bag","steam_id":76561199043933182,"connected_time":5918000000000,"state":"active","ping":57},{"user_id":258,"name":"Eightypical","steam_id":76561198045885732,"connected_time":103000000000,"state":"active","ping":130},{"user_id":190,"name":"gulch","steam_id":76561199227946025,"connected_time":3842000000000,"state":"active","ping":59},{"user_id":191,"name":"T√ñZI","steam_id":76561198045268695,"connected_time":3835000000000,"state":"active","ping":70},{"user_id":231,"name":"mrpineapple070","steam_id":76561199088278757,"connected_time":1634000000000,"state":"active","ping":90},{"user_id":260,"name":"LogicGate","steam_id":76561199189481990,"connected_time":84000000000,"state":"active","ping":67},{"user_id":220,"name":"Kasane","steam_id":76561198209006780,"connected_time":2263000000000,"state":"active","ping":64},{"user_id":246,"name":"KunveX","steam_id":76561197978022896,"connected_time":470000000000,"state":"active","ping":54},{"user_id":202,"name":"dadgummit","steam_id":76561198005806915,"connected_time":3510000000000,"state":"active","ping":60},{"user_id":262,"name":"ThePyroCone","steam_id":76561199217854104,"connected_time":59000000000,"state":"active","ping":65},{"user_id":263,"name":"average british male","steam_id":76561198326083509,"connected_time":35000000000,"state":"spawning","ping":91},{"user_id":204,"name":"A glass of water","steam_id":76561198361022474,"connected_time":3399000000000,"state":"active","ping":67},{"user_id":236,"name":"IdkProlly","steam_id":76561198269212968,"connected_time":1343000000000,"state":"active","ping":61}]},{"server_id":36,"name":"Uncletopia | Chicago | 5 | All Maps","name_short":"chi-5","host":"chi-2.us.uncletopia.com","port":27015,"enabled":true,"region":"us-central","cc":"us","latitude":41.881832,"longitude":-87.62318,"reserved":0,"last_update":"0001-01-01T00:00:00Z","name_a2s":"Uncletopia | Chicago | 5 | All Maps","protocol":17,"map":"cp_sunshine","folder":"tf","game":"Team Fortress","app_id":440,"player_count":24,"max_players":24,"Bots":0,"server_type":"Dedicated","server_os":"Linux","password":true,"vac":true,"version":"7961495","steam_id":85568392924866362,"keywords":["cp","nocrits","nodmgspread","uncletopia"],"game_id":440,"stv_port":27016,"stv_name":"Uncletopia | Chicago | 5 | All Maps | STV","players":[{"user_id":167,"name":"deftones enjoyer","steam_id":76561198117300479,"connected_time":1743000000000,"state":"active","ping":59},{"user_id":169,"name":"guy","steam_id":76561198079925551,"connected_time":1698000000000,"state":"active","ping":62},{"user_id":187,"name":"Salt Baron","steam_id":76561198073417386,"connected_time":736000000000,"state":"active","ping":97},{"user_id":158,"name":"deity main","steam_id":76561199251639888,"connected_time":2766000000000,"state":"active","ping":55},{"user_id":90,"name":"SanitysEdge","steam_id":76561198130732813,"connected_time":6115000000000,"state":"active","ping":95},{"user_id":174,"name":"MOB101","steam_id":76561198360491038,"connected_time":1208000000000,"state":"active","ping":66},{"user_id":161,"name":"slasher4713","steam_id":76561199033532858,"connected_time":2615000000000,"state":"active","ping":52},{"user_id":157,"name":"vom","steam_id":76561198070311363,"connected_time":2779000000000,"state":"active","ping":59},{"user_id":166,"name":"Jack","steam_id":76561198079575891,"connected_time":2148000000000,"state":"active","ping":135},{"user_id":175,"name":"Long range puro","steam_id":76561199186496740,"connected_time":1142000000000,"state":"active","ping":79},{"user_id":176,"name":"Chai","steam_id":76561198044327873,"connected_time":1139000000000,"state":"active","ping":58},{"user_id":177,"name":"The janitor(El coyote)","steam_id":76561198414300607,"connected_time":1131000000000,"state":"active","ping":97},{"user_id":178,"name":"harambe 101","steam_id":76561198366850003,"connected_time":1114000000000,"state":"active","ping":105},{"user_id":179,"name":"AMistake","steam_id":76561199379196708,"connected_time":1099000000000,"state":"active","ping":52},{"user_id":181,"name":"Pirus and Crips","steam_id":76561198395577807,"connected_time":1088000000000,"state":"active","ping":79},{"user_id":191,"name":"Lost CS2 player","steam_id":76561198892387723,"connected_time":234000000000,"state":"active","ping":69},{"user_id":183,"name":"BugsAreMyWorstEnemy","steam_id":76561199440395505,"connected_time":1061000000000,"state":"active","ping":65},{"user_id":184,"name":"tigermouse1939","steam_id":76561199078976251,"connected_time":1046000000000,"state":"active","ping":94},{"user_id":185,"name":"OrangeShoes","steam_id":76561197971249940,"connected_time":1035000000000,"state":"active","ping":70},{"user_id":186,"name":"tack","steam_id":76561198408477421,"connected_time":1027000000000,"state":"active","ping":81},{"user_id":159,"name":"Ditto","steam_id":76561198259871363,"connected_time":2764000000000,"state":"active","ping":104},{"user_id":139,"name":"Harry S. Truman","steam_id":76561197993339757,"connected_time":4240000000000,"state":"active","ping":69},{"user_id":189,"name":"Sylvain","steam_id":76561198113385271,"connected_time":578000000000,"state":"active","ping":73}]},{"server_id":37,"name":"Uncletopia | Chicago | 6 | All Maps","name_short":"chi-6","host":"chi-2.us.uncletopia.com","port":27025,"enabled":true,"region":"us-central","cc":"us","latitude":41.881832,"longitude":-87.62318,"reserved":0,"last_update":"0001-01-01T00:00:00Z","name_a2s":"Uncletopia | Chicago | 6 | All Maps","protocol":17,"map":"pl_swiftwater_final1","folder":"tf","game":"Team Fortress","app_id":440,"player_count":24,"max_players":24,"Bots":0,"server_type":"Dedicated","server_os":"Linux","password":true,"vac":true,"version":"7961495","steam_id":85568392924866363,"keywords":["nocrits","nodmgspread","payload","uncletopia"],"game_id":440,"stv_port":27026,"stv_name":"Uncletopia | Chicago | 6 | All Maps | STV","players":[{"user_id":61,"name":"Cosmic Torgue","steam_id":76561198828724945,"connected_time":161000000000,"state":"active","ping":73},{"user_id":50,"name":"Sire Salty","steam_id":76561198079639072,"connected_time":1351000000000,"state":"active","ping":67},{"user_id":16,"name":"Jackotron20","steam_id":76561198297113817,"connected_time":4088000000000,"state":"active","ping":56},{"user_id":56,"name":"sourrageous","steam_id":76561199454196717,"connected_time":1141000000000,"state":"active","ping":63},{"user_id":44,"name":"Evie","steam_id":76561198967313085,"connected_time":2523000000000,"state":"active","ping":109},{"user_id":20,"name":"Red_Hatkins","steam_id":76561198214004105,"connected_time":3507000000000,"state":"active","ping":91},{"user_id":21,"name":"ZombeeNinja","steam_id":76561198122038563,"connected_time":3483000000000,"state":"active","ping":113},{"user_id":48,"name":"jp_pizza","steam_id":76561198308103061,"connected_time":2231000000000,"state":"active","ping":45},{"user_id":49,"name":"MilesFireStorm","steam_id":76561198078642820,"connected_time":1872000000000,"state":"active","ping":79},{"user_id":24,"name":"spicyninja","steam_id":76561199406641621,"connected_time":3425000000000,"state":"active","ping":117},{"user_id":25,"name":"Locarpus","steam_id":76561198848384851,"connected_time":3399000000000,"state":"active","ping":72},{"user_id":63,"name":"7 Eleven Official","steam_id":76561198206229467,"connected_time":27000000000,"state":"active","ping":76},{"user_id":27,"name":"Overduecat","steam_id":76561198092452824,"connected_time":3283000000000,"state":"active","ping":61},{"user_id":64,"name":"coolcristian1201","steam_id":76561198856113400,"connected_time":21000000000,"state":"active","ping":105},{"user_id":45,"name":"Dareu","steam_id":76561198081781710,"connected_time":2512000000000,"state":"active","ping":76},{"user_id":57,"name":"corntent","steam_id":76561198824847948,"connected_time":876000000000,"state":"active","ping":67},{"user_id":59,"name":"Mint Jelly","steam_id":76561197991286751,"connected_time":301000000000,"state":"active","ping":53},{"user_id":33,"name":"DeadErebus","steam_id":76561198286117045,"connected_time":3110000000000,"state":"active","ping":43},{"user_id":36,"name":"Slapperpow","steam_id":76561198089895100,"connected_time":3062000000000,"state":"active","ping":69},{"user_id":38,"name":"Vamp_Moira_TTV","steam_id":76561198206111420,"connected_time":3048000000000,"state":"active","ping":167},{"user_id":39,"name":"Lish","steam_id":76561198447356180,"connected_time":3048000000000,"state":"active","ping":71},{"user_id":41,"name":"The Scringler","steam_id":76561199016537311,"connected_time":2984000000000,"state":"active","ping":70},{"user_id":42,"name":"hey thanks my friend","steam_id":76561199195104977,"connected_time":2944000000000,"state":"active","ping":76},{"user_id":51,"name":"emotional suppport e-cigarette","steam_id":76561198172120615,"connected_time":1351000000000,"state":"active","ping":75}]},{"server_id":38,"name":"Uncletopia | Chicago | 7 | Stopwatch","name_short":"chi-7","host":"chi-2.us.uncletopia.com","port":27035,"enabled":true,"region":"us-central","cc":"us","latitude":41.881832,"longitude":-87.62318,"reserved":0,"last_update":"0001-01-01T00:00:00Z","name_a2s":"Uncletopia | Chicago | 7 | Stopwatch","protocol":17,"map":"workshop/koth_bagel_rc6.ugc2514036946","folder":"tf","game":"Team Fortress","app_id":440,"player_count":22,"max_players":24,"Bots":0,"server_type":"Dedicated","server_os":"Linux","password":true,"vac":true,"version":"7961495","steam_id":85568392924866364,"keywords":["cp","nocrits","nodmgspread","uncletopia"],"game_id":440,"stv_port":27036,"stv_name":"Uncletopia | Chicago | 7 | Stopwatch | STV","players":[{"user_id":4,"name":"cpg","steam_id":76561198853515541,"connected_time":2483000000000,"state":"active","ping":78},{"user_id":7,"name":"Labienus \u003e Caesar","steam_id":76561198864585874,"connected_time":2277000000000,"state":"active","ping":69},{"user_id":6,"name":"doamgeo468","steam_id":76561199485287045,"connected_time":2466000000000,"state":"active","ping":54},{"user_id":10,"name":"Varie","steam_id":76561199454930210,"connected_time":1848000000000,"state":"active","ping":69},{"user_id":11,"name":"DrMania82","steam_id":76561198113086878,"connected_time":1844000000000,"state":"active","ping":102},{"user_id":25,"name":"lexsmells98","steam_id":76561199227832289,"connected_time":563000000000,"state":"active","ping":89},{"user_id":26,"name":"leumas","steam_id":76561198240408540,"connected_time":429000000000,"state":"active","ping":77},{"user_id":21,"name":"Cynthia","steam_id":76561198874418999,"connected_time":941000000000,"state":"active","ping":160},{"user_id":18,"name":"barry steakfries","steam_id":76561199472218520,"connected_time":1271000000000,"state":"active","ping":76},{"user_id":27,"name":"Jesus H Christ","steam_id":76561199042591606,"connected_time":418000000000,"state":"active","ping":59},{"user_id":24,"name":"Duk","steam_id":76561198450692568,"connected_time":738000000000,"state":"active","ping":77},{"user_id":28,"name":"üÖúüÖîüÖîüÖöüÖ¢üÖ£üÖî\ufffd\ufffd\ufffd","steam_id":76561197999748343,"connected_time":409000000000,"state":"active","ping":66},{"user_id":29,"name":"Slug Warrior","steam_id":76561197996052704,"connected_time":373000000000,"state":"active","ping":96},{"user_id":30,"name":"cran","steam_id":76561198178840075,"connected_time":351000000000,"state":"active","ping":73},{"user_id":31,"name":"Dabloon Cat","steam_id":76561198929533193,"connected_time":346000000000,"state":"active","ping":66},{"user_id":32,"name":"‚õß AlphaSatanOmega ‚õß","steam_id":76561198035125511,"connected_time":336000000000,"state":"active","ping":60},{"user_id":33,"name":"People's_Hero","steam_id":76561198103255788,"connected_time":287000000000,"state":"active","ping":63},{"user_id":34,"name":"TheKyleB","steam_id":76561198202515104,"connected_time":232000000000,"state":"active","ping":50},{"user_id":35,"name":"Arrythmia","steam_id":76561198093748123,"connected_time":215000000000,"state":"active","ping":102},{"user_id":36,"name":"Unwavering Flavor","steam_id":76561198053306065,"connected_time":164000000000,"state":"active","ping":66},{"user_id":37,"name":"Breve","steam_id":76561198065141099,"connected_time":157000000000,"state":"active","ping":71},{"user_id":38,"name":"FieryChipmunk","steam_id":76561198425766450,"connected_time":102000000000,"state":"active","ping":115}]},{"server_id":39,"name":"Uncletopia | Chicago | 8 | Community","name_short":"chi-8","host":"chi-2.us.uncletopia.com","port":27045,"enabled":true,"region":"us-central","cc":"us","latitude":41.881832,"longitude":-87.62318,"reserved":0,"last_update":"0001-01-01T00:00:00Z","name_a2s":"Uncletopia | Chicago | 8 | Community","protocol":17,"map":"workshop/koth_slaughter_rc1.ugc1712845210","folder":"tf","game":"Team Fortress","app_id":440,"player_count":0,"max_players":24,"Bots":0,"server_type":"Dedicated","server_os":"Linux","password":true,"vac":true,"version":"7961495","steam_id":85568392924866365,"keywords":["cp","nocrits","nodmgspread","uncletopia"],"game_id":440,"stv_port":27046,"stv_name":"Uncletopia | Chicago | 8 | Community | STV","players":null},{"server_id":8,"name":"Uncletopia | Dallas | 1 | All Maps","name_short":"dal-1","host":"dal-1.us.uncletopia.com","port":27015,"enabled":true,"region":"us-central","cc":"us","latitude":32.779167,"longitude":-96.80889,"reserved":0,"last_update":"0001-01-01T00:00:00Z","name_a2s":"Uncletopia | Dallas | 1 | All Maps","protocol":17,"map":"koth_lakeside_final","folder":"tf","game":"Team Fortress","app_id":440,"player_count":1,"max_players":24,"Bots":0,"server_type":"Dedicated","server_os":"Linux","password":true,"vac":true,"version":"7961495","steam_id":85568392924469986,"keywords":["cp","nocrits","nodmgspread","uncletopia"],"game_id":440,"stv_port":27016,"stv_name":"Uncletopia | Dallas | 1 | All Maps | STV","players":[{"user_id":12,"name":"Top-G Man","steam_id":76561199122152458,"connected_time":45000000000,"state":"active","ping":46}]},{"server_id":108,"name":"Uncletopia | Dallas | 2 | All Maps","name_short":"dal-2","host":"dal-1.us.uncletopia.com","port":27025,"enabled":true,"region":"us-central","cc":"us","latitude":32.779167,"longitude":-96.80889,"reserved":0,"last_update":"0001-01-01T00:00:00Z","name_a2s":"Uncletopia | Dallas | 2 | All Maps","protocol":17,"map":"cp_granary","folder":"tf","game":"Team Fortress","app_id":440,"player_count":21,"max_players":24,"Bots":0,"server_type":"Dedicated","server_os":"Linux","password":true,"vac":true,"version":"7961495","steam_id":85568392924469988,"keywords":["cp","nocrits","nodmgspread","uncletopia"],"game_id":440,"stv_port":27026,"stv_name":"Uncletopia | Dallas | 2 | All Maps | STV","players":[{"user_id":121,"name":"Tmiracle","steam_id":76561198052375275,"connected_time":1485000000000,"state":"active","ping":75},{"user_id":105,"name":"King Of The Chill","steam_id":76561197971394640,"connected_time":2815000000000,"state":"active","ping":61},{"user_id":128,"name":"TheGlitch6","steam_id":76561198044096008,"connected_time":786000000000,"state":"active","ping":58},{"user_id":137,"name":"batheman63","steam_id":76561198881818552,"connected_time":14000000000,"state":"spawning","ping":78},{"user_id":129,"name":"elcarlos1010","steam_id":76561198201986832,"connected_time":770000000000,"state":"active","ping":48},{"user_id":103,"name":"Architect","steam_id":76561198015242016,"connected_time":2880000000000,"state":"active","ping":73},{"user_id":134,"name":"A Straw","steam_id":76561199367935846,"connected_time":59000000000,"state":"active","ping":47},{"user_id":125,"name":"milwaukee pasta bandit","steam_id":76561198417793830,"connected_time":1186000000000,"state":"active","ping":60},{"user_id":135,"name":"TacoMan4Life","steam_id":76561198832562728,"connected_time":59000000000,"state":"active","ping":80},{"user_id":130,"name":"tyjle","steam_id":76561198118420122,"connected_time":623000000000,"state":"active","ping":60},{"user_id":108,"name":"V. G. Sunderland","steam_id":76561198161839980,"connected_time":2730000000000,"state":"spawning","ping":85},{"user_id":104,"name":"Moonlighter","steam_id":76561198325526945,"connected_time":2863000000000,"state":"active","ping":78},{"user_id":88,"name":"Bond","steam_id":76561198089262776,"connected_time":4163000000000,"state":"spawning","ping":44},{"user_id":115,"name":"hforce11","steam_id":76561198087647130,"connected_time":2108000000000,"state":"active","ping":55},{"user_id":126,"name":"Certified Hood Classic","steam_id":76561199086159354,"connected_time":979000000000,"state":"active","ping":45},{"user_id":118,"name":"N√º√æ","steam_id":76561198043956703,"connected_time":1651000000000,"state":"active","ping":75},{"user_id":117,"name":"North","steam_id":76561198814844969,"connected_time":1682000000000,"state":"active","ping":67},{"user_id":136,"name":"adapt","steam_id":76561198156181017,"connected_time":48000000000,"state":"active","ping":75},{"user_id":109,"name":"selvhat","steam_id":76561198114225509,"connected_time":2721000000000,"state":"active","ping":60},{"user_id":120,"name":"Elias","steam_id":76561198106431732,"connected_time":1509000000000,"state":"active","ping":76},{"user_id":127,"name":"Smoothpolishness","steam_id":76561198029084002,"connected_time":963000000000,"state":"active","ping":64}]},{"server_id":404,"name":"Uncletopia | Dallas | 3 | All Maps","name_short":"dal-3","host":"dal-1.us.uncletopia.com","port":27035,"enabled":true,"region":"us-central","cc":"us","latitude":32.779167,"longitude":-96.80889,"reserved":0,"last_update":"0001-01-01T00:00:00Z","name_a2s":"Uncletopia | Dallas | 3 | All Maps","protocol":17,"map":"pl_badwater","folder":"tf","game":"Team Fortress","app_id":440,"player_count":0,"max_players":24,"Bots":0,"server_type":"Dedicated","server_os":"Linux","password":true,"vac":true,"version":"7961495","steam_id":85568392924515219,"keywords":["nocrits","nodmgspread","payload","uncletopia"],"game_id":440,"stv_port":27036,"stv_name":"Uncletopia | Dallas | 3 | All Maps | STV","players":null},{"server_id":405,"name":"Uncletopia | Dallas | 4 | Community","name_short":"dal-4","host":"dal-1.us.uncletopia.com","port":27045,"enabled":true,"region":"us-central","cc":"us","latitude":32.779167,"longitude":-96.80889,"reserved":0,"last_update":"0001-01-01T00:00:00Z","name_a2s":"Uncletopia | Dallas | 4 | Community","protocol":17,"map":"workshop/koth_product_final.ugc454272353","folder":"tf","game":"Team Fortress","app_id":440,"player_count":0,"max_players":24,"Bots":0,"server_type":"Dedicated","server_os":"Linux","password":true,"vac":true,"version":"7961495","steam_id":85568392924515220,"keywords":["cp","nocrits","nodmgspread","uncletopia"],"game_id":440,"stv_port":27046,"stv_name":"Uncletopia | Dallas | 4 | Community | STV","players":null},{"server_id":5,"name":"Uncletopia | Frankfurt | 1 | All Maps","name_short":"frk-1","host":"frk-1.de.uncletopia.com","port":27015,"enabled":true,"region":"eu","cc":"de","latitude":50.110924,"longitude":8.682127,"reserved":0,"last_update":"0001-01-01T00:00:00Z","name_a2s":"Uncletopia | Frankfurt | 1 | All Maps","protocol":17,"map":"pl_swiftwater_final1","folder":"tf","game":"Team Fortress","app_id":440,"player_count":24,"max_players":24,"Bots":0,"server_type":"Dedicated","server_os":"Linux","password":true,"vac":true,"version":"7961495","steam_id":85568392924469989,"keywords":["nocrits","nodmgspread","payload","uncletopia"],"game_id":440,"stv_port":27016,"stv_name":"Uncletopia | Frankfurt | 1 | All Maps | STV","players":[{"user_id":522,"name":"Picolas Cage","steam_id":76561199013233409,"connected_time":462000000000,"state":"active","ping":66},{"user_id":536,"name":"Naginacz","steam_id":76561199099232534,"connected_time":97000000000,"state":"active","ping":60},{"user_id":499,"name":"warforge3","steam_id":76561199276024310,"connected_time":1284000000000,"state":"active","ping":78},{"user_id":517,"name":"wG silentes","steam_id":76561197999595616,"connected_time":702000000000,"state":"active","ping":58},{"user_id":524,"name":"Real life (scary)","steam_id":76561198803743443,"connected_time":281000000000,"state":"active","ping":68},{"user_id":530,"name":"LILY-CHAN","steam_id":76561198035085893,"connected_time":244000000000,"state":"active","ping":88},{"user_id":532,"name":"pardner","steam_id":76561198451471161,"connected_time":211000000000,"state":"active","ping":65},{"user_id":531,"name":"L.Ron Hoyabembe","steam_id":76561198009887251,"connected_time":233000000000,"state":"active","ping":73},{"user_id":488,"name":"max","steam_id":76561198039534890,"connected_time":1779000000000,"state":"active","ping":46},{"user_id":526,"name":"abra","steam_id":76561198315371425,"connected_time":260000000000,"state":"active","ping":52},{"user_id":515,"name":"‚òÜ Shuck ‚òÜ","steam_id":76561198052478490,"connected_time":857000000000,"state":"active","ping":50},{"user_id":519,"name":"please do not the cat","steam_id":76561198089003514,"connected_time":677000000000,"state":"active","ping":45},{"user_id":533,"name":"waj","steam_id":76561198053628243,"connected_time":208000000000,"state":"active","ping":62},{"user_id":457,"name":"FoOzTV","steam_id":76561197998636728,"connected_time":3966000000000,"state":"active","ping":58},{"user_id":508,"name":"katana on the trains","steam_id":76561198202464032,"connected_time":1167000000000,"state":"active","ping":66},{"user_id":523,"name":"TasK","steam_id":76561198043836494,"connected_time":349000000000,"state":"active","ping":65},{"user_id":520,"name":"\u003e\u003c\u003e","steam_id":76561198152392309,"connected_time":621000000000,"state":"active","ping":46},{"user_id":521,"name":"Saucisse","steam_id":76561198119955969,"connected_time":582000000000,"state":"active","ping":49},{"user_id":506,"name":"BurningJoke","steam_id":76561199014358707,"connected_time":1203000000000,"state":"active","ping":50},{"user_id":507,"name":"Matbanan","steam_id":76561198228537672,"connected_time":1199000000000,"state":"active","ping":67},{"user_id":535,"name":"Andy","steam_id":76561198046918834,"connected_time":172000000000,"state":"active","ping":59},{"user_id":527,"name":"Pestilence","steam_id":76561198140938904,"connected_time":257000000000,"state":"active","ping":54},{"user_id":509,"name":"The SPy","steam_id":76561198392505656,"connected_time":1166000000000,"state":"active","ping":45},{"user_id":528,"name":"Jela331","steam_id":76561198112625107,"connected_time":256000000000,"state":"active","ping":62}]},{"server_id":110,"name":"Uncletopia | Frankfurt | 2 | All Maps","name_short":"frk-2","host":"frk-1.de.uncletopia.com","port":27025,"enabled":true,"region":"eu","cc":"de","latitude":50.110924,"longitude":8.682127,"reserved":0,"last_update":"0001-01-01T00:00:00Z","name_a2s":"Uncletopia | Frankfurt | 2 | All Maps","protocol":17,"map":"cp_mountainlab","folder":"tf","game":"Team Fortress","app_id":440,"player_count":0,"max_players":24,"Bots":0,"server_type":"Dedicated","server_os":"Linux","password":true,"vac":true,"version":"7961495","steam_id":85568392924469990,"keywords":["cp","nocrits","nodmgspread","uncletopia"],"game_id":440,"stv_port":27026,"stv_name":"Uncletopia | Frankfurt | 2 | All Maps | STV","players":null},{"server_id":308,"name":"Uncletopia | Frankfurt | 3 | All Maps","name_short":"frk-3","host":"frk-1.de.uncletopia.com","port":27035,"enabled":true,"region":"eu","cc":"de","latitude":50.110924,"longitude":8.682127,"reserved":0,"last_update":"0001-01-01T00:00:00Z","name_a2s":"Uncletopia | Frankfurt | 3 | All Maps","protocol":17,"map":"pl_badwater","folder":"tf","game":"Team Fortress","app_id":440,"player_count":24,"max_players":24,"Bots":0,"server_type":"Dedicated","server_os":"Linux","password":true,"vac":true,"version":"7961495","steam_id":85568392924504274,"keywords":["nocrits","nodmgspread","payload","uncletopia"],"game_id":440,"stv_port":27036,"stv_name":"Uncletopia | Frankfurt | 3 | All Maps | STV","players":[{"user_id":413,"name":"Interview C","steam_id":76561199012566222,"connected_time":278000000000,"state":"active","ping":53},{"user_id":410,"name":"MINTY","steam_id":76561198117943777,"connected_time":626000000000,"state":"active","ping":96},{"user_id":395,"name":"Doctor Livesey","steam_id":76561198828037534,"connected_time":1504000000000,"state":"active","ping":55},{"user_id":421,"name":"Bobirulez","steam_id":76561198009125458,"connected_time":119000000000,"state":"active","ping":74},{"user_id":401,"name":"Amandus","steam_id":76561198036281079,"connected_time":1134000000000,"state":"active","ping":60},{"user_id":422,"name":"‚ÜØ","steam_id":76561198055389492,"connected_time":112000000000,"state":"active","ping":58},{"user_id":417,"name":"kag","steam_id":76561198059813166,"connected_time":221000000000,"state":"active","ping":54},{"user_id":416,"name":"REN","steam_id":76561198000596385,"connected_time":226000000000,"state":"active","ping":53},{"user_id":414,"name":"Mort ‚Üπ [Buying/Trading Skins]","steam_id":76561198116053206,"connected_time":271000000000,"state":"active","ping":50},{"user_id":412,"name":"IdSmash","steam_id":76561198435873138,"connected_time":341000000000,"state":"active","ping":148},{"user_id":391,"name":"Altiross","steam_id":76561198091593317,"connected_time":1949000000000,"state":"active","ping":59},{"user_id":418,"name":"Spectator","steam_id":76561198158608309,"connected_time":197000000000,"state":"active","ping":66},{"user_id":387,"name":"Taishi-sama","steam_id":76561198133097235,"connected_time":2129000000000,"state":"active","ping":101},{"user_id":405,"name":"ScapeGoat","steam_id":76561198137868829,"connected_time":1105000000000,"state":"active","ping":55},{"user_id":415,"name":"Bajas","steam_id":76561198179339326,"connected_time":239000000000,"state":"active","ping":75},{"user_id":392,"name":"The Rizzler","steam_id":76561198195159941,"connected_time":1903000000000,"state":"active","ping":52},{"user_id":419,"name":"Damn fiddle!","steam_id":76561198345873608,"connected_time":187000000000,"state":"active","ping":31},{"user_id":308,"name":"Efeca","steam_id":76561198018923829,"connected_time":9003000000000,"state":"active","ping":63},{"user_id":393,"name":"joachym","steam_id":76561198428579761,"connected_time":1901000000000,"state":"active","ping":45},{"user_id":423,"name":"WrathNSpeed","steam_id":76561198390944504,"connected_time":73000000000,"state":"active","ping":68},{"user_id":408,"name":"habibi69","steam_id":76561198141989573,"connected_time":825000000000,"state":"active","ping":61},{"user_id":407,"name":"Zenhard","steam_id":76561198099744014,"connected_time":1065000000000,"state":"active","ping":70},{"user_id":420,"name":"Udinese Dion","steam_id":76561198067931573,"connected_time":186000000000,"state":"active","ping":54},{"user_id":411,"name":"that fat croc from donkey kong","steam_id":76561198159172495,"connected_time":465000000000,"state":"active","ping":73}]},{"server_id":309,"name":"Uncletopia | Frankfurt | 4 | All Maps","name_short":"frk-4","host":"frk-1.de.uncletopia.com","port":27045,"enabled":true,"region":"eu","cc":"de","latitude":50.110924,"longitude":8.682127,"reserved":0,"last_update":"0001-01-01T00:00:00Z","name_a2s":"Uncletopia | Frankfurt | 4 | All Maps","protocol":17,"map":"koth_cascade","folder":"tf","game":"Team Fortress","app_id":440,"player_count":15,"max_players":24,"Bots":0,"server_type":"Dedicated","server_os":"Linux","password":true,"vac":true,"version":"7961495","steam_id":85568392924504275,"keywords":["cp","nocrits","nodmgspread","uncletopia"],"game_id":440,"stv_port":27046,"stv_name":"Uncletopia | Frankfurt | 4 | All Maps | STV","players":[{"user_id":258,"name":"MGE King","steam_id":76561198099259340,"connected_time":3180000000000,"state":"active","ping":89},{"user_id":295,"name":"Violet","steam_id":76561198079388610,"connected_time":27000000000,"state":"active","ping":33},{"user_id":272,"name":"cwas√≤n the croissant","steam_id":76561198317643652,"connected_time":1678000000000,"state":"active","ping":48},{"user_id":248,"name":"Underage Undertaker","steam_id":76561198130328543,"connected_time":3650000000000,"state":"active","ping":126},{"user_id":291,"name":"–ê—Å—è'–ú–µ–Ω–∏—Ç–µ–ª—å \u003c3","steam_id":76561198000267173,"connected_time":728000000000,"state":"active","ping":75},{"user_id":234,"name":"Coac","steam_id":76561198085265740,"connected_time":4537000000000,"state":"active","ping":59},{"user_id":280,"name":"Qwerty","steam_id":76561198023525894,"connected_time":1568000000000,"state":"active","ping":88},{"user_id":286,"name":"Henry","steam_id":76561198108018305,"connected_time":1035000000000,"state":"active","ping":67},{"user_id":273,"name":"Zerfesh","steam_id":76561198117534358,"connected_time":1665000000000,"state":"active","ping":92},{"user_id":293,"name":"Davido01","steam_id":76561198089406245,"connected_time":621000000000,"state":"active","ping":41},{"user_id":214,"name":"Jnet","steam_id":76561198001282720,"connected_time":5706000000000,"state":"active","ping":92},{"user_id":200,"name":"S4LV4G3","steam_id":76561198130314779,"connected_time":6641000000000,"state":"active","ping":55},{"user_id":290,"name":"kevinus","steam_id":76561198059722457,"connected_time":810000000000,"state":"active","ping":39},{"user_id":292,"name":"zeeko683","steam_id":76561198429788727,"connected_time":660000000000,"state":"active","ping":41},{"user_id":254,"name":"cuddles","steam_id":76561198805181599,"connected_time":3582000000000,"state":"active","ping":66}]},{"server_id":310,"name":"Uncletopia | Frankfurt | 5 | All Maps","name_short":"frk-5","host":"frk-1.de.uncletopia.com","port":27055,"enabled":true,"region":"eu","cc":"de","latitude":50.110924,"longitude":8.682127,"reserved":0,"last_update":"0001-01-01T00:00:00Z","name_a2s":"Uncletopia | Frankfurt | 5 | All Maps","protocol":17,"map":"koth_harvest_final","folder":"tf","game":"Team Fortress","app_id":440,"player_count":23,"max_players":24,"Bots":0,"server_type":"Dedicated","server_os":"Linux","password":true,"vac":true,"version":"7961495","steam_id":85568392924504277,"keywords":["cp","nocrits","nodmgspread","uncletopia"],"game_id":440,"stv_port":27056,"stv_name":"Uncletopia | Frankfurt | 5 | All Maps | STV","players":[{"user_id":146,"name":"toki","steam_id":76561198963599425,"connected_time":498000000000,"state":"active","ping":48},{"user_id":126,"name":"m4tt","steam_id":76561198267909813,"connected_time":1802000000000,"state":"active","ping":60},{"user_id":155,"name":"Supercoxylac","steam_id":76561198376300138,"connected_time":144000000000,"state":"active","ping":51},{"user_id":127,"name":"ramedlaV^^","steam_id":76561198074352339,"connected_time":1802000000000,"state":"active","ping":67},{"user_id":81,"name":"ShadowTwin","steam_id":76561198046658200,"connected_time":5426000000000,"state":"active","ping":59},{"user_id":97,"name":"Vonacht","steam_id":76561198016033944,"connected_time":4427000000000,"state":"active","ping":63},{"user_id":153,"name":"doomer","steam_id":76561198977420882,"connected_time":371000000000,"state":"active","ping":59},{"user_id":138,"name":"Tort","steam_id":76561198329646769,"connected_time":910000000000,"state":"active","ping":51},{"user_id":145,"name":"fish","steam_id":76561198092096689,"connected_time":507000000000,"state":"active","ping":46},{"user_id":98,"name":"zazuza","steam_id":76561198049820905,"connected_time":4404000000000,"state":"active","ping":70},{"user_id":141,"name":"ELDEN RING","steam_id":76561198065859753,"connected_time":559000000000,"state":"active","ping":54},{"user_id":150,"name":"grinding on my lonesome..üçÉ..","steam_id":76561198146147833,"connected_time":412000000000,"state":"active","ping":45},{"user_id":136,"name":"randompixel","steam_id":76561198003941207,"connected_time":1387000000000,"state":"active","ping":55},{"user_id":137,"name":"Frazzle","steam_id":76561198262577951,"connected_time":1280000000000,"state":"active","ping":67},{"user_id":105,"name":"Vlad","steam_id":76561198048605526,"connected_time":4087000000000,"state":"active","ping":63},{"user_id":133,"name":"‚òÖpoyo‚òÖ","steam_id":76561198150078959,"connected_time":1522000000000,"state":"active","ping":60},{"user_id":122,"name":"Leviticus Cornwall","steam_id":76561197993702685,"connected_time":2105000000000,"state":"active","ping":78},{"user_id":123,"name":"Agama","steam_id":76561198867921159,"connected_time":2103000000000,"state":"active","ping":87},{"user_id":139,"name":"zaza_enjoyer","steam_id":76561198042242313,"connected_time":897000000000,"state":"active","ping":51},{"user_id":142,"name":"KaasKrans","steam_id":76561198240451972,"connected_time":557000000000,"state":"active","ping":45},{"user_id":156,"name":"Smol","steam_id":76561198805163740,"connected_time":102000000000,"state":"active","ping":69},{"user_id":134,"name":"Yonio","steam_id":76561198408428132,"connected_time":1506000000000,"state":"active","ping":74},{"user_id":152,"name":"Down but my money up","steam_id":76561198117050793,"connected_time":390000000000,"state":"active","ping":46}]},{"server_id":311,"name":"Uncletopia | Frankfurt | 6 | All Maps","name_short":"frk-6","host":"frk-1.de.uncletopia.com","port":27065,"enabled":true,"region":"eu","cc":"de","latitude":50.110924,"longitude":8.682127,"reserved":0,"last_update":"0001-01-01T00:00:00Z","name_a2s":"Uncletopia | Frankfurt | 6 | All Maps","protocol":17,"map":"koth_lakeside_final","folder":"tf","game":"Team Fortress","app_id":440,"player_count":3,"max_players":24,"Bots":0,"server_type":"Dedicated","server_os":"Linux","password":true,"vac":true,"version":"7961495","steam_id":85568392924504278,"keywords":["cp","nocrits","nodmgspread","uncletopia"],"game_id":440,"stv_port":27066,"stv_name":"Uncletopia | Frankfurt | 6 | All Maps | STV","players":[{"user_id":25,"name":"Happy Di Piero","steam_id":76561199206603810,"connected_time":24000000000,"state":"active","ping":79},{"user_id":13,"name":"ran is running","steam_id":76561199443185667,"connected_time":3141000000000,"state":"active","ping":114},{"user_id":19,"name":"A_GingerIdiot","steam_id":76561198313306026,"connected_time":2235000000000,"state":"active","ping":62}]},{"server_id":23,"name":"Uncletopia | Frankfurt | 7 | Stopwatch","name_short":"frk-7","host":"frk-1.de.uncletopia.com","port":27075,"enabled":true,"region":"eu","cc":"de","latitude":50.110924,"longitude":8.682127,"reserved":0,"last_update":"0001-01-01T00:00:00Z","name_a2s":"Uncletopia | Frankfurt | 7 | Stopwatch","protocol":17,"map":"koth_lakeside_final","folder":"tf","game":"Team Fortress","app_id":440,"player_count":15,"max_players":24,"Bots":0,"server_type":"Dedicated","server_os":"Linux","password":true,"vac":true,"version":"7961495","steam_id":85568392924742827,"keywords":["cp","nocrits","nodmgspread","uncletopia"],"game_id":440,"stv_port":27076,"stv_name":"Uncletopia | Frankfurt | 7 | Stopwatch | STV","players":[{"user_id":566,"name":"king k rool","steam_id":76561199179040672,"connected_time":1145000000000,"state":"active","ping":64},{"user_id":514,"name":"Huge Raccoon Grippers","steam_id":76561198389561623,"connected_time":5003000000000,"state":"active","ping":54},{"user_id":579,"name":"Dr Crow","steam_id":76561198138444201,"connected_time":36000000000,"state":"active","ping":62},{"user_id":570,"name":"Daan77","steam_id":76561198129940468,"connected_time":911000000000,"state":"active","ping":61},{"user_id":574,"name":"God's Goofiest Goober","steam_id":76561198103175187,"connected_time":495000000000,"state":"active","ping":59},{"user_id":578,"name":"lysik","steam_id":76561198039498027,"connected_time":141000000000,"state":"active","ping":58},{"user_id":577,"name":"[NL]Teunemans","steam_id":76561199064349967,"connected_time":319000000000,"state":"active","ping":56},{"user_id":569,"name":"un puie","steam_id":76561198084056439,"connected_time":990000000000,"state":"active","ping":38},{"user_id":572,"name":"tapeworms!","steam_id":76561198069649097,"connected_time":880000000000,"state":"active","ping":56},{"user_id":580,"name":"ZeroxyZXE","steam_id":76561198113710681,"connected_time":17000000000,"state":"active","ping":91},{"user_id":477,"name":"Jimmy Poppadopolos","steam_id":76561198044825612,"connected_time":7948000000000,"state":"active","ping":47},{"user_id":478,"name":"Razef","steam_id":76561198030309484,"connected_time":7877000000000,"state":"active","ping":48},{"user_id":531,"name":"KingPotatoChips","steam_id":76561198035156465,"connected_time":3689000000000,"state":"active","ping":54},{"user_id":517,"name":"Skatnaset","steam_id":76561198298457353,"connected_time":4972000000000,"state":"active","ping":60},{"user_id":547,"name":"guru{Hari}","steam_id":76561197997001681,"connected_time":3042000000000,"state":"active","ping":65}]},{"server_id":24,"name":"Uncletopia | Frankfurt | 8 | Community","name_short":"frk-8","host":"frk-1.de.uncletopia.com","port":27085,"enabled":true,"region":"eu","cc":"de","latitude":50.110924,"longitude":8.682127,"reserved":0,"last_update":"0001-01-01T00:00:00Z","name_a2s":"Uncletopia | Frankfurt | 8 | Community","protocol":17,"map":"workshop/koth_trenchfoot_ab1.ugc731436616","folder":"tf","game":"Team Fortress","app_id":440,"player_count":0,"max_players":24,"Bots":0,"server_type":"Dedicated","server_os":"Linux","password":true,"vac":true,"version":"7961495","steam_id":85568392924742828,"keywords":["cp","nocrits","nodmgspread","uncletopia"],"game_id":440,"stv_port":27086,"stv_name":"Uncletopia | Frankfurt | 8 | Community | STV","players":null},{"server_id":202,"name":"Uncletopia | Hong Kong | 1 | All Maps","name_short":"hgk-1","host":"hgk-1.hk.uncletopia.com","port":27015,"enabled":true,"region":"asia","cc":"hk","latitude":22.302711,"longitude":114.177216,"reserved":0,"last_update":"0001-01-01T00:00:00Z","name_a2s":"Uncletopia | Hong Kong | 1 | All Maps","protocol":17,"map":"koth_lakeside_final","folder":"tf","game":"Team Fortress","app_id":440,"player_count":0,"max_players":24,"Bots":0,"server_type":"Dedicated","server_os":"Linux","password":true,"vac":true,"version":"7961495","steam_id":85568392924494504,"keywords":["cp","nocrits","nodmgspread","uncletopia"],"game_id":440,"stv_port":27016,"stv_name":"Uncletopia | Hong Kong | 1 | All Maps | STV","players":null},{"server_id":1,"name":"Uncletopia | Los Angeles | 1 | All Maps","name_short":"lax-1","host":"lax-1.us.uncletopia.com","port":27015,"enabled":true,"region":"us-west","cc":"us","latitude":33.94279,"longitude":-118.41004,"reserved":0,"last_update":"0001-01-01T00:00:00Z","name_a2s":"Uncletopia | Los Angeles | 1 | All Maps","protocol":17,"map":"koth_viaduct","folder":"tf","game":"Team Fortress","app_id":440,"player_count":0,"max_players":24,"Bots":0,"server_type":"Dedicated","server_os":"Linux","password":true,"vac":true,"version":"7961495","steam_id":85568392924469991,"keywords":["cp","nocrits","nodmgspread","uncletopia"],"game_id":440,"stv_port":27016,"stv_name":"Uncletopia | Los Angeles | 1 | All Maps | STV","players":null},{"server_id":112,"name":"Uncletopia | Los Angeles | 2 | All Maps","name_short":"lax-2","host":"lax-1.us.uncletopia.com","port":27025,"enabled":true,"region":"us-west","cc":"us","latitude":33.94279,"longitude":-118.41004,"reserved":0,"last_update":"0001-01-01T00:00:00Z","name_a2s":"Uncletopia | Los Angeles | 2 | All Maps","protocol":17,"map":"koth_cascade","folder":"tf","game":"Team Fortress","app_id":440,"player_count":0,"max_players":24,"Bots":0,"server_type":"Dedicated","server_os":"Linux","password":true,"vac":true,"version":"7961495","steam_id":85568392924469992,"keywords":["cp","nocrits","nodmgspread","uncletopia"],"game_id":440,"stv_port":27026,"stv_name":"Uncletopia | Los Angeles | 2 | All Maps | STV","players":null},{"server_id":324,"name":"Uncletopia | Los Angeles | 3 | All Maps","name_short":"lax-3","host":"lax-1.us.uncletopia.com","port":27035,"enabled":true,"region":"us-west","cc":"us","latitude":33.94279,"longitude":-118.41004,"reserved":0,"last_update":"0001-01-01T00:00:00Z","name_a2s":"Uncletopia | Los Angeles | 3 | All Maps","protocol":17,"map":"cp_snakewater_final1","folder":"tf","game":"Team Fortress","app_id":440,"player_count":0,"max_players":24,"Bots":0,"server_type":"Dedicated","server_os":"Linux","password":true,"vac":true,"version":"7961495","steam_id":85568392924510198,"keywords":["cp","nocrits","nodmgspread","uncletopia"],"game_id":440,"stv_port":27036,"stv_name":"Uncletopia | Los Angeles | 3 | All Maps | STV","players":null},{"server_id":25,"name":"Uncletopia | Los Angeles | 4 | Stopwatch","name_short":"lax-4","host":"lax-1.us.uncletopia.com","port":27045,"enabled":true,"region":"us-west","cc":"us","latitude":33.94279,"longitude":-118.41004,"reserved":0,"last_update":"0001-01-01T00:00:00Z","name_a2s":"Uncletopia | Los Angeles | 4 | Stopwatch","protocol":17,"map":"koth_highpass","folder":"tf","game":"Team Fortress","app_id":440,"player_count":0,"max_players":24,"Bots":0,"server_type":"Dedicated","server_os":"Linux","password":true,"vac":true,"version":"7961495","steam_id":85568392924510199,"keywords":["cp","nocrits","nodmgspread","uncletopia"],"game_id":440,"stv_port":27046,"stv_name":"Uncletopia | Los Angeles | 4 | Stopwatch | STV","players":null},{"server_id":11,"name":"Uncletopia | London | 1 | All Maps","name_short":"lon-1","host":"lon-1.uk.uncletopia.com","port":27015,"enabled":true,"region":"eu","cc":"gb","latitude":51.509865,"longitude":-0.118092,"reserved":0,"last_update":"0001-01-01T00:00:00Z","name_a2s":"Uncletopia | London | 1 | All Maps","protocol":17,"map":"pl_badwater","folder":"tf","game":"Team Fortress","app_id":440,"player_count":24,"max_players":24,"Bots":0,"server_type":"Dedicated","server_os":"Linux","password":true,"vac":true,"version":"7961495","steam_id":85568392924367362,"keywords":["nocrits","nodmgspread","payload","uncletopia"],"game_id":440,"stv_port":27016,"stv_name":"Uncletopia | London | 1 | All Maps | STV","players":[{"user_id":1099,"name":"Dr Bondus Bolongus Dongus","steam_id":76561198378657692,"connected_time":65000000000,"state":"active","ping":45},{"user_id":1098,"name":"James","steam_id":76561198168882012,"connected_time":102000000000,"state":"active","ping":43},{"user_id":1091,"name":"Ville","steam_id":76561198137424821,"connected_time":388000000000,"state":"active","ping":61},{"user_id":1090,"name":"Alpha","steam_id":76561199482290132,"connected_time":395000000000,"state":"active","ping":111},{"user_id":1077,"name":"Croy","steam_id":76561197972552579,"connected_time":918000000000,"state":"active","ping":45},{"user_id":1082,"name":"spencer pooties","steam_id":76561198123044544,"connected_time":675000000000,"state":"active","ping":65},{"user_id":1074,"name":"magÃ∂pÃ∂iÃ∂e ‚úø","steam_id":76561198797266244,"connected_time":1313000000000,"state":"active","ping":69},{"user_id":1072,"name":"No Status","steam_id":76561198119526557,"connected_time":1365000000000,"state":"active","ping":38},{"user_id":807,"name":"whimsy. (live)","steam_id":76561198878171763,"connected_time":6532000000000,"state":"active","ping":54},{"user_id":1066,"name":"finbar","steam_id":76561198056812396,"connected_time":1664000000000,"state":"active","ping":75},{"user_id":1100,"name":"I sell exotic parrots","steam_id":76561199192434258,"connected_time":59000000000,"state":"active","ping":103},{"user_id":999,"name":"Snake-chan","steam_id":76561199044755854,"connected_time":3565000000000,"state":"active","ping":80},{"user_id":1096,"name":"Qwertuss","steam_id":76561198026305366,"connected_time":187000000000,"state":"active","ping":45},{"user_id":1076,"name":"Maximalsound","steam_id":76561198068246502,"connected_time":977000000000,"state":"active","ping":50},{"user_id":703,"name":"shooer!","steam_id":76561198110531281,"connected_time":7643000000000,"state":"active","ping":46},{"user_id":1086,"name":"Mafew","steam_id":76561198119993886,"connected_time":504000000000,"state":"active","ping":60},{"user_id":1058,"name":"ber.","steam_id":76561197993892057,"connected_time":2398000000000,"state":"active","ping":90},{"user_id":919,"name":"gibb (heLP HELP HELP)","steam_id":76561198074097655,"connected_time":4633000000000,"state":"active","ping":66},{"user_id":1101,"name":"glyph","steam_id":76561197980736364,"connected_time":52000000000,"state":"active","ping":89},{"user_id":1000,"name":"Christmas Ham","steam_id":76561198119601623,"connected_time":3564000000000,"state":"active","ping":69},{"user_id":1097,"name":"Olu","steam_id":76561198057135574,"connected_time":169000000000,"state":"active","ping":84},{"user_id":1059,"name":"irritable vowel syndrome","steam_id":76561198117033273,"connected_time":2054000000000,"state":"active","ping":51},{"user_id":1070,"name":"mespe","steam_id":76561198121530649,"connected_time":1568000000000,"state":"active","ping":76},{"user_id":1092,"name":"Th3Celestial","steam_id":76561198353312252,"connected_time":295000000000,"state":"active","ping":44}]},{"server_id":114,"name":"Uncletopia | London | 2 | All Maps","name_short":"lon-2","host":"lon-1.uk.uncletopia.com","port":27025,"enabled":true,"region":"eu","cc":"gb","latitude":51.509865,"longitude":-0.118092,"reserved":0,"last_update":"0001-01-01T00:00:00Z","name_a2s":"Uncletopia | London | 2 | All Maps","protocol":17,"map":"cp_steel","folder":"tf","game":"Team Fortress","app_id":440,"player_count":23,"max_players":24,"Bots":0,"server_type":"Dedicated","server_os":"Linux","password":true,"vac":true,"version":"7961495","steam_id":85568392924470941,"keywords":["cp","nocrits","nodmgspread","uncletopia"],"game_id":440,"stv_port":27026,"stv_name":"Uncletopia | London | 2 | All Maps | STV","players":[{"user_id":334,"name":"only1indigo","steam_id":76561198380193071,"connected_time":4288000000000,"state":"active","ping":75},{"user_id":327,"name":"tame impala","steam_id":76561199085624224,"connected_time":4946000000000,"state":"active","ping":64},{"user_id":399,"name":"ILoveKey2","steam_id":76561198814559564,"connected_time":963000000000,"state":"active","ping":77},{"user_id":389,"name":"IS3BITEL","steam_id":76561199178060325,"connected_time":1850000000000,"state":"active","ping":73},{"user_id":335,"name":"Coby","steam_id":76561198060876389,"connected_time":4257000000000,"state":"active","ping":84},{"user_id":407,"name":"Escobar","steam_id":76561198089785078,"connected_time":3000000000,"state":"spawning","ping":107},{"user_id":374,"name":"EXCELdotEXE","steam_id":76561198977594319,"connected_time":2685000000000,"state":"active","ping":70},{"user_id":351,"name":"Zerius","steam_id":76561198044235220,"connected_time":3642000000000,"state":"active","ping":61},{"user_id":340,"name":"JustMayor","steam_id":76561198050515503,"connected_time":4115000000000,"state":"active","ping":65},{"user_id":393,"name":"goop","steam_id":76561198190073005,"connected_time":1196000000000,"state":"active","ping":45},{"user_id":401,"name":"Ady P√°dlo","steam_id":76561198263104437,"connected_time":691000000000,"state":"active","ping":62},{"user_id":343,"name":"f0x","steam_id":76561198072921704,"connected_time":4027000000000,"state":"active","ping":50},{"user_id":308,"name":"(MAC) [BN] Crazyking","steam_id":76561198001668616,"connected_time":5954000000000,"state":"active","ping":40},{"user_id":309,"name":"Demicore","steam_id":76561197976922136,"connected_time":5946000000000,"state":"active","ping":60},{"user_id":394,"name":"HoneyBe_","steam_id":76561198288930154,"connected_time":1190000000000,"state":"active","ping":52},{"user_id":345,"name":"fence_","steam_id":76561198150386379,"connected_time":4005000000000,"state":"active","ping":46},{"user_id":378,"name":"Gustavo_Fring_6969","steam_id":76561199373610279,"connected_time":2641000000000,"state":"active","ping":96},{"user_id":400,"name":"Bouuuulic","steam_id":76561198053731110,"connected_time":872000000000,"state":"active","ping":61},{"user_id":396,"name":"Cosmic Gamer","steam_id":76561198027357981,"connected_time":1166000000000,"state":"active","ping":93},{"user_id":405,"name":"Laru","steam_id":76561197998838438,"connected_time":86000000000,"state":"active","ping":86},{"user_id":397,"name":"Sad Potato","steam_id":76561198239654762,"connected_time":1163000000000,"state":"active","ping":42},{"user_id":398,"name":"SpicyBoi","steam_id":76561198137845321,"connected_time":1154000000000,"state":"active","ping":56},{"user_id":403,"name":"XFAX","steam_id":76561197973627932,"connected_time":145000000000,"state":"active","ping":74}]},{"server_id":320,"name":"Uncletopia | London | 3 | All Maps","name_short":"lon-3","host":"lon-1.uk.uncletopia.com","port":27035,"enabled":true,"region":"eu","cc":"gb","latitude":51.509865,"longitude":-0.118092,"reserved":0,"last_update":"0001-01-01T00:00:00Z","name_a2s":"Uncletopia | London | 3 | All Maps","protocol":17,"map":"plr_pipeline","folder":"tf","game":"Team Fortress","app_id":440,"player_count":24,"max_players":24,"Bots":0,"server_type":"Dedicated","server_os":"Linux","password":true,"vac":true,"version":"7961495","steam_id":85568392924510192,"keywords":["nocrits","nodmgspread","payload","uncletopia"],"game_id":440,"stv_port":27036,"stv_name":"Uncletopia | London | 3 | All Maps | STV","players":[{"user_id":272,"name":"Larkos","steam_id":76561198070849213,"connected_time":57000000000,"state":"active","ping":53},{"user_id":266,"name":"Teecho","steam_id":76561197995269610,"connected_time":439000000000,"state":"active","ping":45},{"user_id":262,"name":"The_Jaystone","steam_id":76561198126280691,"connected_time":517000000000,"state":"active","ping":32},{"user_id":276,"name":"Mega Man Legends 3","steam_id":76561198014110199,"connected_time":8000000000,"state":"active","ping":45},{"user_id":255,"name":"Mig_Chungus","steam_id":76561198053410265,"connected_time":1094000000000,"state":"active","ping":61},{"user_id":221,"name":"birchy","steam_id":76561198166697295,"connected_time":2623000000000,"state":"active","ping":42},{"user_id":274,"name":"Nerdy","steam_id":76561198113844379,"connected_time":39000000000,"state":"active","ping":100},{"user_id":260,"name":"Mr. Games","steam_id":76561198393587416,"connected_time":644000000000,"state":"active","ping":45},{"user_id":225,"name":"I-I","steam_id":76561198267969436,"connected_time":2524000000000,"state":"active","ping":62},{"user_id":263,"name":"Baron","steam_id":76561198021901783,"connected_time":484000000000,"state":"active","ping":40},{"user_id":224,"name":"C.I.","steam_id":76561197972438196,"connected_time":2529000000000,"state":"active","ping":41},{"user_id":270,"name":"whats a cookie?","steam_id":76561197983802459,"connected_time":229000000000,"state":"active","ping":37},{"user_id":265,"name":"RoosterPie","steam_id":76561198153810367,"connected_time":445000000000,"state":"active","ping":75},{"user_id":211,"name":"LuckyHappyGuy","steam_id":76561198353023996,"connected_time":3438000000000,"state":"active","ping":70},{"user_id":246,"name":"Shades are Colours","steam_id":76561199023318097,"connected_time":1727000000000,"state":"active","ping":44},{"user_id":267,"name":"Hoff","steam_id":76561198138540938,"connected_time":436000000000,"state":"active","ping":70},{"user_id":253,"name":"tl.rybar","steam_id":76561197960377282,"connected_time":1447000000000,"state":"active","ping":60},{"user_id":258,"name":"Scotaborg","steam_id":76561198080764719,"connected_time":678000000000,"state":"active","ping":58},{"user_id":251,"name":"Radio_Troll","steam_id":76561199223701309,"connected_time":1479000000000,"state":"active","ping":145},{"user_id":275,"name":"herr_p","steam_id":76561198033072222,"connected_time":21000000000,"state":"active","ping":67},{"user_id":236,"name":"THE SPIRIT","steam_id":76561198170744597,"connected_time":2361000000000,"state":"active","ping":79},{"user_id":271,"name":"RCST","steam_id":76561198174955254,"connected_time":164000000000,"state":"active","ping":87},{"user_id":145,"name":"soil.dirt.earth","steam_id":76561198014377623,"connected_time":7272000000000,"state":"active","ping":31},{"user_id":269,"name":"Pip","steam_id":76561198049587565,"connected_time":418000000000,"state":"active","ping":39}]},{"server_id":321,"name":"Uncletopia | London | 4 | All Maps","name_short":"lon-4","host":"lon-1.uk.uncletopia.com","port":27045,"enabled":true,"region":"eu","cc":"gb","latitude":51.509865,"longitude":-0.118092,"reserved":0,"last_update":"0001-01-01T00:00:00Z","name_a2s":"Uncletopia | London | 4 | All Maps","protocol":17,"map":"pl_borneo","folder":"tf","game":"Team Fortress","app_id":440,"player_count":24,"max_players":24,"Bots":0,"server_type":"Dedicated","server_os":"Linux","password":true,"vac":true,"version":"7961495","steam_id":85568392924510193,"keywords":["nocrits","nodmgspread","payload","uncletopia"],"game_id":440,"stv_port":27046,"stv_name":"Uncletopia | London | 4 | All Maps | STV","players":[{"user_id":345,"name":"ChPerette üéÆ","steam_id":76561198060004887,"connected_time":178000000000,"state":"active","ping":44},{"user_id":324,"name":"sword machine","steam_id":76561198895235231,"connected_time":1450000000000,"state":"active","ping":60},{"user_id":346,"name":"Skepingawich","steam_id":76561198038736553,"connected_time":117000000000,"state":"active","ping":60},{"user_id":341,"name":"Subterranean","steam_id":76561198106684566,"connected_time":377000000000,"state":"active","ping":80},{"user_id":309,"name":"Lux","steam_id":76561198060417740,"connected_time":3524000000000,"state":"active","ping":45},{"user_id":228,"name":"Ullr","steam_id":76561198140547483,"connected_time":8249000000000,"state":"active","ping":44},{"user_id":342,"name":"Beanie","steam_id":76561198173882658,"connected_time":368000000000,"state":"active","ping":45},{"user_id":347,"name":"Lag","steam_id":76561198159360376,"connected_time":90000000000,"state":"active","ping":53},{"user_id":318,"name":"your personal medic","steam_id":76561197961707932,"connected_time":2028000000000,"state":"active","ping":62},{"user_id":321,"name":"5UP3R TH30 B4G","steam_id":76561198852348375,"connected_time":1533000000000,"state":"active","ping":48},{"user_id":348,"name":"Name","steam_id":76561197990757157,"connected_time":87000000000,"state":"active","ping":68},{"user_id":335,"name":"Locke","steam_id":76561198339408300,"connected_time":903000000000,"state":"active","ping":62},{"user_id":326,"name":"Monkey Friend","steam_id":76561198144403074,"connected_time":1434000000000,"state":"active","ping":60},{"user_id":349,"name":"Flank","steam_id":76561198098731156,"connected_time":61000000000,"state":"active","ping":71},{"user_id":316,"name":"skittish maiden","steam_id":76561198096856475,"connected_time":2141000000000,"state":"active","ping":59},{"user_id":332,"name":"blickaroni and gun grease","steam_id":76561198074807915,"connected_time":1085000000000,"state":"active","ping":61},{"user_id":317,"name":"Jersku","steam_id":76561198140994845,"connected_time":2138000000000,"state":"active","ping":74},{"user_id":333,"name":"f l —è n","steam_id":76561198079595755,"connected_time":1076000000000,"state":"active","ping":58},{"user_id":304,"name":"Fran","steam_id":76561199070516960,"connected_time":3728000000000,"state":"active","ping":69},{"user_id":343,"name":"kana munn","steam_id":76561198059762111,"connected_time":248000000000,"state":"active","ping":78},{"user_id":306,"name":"rob","steam_id":76561198122211848,"connected_time":3712000000000,"state":"active","ping":93},{"user_id":330,"name":"highest noon","steam_id":76561199103959197,"connected_time":1379000000000,"state":"active","ping":91},{"user_id":307,"name":"mary","steam_id":76561198014828037,"connected_time":3711000000000,"state":"active","ping":59},{"user_id":331,"name":"fernandobmwm355555","steam_id":76561198086609447,"connected_time":1351000000000,"state":"active","ping":67}]},{"server_id":21,"name":"Uncletopia | London | 5 | All Maps","name_short":"lon-5","host":"lon-1.uk.uncletopia.com","port":27055,"enabled":true,"region":"eu","cc":"gb","latitude":51.509865,"longitude":-0.118092,"reserved":0,"last_update":"0001-01-01T00:00:00Z","name_a2s":"Uncletopia | London | 5 | All Maps","protocol":17,"map":"pl_badwater","folder":"tf","game":"Team Fortress","app_id":440,"player_count":24,"max_players":24,"Bots":0,"server_type":"Dedicated","server_os":"Linux","password":true,"vac":true,"version":"7961495","steam_id":85568392924742829,"keywords":["nocrits","nodmgspread","payload","uncletopia"],"game_id":440,"stv_port":27056,"stv_name":"Uncletopia | London | 5 | All Maps | STV","players":[{"user_id":393,"name":"XxBenShapiro420xX","steam_id":76561199229373972,"connected_time":1411000000000,"state":"active","ping":61},{"user_id":401,"name":"minuscule portions of clowning","steam_id":76561198059535856,"connected_time":1262000000000,"state":"active","ping":163},{"user_id":337,"name":"alpha","steam_id":76561198250491640,"connected_time":5440000000000,"state":"active","ping":31},{"user_id":399,"name":"Milk","steam_id":76561198125876588,"connected_time":1290000000000,"state":"active","ping":38},{"user_id":389,"name":"Strix","steam_id":76561198015322735,"connected_time":1725000000000,"state":"active","ping":50},{"user_id":415,"name":"janvaljen","steam_id":76561198017781450,"connected_time":364000000000,"state":"active","ping":101},{"user_id":406,"name":"da accident","steam_id":76561198169798649,"connected_time":1167000000000,"state":"active","ping":81},{"user_id":387,"name":"cisgender clown","steam_id":76561199469909295,"connected_time":1810000000000,"state":"active","ping":58},{"user_id":372,"name":"hawker127","steam_id":76561198259488237,"connected_time":2739000000000,"state":"active","ping":42},{"user_id":416,"name":"chunKymunKy","steam_id":76561199386103968,"connected_time":359000000000,"state":"active","ping":139},{"user_id":410,"name":"rts","steam_id":76561199090876980,"connected_time":814000000000,"state":"active","ping":64},{"user_id":418,"name":"Desnot","steam_id":76561198862581894,"connected_time":305000000000,"state":"active","ping":75},{"user_id":371,"name":"*Stare*","steam_id":76561199072209884,"connected_time":2749000000000,"state":"active","ping":46},{"user_id":411,"name":"mr.resetti","steam_id":76561198974520642,"connected_time":756000000000,"state":"active","ping":67},{"user_id":391,"name":"I I | #SaveTF2","steam_id":76561199101935057,"connected_time":1712000000000,"state":"active","ping":90},{"user_id":402,"name":"ROX","steam_id":76561198272289320,"connected_time":1261000000000,"state":"active","ping":48},{"user_id":392,"name":"Paulo Doutor","steam_id":76561198168674032,"connected_time":1681000000000,"state":"active","ping":70},{"user_id":421,"name":"Krefa12","steam_id":76561198268375393,"connected_time":266000000000,"state":"active","ping":97},{"user_id":412,"name":"Fearly","steam_id":76561198798684016,"connected_time":689000000000,"state":"active","ping":46},{"user_id":414,"name":"Prox","steam_id":76561198351490981,"connected_time":394000000000,"state":"active","ping":40},{"user_id":419,"name":"sex havin'","steam_id":76561198169857427,"connected_time":300000000000,"state":"active","ping":78},{"user_id":340,"name":"Nick","steam_id":76561198036109469,"connected_time":5356000000000,"state":"active","ping":79},{"user_id":385,"name":"Seal","steam_id":76561198244988552,"connected_time":2251000000000,"state":"active","ping":72},{"user_id":381,"name":"husk scrambled eggs when","steam_id":76561198173218318,"connected_time":2642000000000,"state":"active","ping":53}]},{"server_id":22,"name":"Uncletopia | London | 6 | All Maps","name_short":"lon-6","host":"lon-1.uk.uncletopia.com","port":27065,"enabled":true,"region":"eu","cc":"gb","latitude":51.509865,"longitude":-0.118092,"reserved":0,"last_update":"0001-01-01T00:00:00Z","name_a2s":"Uncletopia | London | 6 | All Maps","protocol":17,"map":"cp_steel","folder":"tf","game":"Team Fortress","app_id":440,"player_count":24,"max_players":24,"Bots":0,"server_type":"Dedicated","server_os":"Linux","password":true,"vac":true,"version":"7961495","steam_id":85568392924742830,"keywords":["cp","nocrits","nodmgspread","uncletopia"],"game_id":440,"stv_port":27066,"stv_name":"Uncletopia | London | 6 | All Maps | STV","players":[{"user_id":194,"name":"Pong Lenis","steam_id":76561198039251333,"connected_time":1782000000000,"state":"active","ping":118},{"user_id":208,"name":"Okonell[HUN]","steam_id":76561198032216617,"connected_time":633000000000,"state":"active","ping":66},{"user_id":209,"name":"please","steam_id":76561199149307190,"connected_time":579000000000,"state":"active","ping":81},{"user_id":204,"name":"Grumtsior","steam_id":76561198043563111,"connected_time":1233000000000,"state":"active","ping":88},{"user_id":180,"name":"LSKi","steam_id":76561198215470228,"connected_time":2232000000000,"state":"active","ping":42},{"user_id":164,"name":"Paint","steam_id":76561198166823873,"connected_time":2829000000000,"state":"active","ping":39},{"user_id":172,"name":"Quartermistress","steam_id":76561198140199123,"connected_time":2421000000000,"state":"active","ping":45},{"user_id":166,"name":"–†–µ–î–∞–ù–æ–í–µ–¶ ^_^","steam_id":76561199032612973,"connected_time":2698000000000,"state":"active","ping":84},{"user_id":207,"name":"Tispy","steam_id":76561199207410049,"connected_time":722000000000,"state":"active","ping":84},{"user_id":171,"name":"‚ú™ m_br3","steam_id":76561198044981990,"connected_time":2449000000000,"state":"active","ping":75},{"user_id":217,"name":"SPAM'DWICH | Lostlaptop","steam_id":76561198860068961,"connected_time":280000000000,"state":"active","ping":109},{"user_id":211,"name":"IHateThisMap","steam_id":76561197980597646,"connected_time":536000000000,"state":"active","ping":125},{"user_id":179,"name":"Enqvito","steam_id":76561198016970908,"connected_time":2238000000000,"state":"active","ping":75},{"user_id":215,"name":"Frazzles","steam_id":76561199228009586,"connected_time":460000000000,"state":"active","ping":47},{"user_id":206,"name":"Houlles","steam_id":76561198095277383,"connected_time":1170000000000,"state":"active","ping":58},{"user_id":219,"name":"IndigoJones","steam_id":76561198050284262,"connected_time":152000000000,"state":"active","ping":54},{"user_id":212,"name":"yourheadsfullofeyeballs","steam_id":76561199498915825,"connected_time":518000000000,"state":"active","ping":156},{"user_id":184,"name":"1ggy","steam_id":76561199051285912,"connected_time":2112000000000,"state":"active","ping":84},{"user_id":201,"name":"√áodar","steam_id":76561198235518444,"connected_time":1329000000000,"state":"active","ping":34},{"user_id":202,"name":"General Petrov","steam_id":76561198027204104,"connected_time":1327000000000,"state":"active","ping":75},{"user_id":220,"name":"GGG","steam_id":76561198835365863,"connected_time":79000000000,"state":"active","ping":40},{"user_id":214,"name":"Howl","steam_id":76561198887354079,"connected_time":493000000000,"state":"active","ping":60},{"user_id":192,"name":"tHe_MAn","steam_id":76561198880116975,"connected_time":1885000000000,"state":"active","ping":41},{"user_id":218,"name":"b0g","steam_id":76561198051124946,"connected_time":270000000000,"state":"active","ping":56}]},{"server_id":40,"name":"Uncletopia | London | 7 | Stopwatch","name_short":"lon-7","host":"lon-1.uk.uncletopia.com","port":27075,"enabled":true,"region":"eu","cc":"gb","latitude":51.509865,"longitude":-0.118092,"reserved":0,"last_update":"0001-01-01T00:00:00Z","name_a2s":"Uncletopia | London | 7 | Stopwatch","protocol":17,"map":"workshop/koth_clearcut_b15.ugc2107050255","folder":"tf","game":"Team Fortress","app_id":440,"player_count":0,"max_players":24,"Bots":0,"server_type":"Dedicated","server_os":"Linux","password":true,"vac":true,"version":"7961495","steam_id":85568392924964314,"keywords":["cp","nocrits","nodmgspread","uncletopia"],"game_id":440,"stv_port":27076,"stv_name":"Uncletopia | London | 7 | Stopwatch | STV","players":null},{"server_id":41,"name":"Uncletopia | London | 8 | Community","name_short":"lon-8","host":"lon-1.uk.uncletopia.com","port":27085,"enabled":true,"region":"eu","cc":"gb","latitude":51.509865,"longitude":-0.118092,"reserved":0,"last_update":"0001-01-01T00:00:00Z","name_a2s":"Uncletopia | London | 8 | Community","protocol":17,"map":"workshop/pl_boundary_final1.ugc456799153","folder":"tf","game":"Team Fortress","app_id":440,"player_count":0,"max_players":24,"Bots":0,"server_type":"Dedicated","server_os":"Linux","password":true,"vac":true,"version":"7961495","steam_id":85568392924964315,"keywords":["nocrits","nodmgspread","payload","uncletopia"],"game_id":440,"stv_port":27086,"stv_name":"Uncletopia | London | 8 | Community | STV","players":null},{"server_id":300,"name":"Uncletopia | Montr√©al | 1 | One Thousand Uncles","name_short":"mtl-1","host":"mtl-1.ca.uncletopia.com","port":27015,"enabled":true,"region":"us-east","cc":"ca","latitude":45.50889,"longitude":-73.56167,"reserved":0,"last_update":"0001-01-01T00:00:00Z","name_a2s":"Uncletopia | Montr√©al | 1 | One Thousand Uncles","protocol":17,"map":"pl_upward","folder":"tf","game":"Team Fortress","app_id":440,"player_count":25,"max_players":32,"Bots":16,"server_type":"Dedicated","server_os":"Linux","password":true,"vac":true,"version":"7961495","steam_id":85568392924500087,"keywords":["alltalk","bots","danepve","increased_maxplayers","norespawntime","payload","uncletopia"],"game_id":440,"stv_port":0,"stv_name":"","players":[{"user_id":117,"name":"Ze Healing","steam_id":76561198292152075,"connected_time":1453000000000,"state":"active","ping":51},{"user_id":126,"name":"The Gremlin","steam_id":76561198419066993,"connected_time":495000000000,"state":"active","ping":123},{"user_id":119,"name":"Im Groot","steam_id":76561198294943420,"connected_time":1158000000000,"state":"active","ping":84},{"user_id":89,"name":"‡ºò ‚ãÜÀöüéßCaffeine‚òï*Àñ¬∞","steam_id":76561199259309294,"connected_time":2509000000000,"state":"active","ping":48},{"user_id":83,"name":"Ben Mantƒ±mƒ±yƒ±m?","steam_id":76561199176172946,"connected_time":3296000000000,"state":"active","ping":165},{"user_id":84,"name":"Jrock","steam_id":76561198045715996,"connected_time":3264000000000,"state":"active","ping":94},{"user_id":121,"name":"biden cart 15 dollars","steam_id":76561198253731826,"connected_time":962000000000,"state":"active","ping":78},{"user_id":127,"name":"Draco6257","steam_id":76561199147322448,"connected_time":480000000000,"state":"active","ping":35},{"user_id":125,"name":"gamingontoast","steam_id":76561199128807583,"connected_time":528000000000,"state":"active","ping":83}]},{"server_id":301,"name":"Uncletopia | Montr√©al | 2 | One Thousand Uncles","name_short":"mtl-2","host":"mtl-1.ca.uncletopia.com","port":27025,"enabled":true,"region":"us-east","cc":"ca","latitude":45.50889,"longitude":-73.56167,"reserved":0,"last_update":"0001-01-01T00:00:00Z","name_a2s":"Uncletopia | Montr√©al | 2 | One Thousand Uncles","protocol":17,"map":"pl_chilly","folder":"tf","game":"Team Fortress","app_id":440,"player_count":0,"max_players":32,"Bots":0,"server_type":"Dedicated","server_os":"Linux","password":true,"vac":true,"version":"7961495","steam_id":85568392924500088,"keywords":["alltalk","danepve","increased_maxplayers","norespawntime","payload","uncletopia"],"game_id":440,"stv_port":0,"stv_name":"","players":null},{"server_id":302,"name":"Uncletopia | Montr√©al | 3 | One Thousand Uncles","name_short":"mtl-3","host":"mtl-1.ca.uncletopia.com","port":27035,"enabled":true,"region":"us-east","cc":"ca","latitude":45.50889,"longitude":-73.56167,"reserved":0,"last_update":"0001-01-01T00:00:00Z","name_a2s":"Uncletopia | Montr√©al | 3 | One Thousand Uncles","protocol":17,"map":"pl_upward","folder":"tf","game":"Team Fortress","app_id":440,"player_count":0,"max_players":32,"Bots":0,"server_type":"Dedicated","server_os":"Linux","password":true,"vac":true,"version":"7961495","steam_id":85568392924500089,"keywords":["alltalk","danepve","increased_maxplayers","norespawntime","payload","uncletopia"],"game_id":440,"stv_port":0,"stv_name":"","players":null},{"server_id":13,"name":"Uncletopia | New York City | 1 | All Maps","name_short":"nyc-1","host":"nyc-1.us.uncletopia.com","port":27015,"enabled":true,"region":"us-east","cc":"us","latitude":40.73061,"longitude":-73.93524,"reserved":0,"last_update":"0001-01-01T00:00:00Z","name_a2s":"Uncletopia | New York City | 1 | All Maps","protocol":17,"map":"koth_brazil","folder":"tf","game":"Team Fortress","app_id":440,"player_count":0,"max_players":24,"Bots":0,"server_type":"Dedicated","server_os":"Linux","password":true,"vac":true,"version":"7961495","steam_id":85568392924469993,"keywords":["cp","nocrits","nodmgspread","uncletopia"],"game_id":440,"stv_port":27016,"stv_name":"Uncletopia | New York City | 1 | All Maps | STV","players":null},{"server_id":14,"name":"Uncletopia | New York City | 2 | All Maps","name_short":"nyc-2","host":"nyc-1.us.uncletopia.com","port":27025,"enabled":true,"region":"us-east","cc":"us","latitude":40.73061,"longitude":-73.93524,"reserved":0,"last_update":"0001-01-01T00:00:00Z","name_a2s":"Uncletopia | New York City | 2 | All Maps","protocol":17,"map":"cp_mountainlab","folder":"tf","game":"Team Fortress","app_id":440,"player_count":0,"max_players":24,"Bots":0,"server_type":"Dedicated","server_os":"Linux","password":true,"vac":true,"version":"7961495","steam_id":85568392924469994,"keywords":["cp","nocrits","nodmgspread","uncletopia"],"game_id":440,"stv_port":27026,"stv_name":"Uncletopia | New York City | 2 | All Maps | STV","players":null},{"server_id":15,"name":"Uncletopia | New York City | 3 | Stopwatch","name_short":"nyc-3","host":"nyc-1.us.uncletopia.com","port":27035,"enabled":true,"region":"us-east","cc":"us","latitude":40.73061,"longitude":-73.93524,"reserved":0,"last_update":"0001-01-01T00:00:00Z","name_a2s":"Uncletopia | New York City | 3 | Stopwatch","protocol":17,"map":"workshop/cp_reckoner_rc6.ugc674719999","folder":"tf","game":"Team Fortress","app_id":440,"player_count":0,"max_players":24,"Bots":0,"server_type":"Dedicated","server_os":"Linux","password":true,"vac":true,"version":"7961495","steam_id":85568392924742820,"keywords":["cp","nocrits","nodmgspread","uncletopia"],"game_id":440,"stv_port":27036,"stv_name":"Uncletopia | New York City | 3 | Stopwatch | STV","players":null},{"server_id":16,"name":"Uncletopia | New York City | 4 | Community","name_short":"nyc-4","host":"nyc-1.us.uncletopia.com","port":27045,"enabled":true,"region":"us-east","cc":"us","latitude":40.73061,"longitude":-73.93524,"reserved":0,"last_update":"0001-01-01T00:00:00Z","name_a2s":"Uncletopia | New York City | 4 | Community","protocol":17,"map":"workshop/cp_indulge.ugc528106646","folder":"tf","game":"Team Fortress","app_id":440,"player_count":0,"max_players":24,"Bots":0,"server_type":"Dedicated","server_os":"Linux","password":true,"vac":true,"version":"7961495","steam_id":85568392924742821,"keywords":["cp","nocrits","nodmgspread","uncletopia"],"game_id":440,"stv_port":27046,"stv_name":"Uncletopia | New York City | 4 | Community | STV","players":null},{"server_id":142,"name":"Uncletopia | S√£o Paulo | 1 | All Maps","name_short":"sao-1","host":"sao-1.br.uncletopia.com","port":27015,"enabled":true,"region":"sa","cc":"br","latitude":-23.533773,"longitude":-46.62529,"reserved":0,"last_update":"0001-01-01T00:00:00Z","name_a2s":"Uncletopia | S√£o Paulo | 1 | All Maps","protocol":17,"map":"cp_granary","folder":"tf","game":"Team Fortress","app_id":440,"player_count":0,"max_players":24,"Bots":0,"server_type":"Dedicated","server_os":"Linux","password":true,"vac":true,"version":"7961495","steam_id":85568392924469996,"keywords":["cp","nocrits","nodmgspread","uncletopia"],"game_id":440,"stv_port":27016,"stv_name":"Uncletopia | S√£o Paulo | 1 | All Maps | STV","players":null},{"server_id":143,"name":"Uncletopia | S√£o Paulo | 2 | Community","name_short":"sao-2","host":"sao-2.br.uncletopia.com","port":27015,"enabled":true,"region":"sa","cc":"br","latitude":-23.533773,"longitude":-46.62529,"reserved":0,"last_update":"0001-01-01T00:00:00Z","name_a2s":"Uncletopia | S√£o Paulo | 2 | Community","protocol":17,"map":"workshop/koth_product_final.ugc454272353","folder":"tf","game":"Team Fortress","app_id":440,"player_count":3,"max_players":24,"Bots":0,"server_type":"Dedicated","server_os":"Linux","password":true,"vac":true,"version":"7961495","steam_id":85568392924485349,"keywords":["cp","nocrits","nodmgspread","uncletopia"],"game_id":440,"stv_port":27016,"stv_name":"Uncletopia | S√£o Paulo | 2 | Community | STV","players":[{"user_id":5,"name":"|AY|LazyCian","steam_id":76561199121786457,"connected_time":667000000000,"state":"active","ping":39},{"user_id":6,"name":"Marcoss0502","steam_id":76561198981104653,"connected_time":129000000000,"state":"active","ping":158},{"user_id":7,"name":"Gugamineyt13","steam_id":76561199059938679,"connected_time":53000000000,"state":"active","ping":553}]},{"server_id":7,"name":"Uncletopia | Seattle | 1 | All Maps","name_short":"sea-1","host":"sea-1.us.uncletopia.com","port":27015,"enabled":true,"region":"us-west","cc":"us","latitude":47.608013,"longitude":-122.33517,"reserved":0,"last_update":"0001-01-01T00:00:00Z","name_a2s":"Uncletopia | Seattle | 1 | All Maps","protocol":17,"map":"pl_badwater","folder":"tf","game":"Team Fortress","app_id":440,"player_count":24,"max_players":24,"Bots":0,"server_type":"Dedicated","server_os":"Linux","password":true,"vac":true,"version":"7961495","steam_id":85568392924469997,"keywords":["nocrits","nodmgspread","payload","uncletopia"],"game_id":440,"stv_port":27016,"stv_name":"Uncletopia | Seattle | 1 | All Maps | STV","players":[{"user_id":338,"name":"Enigmashun","steam_id":76561198061206446,"connected_time":2725000000000,"state":"active","ping":89},{"user_id":363,"name":"too many fives","steam_id":76561198128465482,"connected_time":760000000000,"state":"active","ping":68},{"user_id":370,"name":"The Grungler","steam_id":76561198126561438,"connected_time":152000000000,"state":"active","ping":69},{"user_id":352,"name":"dust | it/she [no mic]","steam_id":76561198045218909,"connected_time":1814000000000,"state":"active","ping":35},{"user_id":371,"name":"Gorp!","steam_id":76561198121671793,"connected_time":131000000000,"state":"active","ping":44},{"user_id":242,"name":"Miss Pauling","steam_id":76561198102043913,"connected_time":9831000000000,"state":"active","ping":116},{"user_id":334,"name":"AuraBraixen_4412","steam_id":76561198120668769,"connected_time":3533000000000,"state":"active","ping":97},{"user_id":373,"name":"Mexican Elvis","steam_id":76561198165100210,"connected_time":70000000000,"state":"active","ping":82},{"user_id":367,"name":"Just a Good Friend","steam_id":76561198140052403,"connected_time":594000000000,"state":"active","ping":60},{"user_id":374,"name":"MineOpal","steam_id":76561198044716407,"connected_time":68000000000,"state":"active","ping":76},{"user_id":330,"name":"lukamine","steam_id":76561198166827208,"connected_time":3928000000000,"state":"active","ping":42},{"user_id":353,"name":"SibilantSerpent","steam_id":76561198154488754,"connected_time":1768000000000,"state":"active","ping":44},{"user_id":375,"name":"thastephen","steam_id":76561198080289775,"connected_time":48000000000,"state":"active","ping":59},{"user_id":339,"name":"Punchman228","steam_id":76561198930758451,"connected_time":2697000000000,"state":"active","ping":47},{"user_id":323,"name":"tmm (theManMan)","steam_id":76561199488457138,"connected_time":4597000000000,"state":"active","ping":46},{"user_id":335,"name":"ÂçÉÂ∞∫„Ññ“ú","steam_id":76561198118910141,"connected_time":3103000000000,"state":"active","ping":88},{"user_id":336,"name":"Katie XXII","steam_id":76561198135534297,"connected_time":3089000000000,"state":"active","ping":46},{"user_id":376,"name":"righty","steam_id":76561198045260412,"connected_time":41000000000,"state":"active","ping":73},{"user_id":327,"name":"I_Want_A_Soft_Taco","steam_id":76561198225561352,"connected_time":3961000000000,"state":"active","ping":97},{"user_id":259,"name":"Supersonic","steam_id":76561198042167127,"connected_time":9060000000000,"state":"active","ping":57},{"user_id":328,"name":"Lane (She/Her)","steam_id":76561199048555878,"connected_time":3958000000000,"state":"active","ping":48},{"user_id":369,"name":"Thexx she/they","steam_id":76561198113823050,"connected_time":330000000000,"state":"active","ping":51},{"user_id":354,"name":"rad killl raccoon","steam_id":76561198980975595,"connected_time":1756000000000,"state":"active","ping":42},{"user_id":362,"name":"EightySix","steam_id":76561198186678831,"connected_time":1046000000000,"state":"active","ping":93}]},{"server_id":119,"name":"Uncletopia | Seattle | 2 | All Maps","name_short":"sea-2","host":"sea-1.us.uncletopia.com","port":27025,"enabled":true,"region":"us-west","cc":"us","latitude":47.608013,"longitude":-122.33517,"reserved":0,"last_update":"0001-01-01T00:00:00Z","name_a2s":"Uncletopia | Seattle | 2 | All Maps","protocol":17,"map":"koth_lakeside_final","folder":"tf","game":"Team Fortress","app_id":440,"player_count":0,"max_players":24,"Bots":0,"server_type":"Dedicated","server_os":"Linux","password":true,"vac":true,"version":"7961495","steam_id":85568392924469998,"keywords":["cp","nocrits","nodmgspread","uncletopia"],"game_id":440,"stv_port":27026,"stv_name":"Uncletopia | Seattle | 2 | All Maps | STV","players":null},{"server_id":406,"name":"Uncletopia | Seattle | 3 | Stopwatch","name_short":"sea-3","host":"sea-1.us.uncletopia.com","port":27035,"enabled":true,"region":"us-west","cc":"us","latitude":47.608013,"longitude":-122.33517,"reserved":0,"last_update":"0001-01-01T00:00:00Z","name_a2s":"Uncletopia | Seattle | 3 | Stopwatch","protocol":17,"map":"workshop/koth_jamram_rc1a.ugc2964065613","folder":"tf","game":"Team Fortress","app_id":440,"player_count":0,"max_players":24,"Bots":0,"server_type":"Dedicated","server_os":"Linux","password":true,"vac":true,"version":"7961495","steam_id":85568392924515217,"keywords":["cp","nocrits","nodmgspread","uncletopia"],"game_id":440,"stv_port":27036,"stv_name":"Uncletopia | Seattle | 3 | Stopwatch | STV","players":null},{"server_id":17,"name":"Uncletopia | San Francisco | 1 | All Maps","name_short":"sfo-1","host":"sfo-1.us.uncletopia.com","port":27015,"enabled":true,"region":"us-west","cc":"us","latitude":37.77397,"longitude":-122.4313,"reserved":0,"last_update":"0001-01-01T00:00:00Z","name_a2s":"Uncletopia | San Francisco | 1 | All Maps","protocol":17,"map":"koth_highpass","folder":"tf","game":"Team Fortress","app_id":440,"player_count":0,"max_players":24,"Bots":0,"server_type":"Dedicated","server_os":"Linux","password":true,"vac":true,"version":"7961495","steam_id":85568392924469999,"keywords":["cp","nocrits","nodmgspread","uncletopia"],"game_id":440,"stv_port":27016,"stv_name":"Uncletopia | San Francisco | 1 | All Maps | STV","players":null},{"server_id":18,"name":"Uncletopia | San Francisco | 2 | All Maps","name_short":"sfo-2","host":"sfo-1.us.uncletopia.com","port":27025,"enabled":true,"region":"us-west","cc":"us","latitude":37.77397,"longitude":-122.4313,"reserved":0,"last_update":"0001-01-01T00:00:00Z","name_a2s":"Uncletopia | San Francisco | 2 | All Maps","protocol":17,"map":"koth_cascade","folder":"tf","game":"Team Fortress","app_id":440,"player_count":0,"max_players":24,"Bots":0,"server_type":"Dedicated","server_os":"Linux","password":true,"vac":true,"version":"7961495","steam_id":85568392924470000,"keywords":["cp","nocrits","nodmgspread","uncletopia"],"game_id":440,"stv_port":27026,"stv_name":"Uncletopia | San Francisco | 2 | All Maps | STV","players":null},{"server_id":19,"name":"Uncletopia | San Francisco | 3 | Stopwatch","name_short":"sfo-3","host":"sfo-1.us.uncletopia.com","port":27035,"enabled":true,"region":"us-west","cc":"us","latitude":37.77397,"longitude":-122.4313,"reserved":0,"last_update":"0001-01-01T00:00:00Z","name_a2s":"Uncletopia | San Francisco | 3 | Stopwatch","protocol":17,"map":"pl_swiftwater_final1","folder":"tf","game":"Team Fortress","app_id":440,"player_count":0,"max_players":24,"Bots":0,"server_type":"Dedicated","server_os":"Linux","password":true,"vac":true,"version":"7961495","steam_id":85568392924742824,"keywords":["nocrits","nodmgspread","payload","uncletopia"],"game_id":440,"stv_port":27036,"stv_name":"Uncletopia | San Francisco | 3 | Stopwatch | STV","players":null},{"server_id":20,"name":"Uncletopia | San Francisco | 4 | Community","name_short":"sfo-4","host":"sfo-1.us.uncletopia.com","port":27045,"enabled":true,"region":"us-west","cc":"us","latitude":37.77397,"longitude":-122.4313,"reserved":0,"last_update":"0001-01-01T00:00:00Z","name_a2s":"Uncletopia | San Francisco | 4 | Community","protocol":17,"map":"workshop/cp_reckoner_rc6.ugc674719999","folder":"tf","game":"Team Fortress","app_id":440,"player_count":0,"max_players":24,"Bots":0,"server_type":"Dedicated","server_os":"Linux","password":true,"vac":true,"version":"7961495","steam_id":85568392924742826,"keywords":["cp","nocrits","nodmgspread","uncletopia"],"game_id":440,"stv_port":27046,"stv_name":"Uncletopia | San Francisco | 4 | Community | STV","players":null},{"server_id":141,"name":"Uncletopia | Sydney | 1 | All Maps","name_short":"syd-1","host":"syd-1.au.uncletopia.com","port":27015,"enabled":true,"region":"au","cc":"au","latitude":-33.865143,"longitude":151.2099,"reserved":0,"last_update":"0001-01-01T00:00:00Z","name_a2s":"Uncletopia | Sydney | 1 | All Maps","protocol":17,"map":"koth_nucleus","folder":"tf","game":"Team Fortress","app_id":440,"player_count":0,"max_players":24,"Bots":0,"server_type":"Dedicated","server_os":"Linux","password":true,"vac":true,"version":"7961495","steam_id":85568392924470001,"keywords":["cp","nocrits","nodmgspread","uncletopia"],"game_id":440,"stv_port":27016,"stv_name":"Uncletopia | Sydney | 1 | All Maps | STV","players":null},{"server_id":123,"name":"Uncletopia | Sydney | 2 | All Maps","name_short":"syd-2","host":"syd-1.au.uncletopia.com","port":27025,"enabled":true,"region":"au","cc":"au","latitude":-33.865143,"longitude":151.2099,"reserved":0,"last_update":"0001-01-01T00:00:00Z","name_a2s":"Uncletopia | Sydney | 2 | All Maps","protocol":17,"map":"cp_fastlane","folder":"tf","game":"Team Fortress","app_id":440,"player_count":0,"max_players":24,"Bots":0,"server_type":"Dedicated","server_os":"Linux","password":true,"vac":true,"version":"7961495","steam_id":85568392924470002,"keywords":["cp","nocrits","nodmgspread","uncletopia"],"game_id":440,"stv_port":27026,"stv_name":"Uncletopia | Sydney | 2 | All Maps | STV","players":null},{"server_id":395,"name":"Uncletopia | Sydney | 3 | All Maps","name_short":"syd-3","host":"syd-1.au.uncletopia.com","port":27035,"enabled":true,"region":"au","cc":"au","latitude":-33.865143,"longitude":151.2099,"reserved":0,"last_update":"0001-01-01T00:00:00Z","name_a2s":"Uncletopia | Sydney | 3 | All Maps","protocol":17,"map":"cp_metalworks","folder":"tf","game":"Team Fortress","app_id":440,"player_count":0,"max_players":24,"Bots":0,"server_type":"Dedicated","server_os":"Linux","password":true,"vac":true,"version":"7961495","steam_id":85568392925194467,"keywords":["cp","nocrits","nodmgspread","uncletopia"],"game_id":440,"stv_port":27036,"stv_name":"Uncletopia | Sydney | 3 | All Maps | STV","players":null},{"server_id":396,"name":"Uncletopia | Sydney | 4 | All Maps","name_short":"syd-4","host":"syd-1.au.uncletopia.com","port":27045,"enabled":true,"region":"au","cc":"au","latitude":-33.865143,"longitude":151.2099,"reserved":0,"last_update":"0001-01-01T00:00:00Z","name_a2s":"Uncletopia | Sydney | 4 | All Maps","protocol":17,"map":"koth_cascade","folder":"tf","game":"Team Fortress","app_id":440,"player_count":0,"max_players":24,"Bots":0,"server_type":"Dedicated","server_os":"Linux","password":true,"vac":true,"version":"7961495","steam_id":85568392925397958,"keywords":["cp","nocrits","nodmgspread","uncletopia"],"game_id":440,"stv_port":27046,"stv_name":"Uncletopia | Sydney | 4 | All Maps | STV","players":null},{"server_id":58,"name":"Uncletopia | Sydney | 5 | Stopwatch","name_short":"syd-5","host":"syd-1.au.uncletopia.com","port":27055,"enabled":true,"region":"au","cc":"au","latitude":-33.865143,"longitude":151.2099,"reserved":0,"last_update":"0001-01-01T00:00:00Z","name_a2s":"Uncletopia | Sydney | 5 | Stopwatch","protocol":17,"map":"workshop/koth_product_final.ugc454272353","folder":"tf","game":"Team Fortress","app_id":440,"player_count":0,"max_players":24,"Bots":0,"server_type":"Dedicated","server_os":"Linux","password":true,"vac":true,"version":"7961495","steam_id":85568392925397959,"keywords":["cp","nocrits","nodmgspread","uncletopia"],"game_id":440,"stv_port":27056,"stv_name":"Uncletopia | Sydney | 5 | Stopwatch | STV","players":null},{"server_id":59,"name":"Uncletopia | Sydney | 6 | Community","name_short":"syd-6","host":"syd-1.au.uncletopia.com","port":27065,"enabled":true,"region":"au","cc":"au","latitude":-33.865143,"longitude":151.2099,"reserved":0,"last_update":"0001-01-01T00:00:00Z","name_a2s":"Uncletopia | Sydney | 6 | Community","protocol":17,"map":"workshop/koth_trenchfoot_ab1.ugc731436616","folder":"tf","game":"Team Fortress","app_id":440,"player_count":0,"max_players":24,"Bots":0,"server_type":"Dedicated","server_os":"Linux","password":true,"vac":true,"version":"7961495","steam_id":85568392925397960,"keywords":["cp","nocrits","nodmgspread","uncletopia"],"game_id":440,"stv_port":27066,"stv_name":"Uncletopia | Sydney | 6 | Community | STV","players":null},{"server_id":49,"name":"Uncletopia | Warsaw | 1 | One Thousand Uncles","name_short":"waw-1","host":"waw-1.pl.uncletopia.com","port":27015,"enabled":true,"region":"eu","cc":"pl","latitude":52.2297,"longitude":21.017532,"reserved":0,"last_update":"0001-01-01T00:00:00Z","name_a2s":"Uncletopia | Warsaw | 1 | One Thousand Uncles","protocol":17,"map":"cp_mercenarypark","folder":"tf","game":"Team Fortress","app_id":440,"player_count":28,"max_players":32,"Bots":16,"server_type":"Dedicated","server_os":"Linux","password":true,"vac":true,"version":"7961495","steam_id":85568392925397850,"keywords":["alltalk","bots","cp","danepve","increased_maxplayers","norespawntime","uncletopia"],"game_id":440,"stv_port":0,"stv_name":"","players":[{"user_id":624,"name":"[HK]Êàë‰øÇÈ¶ôÊ∏Ø‰∫∫","steam_id":76561198165376815,"connected_time":3313000000000,"state":"active","ping":80},{"user_id":638,"name":"Cheshireycat","steam_id":76561198067204908,"connected_time":1338000000000,"state":"active","ping":84},{"user_id":466,"name":"Senpai„ÉÑ","steam_id":76561198857611627,"connected_time":15876000000000,"state":"active","ping":76},{"user_id":625,"name":"0scr_","steam_id":76561198042631352,"connected_time":3229000000000,"state":"active","ping":77},{"user_id":656,"name":"Mersy Said","steam_id":76561198072826812,"connected_time":888000000000,"state":"active","ping":68},{"user_id":626,"name":"7","steam_id":76561198086304421,"connected_time":3156000000000,"state":"active","ping":98},{"user_id":615,"name":"Sigma","steam_id":76561198086510020,"connected_time":5769000000000,"state":"active","ping":157},{"user_id":616,"name":"Le Juge","steam_id":76561199196283622,"connected_time":5717000000000,"state":"active","ping":189},{"user_id":631,"name":"polandball fan","steam_id":76561199059573968,"connected_time":2569000000000,"state":"active","ping":57},{"user_id":629,"name":"BigBakedpotato","steam_id":76561199455683923,"connected_time":2843000000000,"state":"active","ping":159},{"user_id":655,"name":"BaleBlast","steam_id":76561198116569443,"connected_time":1205000000000,"state":"active","ping":71},{"user_id":636,"name":"monke","steam_id":76561199095477435,"connected_time":1864000000000,"state":"active","ping":65}]},{"server_id":50,"name":"Uncletopia | Warsaw | 2 | One Thousand Uncles","name_short":"waw-2","host":"waw-1.pl.uncletopia.com","port":27025,"enabled":true,"region":"eu","cc":"pl","latitude":52.2297,"longitude":21.017532,"reserved":0,"last_update":"0001-01-01T00:00:00Z","name_a2s":"Uncletopia | Warsaw | 2 | One Thousand Uncles","protocol":17,"map":"pl_pier","folder":"tf","game":"Team Fortress","app_id":440,"player_count":23,"max_players":32,"Bots":16,"server_type":"Dedicated","server_os":"Linux","password":true,"vac":true,"version":"7961495","steam_id":85568392925397851,"keywords":["alltalk","bots","danepve","increased_maxplayers","norespawntime","payload","uncletopia"],"game_id":440,"stv_port":0,"stv_name":"","players":[{"user_id":274,"name":"stojanovmilan9","steam_id":76561199224695297,"connected_time":1176000000000,"state":"active","ping":230},{"user_id":278,"name":"derex129","steam_id":76561199250907981,"connected_time":370000000000,"state":"active","ping":212},{"user_id":262,"name":"Octopus","steam_id":76561199387405278,"connected_time":3056000000000,"state":"active","ping":52},{"user_id":272,"name":"padillacampos","steam_id":76561198161923970,"connected_time":1928000000000,"state":"active","ping":89},{"user_id":244,"name":"FilipeLuk","steam_id":76561198150675438,"connected_time":3526000000000,"state":"active","ping":80},{"user_id":273,"name":"Who?","steam_id":76561198271901063,"connected_time":1744000000000,"state":"active","ping":87},{"user_id":224,"name":"vk rat makes me erect","steam_id":76561198355965587,"connected_time":4095000000000,"state":"active","ping":83}]},{"server_id":51,"name":"Uncletopia | Warsaw | 3 | All Maps","name_short":"waw-3","host":"waw-1.pl.uncletopia.com","port":27035,"enabled":true,"region":"eu","cc":"pl","latitude":52.2297,"longitude":21.017532,"reserved":0,"last_update":"0001-01-01T00:00:00Z","name_a2s":"Uncletopia | Warsaw | 3 | All Maps","protocol":17,"map":"koth_viaduct","folder":"tf","game":"Team Fortress","app_id":440,"player_count":0,"max_players":24,"Bots":0,"server_type":"Dedicated","server_os":"Linux","password":true,"vac":true,"version":"7961495","steam_id":85568392925397852,"keywords":["cp","nocrits","nodmgspread","uncletopia"],"game_id":440,"stv_port":27036,"stv_name":"Uncletopia | Warsaw | 3 | All Maps | STV","players":null},{"server_id":52,"name":"Uncletopia | Warsaw | 4 | All Maps","name_short":"waw-4","host":"waw-1.pl.uncletopia.com","port":27045,"enabled":true,"region":"eu","cc":"pl","latitude":52.2297,"longitude":21.017532,"reserved":0,"last_update":"0001-01-01T00:00:00Z","name_a2s":"Uncletopia | Warsaw | 4 | All Maps","protocol":17,"map":"koth_cascade","folder":"tf","game":"Team Fortress","app_id":440,"player_count":0,"max_players":24,"Bots":0,"server_type":"Dedicated","server_os":"Linux","password":true,"vac":true,"version":"7961495","steam_id":85568392925397853,"keywords":["cp","nocrits","nodmgspread","uncletopia"],"game_id":440,"stv_port":27046,"stv_name":"Uncletopia | Warsaw | 4 | All Maps | STV","players":null},{"server_id":53,"name":"Uncletopia | Warsaw | 5 | Stopwatch","name_short":"waw-5","host":"waw-1.pl.uncletopia.com","port":27055,"enabled":true,"region":"eu","cc":"pl","latitude":52.2297,"longitude":21.017532,"reserved":0,"last_update":"0001-01-01T00:00:00Z","name_a2s":"Uncletopia | Warsaw | 5 | Stopwatch","protocol":17,"map":"koth_highpass","folder":"tf","game":"Team Fortress","app_id":440,"player_count":0,"max_players":24,"Bots":0,"server_type":"Dedicated","server_os":"Linux","password":true,"vac":true,"version":"7961495","steam_id":85568392925397854,"keywords":["cp","nocrits","nodmgspread","uncletopia"],"game_id":440,"stv_port":27056,"stv_name":"Uncletopia | Warsaw | 5 | Stopwatch | STV","players":null},{"server_id":54,"name":"Uncletopia | Warsaw | 6 | Community","name_short":"waw-6","host":"waw-1.pl.uncletopia.com","port":27065,"enabled":true,"region":"eu","cc":"pl","latitude":52.2297,"longitude":21.017532,"reserved":0,"last_update":"0001-01-01T00:00:00Z","name_a2s":"Uncletopia | Warsaw | 6 | Community","protocol":17,"map":"workshop/cp_overgrown_rc8.ugc503939302","folder":"tf","game":"Team Fortress","app_id":440,"player_count":0,"max_players":24,"Bots":0,"server_type":"Dedicated","server_os":"Linux","password":true,"vac":true,"version":"7961495","steam_id":85568392925397856,"keywords":["cp","nocrits","nodmgspread","uncletopia"],"game_id":440,"stv_port":27066,"stv_name":"Uncletopia | Warsaw | 6 | Community | STV","players":null}]}