{"status":true,"message":"","result":[{"server_id":9,"name":"Uncletopia | Atlanta | 1 | All Maps","name_short":"atl-1","host":"atl-1.us.uncletopia.com","port":27015,"enabled":true,"region":"us-east","cc":"us","latitude":33.753746,"longitude":-84.38633,"reserved":0,"last_update":"0001-01-01T00:00:00Z","name_a2s":"Uncletopia | Atlanta | 1 | All Maps","protocol":17,"map":"pl_frontier_final","folder":"tf","game":"Team Fortress","app_id":440,"player_count":22,"max_players":24,"Bots":0,"server_type":"Dedicated","server_os":"Linux","password":true,"vac":true,"version":"7757534","steam_id":85568392924469982,"keywords":["nocrits","nodmgspread","payload","uncletopia"],"game_id":440,"stv_port":27016,"stv_name":"Uncletopia | Atlanta | 1 | All Maps | STV","players":[{"user_id":592,"name":"NeoN","steam_id":76561198117608366,"connected_time":2041000000000,"state":"active","ping":50},{"user_id":590,"name":"BIG HOG","steam_id":76561198079923652,"connected_time":2084000000000,"state":"active","ping":72},{"user_id":572,"name":"Jin","steam_id":76561198119873148,"connected_time":4213000000000,"state":"active","ping":63},{"user_id":571,"name":"Mufalito","steam_id":76561198951889482,"connected_time":5121000000000,"state":"active","ping":150},{"user_id":575,"name":"wire-guided","steam_id":76561198055407168,"connected_time":3977000000000,"state":"active","ping":59},{"user_id":594,"name":"Username","steam_id":76561199033122306,"connected_time":1784000000000,"state":"active","ping":58},{"user_id":586,"name":"Mythical Lag","steam_id":76561198347031281,"connected_time":2937000000000,"state":"active","ping":77},{"user_id":601,"name":"basil","steam_id":76561198075758026,"connected_time":665000000000,"state":"active","ping":64},{"user_id":605,"name":"Aniz","steam_id":76561199226665024,"connected_time":413000000000,"state":"active","ping":182},{"user_id":597,"name":"Moonglass Kaiju","steam_id":76561198043431819,"connected_time":741000000000,"state":"active","ping":70},{"user_id":569,"name":"zpalmtree","steam_id":76561198134307620,"connected_time":5206000000000,"state":"active","ping":75},{"user_id":577,"name":"villainy","steam_id":76561199061380038,"connected_time":3921000000000,"state":"active","ping":59},{"user_id":596,"name":"Mage","steam_id":76561198285026879,"connected_time":745000000000,"state":"active","ping":80},{"user_id":583,"name":"Chicken Joe","steam_id":76561198278185182,"connected_time":3271000000000,"state":"active","ping":75},{"user_id":522,"name":"Nox(She/They)","steam_id":76561198141950842,"connected_time":12518000000000,"state":"active","ping":49},{"user_id":581,"name":"SonicClubCool","steam_id":76561198079187808,"connected_time":3548000000000,"state":"active","ping":45},{"user_id":568,"name":"ash","steam_id":76561198127890645,"connected_time":5744000000000,"state":"active","ping":61},{"user_id":598,"name":"Cecilian","steam_id":76561198092582478,"connected_time":739000000000,"state":"active","ping":72},{"user_id":570,"name":"town.midi","steam_id":76561198059041027,"connected_time":5173000000000,"state":"active","ping":121},{"user_id":604,"name":"Ink","steam_id":76561198389914633,"connected_time":586000000000,"state":"active","ping":142},{"user_id":591,"name":"\u003c3lil hog\u003c3","steam_id":76561199230929836,"connected_time":2084000000000,"state":"active","ping":73},{"user_id":599,"name":"façade","steam_id":76561199157009256,"connected_time":737000000000,"state":"active","ping":99}]},{"server_id":104,"name":"Uncletopia | Atlanta | 2 | All Maps","name_short":"atl-2","host":"atl-1.us.uncletopia.com","port":27025,"enabled":true,"region":"us-east","cc":"us","latitude":33.753746,"longitude":-84.38633,"reserved":0,"last_update":"0001-01-01T00:00:00Z","name_a2s":"Uncletopia | Atlanta | 2 | All Maps","protocol":17,"map":"pl_barnblitz","folder":"tf","game":"Team Fortress","app_id":440,"player_count":4,"max_players":24,"Bots":0,"server_type":"Dedicated","server_os":"Linux","password":true,"vac":true,"version":"7757534","steam_id":85568392924469983,"keywords":["nocrits","nodmgspread","payload","uncletopia"],"game_id":440,"stv_port":27026,"stv_name":"Uncletopia | Atlanta | 2 | All Maps | STV","players":[{"user_id":918,"name":"ZombieSlayer","steam_id":76561198256248374,"connected_time":226000000000,"state":"active","ping":101},{"user_id":849,"name":"The Pencil Cunts","steam_id":76561198272606252,"connected_time":5006000000000,"state":"active","ping":52},{"user_id":920,"name":"mdharsy","steam_id":76561198065831053,"connected_time":202000000000,"state":"active","ping":90},{"user_id":921,"name":"Janna","steam_id":76561198145229924,"connected_time":160000000000,"state":"active","ping":60}]},{"server_id":400,"name":"Uncletopia | Atlanta | 3 | Community","name_short":"atl-3","host":"atl-1.us.uncletopia.com","port":27035,"enabled":true,"region":"us-east","cc":"us","latitude":33.753746,"longitude":-84.38633,"reserved":0,"last_update":"0001-01-01T00:00:00Z","name_a2s":"Uncletopia | Atlanta | 3 | Community","protocol":17,"map":"workshop/cp_glassworks_rc6a.ugc454118349","folder":"tf","game":"Team Fortress","app_id":440,"player_count":0,"max_players":24,"Bots":0,"server_type":"Dedicated","server_os":"Linux","password":true,"vac":true,"version":"7757534","steam_id":85568392924515187,"keywords":["cp","nocrits","nodmgspread","uncletopia"],"game_id":440,"stv_port":27036,"stv_name":"Uncletopia | Atlanta | 3 | Community | STV","players":null},{"server_id":401,"name":"Uncletopia | Atlanta | 4 | No Payload","name_short":"atl-4","host":"atl-1.us.uncletopia.com","port":27045,"enabled":true,"region":"us-east","cc":"us","latitude":33.753746,"longitude":-84.38633,"reserved":0,"last_update":"0001-01-01T00:00:00Z","name_a2s":"","protocol":0,"map":"","folder":"","game":"","app_id":0,"player_count":0,"max_players":0,"Bots":0,"server_type":"","server_os":"","password":false,"vac":false,"version":"","steam_id":0,"keywords":null,"game_id":0,"stv_port":0,"stv_name":"","players":null},{"server_id":2,"name":"Uncletopia | Chicago | 1 | All Maps","name_short":"chi-1","host":"chi-1.us.uncletopia.com","port":27015,"enabled":true,"region":"us-central","cc":"us","latitude":41.881832,"longitude":-87.62318,"reserved":0,"last_update":"0001-01-01T00:00:00Z","name_a2s":"Uncletopia | Chicago | 1 | All Maps","protocol":17,"map":"pl_thundermountain","folder":"tf","game":"Team Fortress","app_id":440,"player_count":24,"max_players":24,"Bots":0,"server_type":"Dedicated","server_os":"Linux","password":true,"vac":true,"version":"7757534","steam_id":85568392924469984,"keywords":["nocrits","nodmgspread","payload","uncletopia"],"game_id":440,"stv_port":27016,"stv_name":"Uncletopia | Chicago | 1 | All Maps | STV","players":[{"user_id":770,"name":"Shark-Kaboom","steam_id":76561198267771123,"connected_time":3182000000000,"state":"active","ping":87},{"user_id":783,"name":"briggs","steam_id":76561198045655893,"connected_time":2335000000000,"state":"active","ping":60},{"user_id":814,"name":"SG21","steam_id":76561199381171306,"connected_time":221000000000,"state":"active","ping":115},{"user_id":780,"name":"Gay Porn Stuntman","steam_id":76561198844362758,"connected_time":2651000000000,"state":"active","ping":65},{"user_id":815,"name":"BambuBabyPackRunner","steam_id":76561198320866421,"connected_time":198000000000,"state":"active","ping":72},{"user_id":811,"name":"Ace Attorney","steam_id":76561198133011705,"connected_time":720000000000,"state":"active","ping":61},{"user_id":816,"name":"scrotal recall","steam_id":76561198135945598,"connected_time":138000000000,"state":"active","ping":64},{"user_id":781,"name":"a footnote in sounding history","steam_id":76561198063064857,"connected_time":2395000000000,"state":"active","ping":73},{"user_id":789,"name":"goots","steam_id":76561198000706550,"connected_time":2185000000000,"state":"active","ping":47},{"user_id":799,"name":"tone","steam_id":76561198006505587,"connected_time":1185000000000,"state":"active","ping":82},{"user_id":795,"name":"Gammaplex","steam_id":76561198981228176,"connected_time":1655000000000,"state":"active","ping":59},{"user_id":817,"name":"Turbocat","steam_id":76561198145431353,"connected_time":97000000000,"state":"active","ping":58},{"user_id":801,"name":"Hey","steam_id":76561198447517893,"connected_time":1123000000000,"state":"active","ping":81},{"user_id":818,"name":"Dead Space 2","steam_id":76561199062987914,"connected_time":70000000000,"state":"active","ping":80},{"user_id":819,"name":"Lemon Drop","steam_id":76561198023684559,"connected_time":69000000000,"state":"active","ping":93},{"user_id":760,"name":"Mister Frank","steam_id":76561198161473385,"connected_time":3999000000000,"state":"active","ping":68},{"user_id":820,"name":"Lucki's Fat Belly","steam_id":76561198237789592,"connected_time":66000000000,"state":"active","ping":79},{"user_id":804,"name":"Javaris Jamar Javarison-Lamar","steam_id":76561198146951387,"connected_time":1058000000000,"state":"active","ping":75},{"user_id":821,"name":"coxen","steam_id":76561198095125557,"connected_time":64000000000,"state":"active","ping":65},{"user_id":806,"name":"Karma's Camera","steam_id":76561198059385185,"connected_time":1050000000000,"state":"active","ping":65},{"user_id":798,"name":"skaj","steam_id":76561198082278586,"connected_time":1271000000000,"state":"active","ping":74},{"user_id":812,"name":"Oneal","steam_id":76561198026564095,"connected_time":691000000000,"state":"active","ping":60},{"user_id":807,"name":"Buttfuck Armstrong","steam_id":76561198075547905,"connected_time":1047000000000,"state":"active","ping":62},{"user_id":822,"name":"Bearegard","steam_id":76561198061926542,"connected_time":41000000000,"state":"active","ping":67}]},{"server_id":106,"name":"Uncletopia | Chicago | 2 | All Maps","name_short":"chi-2","host":"chi-1.us.uncletopia.com","port":27025,"enabled":true,"region":"us-central","cc":"us","latitude":41.881832,"longitude":-87.62318,"reserved":0,"last_update":"0001-01-01T00:00:00Z","name_a2s":"Uncletopia | Chicago | 2 | All Maps","protocol":17,"map":"pl_pier","folder":"tf","game":"Team Fortress","app_id":440,"player_count":24,"max_players":24,"Bots":0,"server_type":"Dedicated","server_os":"Linux","password":true,"vac":true,"version":"7757534","steam_id":85568392924469985,"keywords":["nocrits","nodmgspread","payload","uncletopia"],"game_id":440,"stv_port":27026,"stv_name":"Uncletopia | Chicago | 2 | All Maps | STV","players":[{"user_id":907,"name":"BEARLY","steam_id":76561198152443933,"connected_time":2457000000000,"state":"active","ping":69},{"user_id":930,"name":"Venezia","steam_id":76561197994107407,"connected_time":42000000000,"state":"active","ping":50},{"user_id":920,"name":"seductive smell of oreos","steam_id":76561198032791567,"connected_time":418000000000,"state":"active","ping":104},{"user_id":900,"name":"DarkLink909","steam_id":76561198084139172,"connected_time":3416000000000,"state":"active","ping":89},{"user_id":763,"name":"Sposeidon","steam_id":76561199044781490,"connected_time":14059000000000,"state":"active","ping":55},{"user_id":915,"name":"- K.K.-","steam_id":76561198825567047,"connected_time":2032000000000,"state":"active","ping":94},{"user_id":921,"name":"shitass","steam_id":76561198355094896,"connected_time":388000000000,"state":"active","ping":60},{"user_id":925,"name":"kiviviviviviviviviviviviviviviv","steam_id":76561198838223023,"connected_time":292000000000,"state":"active","ping":52},{"user_id":922,"name":"Coinclever","steam_id":76561198099972692,"connected_time":355000000000,"state":"active","ping":57},{"user_id":923,"name":"Flashtasm","steam_id":76561198026635660,"connected_time":354000000000,"state":"active","ping":58},{"user_id":886,"name":"ProbiusSC","steam_id":76561198379167322,"connected_time":5397000000000,"state":"active","ping":82},{"user_id":869,"name":"Mr. May","steam_id":76561198132112804,"connected_time":6735000000000,"state":"active","ping":102},{"user_id":916,"name":"sweaterfan","steam_id":76561199389567214,"connected_time":2024000000000,"state":"active","ping":57},{"user_id":902,"name":"great1photo","steam_id":76561198085481933,"connected_time":3121000000000,"state":"active","ping":70},{"user_id":844,"name":"The strongest ⑨ ball","steam_id":76561198126760743,"connected_time":8345000000000,"state":"active","ping":75},{"user_id":901,"name":"tropis","steam_id":76561198067365603,"connected_time":3322000000000,"state":"active","ping":64},{"user_id":890,"name":"TacticalFluke","steam_id":76561198403291862,"connected_time":4761000000000,"state":"active","ping":81},{"user_id":924,"name":"Mookie Burns","steam_id":76561199202153909,"connected_time":339000000000,"state":"active","ping":82},{"user_id":929,"name":"Regular Dog","steam_id":76561198042898614,"connected_time":123000000000,"state":"active","ping":55},{"user_id":926,"name":"Squiliam","steam_id":76561198025278006,"connected_time":264000000000,"state":"active","ping":63},{"user_id":894,"name":"Nani?","steam_id":76561198130982692,"connected_time":4374000000000,"state":"active","ping":58},{"user_id":927,"name":"FilipeLuk","steam_id":76561198150675438,"connected_time":215000000000,"state":"active","ping":132},{"user_id":795,"name":"Uwu Micster","steam_id":76561198843890616,"connected_time":11534000000000,"state":"active","ping":76},{"user_id":928,"name":"BOTBOT","steam_id":76561198271928618,"connected_time":209000000000,"state":"active","ping":100}]},{"server_id":402,"name":"Uncletopia | Chicago | 3 | All Maps","name_short":"chi-3","host":"chi-1.us.uncletopia.com","port":27035,"enabled":true,"region":"us-central","cc":"us","latitude":41.881832,"longitude":-87.62318,"reserved":0,"last_update":"0001-01-01T00:00:00Z","name_a2s":"Uncletopia | Chicago | 3 | All Maps","protocol":17,"map":"koth_viaduct","folder":"tf","game":"Team Fortress","app_id":440,"player_count":24,"max_players":24,"Bots":0,"server_type":"Dedicated","server_os":"Linux","password":true,"vac":true,"version":"7757534","steam_id":85568392924515191,"keywords":["cp","nocrits","nodmgspread","uncletopia"],"game_id":440,"stv_port":27036,"stv_name":"Uncletopia | Chicago | 3 | All Maps | STV","players":[{"user_id":754,"name":"dustbowl gaming","steam_id":76561198057374871,"connected_time":1462000000000,"state":"active","ping":60},{"user_id":723,"name":"A Puppy","steam_id":76561198828184456,"connected_time":2908000000000,"state":"active","ping":57},{"user_id":790,"name":"Milk carton","steam_id":76561198967876347,"connected_time":575000000000,"state":"active","ping":93},{"user_id":797,"name":"LilPecka-er","steam_id":76561198995809846,"connected_time":567000000000,"state":"active","ping":83},{"user_id":798,"name":"fire retarded","steam_id":76561198383636396,"connected_time":536000000000,"state":"active","ping":128},{"user_id":713,"name":"stigma","steam_id":76561197960315263,"connected_time":4529000000000,"state":"active","ping":75},{"user_id":816,"name":"gatlinharrold","steam_id":76561199444424876,"connected_time":22000000000,"state":"active","ping":79},{"user_id":736,"name":"chaotic bug goblin creature","steam_id":76561198079437901,"connected_time":2190000000000,"state":"active","ping":77},{"user_id":807,"name":"Emperyan","steam_id":76561198818233217,"connected_time":287000000000,"state":"active","ping":76},{"user_id":799,"name":"MR MODE","steam_id":76561198046775352,"connected_time":507000000000,"state":"active","ping":92},{"user_id":730,"name":"MaurbaaTTV","steam_id":76561198396244334,"connected_time":2647000000000,"state":"active","ping":70},{"user_id":814,"name":"monke","steam_id":76561198308289194,"connected_time":109000000000,"state":"active","ping":70},{"user_id":815,"name":"Ta5K","steam_id":76561198939558155,"connected_time":80000000000,"state":"active","ping":45},{"user_id":787,"name":"Yummy Kabobz","steam_id":76561198067661705,"connected_time":827000000000,"state":"active","ping":65},{"user_id":740,"name":"木偶艺人","steam_id":76561199012056696,"connected_time":1870000000000,"state":"active","ping":188},{"user_id":722,"name":"earthbound393","steam_id":76561199444276547,"connected_time":3030000000000,"state":"active","ping":111},{"user_id":817,"name":"heng2x","steam_id":76561198140867611,"connected_time":11000000000,"state":"active","ping":83},{"user_id":755,"name":"3-13","steam_id":76561198063929021,"connected_time":1412000000000,"state":"active","ping":74},{"user_id":802,"name":"homestuck","steam_id":76561198085042338,"connected_time":370000000000,"state":"active","ping":109},{"user_id":813,"name":"Kretim","steam_id":76561199204273483,"connected_time":194000000000,"state":"active","ping":70},{"user_id":760,"name":"Creamy","steam_id":76561198063907478,"connected_time":1318000000000,"state":"active","ping":171},{"user_id":806,"name":"Scout Gaming","steam_id":76561198349052266,"connected_time":299000000000,"state":"active","ping":110},{"user_id":788,"name":"Mr.Phil","steam_id":76561198042801033,"connected_time":819000000000,"state":"active","ping":72},{"user_id":770,"name":"OlympicChamp_12 | Trade.tf","steam_id":76561198830574526,"connected_time":1105000000000,"state":"active","ping":108}]},{"server_id":403,"name":"Uncletopia | Chicago | 4 | All Maps","name_short":"chi-4","host":"chi-1.us.uncletopia.com","port":27045,"enabled":true,"region":"us-central","cc":"us","latitude":41.881832,"longitude":-87.62318,"reserved":0,"last_update":"0001-01-01T00:00:00Z","name_a2s":"Uncletopia | Chicago | 4 | All Maps","protocol":17,"map":"cp_mossrock","folder":"tf","game":"Team Fortress","app_id":440,"player_count":9,"max_players":24,"Bots":0,"server_type":"Dedicated","server_os":"Linux","password":true,"vac":true,"version":"7757534","steam_id":85568392924515193,"keywords":["cp","nocrits","nodmgspread","uncletopia"],"game_id":440,"stv_port":27046,"stv_name":"Uncletopia | Chicago | 4 | All Maps | STV","players":[{"user_id":591,"name":"Sirphantom","steam_id":76561198125415432,"connected_time":278000000000,"state":"active","ping":91},{"user_id":475,"name":"Horrizan","steam_id":76561197965028480,"connected_time":10791000000000,"state":"active","ping":70},{"user_id":559,"name":"Glass Joe","steam_id":76561198317365741,"connected_time":3303000000000,"state":"active","ping":62},{"user_id":554,"name":"Shittus, Second Elden Lord","steam_id":76561198397662124,"connected_time":4294000000000,"state":"active","ping":85},{"user_id":561,"name":"KaGawwy","steam_id":76561198090519590,"connected_time":3262000000000,"state":"active","ping":57},{"user_id":585,"name":"nic","steam_id":76561198030654668,"connected_time":1184000000000,"state":"active","ping":74},{"user_id":570,"name":"Resh420","steam_id":76561198066619792,"connected_time":2675000000000,"state":"active","ping":67},{"user_id":553,"name":"Catgirl, First Elden Lord","steam_id":76561198400058665,"connected_time":4775000000000,"state":"active","ping":64},{"user_id":588,"name":"Engineer, Third Elden Lord","steam_id":76561198085696816,"connected_time":707000000000,"state":"active","ping":78}]},{"server_id":36,"name":"Uncletopia | Chicago | 5 | All Maps","name_short":"chi-5","host":"chi-2.us.uncletopia.com","port":27015,"enabled":true,"region":"us-central","cc":"us","latitude":41.881832,"longitude":-87.62318,"reserved":0,"last_update":"0001-01-01T00:00:00Z","name_a2s":"Uncletopia | Chicago | 5 | All Maps","protocol":17,"map":"cp_mountainlab","folder":"tf","game":"Team Fortress","app_id":440,"player_count":0,"max_players":24,"Bots":0,"server_type":"Dedicated","server_os":"Linux","password":true,"vac":true,"version":"7757534","steam_id":85568392924866362,"keywords":["cp","nocrits","nodmgspread","uncletopia"],"game_id":440,"stv_port":27016,"stv_name":"Uncletopia | Chicago | 5 | All Maps | STV","players":null},{"server_id":37,"name":"Uncletopia | Chicago | 6 | All Maps","name_short":"chi-6","host":"chi-2.us.uncletopia.com","port":27025,"enabled":true,"region":"us-central","cc":"us","latitude":41.881832,"longitude":-87.62318,"reserved":0,"last_update":"0001-01-01T00:00:00Z","name_a2s":"Uncletopia | Chicago | 6 | All Maps","protocol":17,"map":"pl_snowycoast","folder":"tf","game":"Team Fortress","app_id":440,"player_count":10,"max_players":24,"Bots":0,"server_type":"Dedicated","server_os":"Linux","password":true,"vac":true,"version":"7757534","steam_id":85568392924866363,"keywords":["nocrits","nodmgspread","payload","uncletopia"],"game_id":440,"stv_port":27026,"stv_name":"Uncletopia | Chicago | 6 | All Maps | STV","players":[{"user_id":765,"name":"golia","steam_id":76561198000264266,"connected_time":73000000000,"state":"active","ping":112},{"user_id":743,"name":"20_gauge","steam_id":76561198094338522,"connected_time":1973000000000,"state":"active","ping":53},{"user_id":744,"name":"volta","steam_id":76561199214283884,"connected_time":1844000000000,"state":"active","ping":94},{"user_id":731,"name":"girl smell","steam_id":76561198118962168,"connected_time":2665000000000,"state":"active","ping":83},{"user_id":745,"name":"Uncertified Fox","steam_id":76561198134203902,"connected_time":1832000000000,"state":"active","ping":85},{"user_id":760,"name":"Klitz Drunkunt Penischmidt (Sta","steam_id":76561198050582941,"connected_time":751000000000,"state":"active","ping":63},{"user_id":733,"name":"Popeyes Employee","steam_id":76561198157341489,"connected_time":2508000000000,"state":"active","ping":82},{"user_id":735,"name":"GenericTerrorist","steam_id":76561198235842844,"connected_time":2390000000000,"state":"active","ping":151},{"user_id":736,"name":"CEOlifestyle","steam_id":76561198025747866,"connected_time":2379000000000,"state":"active","ping":92},{"user_id":750,"name":"Brohan","steam_id":76561198043948602,"connected_time":1757000000000,"state":"active","ping":72}]},{"server_id":38,"name":"Uncletopia | Chicago | 7 | Stopwatch Beta","name_short":"chi-7","host":"chi-2.us.uncletopia.com","port":27035,"enabled":true,"region":"us-central","cc":"us","latitude":41.881832,"longitude":-87.62318,"reserved":0,"last_update":"0001-01-01T00:00:00Z","name_a2s":"Uncletopia | Chicago | 7 | Stopwatch Beta","protocol":17,"map":"workshop/pl_badwater_pro_v12.ugc2142942074","folder":"tf","game":"Team Fortress","app_id":440,"player_count":0,"max_players":24,"Bots":0,"server_type":"Dedicated","server_os":"Linux","password":true,"vac":true,"version":"7757534","steam_id":85568392924866364,"keywords":["nocrits","nodmgspread","payload","uncletopia"],"game_id":440,"stv_port":27036,"stv_name":"Uncletopia | Chicago | 7 | Stopwatch Beta | STV","players":null},{"server_id":39,"name":"Uncletopia | Chicago | 8 | Community","name_short":"chi-8","host":"chi-2.us.uncletopia.com","port":27045,"enabled":true,"region":"us-central","cc":"us","latitude":41.881832,"longitude":-87.62318,"reserved":0,"last_update":"0001-01-01T00:00:00Z","name_a2s":"Uncletopia | Chicago | 8 | Community","protocol":17,"map":"workshop/pl_barnblitz_pro7.ugc582280235","folder":"tf","game":"Team Fortress","app_id":440,"player_count":19,"max_players":24,"Bots":0,"server_type":"Dedicated","server_os":"Linux","password":true,"vac":true,"version":"7757534","steam_id":85568392924866365,"keywords":["nocrits","nodmgspread","payload","uncletopia"],"game_id":440,"stv_port":27046,"stv_name":"Uncletopia | Chicago | 8 | Community | STV","players":[{"user_id":334,"name":"jamar lackson","steam_id":76561198090042382,"connected_time":2367000000000,"state":"active","ping":121},{"user_id":348,"name":"Steadman Slick","steam_id":76561198092633444,"connected_time":272000000000,"state":"active","ping":43},{"user_id":349,"name":"Retail Therapy","steam_id":76561198103598619,"connected_time":271000000000,"state":"active","ping":59},{"user_id":335,"name":"douglas4925","steam_id":76561198930342505,"connected_time":2361000000000,"state":"active","ping":103},{"user_id":294,"name":"Fuse","steam_id":76561198047018079,"connected_time":4496000000000,"state":"active","ping":75},{"user_id":295,"name":"doge","steam_id":76561198100340558,"connected_time":4470000000000,"state":"active","ping":70},{"user_id":350,"name":"Lo-Pan","steam_id":76561198085670133,"connected_time":266000000000,"state":"active","ping":79},{"user_id":336,"name":"Mr Legumes","steam_id":76561197984245726,"connected_time":2304000000000,"state":"active","ping":114},{"user_id":337,"name":"Mr. Sauce","steam_id":76561198055512324,"connected_time":2039000000000,"state":"active","ping":73},{"user_id":351,"name":"golly gee willikers","steam_id":76561198069407799,"connected_time":254000000000,"state":"active","ping":74},{"user_id":338,"name":"e7","steam_id":76561198154265084,"connected_time":2039000000000,"state":"active","ping":144},{"user_id":298,"name":"Aurum","steam_id":76561198095921837,"connected_time":4390000000000,"state":"active","ping":70},{"user_id":352,"name":"SirBacon","steam_id":76561198070832540,"connected_time":197000000000,"state":"active","ping":131},{"user_id":353,"name":"_","steam_id":76561198191199554,"connected_time":192000000000,"state":"active","ping":64},{"user_id":340,"name":"Sunflower","steam_id":76561198081223793,"connected_time":1823000000000,"state":"active","ping":56},{"user_id":354,"name":"Wooter","steam_id":76561198107186157,"connected_time":187000000000,"state":"active","ping":71},{"user_id":343,"name":"creepycrawler","steam_id":76561198352016831,"connected_time":1466000000000,"state":"active","ping":60},{"user_id":315,"name":"mothsprings","steam_id":76561198928604937,"connected_time":3715000000000,"state":"active","ping":84},{"user_id":345,"name":"JelloMotion","steam_id":76561198045892038,"connected_time":1443000000000,"state":"active","ping":59}]},{"server_id":8,"name":"Uncletopia | Dallas | 1 | All Maps","name_short":"dal-1","host":"dal-1.us.uncletopia.com","port":27015,"enabled":true,"region":"us-central","cc":"us","latitude":32.779167,"longitude":-96.80889,"reserved":0,"last_update":"0001-01-01T00:00:00Z","name_a2s":"Uncletopia | Dallas | 1 | All Maps","protocol":17,"map":"cp_gorge","folder":"tf","game":"Team Fortress","app_id":440,"player_count":24,"max_players":24,"Bots":0,"server_type":"Dedicated","server_os":"Linux","password":true,"vac":true,"version":"7757534","steam_id":85568392924469986,"keywords":["cp","nocrits","nodmgspread","uncletopia"],"game_id":440,"stv_port":27016,"stv_name":"Uncletopia | Dallas | 1 | All Maps | STV","players":[{"user_id":692,"name":"Local Babyfur Unicorn","steam_id":76561198155526516,"connected_time":91000000000,"state":"active","ping":31},{"user_id":687,"name":"minty","steam_id":76561198062821894,"connected_time":1151000000000,"state":"active","ping":53},{"user_id":666,"name":"Burger","steam_id":76561198124642383,"connected_time":4185000000000,"state":"active","ping":80},{"user_id":678,"name":"King Zazarule","steam_id":76561198140929103,"connected_time":2304000000000,"state":"active","ping":86},{"user_id":667,"name":"Joshy","steam_id":76561198061405421,"connected_time":4146000000000,"state":"active","ping":89},{"user_id":680,"name":"8th Ward","steam_id":76561198405839882,"connected_time":2080000000000,"state":"active","ping":61},{"user_id":634,"name":"roleycoley","steam_id":76561198069574107,"connected_time":8389000000000,"state":"active","ping":48},{"user_id":689,"name":"Bunchie","steam_id":76561198011549808,"connected_time":883000000000,"state":"active","ping":34},{"user_id":595,"name":"ChottoAMinute","steam_id":76561198873157775,"connected_time":12524000000000,"state":"active","ping":42},{"user_id":685,"name":"Sock #NEWTF2Hunt","steam_id":76561198069090237,"connected_time":1465000000000,"state":"active","ping":57},{"user_id":682,"name":"Ms Chatmen","steam_id":76561198309567814,"connected_time":1541000000000,"state":"active","ping":42},{"user_id":565,"name":"aidan long","steam_id":76561198073022833,"connected_time":14996000000000,"state":"active","ping":43},{"user_id":663,"name":"DannyM","steam_id":76561198351165570,"connected_time":4461000000000,"state":"active","ping":42},{"user_id":665,"name":"ShapedSilver","steam_id":76561199073305310,"connected_time":4201000000000,"state":"active","ping":46},{"user_id":641,"name":"Can You Feel It Mr.Krabs","steam_id":76561198128302414,"connected_time":7604000000000,"state":"active","ping":65},{"user_id":614,"name":"Loki!","steam_id":76561198089201861,"connected_time":10860000000000,"state":"active","ping":60},{"user_id":650,"name":"0x01FE","steam_id":76561198838881917,"connected_time":6384000000000,"state":"active","ping":64},{"user_id":664,"name":"fish lover woman fearer","steam_id":76561198241061928,"connected_time":4207000000000,"state":"active","ping":80},{"user_id":683,"name":"The Pope","steam_id":76561198002422498,"connected_time":1534000000000,"state":"active","ping":89},{"user_id":691,"name":"Riff","steam_id":76561198066921423,"connected_time":558000000000,"state":"active","ping":69},{"user_id":693,"name":"zeplinnn","steam_id":76561198301300987,"connected_time":90000000000,"state":"active","ping":80},{"user_id":633,"name":"*_*","steam_id":76561198937717599,"connected_time":8508000000000,"state":"active","ping":44},{"user_id":625,"name":"owen","steam_id":76561198121517871,"connected_time":9728000000000,"state":"active","ping":49},{"user_id":677,"name":"LovingKindne2z","steam_id":76561199064932372,"connected_time":3269000000000,"state":"active","ping":77}]},{"server_id":108,"name":"Uncletopia | Dallas | 2 | All Maps","name_short":"dal-2","host":"dal-1.us.uncletopia.com","port":27025,"enabled":true,"region":"us-central","cc":"us","latitude":32.779167,"longitude":-96.80889,"reserved":0,"last_update":"0001-01-01T00:00:00Z","name_a2s":"Uncletopia | Dallas | 2 | All Maps","protocol":17,"map":"cp_gorge","folder":"tf","game":"Team Fortress","app_id":440,"player_count":24,"max_players":24,"Bots":0,"server_type":"Dedicated","server_os":"Linux","password":true,"vac":true,"version":"7757534","steam_id":85568392924469988,"keywords":["cp","nocrits","nodmgspread","uncletopia"],"game_id":440,"stv_port":27026,"stv_name":"Uncletopia | Dallas | 2 | All Maps | STV","players":[{"user_id":619,"name":"NekoGod","steam_id":76561198214690176,"connected_time":2614000000000,"state":"active","ping":89},{"user_id":617,"name":"Gay Cake","steam_id":76561198004388831,"connected_time":2962000000000,"state":"active","ping":90},{"user_id":650,"name":"StrangerHYP","steam_id":76561198395336752,"connected_time":564000000000,"state":"active","ping":94},{"user_id":604,"name":"the smiling zombie","steam_id":76561199246231090,"connected_time":3460000000000,"state":"active","ping":78},{"user_id":623,"name":"DragonHunter994","steam_id":76561199076203907,"connected_time":2140000000000,"state":"active","ping":59},{"user_id":633,"name":"mug","steam_id":76561198098905708,"connected_time":1543000000000,"state":"active","ping":77},{"user_id":649,"name":"Ben Ben","steam_id":76561198307247913,"connected_time":597000000000,"state":"active","ping":77},{"user_id":626,"name":"Burny Sanders","steam_id":76561197961879048,"connected_time":1871000000000,"state":"active","ping":43},{"user_id":651,"name":"motherfucker 2.0","steam_id":76561198141189209,"connected_time":520000000000,"state":"active","ping":43},{"user_id":652,"name":"alpha1zer0ready","steam_id":76561199206731331,"connected_time":467000000000,"state":"active","ping":75},{"user_id":653,"name":"Jazz2T","steam_id":76561198154418867,"connected_time":418000000000,"state":"active","ping":117},{"user_id":647,"name":"Lore","steam_id":76561198098407538,"connected_time":622000000000,"state":"active","ping":75},{"user_id":654,"name":"Satori Komeiji","steam_id":76561198158211423,"connected_time":383000000000,"state":"active","ping":73},{"user_id":639,"name":"post traumatic swag disorder","steam_id":76561198093105234,"connected_time":1062000000000,"state":"active","ping":75},{"user_id":621,"name":"Featherless Biped","steam_id":76561198034171721,"connected_time":2360000000000,"state":"active","ping":87},{"user_id":620,"name":"Roland_Actual","steam_id":76561198103212376,"connected_time":2408000000000,"state":"active","ping":88},{"user_id":655,"name":"Chad","steam_id":76561198222313772,"connected_time":378000000000,"state":"active","ping":103},{"user_id":618,"name":"UnkownGamerLOL","steam_id":76561198225902368,"connected_time":2958000000000,"state":"active","ping":67},{"user_id":648,"name":"mEch114","steam_id":76561198236936060,"connected_time":603000000000,"state":"active","ping":45},{"user_id":659,"name":"Holiday Fartcruise","steam_id":76561198043851584,"connected_time":187000000000,"state":"active","ping":134},{"user_id":660,"name":"Atlas Fugged :DD","steam_id":76561198018753989,"connected_time":124000000000,"state":"active","ping":102},{"user_id":661,"name":"Boingo","steam_id":76561199086931535,"connected_time":35000000000,"state":"active","ping":58},{"user_id":657,"name":"SpicyTacoMan","steam_id":76561198335699828,"connected_time":345000000000,"state":"active","ping":103},{"user_id":603,"name":"Dr. Mathew","steam_id":76561199015513652,"connected_time":3899000000000,"state":"active","ping":76}]},{"server_id":5,"name":"Uncletopia | Frankfurt | 1 | All Maps","name_short":"frk-1","host":"frk-1.de.uncletopia.com","port":27015,"enabled":true,"region":"eu","cc":"de","latitude":50.110924,"longitude":8.682127,"reserved":0,"last_update":"0001-01-01T00:00:00Z","name_a2s":"Uncletopia | Frankfurt | 1 | All Maps","protocol":17,"map":"pl_snowycoast","folder":"tf","game":"Team Fortress","app_id":440,"player_count":0,"max_players":24,"Bots":0,"server_type":"Dedicated","server_os":"Linux","password":true,"vac":true,"version":"7757534","steam_id":85568392924469989,"keywords":["nocrits","nodmgspread","payload","uncletopia"],"game_id":440,"stv_port":27016,"stv_name":"Uncletopia | Frankfurt | 1 | All Maps | STV","players":null},{"server_id":110,"name":"Uncletopia | Frankfurt | 2 | All Maps","name_short":"frk-2","host":"frk-1.de.uncletopia.com","port":27025,"enabled":true,"region":"eu","cc":"de","latitude":50.110924,"longitude":8.682127,"reserved":0,"last_update":"0001-01-01T00:00:00Z","name_a2s":"Uncletopia | Frankfurt | 2 | All Maps","protocol":17,"map":"cp_snakewater_final1","folder":"tf","game":"Team Fortress","app_id":440,"player_count":0,"max_players":24,"Bots":0,"server_type":"Dedicated","server_os":"Linux","password":true,"vac":true,"version":"7757534","steam_id":85568392924469990,"keywords":["cp","nocrits","nodmgspread","uncletopia"],"game_id":440,"stv_port":27026,"stv_name":"Uncletopia | Frankfurt | 2 | All Maps | STV","players":null},{"server_id":308,"name":"Uncletopia | Frankfurt | 3 | All Maps","name_short":"frk-3","host":"frk-1.de.uncletopia.com","port":27035,"enabled":true,"region":"eu","cc":"de","latitude":50.110924,"longitude":8.682127,"reserved":0,"last_update":"0001-01-01T00:00:00Z","name_a2s":"Uncletopia | Frankfurt | 3 | All Maps","protocol":17,"map":"pl_swiftwater_final1","folder":"tf","game":"Team Fortress","app_id":440,"player_count":0,"max_players":24,"Bots":0,"server_type":"Dedicated","server_os":"Linux","password":true,"vac":true,"version":"7757534","steam_id":85568392924504274,"keywords":["nocrits","nodmgspread","payload","uncletopia"],"game_id":440,"stv_port":27036,"stv_name":"Uncletopia | Frankfurt | 3 | All Maps | STV","players":null},{"server_id":309,"name":"Uncletopia | Frankfurt | 4 | All Maps","name_short":"frk-4","host":"frk-1.de.uncletopia.com","port":27045,"enabled":true,"region":"eu","cc":"de","latitude":50.110924,"longitude":8.682127,"reserved":0,"last_update":"0001-01-01T00:00:00Z","name_a2s":"Uncletopia | Frankfurt | 4 | All Maps","protocol":17,"map":"koth_viaduct","folder":"tf","game":"Team Fortress","app_id":440,"player_count":0,"max_players":24,"Bots":0,"server_type":"Dedicated","server_os":"Linux","password":true,"vac":true,"version":"7757534","steam_id":85568392924504275,"keywords":["cp","nocrits","nodmgspread","uncletopia"],"game_id":440,"stv_port":27046,"stv_name":"Uncletopia | Frankfurt | 4 | All Maps | STV","players":null},{"server_id":310,"name":"Uncletopia | Frankfurt | 5 | All Maps","name_short":"frk-5","host":"frk-1.de.uncletopia.com","port":27055,"enabled":true,"region":"eu","cc":"de","latitude":50.110924,"longitude":8.682127,"reserved":0,"last_update":"0001-01-01T00:00:00Z","name_a2s":"Uncletopia | Frankfurt | 5 | All Maps","protocol":17,"map":"koth_lakeside_final","folder":"tf","game":"Team Fortress","app_id":440,"player_count":0,"max_players":24,"Bots":0,"server_type":"Dedicated","server_os":"Linux","password":true,"vac":true,"version":"7757534","steam_id":85568392924504277,"keywords":["cp","nocrits","nodmgspread","uncletopia"],"game_id":440,"stv_port":27056,"stv_name":"Uncletopia | Frankfurt | 5 | All Maps | STV","players":null},{"server_id":311,"name":"Uncletopia | Frankfurt | 6 | All Maps","name_short":"frk-6","host":"frk-1.de.uncletopia.com","port":27065,"enabled":true,"region":"eu","cc":"de","latitude":50.110924,"longitude":8.682127,"reserved":0,"last_update":"0001-01-01T00:00:00Z","name_a2s":"Uncletopia | Frankfurt | 6 | All Maps","protocol":17,"map":"pl_frontier_final","folder":"tf","game":"Team Fortress","app_id":440,"player_count":0,"max_players":24,"Bots":0,"server_type":"Dedicated","server_os":"Linux","password":true,"vac":true,"version":"7757534","steam_id":85568392924504278,"keywords":["nocrits","nodmgspread","payload","uncletopia"],"game_id":440,"stv_port":27066,"stv_name":"Uncletopia | Frankfurt | 6 | All Maps | STV","players":null},{"server_id":23,"name":"Uncletopia | Frankfurt | 7 | Stopwatch Beta","name_short":"frk-7","host":"frk-1.de.uncletopia.com","port":27075,"enabled":true,"region":"eu","cc":"de","latitude":50.110924,"longitude":8.682127,"reserved":0,"last_update":"0001-01-01T00:00:00Z","name_a2s":"Uncletopia | Frankfurt | 7 | Stopwatch Beta","protocol":17,"map":"cp_sunshine","folder":"tf","game":"Team Fortress","app_id":440,"player_count":0,"max_players":24,"Bots":0,"server_type":"Dedicated","server_os":"Linux","password":true,"vac":true,"version":"7757534","steam_id":85568392924742827,"keywords":["cp","nocrits","nodmgspread","uncletopia"],"game_id":440,"stv_port":27076,"stv_name":"Uncletopia | Frankfurt | 7 | Stopwatch Beta | STV","players":null},{"server_id":24,"name":"Uncletopia | Frankfurt | 8 | Community","name_short":"frk-8","host":"frk-1.de.uncletopia.com","port":27085,"enabled":true,"region":"eu","cc":"de","latitude":50.110924,"longitude":8.682127,"reserved":0,"last_update":"0001-01-01T00:00:00Z","name_a2s":"Uncletopia | Frankfurt | 8 | Community","protocol":17,"map":"koth_lakeside_final","folder":"tf","game":"Team Fortress","app_id":440,"player_count":1,"max_players":24,"Bots":0,"server_type":"Dedicated","server_os":"Linux","password":true,"vac":true,"version":"7757534","steam_id":85568392924742828,"keywords":["cp","nocrits","nodmgspread","uncletopia"],"game_id":440,"stv_port":27086,"stv_name":"Uncletopia | Frankfurt | 8 | Community | STV","players":[{"user_id":3,"name":"DillyWolf","steam_id":76561198195635533,"connected_time":200000000000,"state":"active","ping":149}]},{"server_id":202,"name":"Uncletopia | Hong Kong | 1 | All Maps","name_short":"hgk-1","host":"hgk-1.hk.uncletopia.com","port":27015,"enabled":true,"region":"asia","cc":"hk","latitude":22.302711,"longitude":114.177216,"reserved":0,"last_update":"0001-01-01T00:00:00Z","name_a2s":"Uncletopia | Hong Kong | 1 | All Maps","protocol":17,"map":"plr_hightower","folder":"tf","game":"Team Fortress","app_id":440,"player_count":4,"max_players":24,"Bots":0,"server_type":"Dedicated","server_os":"Linux","password":true,"vac":true,"version":"7757534","steam_id":85568392924494504,"keywords":["nocrits","nodmgspread","payload","uncletopia"],"game_id":440,"stv_port":27016,"stv_name":"Uncletopia | Hong Kong | 1 | All Maps | STV","players":[{"user_id":16,"name":"Catto","steam_id":76561198842463314,"connected_time":428000000000,"state":"active","ping":122},{"user_id":17,"name":"protoguy(한국인임 제발)","steam_id":76561199249312448,"connected_time":206000000000,"state":"active","ping":85},{"user_id":18,"name":"Asray Hanti","steam_id":76561199433605472,"connected_time":94000000000,"state":"active","ping":80},{"user_id":19,"name":"F2P Strikes Again","steam_id":76561199480327796,"connected_time":54000000000,"state":"active","ping":80}]},{"server_id":1,"name":"Uncletopia | Los Angeles | 1 | All Maps","name_short":"lax-1","host":"lax-1.us.uncletopia.com","port":27015,"enabled":true,"region":"us-west","cc":"us","latitude":33.94279,"longitude":-118.41004,"reserved":0,"last_update":"0001-01-01T00:00:00Z","name_a2s":"Uncletopia | Los Angeles | 1 | All Maps","protocol":17,"map":"cp_sunshine","folder":"tf","game":"Team Fortress","app_id":440,"player_count":23,"max_players":24,"Bots":0,"server_type":"Dedicated","server_os":"Linux","password":true,"vac":true,"version":"7757534","steam_id":85568392924469991,"keywords":["cp","nocrits","nodmgspread","uncletopia"],"game_id":440,"stv_port":27016,"stv_name":"Uncletopia | Los Angeles | 1 | All Maps | STV","players":[{"user_id":416,"name":"aqua","steam_id":76561199407709552,"connected_time":4413000000000,"state":"active","ping":94},{"user_id":432,"name":"checkswing","steam_id":76561198999816132,"connected_time":2192000000000,"state":"active","ping":129},{"user_id":436,"name":"An00bis","steam_id":76561198044084508,"connected_time":1763000000000,"state":"active","ping":50},{"user_id":439,"name":"sharia compliant gamer","steam_id":76561198005884261,"connected_time":1663000000000,"state":"active","ping":101},{"user_id":452,"name":"parallax","steam_id":76561198004438881,"connected_time":842000000000,"state":"active","ping":65},{"user_id":437,"name":"Tobias Nightbringer","steam_id":76561197964373792,"connected_time":1729000000000,"state":"active","ping":55},{"user_id":438,"name":"selvhat","steam_id":76561198114225509,"connected_time":1693000000000,"state":"active","ping":66},{"user_id":408,"name":"SIGMA [BS]","steam_id":76561197962604879,"connected_time":4692000000000,"state":"active","ping":110},{"user_id":382,"name":"Thequirka","steam_id":76561198968058652,"connected_time":6598000000000,"state":"active","ping":75},{"user_id":400,"name":"xbox record that","steam_id":76561198150117455,"connected_time":5170000000000,"state":"active","ping":54},{"user_id":454,"name":"Tanman653","steam_id":76561199046653301,"connected_time":620000000000,"state":"active","ping":72},{"user_id":431,"name":"Starshine","steam_id":76561198044035740,"connected_time":2392000000000,"state":"active","ping":54},{"user_id":455,"name":"kite man","steam_id":76561198156336213,"connected_time":600000000000,"state":"active","ping":70},{"user_id":459,"name":"Bacon Hoodie","steam_id":76561198843822629,"connected_time":18000000000,"state":"active","ping":83},{"user_id":404,"name":"Nemesis_421.EXE","steam_id":76561198311948563,"connected_time":4914000000000,"state":"active","ping":46},{"user_id":427,"name":"lokm","steam_id":76561198030374238,"connected_time":3350000000000,"state":"active","ping":57},{"user_id":441,"name":"squids a Grandmaster","steam_id":76561199200296010,"connected_time":1507000000000,"state":"active","ping":88},{"user_id":448,"name":"Whisper!","steam_id":76561198119609795,"connected_time":1228000000000,"state":"active","ping":55},{"user_id":411,"name":"Custard","steam_id":76561198069680083,"connected_time":4679000000000,"state":"active","ping":60},{"user_id":453,"name":"Ekuseebia","steam_id":76561198037504112,"connected_time":827000000000,"state":"active","ping":79},{"user_id":444,"name":"mo","steam_id":76561198089471606,"connected_time":1346000000000,"state":"active","ping":53},{"user_id":446,"name":"giantcox19","steam_id":76561198376624864,"connected_time":1313000000000,"state":"active","ping":45},{"user_id":458,"name":"Crystal","steam_id":76561198436460167,"connected_time":514000000000,"state":"active","ping":58}]},{"server_id":112,"name":"Uncletopia | Los Angeles | 2 | All Maps","name_short":"lax-2","host":"lax-1.us.uncletopia.com","port":27025,"enabled":true,"region":"us-west","cc":"us","latitude":33.94279,"longitude":-118.41004,"reserved":0,"last_update":"0001-01-01T00:00:00Z","name_a2s":"Uncletopia | Los Angeles | 2 | All Maps","protocol":17,"map":"pl_barnblitz","folder":"tf","game":"Team Fortress","app_id":440,"player_count":23,"max_players":24,"Bots":0,"server_type":"Dedicated","server_os":"Linux","password":true,"vac":true,"version":"7757534","steam_id":85568392924469992,"keywords":["nocrits","nodmgspread","payload","uncletopia"],"game_id":440,"stv_port":27026,"stv_name":"Uncletopia | Los Angeles | 2 | All Maps | STV","players":[{"user_id":351,"name":"Frank Ugly","steam_id":76561198247002810,"connected_time":977000000000,"state":"active","ping":64},{"user_id":349,"name":"Branz","steam_id":76561198076632143,"connected_time":1166000000000,"state":"active","ping":83},{"user_id":347,"name":"sameways","steam_id":76561198120982884,"connected_time":1203000000000,"state":"active","ping":61},{"user_id":356,"name":"봇치 더 아카이브","steam_id":76561198453203619,"connected_time":509000000000,"state":"active","ping":45},{"user_id":352,"name":"Dank Ghost","steam_id":76561198400690889,"connected_time":934000000000,"state":"active","ping":70},{"user_id":353,"name":"heimdall","steam_id":76561198069380992,"connected_time":924000000000,"state":"active","ping":93},{"user_id":316,"name":"big fish","steam_id":76561198186479818,"connected_time":3742000000000,"state":"active","ping":60},{"user_id":357,"name":"Medicated","steam_id":76561198028100394,"connected_time":508000000000,"state":"active","ping":88},{"user_id":338,"name":"ChocoCrispChunks","steam_id":76561198881926539,"connected_time":1684000000000,"state":"active","ping":53},{"user_id":346,"name":"Billy Yank","steam_id":76561199059733640,"connected_time":1292000000000,"state":"active","ping":61},{"user_id":344,"name":"OG Izzy","steam_id":76561198162715742,"connected_time":1467000000000,"state":"active","ping":31},{"user_id":334,"name":"gives you rabies","steam_id":76561198204169516,"connected_time":2308000000000,"state":"active","ping":76},{"user_id":322,"name":"Vintage TV","steam_id":76561198800334545,"connected_time":2807000000000,"state":"active","ping":45},{"user_id":324,"name":"Mini","steam_id":76561198119708149,"connected_time":2776000000000,"state":"active","ping":59},{"user_id":325,"name":"TheMountainMan2002","steam_id":76561198251394304,"connected_time":2753000000000,"state":"active","ping":92},{"user_id":355,"name":"portos bakery and cafe","steam_id":76561198319442494,"connected_time":641000000000,"state":"active","ping":62},{"user_id":341,"name":"Mr. Facestab","steam_id":76561198060798520,"connected_time":1507000000000,"state":"active","ping":83},{"user_id":286,"name":"SanitysEdge","steam_id":76561198130732813,"connected_time":5588000000000,"state":"active","ping":49},{"user_id":360,"name":"chrome 2008 (she/they)","steam_id":76561198321277216,"connected_time":200000000000,"state":"active","ping":62},{"user_id":327,"name":"cicada","steam_id":76561198069190432,"connected_time":2609000000000,"state":"active","ping":113},{"user_id":359,"name":"Notation","steam_id":76561198119509319,"connected_time":336000000000,"state":"active","ping":102},{"user_id":358,"name":"StatingKnot","steam_id":76561199190634968,"connected_time":428000000000,"state":"active","ping":101},{"user_id":345,"name":"The Assistant Regional Manager","steam_id":76561199221484936,"connected_time":1449000000000,"state":"active","ping":66}]},{"server_id":324,"name":"Uncletopia | Los Angeles | 3 | All Maps","name_short":"lax-3","host":"lax-1.us.uncletopia.com","port":27035,"enabled":true,"region":"us-west","cc":"us","latitude":33.94279,"longitude":-118.41004,"reserved":0,"last_update":"0001-01-01T00:00:00Z","name_a2s":"Uncletopia | Los Angeles | 3 | All Maps","protocol":17,"map":"cp_sunshine","folder":"tf","game":"Team Fortress","app_id":440,"player_count":24,"max_players":24,"Bots":0,"server_type":"Dedicated","server_os":"Linux","password":true,"vac":true,"version":"7757534","steam_id":85568392924510198,"keywords":["cp","nocrits","nodmgspread","uncletopia"],"game_id":440,"stv_port":27036,"stv_name":"Uncletopia | Los Angeles | 3 | All Maps | STV","players":[{"user_id":337,"name":"El Monte","steam_id":76561198263562991,"connected_time":1491000000000,"state":"active","ping":35},{"user_id":332,"name":"Jordan","steam_id":76561198076882299,"connected_time":2196000000000,"state":"active","ping":101},{"user_id":322,"name":"Gundam Guy","steam_id":76561198178453993,"connected_time":2453000000000,"state":"active","ping":59},{"user_id":347,"name":"yo mama","steam_id":76561198384866172,"connected_time":340000000000,"state":"active","ping":53},{"user_id":315,"name":"BomberHeadCx","steam_id":76561198189226831,"connected_time":2926000000000,"state":"active","ping":61},{"user_id":301,"name":"Menacing Pile of Frogs","steam_id":76561198360134800,"connected_time":5736000000000,"state":"active","ping":104},{"user_id":305,"name":"Rose","steam_id":76561198955581861,"connected_time":4079000000000,"state":"active","ping":45},{"user_id":348,"name":"FurryPlague","steam_id":76561198824729615,"connected_time":259000000000,"state":"active","ping":89},{"user_id":316,"name":"NWABA","steam_id":76561198073699764,"connected_time":2789000000000,"state":"active","ping":85},{"user_id":295,"name":"DeathSushi","steam_id":76561199156131540,"connected_time":6042000000000,"state":"active","ping":92},{"user_id":339,"name":"Mystic man of potatoe","steam_id":76561198027267207,"connected_time":1193000000000,"state":"active","ping":68},{"user_id":349,"name":"Bong Water","steam_id":76561198320044243,"connected_time":251000000000,"state":"active","ping":98},{"user_id":324,"name":"cjetson","steam_id":76561198074482272,"connected_time":2394000000000,"state":"active","ping":64},{"user_id":350,"name":"e_the_cat","steam_id":76561198214264483,"connected_time":184000000000,"state":"active","ping":90},{"user_id":229,"name":"everyrockstar!","steam_id":76561198272094975,"connected_time":9773000000000,"state":"active","ping":87},{"user_id":323,"name":"MonkeyNobody","steam_id":76561199451266605,"connected_time":2416000000000,"state":"active","ping":58},{"user_id":344,"name":"keysopendoors","steam_id":76561198175858151,"connected_time":960000000000,"state":"active","ping":67},{"user_id":351,"name":"cringy","steam_id":76561198323000455,"connected_time":112000000000,"state":"active","ping":69},{"user_id":352,"name":"Don cheedle","steam_id":76561199158308865,"connected_time":30000000000,"state":"active","ping":60},{"user_id":342,"name":"Fang Lopez","steam_id":76561198141800967,"connected_time":1038000000000,"state":"active","ping":59},{"user_id":300,"name":"ShadowZiki","steam_id":76561198145930013,"connected_time":5953000000000,"state":"active","ping":47},{"user_id":343,"name":"blekk","steam_id":76561198000082101,"connected_time":1027000000000,"state":"active","ping":76},{"user_id":336,"name":"dodecadron","steam_id":76561198027397222,"connected_time":1770000000000,"state":"active","ping":90},{"user_id":346,"name":"FlapJack","steam_id":76561198269229644,"connected_time":394000000000,"state":"active","ping":163}]},{"server_id":25,"name":"Uncletopia | Los Angeles | 4 | Stopwatch Beta","name_short":"lax-4","host":"lax-1.us.uncletopia.com","port":27045,"enabled":true,"region":"us-west","cc":"us","latitude":33.94279,"longitude":-118.41004,"reserved":0,"last_update":"0001-01-01T00:00:00Z","name_a2s":"Uncletopia | Los Angeles | 4 | Stopwatch Beta","protocol":17,"map":"pl_swiftwater_final1","folder":"tf","game":"Team Fortress","app_id":440,"player_count":0,"max_players":24,"Bots":0,"server_type":"Dedicated","server_os":"Linux","password":true,"vac":true,"version":"7757534","steam_id":85568392924510199,"keywords":["nocrits","nodmgspread","payload","uncletopia"],"game_id":440,"stv_port":27046,"stv_name":"Uncletopia | Los Angeles | 4 | Stopwatch Beta | STV","players":null},{"server_id":11,"name":"Uncletopia | London | 1 | All Maps","name_short":"lon-1","host":"lon-1.uk.uncletopia.com","port":27015,"enabled":true,"region":"eu","cc":"gb","latitude":51.509865,"longitude":-0.118092,"reserved":0,"last_update":"0001-01-01T00:00:00Z","name_a2s":"Uncletopia | London | 1 | All Maps","protocol":17,"map":"pl_pier","folder":"tf","game":"Team Fortress","app_id":440,"player_count":14,"max_players":24,"Bots":0,"server_type":"Dedicated","server_os":"Linux","password":true,"vac":true,"version":"7757534","steam_id":85568392924367362,"keywords":["nocrits","nodmgspread","payload","uncletopia"],"game_id":440,"stv_port":27016,"stv_name":"Uncletopia | London | 1 | All Maps | STV","players":[{"user_id":33,"name":"r0la","steam_id":76561198128315340,"connected_time":1543000000000,"state":"active","ping":75},{"user_id":34,"name":"ja","steam_id":76561199228540618,"connected_time":1472000000000,"state":"active","ping":86},{"user_id":47,"name":"Arti","steam_id":76561197983352845,"connected_time":617000000000,"state":"active","ping":45},{"user_id":46,"name":"sriracha..","steam_id":76561198005560221,"connected_time":774000000000,"state":"active","ping":74},{"user_id":7,"name":"B.batt","steam_id":76561198998684199,"connected_time":3425000000000,"state":"active","ping":134},{"user_id":37,"name":"Rage spell","steam_id":76561198279952779,"connected_time":1151000000000,"state":"active","ping":142},{"user_id":48,"name":"worm","steam_id":76561198296497176,"connected_time":579000000000,"state":"active","ping":46},{"user_id":39,"name":"minn","steam_id":76561198099101232,"connected_time":1112000000000,"state":"active","ping":56},{"user_id":40,"name":"Shynii","steam_id":76561198194682105,"connected_time":1061000000000,"state":"active","ping":60},{"user_id":41,"name":"челкарь против ш\ufffd","steam_id":76561199149307190,"connected_time":1017000000000,"state":"active","ping":76},{"user_id":42,"name":"Lyncurion","steam_id":76561199260022725,"connected_time":990000000000,"state":"active","ping":84},{"user_id":44,"name":"TeaFlavouredCoffee","steam_id":76561198925306032,"connected_time":878000000000,"state":"active","ping":73},{"user_id":50,"name":"Jango","steam_id":76561199385350969,"connected_time":397000000000,"state":"active","ping":47},{"user_id":24,"name":"Труп Володя","steam_id":76561198035718457,"connected_time":3008000000000,"state":"active","ping":87}]},{"server_id":114,"name":"Uncletopia | London | 2 | All Maps","name_short":"lon-2","host":"lon-1.uk.uncletopia.com","port":27025,"enabled":true,"region":"eu","cc":"gb","latitude":51.509865,"longitude":-0.118092,"reserved":0,"last_update":"0001-01-01T00:00:00Z","name_a2s":"Uncletopia | London | 2 | All Maps","protocol":17,"map":"koth_viaduct","folder":"tf","game":"Team Fortress","app_id":440,"player_count":0,"max_players":24,"Bots":0,"server_type":"Dedicated","server_os":"Linux","password":true,"vac":true,"version":"7757534","steam_id":85568392924470941,"keywords":["cp","nocrits","nodmgspread","uncletopia"],"game_id":440,"stv_port":27026,"stv_name":"Uncletopia | London | 2 | All Maps | STV","players":null},{"server_id":320,"name":"Uncletopia | London | 3 | All Maps","name_short":"lon-3","host":"lon-1.uk.uncletopia.com","port":27035,"enabled":true,"region":"eu","cc":"gb","latitude":51.509865,"longitude":-0.118092,"reserved":0,"last_update":"0001-01-01T00:00:00Z","name_a2s":"Uncletopia | London | 3 | All Maps","protocol":17,"map":"cp_dustbowl","folder":"tf","game":"Team Fortress","app_id":440,"player_count":0,"max_players":24,"Bots":0,"server_type":"Dedicated","server_os":"Linux","password":true,"vac":true,"version":"7757534","steam_id":85568392924510192,"keywords":["cp","nocrits","nodmgspread","uncletopia"],"game_id":440,"stv_port":27036,"stv_name":"Uncletopia | London | 3 | All Maps | STV","players":null},{"server_id":321,"name":"Uncletopia | London | 4 | All Maps","name_short":"lon-4","host":"lon-1.uk.uncletopia.com","port":27045,"enabled":true,"region":"eu","cc":"gb","latitude":51.509865,"longitude":-0.118092,"reserved":0,"last_update":"0001-01-01T00:00:00Z","name_a2s":"Uncletopia | London | 4 | All Maps","protocol":17,"map":"cp_dustbowl","folder":"tf","game":"Team Fortress","app_id":440,"player_count":0,"max_players":24,"Bots":0,"server_type":"Dedicated","server_os":"Linux","password":true,"vac":true,"version":"7757534","steam_id":85568392924510193,"keywords":["cp","nocrits","nodmgspread","uncletopia"],"game_id":440,"stv_port":27046,"stv_name":"Uncletopia | London | 4 | All Maps | STV","players":null},{"server_id":21,"name":"Uncletopia | London | 5 | All Maps","name_short":"lon-5","host":"lon-1.uk.uncletopia.com","port":27055,"enabled":true,"region":"eu","cc":"gb","latitude":51.509865,"longitude":-0.118092,"reserved":0,"last_update":"0001-01-01T00:00:00Z","name_a2s":"Uncletopia | London | 5 | All Maps","protocol":17,"map":"cp_altitude","folder":"tf","game":"Team Fortress","app_id":440,"player_count":0,"max_players":24,"Bots":0,"server_type":"Dedicated","server_os":"Linux","password":true,"vac":true,"version":"7757534","steam_id":85568392924742829,"keywords":["cp","nocrits","nodmgspread","uncletopia"],"game_id":440,"stv_port":27056,"stv_name":"Uncletopia | London | 5 | All Maps | STV","players":null},{"server_id":22,"name":"Uncletopia | London | 6 | All Maps","name_short":"lon-6","host":"lon-1.uk.uncletopia.com","port":27065,"enabled":true,"region":"eu","cc":"gb","latitude":51.509865,"longitude":-0.118092,"reserved":0,"last_update":"0001-01-01T00:00:00Z","name_a2s":"Uncletopia | London | 6 | All Maps","protocol":17,"map":"cp_mountainlab","folder":"tf","game":"Team Fortress","app_id":440,"player_count":0,"max_players":24,"Bots":0,"server_type":"Dedicated","server_os":"Linux","password":true,"vac":true,"version":"7757534","steam_id":85568392924742830,"keywords":["cp","nocrits","nodmgspread","uncletopia"],"game_id":440,"stv_port":27066,"stv_name":"Uncletopia | London | 6 | All Maps | STV","players":null},{"server_id":40,"name":"Uncletopia | London | 7 | No Payload","name_short":"lon-7","host":"lon-1.uk.uncletopia.com","port":27075,"enabled":true,"region":"eu","cc":"gb","latitude":51.509865,"longitude":-0.118092,"reserved":0,"last_update":"0001-01-01T00:00:00Z","name_a2s":"Uncletopia | London | 7 | No Payload","protocol":17,"map":"pl_badwater","folder":"tf","game":"Team Fortress","app_id":440,"player_count":0,"max_players":24,"Bots":0,"server_type":"Dedicated","server_os":"Linux","password":true,"vac":true,"version":"7757534","steam_id":85568392924964314,"keywords":["nocrits","nodmgspread","payload","uncletopia"],"game_id":440,"stv_port":27076,"stv_name":"Uncletopia | London | 7 | No Payload | STV","players":null},{"server_id":41,"name":"Uncletopia | London | 8 | Community","name_short":"lon-8","host":"lon-1.uk.uncletopia.com","port":27085,"enabled":true,"region":"eu","cc":"gb","latitude":51.509865,"longitude":-0.118092,"reserved":0,"last_update":"0001-01-01T00:00:00Z","name_a2s":"Uncletopia | London | 8 | Community","protocol":17,"map":"pl_barnblitz","folder":"tf","game":"Team Fortress","app_id":440,"player_count":0,"max_players":24,"Bots":0,"server_type":"Dedicated","server_os":"Linux","password":true,"vac":true,"version":"7757534","steam_id":85568392924964315,"keywords":["nocrits","nodmgspread","payload","uncletopia"],"game_id":440,"stv_port":27086,"stv_name":"Uncletopia | London | 8 | Community | STV","players":null},{"server_id":300,"name":"Uncletopia | Montréal | 1 | All Maps","name_short":"mtl-1","host":"mtl-1.ca.uncletopia.com","port":27015,"enabled":true,"region":"us-east","cc":"ca","latitude":45.50889,"longitude":-73.56167,"reserved":0,"last_update":"0001-01-01T00:00:00Z","name_a2s":"Uncletopia | Montréal | 1 | All Maps","protocol":17,"map":"koth_viaduct","folder":"tf","game":"Team Fortress","app_id":440,"player_count":0,"max_players":24,"Bots":0,"server_type":"Dedicated","server_os":"Linux","password":true,"vac":true,"version":"7757534","steam_id":85568392924500087,"keywords":["cp","nocrits","nodmgspread","uncletopia"],"game_id":440,"stv_port":27016,"stv_name":"Uncletopia | Montréal | 1 | All Maps | STV","players":null},{"server_id":301,"name":"Uncletopia | Montréal | 2 | All Maps","name_short":"mtl-2","host":"mtl-1.ca.uncletopia.com","port":27025,"enabled":true,"region":"us-east","cc":"ca","latitude":45.50889,"longitude":-73.56167,"reserved":0,"last_update":"0001-01-01T00:00:00Z","name_a2s":"Uncletopia | Montréal | 2 | All Maps","protocol":17,"map":"koth_lakeside_final","folder":"tf","game":"Team Fortress","app_id":440,"player_count":0,"max_players":24,"Bots":0,"server_type":"Dedicated","server_os":"Linux","password":true,"vac":true,"version":"7757534","steam_id":85568392924500088,"keywords":["cp","nocrits","nodmgspread","uncletopia"],"game_id":440,"stv_port":27026,"stv_name":"Uncletopia | Montréal | 2 | All Maps | STV","players":null},{"server_id":302,"name":"Uncletopia | Montréal | 3 | All Maps","name_short":"mtl-3","host":"mtl-1.ca.uncletopia.com","port":27035,"enabled":true,"region":"us-east","cc":"ca","latitude":45.50889,"longitude":-73.56167,"reserved":0,"last_update":"0001-01-01T00:00:00Z","name_a2s":"Uncletopia | Montréal | 3 | All Maps","protocol":17,"map":"cp_dustbowl","folder":"tf","game":"Team Fortress","app_id":440,"player_count":8,"max_players":24,"Bots":0,"server_type":"Dedicated","server_os":"Linux","password":true,"vac":true,"version":"7757534","steam_id":85568392924500089,"keywords":["cp","nocrits","nodmgspread","uncletopia"],"game_id":440,"stv_port":27036,"stv_name":"Uncletopia | Montréal | 3 | All Maps | STV","players":[{"user_id":61,"name":"Tuzakci","steam_id":76561198438587196,"connected_time":3781000000000,"state":"active","ping":72},{"user_id":62,"name":"thebigannoyance","steam_id":76561198851604387,"connected_time":3777000000000,"state":"active","ping":60},{"user_id":63,"name":"kriglar","steam_id":76561198346652267,"connected_time":3717000000000,"state":"active","ping":76},{"user_id":64,"name":"Gwingoid44","steam_id":76561199017907100,"connected_time":3705000000000,"state":"active","ping":99},{"user_id":65,"name":"Fordon Greeman","steam_id":76561198836045143,"connected_time":3683000000000,"state":"active","ping":71},{"user_id":66,"name":"dtjauch","steam_id":76561198152364093,"connected_time":3482000000000,"state":"active","ping":69},{"user_id":67,"name":"goldgardian","steam_id":76561198319471339,"connected_time":3002000000000,"state":"active","ping":76},{"user_id":83,"name":"mcgram2","steam_id":76561199121850792,"connected_time":383000000000,"state":"active","ping":81}]},{"server_id":303,"name":"Uncletopia | Montréal | 4 | No Payload","name_short":"mtl-4","host":"mtl-1.ca.uncletopia.com","port":27045,"enabled":true,"region":"us-east","cc":"ca","latitude":45.50889,"longitude":-73.56167,"reserved":0,"last_update":"0001-01-01T00:00:00Z","name_a2s":"Uncletopia | Montréal | 4 | No Payload","protocol":17,"map":"cp_mercenarypark","folder":"tf","game":"Team Fortress","app_id":440,"player_count":0,"max_players":24,"Bots":0,"server_type":"Dedicated","server_os":"Linux","password":true,"vac":true,"version":"7757534","steam_id":85568392924500090,"keywords":["cp","nocrits","nodmgspread","uncletopia"],"game_id":440,"stv_port":27046,"stv_name":"Uncletopia | Montréal | 4 | No Payload | STV","players":null},{"server_id":13,"name":"Uncletopia | New York City | 1 | All Maps","name_short":"nyc-1","host":"nyc-1.us.uncletopia.com","port":27015,"enabled":true,"region":"us-east","cc":"us","latitude":40.73061,"longitude":-73.93524,"reserved":0,"last_update":"0001-01-01T00:00:00Z","name_a2s":"Uncletopia | New York City | 1 | All Maps","protocol":17,"map":"cp_sunshine","folder":"tf","game":"Team Fortress","app_id":440,"player_count":0,"max_players":24,"Bots":0,"server_type":"Dedicated","server_os":"Linux","password":true,"vac":true,"version":"7757534","steam_id":85568392924469993,"keywords":["cp","nocrits","nodmgspread","uncletopia"],"game_id":440,"stv_port":27016,"stv_name":"Uncletopia | New York City | 1 | All Maps | STV","players":null},{"server_id":14,"name":"Uncletopia | New York City | 2 | All Maps","name_short":"nyc-2","host":"nyc-1.us.uncletopia.com","port":27025,"enabled":true,"region":"us-east","cc":"us","latitude":40.73061,"longitude":-73.93524,"reserved":0,"last_update":"0001-01-01T00:00:00Z","name_a2s":"Uncletopia | New York City | 2 | All Maps","protocol":17,"map":"cp_process_final","folder":"tf","game":"Team Fortress","app_id":440,"player_count":24,"max_players":24,"Bots":0,"server_type":"Dedicated","server_os":"Linux","password":true,"vac":true,"version":"7757534","steam_id":85568392924469994,"keywords":["cp","nocrits","nodmgspread","uncletopia"],"game_id":440,"stv_port":27026,"stv_name":"Uncletopia | New York City | 2 | All Maps | STV","players":[{"user_id":1031,"name":"AssaultSandwich","steam_id":76561198070568827,"connected_time":1661000000000,"state":"active","ping":72},{"user_id":991,"name":"Inferno Shadowclaw","steam_id":76561198044505696,"connected_time":4273000000000,"state":"active","ping":129},{"user_id":1041,"name":"SippinTeaInYoHood","steam_id":76561198310944756,"connected_time":1071000000000,"state":"active","ping":48},{"user_id":1030,"name":"Inattentive Sorcerer","steam_id":76561198062370413,"connected_time":1751000000000,"state":"active","ping":71},{"user_id":1007,"name":"Eden","steam_id":76561198075587475,"connected_time":3502000000000,"state":"active","ping":58},{"user_id":1029,"name":"Wique","steam_id":76561198071217597,"connected_time":1767000000000,"state":"active","ping":71},{"user_id":1021,"name":"Zeek","steam_id":76561197987204351,"connected_time":2839000000000,"state":"active","ping":45},{"user_id":988,"name":"kenoTetra","steam_id":76561197995247977,"connected_time":4344000000000,"state":"active","ping":112},{"user_id":989,"name":"Vapor","steam_id":76561198185606142,"connected_time":4337000000000,"state":"active","ping":54},{"user_id":1043,"name":"Swole Jesus","steam_id":76561199085545225,"connected_time":527000000000,"state":"active","ping":36},{"user_id":1033,"name":"Rising","steam_id":76561198135418411,"connected_time":1653000000000,"state":"active","ping":107},{"user_id":1001,"name":"Fox Milk","steam_id":76561198004652591,"connected_time":3776000000000,"state":"active","ping":105},{"user_id":1020,"name":"Lobotomized By Cyanide","steam_id":76561199102542822,"connected_time":2949000000000,"state":"active","ping":81},{"user_id":1002,"name":"Revolver Octorok","steam_id":76561197995255362,"connected_time":3773000000000,"state":"active","ping":118},{"user_id":1034,"name":"bungo","steam_id":76561198065145850,"connected_time":1613000000000,"state":"active","ping":73},{"user_id":1035,"name":"Yonsi","steam_id":76561198047613858,"connected_time":1602000000000,"state":"active","ping":89},{"user_id":1042,"name":"joyboy","steam_id":76561198400381132,"connected_time":743000000000,"state":"active","ping":46},{"user_id":1045,"name":"Eden Hazard","steam_id":76561198089241053,"connected_time":271000000000,"state":"active","ping":43},{"user_id":1046,"name":"Bread Makes you Fat","steam_id":76561198985126532,"connected_time":268000000000,"state":"active","ping":56},{"user_id":1044,"name":"gods drunkest driver","steam_id":76561198293857963,"connected_time":504000000000,"state":"active","ping":131},{"user_id":1025,"name":"CFGU || RAWRWAFL","steam_id":76561198032118386,"connected_time":2612000000000,"state":"active","ping":96},{"user_id":1022,"name":"craven","steam_id":76561198088191503,"connected_time":2816000000000,"state":"active","ping":69},{"user_id":1018,"name":"Fiendish Frog","steam_id":76561198029478821,"connected_time":3182000000000,"state":"active","ping":59},{"user_id":1036,"name":"PeachFlavoredBleach","steam_id":76561198116226449,"connected_time":1592000000000,"state":"active","ping":53}]},{"server_id":15,"name":"Uncletopia | New York City | 3 | Stopwatch Beta","name_short":"nyc-3","host":"nyc-1.us.uncletopia.com","port":27035,"enabled":true,"region":"us-east","cc":"us","latitude":40.73061,"longitude":-73.93524,"reserved":0,"last_update":"0001-01-01T00:00:00Z","name_a2s":"Uncletopia | New York City | 3 | Stopwatch Beta","protocol":17,"map":"pl_upward","folder":"tf","game":"Team Fortress","app_id":440,"player_count":0,"max_players":24,"Bots":0,"server_type":"Dedicated","server_os":"Linux","password":true,"vac":true,"version":"7757534","steam_id":85568392924742820,"keywords":["nocrits","nodmgspread","payload","uncletopia"],"game_id":440,"stv_port":27036,"stv_name":"Uncletopia | New York City | 3 | Stopwatch Beta | STV","players":null},{"server_id":16,"name":"Uncletopia | New York City | 4 | Community","name_short":"nyc-4","host":"nyc-1.us.uncletopia.com","port":27045,"enabled":true,"region":"us-east","cc":"us","latitude":40.73061,"longitude":-73.93524,"reserved":0,"last_update":"0001-01-01T00:00:00Z","name_a2s":"Uncletopia | New York City | 4 | Community","protocol":17,"map":"workshop/cp_fulgur_rc2a.ugc2068252300","folder":"tf","game":"Team Fortress","app_id":440,"player_count":0,"max_players":24,"Bots":0,"server_type":"Dedicated","server_os":"Linux","password":true,"vac":true,"version":"7757534","steam_id":85568392924742821,"keywords":["cp","nocrits","nodmgspread","uncletopia"],"game_id":440,"stv_port":27046,"stv_name":"Uncletopia | New York City | 4 | Community | STV","players":null},{"server_id":142,"name":"Uncletopia | São Paulo | 1 | All Maps","name_short":"sao-1","host":"sao-1.br.uncletopia.com","port":27015,"enabled":true,"region":"sa","cc":"br","latitude":-23.533773,"longitude":-46.62529,"reserved":0,"last_update":"0001-01-01T00:00:00Z","name_a2s":"Uncletopia | São Paulo | 1 | All Maps","protocol":17,"map":"pl_borneo","folder":"tf","game":"Team Fortress","app_id":440,"player_count":0,"max_players":24,"Bots":0,"server_type":"Dedicated","server_os":"Linux","password":true,"vac":true,"version":"7757534","steam_id":85568392924469996,"keywords":["nocrits","nodmgspread","payload","uncletopia"],"game_id":440,"stv_port":27016,"stv_name":"Uncletopia | São Paulo | 1 | All Maps | STV","players":null},{"server_id":143,"name":"Uncletopia | São Paulo | 2 | All Maps","name_short":"sao-2","host":"sao-2.br.uncletopia.com","port":27015,"enabled":true,"region":"sa","cc":"br","latitude":-23.533773,"longitude":-46.62529,"reserved":0,"last_update":"0001-01-01T00:00:00Z","name_a2s":"Uncletopia | São Paulo | 2 | All Maps","protocol":17,"map":"koth_viaduct","folder":"tf","game":"Team Fortress","app_id":440,"player_count":0,"max_players":24,"Bots":0,"server_type":"Dedicated","server_os":"Linux","password":true,"vac":true,"version":"7757534","steam_id":85568392924485349,"keywords":["cp","nocrits","nodmgspread","uncletopia"],"game_id":440,"stv_port":27016,"stv_name":"Uncletopia | São Paulo | 2 | All Maps | STV","players":null},{"server_id":7,"name":"Uncletopia | Seattle | 1 | All Maps","name_short":"sea-1","host":"sea-1.us.uncletopia.com","port":27015,"enabled":true,"region":"us-west","cc":"us","latitude":47.608013,"longitude":-122.33517,"reserved":0,"last_update":"0001-01-01T00:00:00Z","name_a2s":"Uncletopia | Seattle | 1 | All Maps","protocol":17,"map":"koth_harvest_final","folder":"tf","game":"Team Fortress","app_id":440,"player_count":23,"max_players":24,"Bots":0,"server_type":"Dedicated","server_os":"Linux","password":true,"vac":true,"version":"7757534","steam_id":85568392924469997,"keywords":["cp","nocrits","nodmgspread","uncletopia"],"game_id":440,"stv_port":27016,"stv_name":"Uncletopia | Seattle | 1 | All Maps | STV","players":[{"user_id":585,"name":"zaza addict","steam_id":76561198202982780,"connected_time":562000000000,"state":"active","ping":125},{"user_id":589,"name":"shy guy","steam_id":76561198151246059,"connected_time":196000000000,"state":"active","ping":62},{"user_id":540,"name":"Qas","steam_id":76561198067564482,"connected_time":4136000000000,"state":"active","ping":85},{"user_id":515,"name":"lili ezili","steam_id":76561199391478575,"connected_time":7147000000000,"state":"active","ping":75},{"user_id":577,"name":"dimpled","steam_id":76561197983120236,"connected_time":972000000000,"state":"active","ping":56},{"user_id":582,"name":"amagicowl","steam_id":76561199060487814,"connected_time":940000000000,"state":"active","ping":62},{"user_id":508,"name":"glue eater","steam_id":76561198210322871,"connected_time":7513000000000,"state":"active","ping":77},{"user_id":565,"name":"Syn","steam_id":76561199454661432,"connected_time":1826000000000,"state":"active","ping":82},{"user_id":587,"name":"John Smith","steam_id":76561198185776555,"connected_time":465000000000,"state":"active","ping":33},{"user_id":583,"name":"whistle","steam_id":76561198258304736,"connected_time":646000000000,"state":"active","ping":75},{"user_id":569,"name":"Buzz Buzz","steam_id":76561198294101501,"connected_time":1532000000000,"state":"active","ping":82},{"user_id":573,"name":"squilith","steam_id":76561198134923092,"connected_time":1212000000000,"state":"active","ping":73},{"user_id":546,"name":"Snippykeegan","steam_id":76561198274529343,"connected_time":3789000000000,"state":"active","ping":73},{"user_id":584,"name":"mentos14","steam_id":76561198097993629,"connected_time":626000000000,"state":"active","ping":84},{"user_id":570,"name":"MyMonkeyBaby","steam_id":76561198046896670,"connected_time":1505000000000,"state":"active","ping":57},{"user_id":556,"name":"Full Metal Pizza","steam_id":76561198342130853,"connected_time":2162000000000,"state":"active","ping":69},{"user_id":574,"name":"Burton","steam_id":76561198120798402,"connected_time":1198000000000,"state":"active","ping":74},{"user_id":576,"name":"gazoig","steam_id":76561199041519004,"connected_time":1098000000000,"state":"active","ping":70},{"user_id":586,"name":"doopsies","steam_id":76561198083000867,"connected_time":531000000000,"state":"active","ping":52},{"user_id":590,"name":"Starpillow ♡","steam_id":76561198095034817,"connected_time":183000000000,"state":"active","ping":51},{"user_id":591,"name":"Retesaurus","steam_id":76561198045189319,"connected_time":140000000000,"state":"active","ping":54},{"user_id":514,"name":"Bendidy","steam_id":76561198041964300,"connected_time":7380000000000,"state":"active","ping":76},{"user_id":580,"name":"alaska","steam_id":76561198017030029,"connected_time":969000000000,"state":"active","ping":71}]},{"server_id":119,"name":"Uncletopia | Seattle | 2 | All Maps","name_short":"sea-2","host":"sea-1.us.uncletopia.com","port":27025,"enabled":true,"region":"us-west","cc":"us","latitude":47.608013,"longitude":-122.33517,"reserved":0,"last_update":"0001-01-01T00:00:00Z","name_a2s":"Uncletopia | Seattle | 2 | All Maps","protocol":17,"map":"koth_harvest_final","folder":"tf","game":"Team Fortress","app_id":440,"player_count":24,"max_players":24,"Bots":0,"server_type":"Dedicated","server_os":"Linux","password":true,"vac":true,"version":"7757534","steam_id":85568392924469998,"keywords":["cp","nocrits","nodmgspread","uncletopia"],"game_id":440,"stv_port":27026,"stv_name":"Uncletopia | Seattle | 2 | All Maps | STV","players":[{"user_id":796,"name":"DumHammer6694","steam_id":76561199383893297,"connected_time":842000000000,"state":"active","ping":75},{"user_id":756,"name":"she skyler on my white till i y","steam_id":76561198074716338,"connected_time":4710000000000,"state":"active","ping":70},{"user_id":781,"name":"Superbacon24","steam_id":76561198121223443,"connected_time":1978000000000,"state":"active","ping":61},{"user_id":787,"name":"THE_DARK_TRICKSTER","steam_id":76561198870649125,"connected_time":1596000000000,"state":"active","ping":72},{"user_id":797,"name":"Wafflemuscle","steam_id":76561198868628982,"connected_time":789000000000,"state":"active","ping":52},{"user_id":779,"name":"Korbi.","steam_id":76561198355711373,"connected_time":2349000000000,"state":"active","ping":60},{"user_id":754,"name":"MisterManne","steam_id":76561198106598600,"connected_time":4904000000000,"state":"active","ping":53},{"user_id":784,"name":"Ghoulbreath","steam_id":76561198062517442,"connected_time":1723000000000,"state":"active","ping":86},{"user_id":771,"name":"percyjackoff69","steam_id":76561198298005217,"connected_time":3112000000000,"state":"active","ping":48},{"user_id":785,"name":"[Colorbomb]","steam_id":76561198006316527,"connected_time":1717000000000,"state":"active","ping":86},{"user_id":767,"name":"gorlab","steam_id":76561198025089694,"connected_time":3446000000000,"state":"active","ping":60},{"user_id":798,"name":"HetchHetchy","steam_id":76561198128125728,"connected_time":751000000000,"state":"active","ping":75},{"user_id":786,"name":"Misty Blu ✿","steam_id":76561198011442255,"connected_time":1703000000000,"state":"active","ping":75},{"user_id":799,"name":"𝓡𝔂𝓪𝓷","steam_id":76561198067641129,"connected_time":739000000000,"state":"active","ping":53},{"user_id":769,"name":"William P. Ennis","steam_id":76561198073464877,"connected_time":3288000000000,"state":"active","ping":99},{"user_id":800,"name":"benji","steam_id":76561198084417967,"connected_time":725000000000,"state":"active","ping":68},{"user_id":790,"name":"Salmon","steam_id":76561198285883040,"connected_time":1412000000000,"state":"active","ping":56},{"user_id":791,"name":"CheeseCake488","steam_id":76561199407617942,"connected_time":1367000000000,"state":"active","ping":199},{"user_id":778,"name":"Morago","steam_id":76561198131466634,"connected_time":2473000000000,"state":"active","ping":155},{"user_id":792,"name":"CashBin","steam_id":76561199382865598,"connected_time":1365000000000,"state":"active","ping":102},{"user_id":775,"name":"wmjledger","steam_id":76561198443046861,"connected_time":2655000000000,"state":"active","ping":60},{"user_id":801,"name":"Agent Mania","steam_id":76561198029741272,"connected_time":658000000000,"state":"active","ping":80},{"user_id":793,"name":"teh mummy","steam_id":76561198044123636,"connected_time":1348000000000,"state":"active","ping":68},{"user_id":802,"name":"Grill Skills","steam_id":76561198053575147,"connected_time":650000000000,"state":"active","ping":65}]},{"server_id":406,"name":"Uncletopia | Seattle | 3 | Stopwatch Beta","name_short":"sea-3","host":"sea-1.us.uncletopia.com","port":27035,"enabled":true,"region":"us-west","cc":"us","latitude":47.608013,"longitude":-122.33517,"reserved":0,"last_update":"0001-01-01T00:00:00Z","name_a2s":"Uncletopia | Seattle | 3 | Stopwatch Beta","protocol":17,"map":"workshop/pl_summercoast_rc8e.ugc1761528829","folder":"tf","game":"Team Fortress","app_id":440,"player_count":0,"max_players":24,"Bots":0,"server_type":"Dedicated","server_os":"Linux","password":true,"vac":true,"version":"7757534","steam_id":85568392924515217,"keywords":["nocrits","nodmgspread","payload","uncletopia"],"game_id":440,"stv_port":27036,"stv_name":"Uncletopia | Seattle | 3 | Stopwatch Beta | STV","players":null},{"server_id":17,"name":"Uncletopia | San Francisco | 1 | All Maps","name_short":"sfo-1","host":"sfo-1.us.uncletopia.com","port":27015,"enabled":true,"region":"us-west","cc":"us","latitude":37.77397,"longitude":-122.4313,"reserved":0,"last_update":"0001-01-01T00:00:00Z","name_a2s":"Uncletopia | San Francisco | 1 | All Maps","protocol":17,"map":"pl_borneo","folder":"tf","game":"Team Fortress","app_id":440,"player_count":24,"max_players":24,"Bots":0,"server_type":"Dedicated","server_os":"Linux","password":true,"vac":true,"version":"7757534","steam_id":85568392924469999,"keywords":["nocrits","nodmgspread","payload","uncletopia"],"game_id":440,"stv_port":27016,"stv_name":"Uncletopia | San Francisco | 1 | All Maps | STV","players":[{"user_id":565,"name":"rorywashere /ᐠ - ˕ -マ Ⳋ","steam_id":76561198065825165,"connected_time":2261000000000,"state":"active","ping":118},{"user_id":598,"name":"Ian","steam_id":76561198159334435,"connected_time":161000000000,"state":"active","ping":167},{"user_id":566,"name":"DNBlue","steam_id":76561198133816886,"connected_time":2181000000000,"state":"active","ping":87},{"user_id":546,"name":"squash","steam_id":76561198150281353,"connected_time":3620000000000,"state":"active","ping":72},{"user_id":547,"name":"anipe10","steam_id":76561199084698417,"connected_time":3603000000000,"state":"active","ping":74},{"user_id":602,"name":"MasterCrafter27","steam_id":76561198151035981,"connected_time":8000000000,"state":"spawning","ping":74},{"user_id":567,"name":"Frank","steam_id":76561198126681511,"connected_time":2176000000000,"state":"active","ping":58},{"user_id":595,"name":"t","steam_id":76561198175988929,"connected_time":521000000000,"state":"active","ping":70},{"user_id":568,"name":"the stallion","steam_id":76561198212242403,"connected_time":2170000000000,"state":"active","ping":50},{"user_id":576,"name":"Seal","steam_id":76561198043985619,"connected_time":1617000000000,"state":"active","ping":121},{"user_id":548,"name":"The Foolish Samurai","steam_id":76561198094494945,"connected_time":3601000000000,"state":"active","ping":73},{"user_id":579,"name":"Constipated Barry","steam_id":76561198004482269,"connected_time":1524000000000,"state":"active","ping":36},{"user_id":585,"name":"bad spy player","steam_id":76561198873699671,"connected_time":880000000000,"state":"active","ping":59},{"user_id":586,"name":"Gay Loogi Gang","steam_id":76561198097031529,"connected_time":833000000000,"state":"active","ping":87},{"user_id":570,"name":"bengy","steam_id":76561198264288798,"connected_time":2160000000000,"state":"active","ping":64},{"user_id":581,"name":"One Horned Bitch Destroyer","steam_id":76561198045810191,"connected_time":1222000000000,"state":"active","ping":60},{"user_id":537,"name":"I eat a lot of Mac \u0026 Cheese","steam_id":76561197993151595,"connected_time":4800000000000,"state":"active","ping":73},{"user_id":510,"name":"kaede :3","steam_id":76561198345528370,"connected_time":6215000000000,"state":"active","ping":41},{"user_id":601,"name":"❤ Femboy Furry ❤","steam_id":76561198305562516,"connected_time":24000000000,"state":"spawning","ping":213},{"user_id":554,"name":"FuzzToaster","steam_id":76561199201045563,"connected_time":3291000000000,"state":"active","ping":173},{"user_id":587,"name":"cheeeezball","steam_id":76561198086461519,"connected_time":813000000000,"state":"active","ping":50},{"user_id":596,"name":"Psychromaniac","steam_id":76561198012215214,"connected_time":448000000000,"state":"active","ping":82},{"user_id":578,"name":"船尾","steam_id":76561198128764422,"connected_time":1603000000000,"state":"active","ping":58},{"user_id":590,"name":"p9 jorts","steam_id":76561199041179985,"connected_time":782000000000,"state":"active","ping":81}]},{"server_id":18,"name":"Uncletopia | San Francisco | 2 | All Maps","name_short":"sfo-2","host":"sfo-1.us.uncletopia.com","port":27025,"enabled":true,"region":"us-west","cc":"us","latitude":37.77397,"longitude":-122.4313,"reserved":0,"last_update":"0001-01-01T00:00:00Z","name_a2s":"Uncletopia | San Francisco | 2 | All Maps","protocol":17,"map":"ctf_doublecross","folder":"tf","game":"Team Fortress","app_id":440,"player_count":0,"max_players":24,"Bots":0,"server_type":"Dedicated","server_os":"Linux","password":true,"vac":true,"version":"7757534","steam_id":85568392924470000,"keywords":["ctf","nocrits","nodmgspread","uncletopia"],"game_id":440,"stv_port":27026,"stv_name":"Uncletopia | San Francisco | 2 | All Maps | STV","players":null},{"server_id":19,"name":"Uncletopia | San Francisco | 3 | Stopwatch Beta","name_short":"sfo-3","host":"sfo-1.us.uncletopia.com","port":27035,"enabled":true,"region":"us-west","cc":"us","latitude":37.77397,"longitude":-122.4313,"reserved":0,"last_update":"0001-01-01T00:00:00Z","name_a2s":"Uncletopia | San Francisco | 3 | Stopwatch Beta","protocol":17,"map":"koth_highpass","folder":"tf","game":"Team Fortress","app_id":440,"player_count":0,"max_players":24,"Bots":0,"server_type":"Dedicated","server_os":"Linux","password":true,"vac":true,"version":"7757534","steam_id":85568392924742824,"keywords":["cp","nocrits","nodmgspread","uncletopia"],"game_id":440,"stv_port":27036,"stv_name":"Uncletopia | San Francisco | 3 | Stopwatch Beta | STV","players":null},{"server_id":20,"name":"Uncletopia | San Francisco | 4 | Community","name_short":"sfo-4","host":"sfo-1.us.uncletopia.com","port":27045,"enabled":true,"region":"us-west","cc":"us","latitude":37.77397,"longitude":-122.4313,"reserved":0,"last_update":"0001-01-01T00:00:00Z","name_a2s":"Uncletopia | San Francisco | 4 | Community","protocol":17,"map":"workshop/pl_eruption_b9a.ugc2807898013","folder":"tf","game":"Team Fortress","app_id":440,"player_count":21,"max_players":24,"Bots":0,"server_type":"Dedicated","server_os":"Linux","password":true,"vac":true,"version":"7757534","steam_id":85568392924742826,"keywords":["nocrits","nodmgspread","payload","uncletopia"],"game_id":440,"stv_port":27046,"stv_name":"Uncletopia | San Francisco | 4 | Community | STV","players":[{"user_id":353,"name":"klngy04","steam_id":76561198919427723,"connected_time":1242000000000,"state":"active","ping":63},{"user_id":350,"name":"the verminator","steam_id":76561198828246148,"connected_time":1333000000000,"state":"active","ping":104},{"user_id":352,"name":"Edgey","steam_id":76561198271461309,"connected_time":1310000000000,"state":"active","ping":120},{"user_id":370,"name":"knatspray","steam_id":76561198832507482,"connected_time":92000000000,"state":"active","ping":70},{"user_id":354,"name":"Omar Porkchop","steam_id":76561198106429468,"connected_time":1242000000000,"state":"active","ping":69},{"user_id":371,"name":"Mayxaroni","steam_id":76561198170642041,"connected_time":49000000000,"state":"active","ping":50},{"user_id":332,"name":"Auggy","steam_id":76561198041816037,"connected_time":3524000000000,"state":"active","ping":57},{"user_id":357,"name":"DrPringles","steam_id":76561198808743062,"connected_time":1207000000000,"state":"active","ping":91},{"user_id":372,"name":"Bonks","steam_id":76561198972835565,"connected_time":19000000000,"state":"spawning","ping":142},{"user_id":358,"name":"Ryuujin","steam_id":76561198000897946,"connected_time":1187000000000,"state":"active","ping":89},{"user_id":335,"name":"PinguEnjoyer6","steam_id":76561199186723516,"connected_time":3325000000000,"state":"active","ping":139},{"user_id":373,"name":"Soothsayer","steam_id":76561198051750641,"connected_time":15000000000,"state":"active","ping":66},{"user_id":334,"name":"TheFriendlyGamer","steam_id":76561198117941009,"connected_time":3501000000000,"state":"active","ping":98},{"user_id":331,"name":"gb","steam_id":76561198115960063,"connected_time":3617000000000,"state":"active","ping":115},{"user_id":326,"name":"RIPSO","steam_id":76561198969614037,"connected_time":4047000000000,"state":"active","ping":124},{"user_id":368,"name":"Caber Moment","steam_id":76561198801450794,"connected_time":287000000000,"state":"active","ping":110},{"user_id":374,"name":"Rakk","steam_id":76561198855176174,"connected_time":0,"state":"connecting","ping":0},{"user_id":369,"name":"O_x","steam_id":76561198289696924,"connected_time":287000000000,"state":"active","ping":51},{"user_id":351,"name":"muffinman12126","steam_id":76561199471924109,"connected_time":1331000000000,"state":"active","ping":43},{"user_id":328,"name":"the_fishFactory","steam_id":76561199230137653,"connected_time":4021000000000,"state":"active","ping":78},{"user_id":367,"name":"SpudBrain","steam_id":76561199236708672,"connected_time":458000000000,"state":"active","ping":66}]},{"server_id":141,"name":"Uncletopia | Sydney | 1 | All Maps","name_short":"syd-1","host":"syd-1.au.uncletopia.com","port":27015,"enabled":true,"region":"au","cc":"au","latitude":-33.865143,"longitude":151.2099,"reserved":0,"last_update":"0001-01-01T00:00:00Z","name_a2s":"Uncletopia | Sydney | 1 | All Maps","protocol":17,"map":"cp_sunshine","folder":"tf","game":"Team Fortress","app_id":440,"player_count":0,"max_players":24,"Bots":0,"server_type":"Dedicated","server_os":"Linux","password":true,"vac":true,"version":"7757534","steam_id":85568392924470001,"keywords":["cp","nocrits","nodmgspread","uncletopia"],"game_id":440,"stv_port":27016,"stv_name":"Uncletopia | Sydney | 1 | All Maps | STV","players":null},{"server_id":123,"name":"Uncletopia | Sydney | 2 | All Maps","name_short":"syd-2","host":"syd-1.au.uncletopia.com","port":27025,"enabled":true,"region":"au","cc":"au","latitude":-33.865143,"longitude":151.2099,"reserved":0,"last_update":"0001-01-01T00:00:00Z","name_a2s":"Uncletopia | Sydney | 2 | All Maps","protocol":17,"map":"ctf_doublecross","folder":"tf","game":"Team Fortress","app_id":440,"player_count":0,"max_players":24,"Bots":0,"server_type":"Dedicated","server_os":"Linux","password":true,"vac":true,"version":"7757534","steam_id":85568392924470002,"keywords":["ctf","nocrits","nodmgspread","uncletopia"],"game_id":440,"stv_port":27026,"stv_name":"Uncletopia | Sydney | 2 | All Maps | STV","players":null},{"server_id":395,"name":"Uncletopia | Sydney | 3 | All Maps","name_short":"syd-3","host":"syd-1.au.uncletopia.com","port":27035,"enabled":true,"region":"au","cc":"au","latitude":-33.865143,"longitude":151.2099,"reserved":0,"last_update":"0001-01-01T00:00:00Z","name_a2s":"Uncletopia | Sydney | 3 | All Maps","protocol":17,"map":"cp_altitude","folder":"tf","game":"Team Fortress","app_id":440,"player_count":24,"max_players":24,"Bots":0,"server_type":"Dedicated","server_os":"Linux","password":true,"vac":true,"version":"7757534","steam_id":85568392925194467,"keywords":["cp","nocrits","nodmgspread","uncletopia"],"game_id":440,"stv_port":27036,"stv_name":"Uncletopia | Sydney | 3 | All Maps | STV","players":[{"user_id":124,"name":"slow","steam_id":76561198163340833,"connected_time":1766000000000,"state":"active","ping":52},{"user_id":156,"name":"Morgenstein","steam_id":76561198253080474,"connected_time":462000000000,"state":"active","ping":63},{"user_id":163,"name":"nojnosbod11","steam_id":76561199176012151,"connected_time":215000000000,"state":"active","ping":65},{"user_id":81,"name":"whiteshaq","steam_id":76561198131988811,"connected_time":4903000000000,"state":"active","ping":49},{"user_id":125,"name":"Rashid Of The Dank Memes","steam_id":76561198281398078,"connected_time":1705000000000,"state":"active","ping":63},{"user_id":128,"name":"bobo","steam_id":76561198156622144,"connected_time":1476000000000,"state":"active","ping":59},{"user_id":164,"name":"Tyson919","steam_id":76561199154100346,"connected_time":95000000000,"state":"active","ping":60},{"user_id":134,"name":"Kony","steam_id":76561198838132101,"connected_time":1168000000000,"state":"active","ping":58},{"user_id":138,"name":"HJGuard","steam_id":76561199275636067,"connected_time":1032000000000,"state":"active","ping":61},{"user_id":75,"name":"Jodelkönig Franzl Lang","steam_id":76561198007667830,"connected_time":5399000000000,"state":"active","ping":56},{"user_id":85,"name":"LightningBlock","steam_id":76561198289997742,"connected_time":4538000000000,"state":"active","ping":39},{"user_id":165,"name":"floop flub","steam_id":76561198418968979,"connected_time":9000000000,"state":"active","ping":97},{"user_id":99,"name":"Sherpa","steam_id":76561198018913829,"connected_time":3426000000000,"state":"active","ping":56},{"user_id":154,"name":"horrid creature ᘛ⁐̤ᕐᐷ","steam_id":76561198061998379,"connected_time":505000000000,"state":"active","ping":47},{"user_id":145,"name":"honkybus thruttlebop","steam_id":76561198063481761,"connected_time":794000000000,"state":"active","ping":45},{"user_id":162,"name":"LET THE INTRUSIVE THOUGHTS WIN","steam_id":76561199174449723,"connected_time":295000000000,"state":"active","ping":170},{"user_id":153,"name":"DoN","steam_id":76561199171436009,"connected_time":520000000000,"state":"active","ping":70},{"user_id":102,"name":"blazin_kermit420","steam_id":76561198436397483,"connected_time":3340000000000,"state":"active","ping":39},{"user_id":155,"name":"AmethystDragon10","steam_id":76561198412979983,"connected_time":487000000000,"state":"active","ping":83},{"user_id":160,"name":"E is for Exist","steam_id":76561198133651195,"connected_time":331000000000,"state":"active","ping":74},{"user_id":143,"name":"Rosemary","steam_id":76561198996803743,"connected_time":928000000000,"state":"active","ping":74},{"user_id":148,"name":"DeathEagle シ","steam_id":76561197997644542,"connected_time":765000000000,"state":"active","ping":56},{"user_id":161,"name":"you have been deemed, Gilbert","steam_id":76561198301282416,"connected_time":330000000000,"state":"active","ping":52},{"user_id":152,"name":"Hydraulic Press Gaming","steam_id":76561199396024219,"connected_time":636000000000,"state":"active","ping":58}]},{"server_id":396,"name":"Uncletopia | Sydney | 4 | All Maps","name_short":"syd-4","host":"syd-1.au.uncletopia.com","port":27045,"enabled":true,"region":"au","cc":"au","latitude":-33.865143,"longitude":151.2099,"reserved":0,"last_update":"0001-01-01T00:00:00Z","name_a2s":"Uncletopia | Sydney | 4 | All Maps","protocol":17,"map":"koth_highpass","folder":"tf","game":"Team Fortress","app_id":440,"player_count":0,"max_players":24,"Bots":0,"server_type":"Dedicated","server_os":"Linux","password":true,"vac":true,"version":"7757534","steam_id":85568392925397958,"keywords":["cp","nocrits","nodmgspread","uncletopia"],"game_id":440,"stv_port":27046,"stv_name":"Uncletopia | Sydney | 4 | All Maps | STV","players":null},{"server_id":58,"name":"Uncletopia | Sydney | 5 | Stopwatch Beta","name_short":"syd-5","host":"syd-1.au.uncletopia.com","port":27055,"enabled":true,"region":"au","cc":"au","latitude":-33.865143,"longitude":151.2099,"reserved":0,"last_update":"0001-01-01T00:00:00Z","name_a2s":"Uncletopia | Sydney | 5 | Stopwatch Beta","protocol":17,"map":"pl_upward","folder":"tf","game":"Team Fortress","app_id":440,"player_count":0,"max_players":24,"Bots":0,"server_type":"Dedicated","server_os":"Linux","password":true,"vac":true,"version":"7757534","steam_id":85568392925397959,"keywords":["nocrits","nodmgspread","payload","uncletopia"],"game_id":440,"stv_port":27056,"stv_name":"Uncletopia | Sydney | 5 | Stopwatch Beta | STV","players":null},{"server_id":59,"name":"Uncletopia | Sydney | 6 | Community","name_short":"syd-6","host":"syd-1.au.uncletopia.com","port":27065,"enabled":true,"region":"au","cc":"au","latitude":-33.865143,"longitude":151.2099,"reserved":0,"last_update":"0001-01-01T00:00:00Z","name_a2s":"Uncletopia | Sydney | 6 | Community","protocol":17,"map":"workshop/koth_ashville_final.ugc2130459942","folder":"tf","game":"Team Fortress","app_id":440,"player_count":0,"max_players":24,"Bots":0,"server_type":"Dedicated","server_os":"Linux","password":true,"vac":true,"version":"7757534","steam_id":85568392925397960,"keywords":["cp","nocrits","nodmgspread","uncletopia"],"game_id":440,"stv_port":27066,"stv_name":"Uncletopia | Sydney | 6 | Community | STV","players":null},{"server_id":49,"name":"Uncletopia | Warsaw | 1 | All Maps","name_short":"waw-1","host":"waw-1.pl.uncletopia.com","port":27015,"enabled":true,"region":"eu","cc":"pl","latitude":52.2297,"longitude":21.017532,"reserved":0,"last_update":"0001-01-01T00:00:00Z","name_a2s":"","protocol":0,"map":"","folder":"","game":"","app_id":0,"player_count":0,"max_players":0,"Bots":0,"server_type":"","server_os":"","password":false,"vac":false,"version":"","steam_id":0,"keywords":null,"game_id":0,"stv_port":0,"stv_name":"","players":null},{"server_id":50,"name":"Uncletopia | Warsaw | 2 | All Maps","name_short":"waw-2","host":"waw-1.pl.uncletopia.com","port":27025,"enabled":true,"region":"eu","cc":"pl","latitude":52.2297,"longitude":21.017532,"reserved":0,"last_update":"0001-01-01T00:00:00Z","name_a2s":"Uncletopia | Warsaw | 2 | All Maps","protocol":17,"map":"koth_viaduct","folder":"tf","game":"Team Fortress","app_id":440,"player_count":0,"max_players":24,"Bots":0,"server_type":"Dedicated","server_os":"Linux","password":true,"vac":true,"version":"7757534","steam_id":85568392925397851,"keywords":["cp","nocrits","nodmgspread","uncletopia"],"game_id":440,"stv_port":27026,"stv_name":"Uncletopia | Warsaw | 2 | All Maps | STV","players":null},{"server_id":51,"name":"Uncletopia | Warsaw | 3 | All Maps","name_short":"waw-3","host":"waw-1.pl.uncletopia.com","port":27035,"enabled":true,"region":"eu","cc":"pl","latitude":52.2297,"longitude":21.017532,"reserved":0,"last_update":"0001-01-01T00:00:00Z","name_a2s":"Uncletopia | Warsaw | 3 | All Maps","protocol":17,"map":"pl_badwater","folder":"tf","game":"Team Fortress","app_id":440,"player_count":0,"max_players":24,"Bots":0,"server_type":"Dedicated","server_os":"Linux","password":true,"vac":true,"version":"7757534","steam_id":85568392925397852,"keywords":["nocrits","nodmgspread","payload","uncletopia"],"game_id":440,"stv_port":27036,"stv_name":"Uncletopia | Warsaw | 3 | All Maps | STV","players":null},{"server_id":52,"name":"Uncletopia | Warsaw | 4 | All Maps","name_short":"waw-4","host":"waw-1.pl.uncletopia.com","port":27045,"enabled":true,"region":"eu","cc":"pl","latitude":52.2297,"longitude":21.017532,"reserved":0,"last_update":"0001-01-01T00:00:00Z","name_a2s":"Uncletopia | Warsaw | 4 | All Maps","protocol":17,"map":"koth_lakeside_final","folder":"tf","game":"Team Fortress","app_id":440,"player_count":0,"max_players":24,"Bots":0,"server_type":"Dedicated","server_os":"Linux","password":true,"vac":true,"version":"7757534","steam_id":85568392925397853,"keywords":["cp","nocrits","nodmgspread","uncletopia"],"game_id":440,"stv_port":27046,"stv_name":"Uncletopia | Warsaw | 4 | All Maps | STV","players":null},{"server_id":53,"name":"Uncletopia | Warsaw | 5 | Stopwatch Beta","name_short":"waw-5","host":"waw-1.pl.uncletopia.com","port":27055,"enabled":true,"region":"eu","cc":"pl","latitude":52.2297,"longitude":21.017532,"reserved":0,"last_update":"0001-01-01T00:00:00Z","name_a2s":"Uncletopia | Warsaw | 5 | Stopwatch Beta","protocol":17,"map":"pl_borneo","folder":"tf","game":"Team Fortress","app_id":440,"player_count":0,"max_players":24,"Bots":0,"server_type":"Dedicated","server_os":"Linux","password":true,"vac":true,"version":"7757534","steam_id":85568392925397854,"keywords":["nocrits","nodmgspread","payload","uncletopia"],"game_id":440,"stv_port":27056,"stv_name":"Uncletopia | Warsaw | 5 | Stopwatch Beta | STV","players":null},{"server_id":54,"name":"Uncletopia | Warsaw | 6 | Community","name_short":"waw-6","host":"waw-1.pl.uncletopia.com","port":27065,"enabled":true,"region":"eu","cc":"pl","latitude":52.2297,"longitude":21.017532,"reserved":0,"last_update":"0001-01-01T00:00:00Z","name_a2s":"Uncletopia | Warsaw | 6 | Community","protocol":17,"map":"koth_lakeside_final","folder":"tf","game":"Team Fortress","app_id":440,"player_count":0,"max_players":24,"Bots":0,"server_type":"Dedicated","server_os":"Linux","password":true,"vac":true,"version":"7757534","steam_id":85568392925397856,"keywords":["cp","nocrits","nodmgspread","uncletopia"],"game_id":440,"stv_port":27066,"stv_name":"Uncletopia | Warsaw | 6 | Community | STV","players":null}]}