{"status":true,"message":"","result":[{"server_id":9,"name":"Uncletopia | Atlanta | 1 | All Maps","name_short":"atl-1","host":"atl-1.us.uncletopia.com","port":27015,"enabled":true,"region":"us-east","cc":"us","latitude":33.753746,"longitude":-84.38633,"reserved":0,"last_update":"0001-01-01T00:00:00Z","name_a2s":"Uncletopia | Atlanta | 1 | All Maps","protocol":17,"map":"pl_upward","folder":"tf","game":"Team Fortress","app_id":440,"player_count":1,"max_players":24,"Bots":0,"server_type":"Dedicated","server_os":"Linux","password":true,"vac":true,"version":"7961495","steam_id":85568392924469982,"keywords":["nocrits","nodmgspread","payload","uncletopia"],"game_id":440,"stv_port":27016,"stv_name":"Uncletopia | Atlanta | 1 | All Maps | STV","players":null},{"server_id":104,"name":"Uncletopia | Atlanta | 2 | All Maps","name_short":"atl-2","host":"atl-1.us.uncletopia.com","port":27025,"enabled":true,"region":"us-east","cc":"us","latitude":33.753746,"longitude":-84.38633,"reserved":0,"last_update":"0001-01-01T00:00:00Z","name_a2s":"","protocol":0,"map":"","folder":"","game":"","app_id":0,"player_count":0,"max_players":0,"Bots":0,"server_type":"","server_os":"","password":false,"vac":false,"version":"","steam_id":0,"keywords":null,"game_id":0,"stv_port":0,"stv_name":"","players":null},{"server_id":400,"name":"Uncletopia | Atlanta | 3 | All Maps","name_short":"atl-3","host":"atl-1.us.uncletopia.com","port":27035,"enabled":true,"region":"us-east","cc":"us","latitude":33.753746,"longitude":-84.38633,"reserved":0,"last_update":"0001-01-01T00:00:00Z","name_a2s":"","protocol":0,"map":"","folder":"","game":"","app_id":0,"player_count":0,"max_players":0,"Bots":0,"server_type":"","server_os":"","password":false,"vac":false,"version":"","steam_id":0,"keywords":null,"game_id":0,"stv_port":0,"stv_name":"","players":null},{"server_id":401,"name":"Uncletopia | Atlanta | 4 | Community","name_short":"atl-4","host":"atl-1.us.uncletopia.com","port":27045,"enabled":true,"region":"us-east","cc":"us","latitude":33.753746,"longitude":-84.38633,"reserved":0,"last_update":"0001-01-01T00:00:00Z","name_a2s":"","protocol":0,"map":"","folder":"","game":"","app_id":0,"player_count":0,"max_players":0,"Bots":0,"server_type":"","server_os":"","password":false,"vac":false,"version":"","steam_id":0,"keywords":null,"game_id":0,"stv_port":0,"stv_name":"","players":null},{"server_id":2,"name":"Uncletopia | Chicago | 1 | All Maps","name_short":"chi-1","host":"chi-1.us.uncletopia.com","port":27015,"enabled":true,"region":"us-central","cc":"us","latitude":41.881832,"longitude":-87.62318,"reserved":0,"last_update":"0001-01-01T00:00:00Z","name_a2s":"Uncletopia | Chicago | 1 | All Maps","protocol":17,"map":"pl_frontier_final","folder":"tf","game":"Team Fortress","app_id":440,"player_count":24,"max_players":24,"Bots":0,"server_type":"Dedicated","server_os":"Linux","password":true,"vac":true,"version":"7961495","steam_id":85568392924469984,"keywords":["nocrits","nodmgspread","payload","uncletopia"],"game_id":440,"stv_port":27016,"stv_name":"Uncletopia | Chicago | 1 | All Maps | STV","players":[{"user_id":223,"name":"Mog","steam_id":76561198025575870,"connected_time":84000000000,"state":"active","ping":50},{"user_id":176,"name":"MetalNavigator","steam_id":76561198974231439,"connected_time":3484000000000,"state":"active","ping":115},{"user_id":204,"name":"Just PYE","steam_id":76561199439622967,"connected_time":1727000000000,"state":"active","ping":93},{"user_id":177,"name":"Deph Pyro","steam_id":76561198065033546,"connected_time":3468000000000,"state":"active","ping":71},{"user_id":168,"name":"denzy_","steam_id":76561198873788683,"connected_time":4697000000000,"state":"active","ping":66},{"user_id":42,"name":"hi","steam_id":76561198809577048,"connected_time":15706000000000,"state":"active","ping":99},{"user_id":214,"name":"Tommy Pickles (Very Cool)","steam_id":76561198391261463,"connected_time":571000000000,"state":"active","ping":72},{"user_id":219,"name":"Obelisk","steam_id":76561198049416866,"connected_time":516000000000,"state":"active","ping":77},{"user_id":207,"name":"GooniOoni","steam_id":76561198102154561,"connected_time":1289000000000,"state":"active","ping":44},{"user_id":181,"name":"Raizen","steam_id":76561199092445367,"connected_time":3416000000000,"state":"active","ping":48},{"user_id":217,"name":"big steve","steam_id":76561199037050183,"connected_time":530000000000,"state":"active","ping":91},{"user_id":203,"name":"Big Yoshi","steam_id":76561199160576376,"connected_time":1987000000000,"state":"active","ping":114},{"user_id":211,"name":"kyuubey","steam_id":76561198164990091,"connected_time":955000000000,"state":"active","ping":91},{"user_id":212,"name":"ZombieDog[N8]","steam_id":76561198056076918,"connected_time":602000000000,"state":"active","ping":75},{"user_id":172,"name":"McGruble","steam_id":76561198136317340,"connected_time":4340000000000,"state":"active","ping":78},{"user_id":218,"name":"creeeeeee","steam_id":76561198392539722,"connected_time":527000000000,"state":"active","ping":82},{"user_id":188,"name":"JohnPlumber88","steam_id":76561198170203473,"connected_time":3095000000000,"state":"active","ping":69},{"user_id":194,"name":"mountain","steam_id":76561198078395002,"connected_time":2808000000000,"state":"active","ping":60},{"user_id":224,"name":"Chicken Burger","steam_id":76561198358529311,"connected_time":1000000000,"state":"spawning","ping":34},{"user_id":215,"name":"Undertime Slopper","steam_id":76561198396789061,"connected_time":564000000000,"state":"active","ping":77},{"user_id":210,"name":"Weirdo","steam_id":76561199150514223,"connected_time":1101000000000,"state":"active","ping":115},{"user_id":186,"name":"NooseNeck","steam_id":76561198202416199,"connected_time":3138000000000,"state":"active","ping":74},{"user_id":213,"name":"ggiP","steam_id":76561198815264672,"connected_time":598000000000,"state":"active","ping":55},{"user_id":187,"name":"indi","steam_id":76561198045917538,"connected_time":3133000000000,"state":"active","ping":47}]},{"server_id":106,"name":"Uncletopia | Chicago | 2 | All Maps","name_short":"chi-2","host":"chi-1.us.uncletopia.com","port":27025,"enabled":true,"region":"us-central","cc":"us","latitude":41.881832,"longitude":-87.62318,"reserved":0,"last_update":"0001-01-01T00:00:00Z","name_a2s":"Uncletopia | Chicago | 2 | All Maps","protocol":17,"map":"pl_borneo","folder":"tf","game":"Team Fortress","app_id":440,"player_count":24,"max_players":24,"Bots":0,"server_type":"Dedicated","server_os":"Linux","password":true,"vac":true,"version":"7961495","steam_id":85568392924469985,"keywords":["nocrits","nodmgspread","payload","uncletopia"],"game_id":440,"stv_port":27026,"stv_name":"Uncletopia | Chicago | 2 | All Maps | STV","players":[{"user_id":143,"name":"Radish Master","steam_id":76561198072523811,"connected_time":1094000000000,"state":"active","ping":41},{"user_id":134,"name":"Moonkey","steam_id":76561199013741389,"connected_time":1398000000000,"state":"active","ping":56},{"user_id":150,"name":"Epifiny","steam_id":76561198027958086,"connected_time":543000000000,"state":"active","ping":67},{"user_id":80,"name":"1-800-GHOST-DANCE","steam_id":76561198835430429,"connected_time":5721000000000,"state":"active","ping":83},{"user_id":147,"name":"Rodgedan","steam_id":76561198226236524,"connected_time":731000000000,"state":"active","ping":76},{"user_id":126,"name":"NovusOrdoDux","steam_id":76561198271936289,"connected_time":2289000000000,"state":"active","ping":133},{"user_id":120,"name":"professional nonprofessional","steam_id":76561199200442395,"connected_time":2516000000000,"state":"active","ping":174},{"user_id":110,"name":"孫子","steam_id":76561198083112681,"connected_time":3515000000000,"state":"active","ping":53},{"user_id":151,"name":"Ejaculation Zach","steam_id":76561198203765200,"connected_time":439000000000,"state":"active","ping":59},{"user_id":106,"name":"blitz","steam_id":76561198246638226,"connected_time":3598000000000,"state":"active","ping":54},{"user_id":121,"name":"some tree","steam_id":76561198166093346,"connected_time":2509000000000,"state":"active","ping":55},{"user_id":71,"name":"fischman","steam_id":76561199064142670,"connected_time":6105000000000,"state":"active","ping":147},{"user_id":131,"name":"el wiwi","steam_id":76561198857304367,"connected_time":1766000000000,"state":"active","ping":75},{"user_id":139,"name":"Ventastega","steam_id":76561197999366317,"connected_time":1327000000000,"state":"active","ping":83},{"user_id":145,"name":"Bulk","steam_id":76561199009814535,"connected_time":1001000000000,"state":"active","ping":63},{"user_id":156,"name":"ThatGamingKiwi","steam_id":76561199170522237,"connected_time":65000000000,"state":"spawning","ping":69},{"user_id":122,"name":"Sir Cumcision","steam_id":76561199219817716,"connected_time":2488000000000,"state":"active","ping":113},{"user_id":137,"name":"Stiffy Magnum","steam_id":76561198000036722,"connected_time":1370000000000,"state":"active","ping":97},{"user_id":127,"name":"Breadboy","steam_id":76561199092359175,"connected_time":2218000000000,"state":"active","ping":61},{"user_id":146,"name":"Not Slavoj Žižek","steam_id":76561198004619616,"connected_time":868000000000,"state":"active","ping":116},{"user_id":148,"name":"RIP John Pork","steam_id":76561198241948526,"connected_time":665000000000,"state":"active","ping":60},{"user_id":116,"name":"I'm not real you're real","steam_id":76561199491138825,"connected_time":3052000000000,"state":"active","ping":77},{"user_id":118,"name":"TheFriendlyPybro","steam_id":76561198119425604,"connected_time":2672000000000,"state":"active","ping":70},{"user_id":154,"name":"Albino Jellyfish","steam_id":76561198208561097,"connected_time":199000000000,"state":"active","ping":66}]},{"server_id":402,"name":"Uncletopia | Chicago | 3 | All Maps","name_short":"chi-3","host":"chi-1.us.uncletopia.com","port":27035,"enabled":true,"region":"us-central","cc":"us","latitude":41.881832,"longitude":-87.62318,"reserved":0,"last_update":"0001-01-01T00:00:00Z","name_a2s":"Uncletopia | Chicago | 3 | All Maps","protocol":17,"map":"ctf_2fort","folder":"tf","game":"Team Fortress","app_id":440,"player_count":24,"max_players":24,"Bots":0,"server_type":"Dedicated","server_os":"Linux","password":true,"vac":true,"version":"7961495","steam_id":85568392924515191,"keywords":["ctf","nocrits","nodmgspread","uncletopia"],"game_id":440,"stv_port":27036,"stv_name":"Uncletopia | Chicago | 3 | All Maps | STV","players":[{"user_id":54,"name":"Acehay14","steam_id":76561198052373291,"connected_time":1963000000000,"state":"active","ping":56},{"user_id":6,"name":"Deborp","steam_id":76561198118868430,"connected_time":4483000000000,"state":"active","ping":79},{"user_id":40,"name":"Urbanzpinapple","steam_id":76561198115426938,"connected_time":3480000000000,"state":"active","ping":219},{"user_id":83,"name":"azucar","steam_id":76561198056543825,"connected_time":275000000000,"state":"active","ping":59},{"user_id":58,"name":"Aeonspassed","steam_id":76561198014016451,"connected_time":1441000000000,"state":"active","ping":53},{"user_id":59,"name":"RARE ENDANGERED SPY CRAB","steam_id":76561199233153269,"connected_time":1178000000000,"state":"active","ping":80},{"user_id":75,"name":"PoeticYeti","steam_id":76561198352392689,"connected_time":649000000000,"state":"active","ping":59},{"user_id":63,"name":"BIGGEST MAC","steam_id":76561198847517098,"connected_time":1054000000000,"state":"active","ping":85},{"user_id":14,"name":"McDonald's Filet-O-Fish","steam_id":76561198104086771,"connected_time":4154000000000,"state":"active","ping":103},{"user_id":15,"name":"lucky","steam_id":76561198323426623,"connected_time":4143000000000,"state":"active","ping":104},{"user_id":56,"name":"MarauderOP","steam_id":76561199087316861,"connected_time":1930000000000,"state":"active","ping":70},{"user_id":64,"name":"SomeRandomPerson (f2p)","steam_id":76561198977045933,"connected_time":1031000000000,"state":"active","ping":105},{"user_id":70,"name":"Mentally Ill Scout","steam_id":76561198398918486,"connected_time":791000000000,"state":"active","ping":66},{"user_id":76,"name":"raspy","steam_id":76561198027298961,"connected_time":647000000000,"state":"active","ping":60},{"user_id":41,"name":"Spykiller42","steam_id":76561199027962230,"connected_time":3423000000000,"state":"active","ping":149},{"user_id":81,"name":"Comfy!","steam_id":76561198008818346,"connected_time":327000000000,"state":"active","ping":63},{"user_id":82,"name":"tripl","steam_id":76561198302223646,"connected_time":312000000000,"state":"active","ping":60},{"user_id":42,"name":"Pixler544","steam_id":76561198240575132,"connected_time":3227000000000,"state":"active","ping":78},{"user_id":66,"name":"fazaness","steam_id":76561198851525394,"connected_time":975000000000,"state":"active","ping":79},{"user_id":73,"name":"Kretim","steam_id":76561199204273483,"connected_time":714000000000,"state":"active","ping":68},{"user_id":53,"name":"artixes","steam_id":76561198379574232,"connected_time":1995000000000,"state":"active","ping":57},{"user_id":74,"name":"strangejune","steam_id":76561198272400016,"connected_time":714000000000,"state":"active","ping":71},{"user_id":79,"name":"Npcutz64","steam_id":76561198320867336,"connected_time":564000000000,"state":"active","ping":77},{"user_id":38,"name":"Locus","steam_id":76561198129833463,"connected_time":3648000000000,"state":"active","ping":132}]},{"server_id":403,"name":"Uncletopia | Chicago | 4 | All Maps","name_short":"chi-4","host":"chi-1.us.uncletopia.com","port":27045,"enabled":true,"region":"us-central","cc":"us","latitude":41.881832,"longitude":-87.62318,"reserved":0,"last_update":"0001-01-01T00:00:00Z","name_a2s":"Uncletopia | Chicago | 4 | All Maps","protocol":17,"map":"pl_badwater","folder":"tf","game":"Team Fortress","app_id":440,"player_count":1,"max_players":24,"Bots":0,"server_type":"Dedicated","server_os":"Linux","password":true,"vac":true,"version":"7961495","steam_id":85568392924515193,"keywords":["nocrits","nodmgspread","payload","uncletopia"],"game_id":440,"stv_port":27046,"stv_name":"Uncletopia | Chicago | 4 | All Maps | STV","players":[{"user_id":9,"name":"FaZe Davicus","steam_id":76561198804948114,"connected_time":333000000000,"state":"active","ping":56}]},{"server_id":36,"name":"Uncletopia | Chicago | 5 | All Maps","name_short":"chi-5","host":"chi-2.us.uncletopia.com","port":27015,"enabled":true,"region":"us-central","cc":"us","latitude":41.881832,"longitude":-87.62318,"reserved":0,"last_update":"0001-01-01T00:00:00Z","name_a2s":"Uncletopia | Chicago | 5 | All Maps","protocol":17,"map":"cp_snakewater_final1","folder":"tf","game":"Team Fortress","app_id":440,"player_count":0,"max_players":24,"Bots":0,"server_type":"Dedicated","server_os":"Linux","password":true,"vac":true,"version":"7961495","steam_id":85568392924866362,"keywords":["cp","nocrits","nodmgspread","uncletopia"],"game_id":440,"stv_port":27016,"stv_name":"Uncletopia | Chicago | 5 | All Maps | STV","players":null},{"server_id":37,"name":"Uncletopia | Chicago | 6 | All Maps","name_short":"chi-6","host":"chi-2.us.uncletopia.com","port":27025,"enabled":true,"region":"us-central","cc":"us","latitude":41.881832,"longitude":-87.62318,"reserved":0,"last_update":"0001-01-01T00:00:00Z","name_a2s":"Uncletopia | Chicago | 6 | All Maps","protocol":17,"map":"cp_altitude","folder":"tf","game":"Team Fortress","app_id":440,"player_count":0,"max_players":24,"Bots":0,"server_type":"Dedicated","server_os":"Linux","password":true,"vac":true,"version":"7961495","steam_id":85568392924866363,"keywords":["cp","nocrits","nodmgspread","uncletopia"],"game_id":440,"stv_port":27026,"stv_name":"Uncletopia | Chicago | 6 | All Maps | STV","players":null},{"server_id":38,"name":"Uncletopia | Chicago | 7 | Stopwatch Beta","name_short":"chi-7","host":"chi-2.us.uncletopia.com","port":27035,"enabled":true,"region":"us-central","cc":"us","latitude":41.881832,"longitude":-87.62318,"reserved":0,"last_update":"0001-01-01T00:00:00Z","name_a2s":"Uncletopia | Chicago | 7 | Stopwatch Beta","protocol":17,"map":"pl_badwater","folder":"tf","game":"Team Fortress","app_id":440,"player_count":0,"max_players":24,"Bots":0,"server_type":"Dedicated","server_os":"Linux","password":true,"vac":true,"version":"7961495","steam_id":85568392924866364,"keywords":["nocrits","nodmgspread","payload","uncletopia"],"game_id":440,"stv_port":27036,"stv_name":"Uncletopia | Chicago | 7 | Stopwatch Beta | STV","players":null},{"server_id":39,"name":"Uncletopia | Chicago | 8 | Community","name_short":"chi-8","host":"chi-2.us.uncletopia.com","port":27045,"enabled":true,"region":"us-central","cc":"us","latitude":41.881832,"longitude":-87.62318,"reserved":0,"last_update":"0001-01-01T00:00:00Z","name_a2s":"Uncletopia | Chicago | 8 | Community","protocol":17,"map":"koth_cascade","folder":"tf","game":"Team Fortress","app_id":440,"player_count":0,"max_players":24,"Bots":0,"server_type":"Dedicated","server_os":"Linux","password":true,"vac":true,"version":"7961495","steam_id":85568392924866365,"keywords":["cp","nocrits","nodmgspread","uncletopia"],"game_id":440,"stv_port":27046,"stv_name":"Uncletopia | Chicago | 8 | Community | STV","players":null},{"server_id":8,"name":"Uncletopia | Dallas | 1 | All Maps","name_short":"dal-1","host":"dal-1.us.uncletopia.com","port":27015,"enabled":true,"region":"us-central","cc":"us","latitude":32.779167,"longitude":-96.80889,"reserved":0,"last_update":"0001-01-01T00:00:00Z","name_a2s":"Uncletopia | Dallas | 1 | All Maps","protocol":17,"map":"pl_pier","folder":"tf","game":"Team Fortress","app_id":440,"player_count":24,"max_players":24,"Bots":0,"server_type":"Dedicated","server_os":"Linux","password":true,"vac":true,"version":"7961495","steam_id":85568392924469986,"keywords":["nocrits","nodmgspread","payload","uncletopia"],"game_id":440,"stv_port":27016,"stv_name":"Uncletopia | Dallas | 1 | All Maps | STV","players":[{"user_id":133,"name":"Fletcher","steam_id":76561198317846538,"connected_time":2987000000000,"state":"active","ping":87},{"user_id":125,"name":"˗ˏˋKüki´ˎ˗","steam_id":76561198102045762,"connected_time":4191000000000,"state":"active","ping":90},{"user_id":153,"name":"cook (not cock)","steam_id":76561198073106278,"connected_time":876000000000,"state":"active","ping":61},{"user_id":158,"name":"TwErC","steam_id":76561198141482152,"connected_time":119000000000,"state":"active","ping":62},{"user_id":103,"name":"Likeia #Savetf2","steam_id":76561198005214207,"connected_time":6378000000000,"state":"active","ping":57},{"user_id":131,"name":"TurkeyJuice","steam_id":76561198193109422,"connected_time":3022000000000,"state":"active","ping":65},{"user_id":138,"name":"Jork","steam_id":76561198121415366,"connected_time":2586000000000,"state":"active","ping":90},{"user_id":159,"name":"qyxua","steam_id":76561199012168350,"connected_time":77000000000,"state":"active","ping":45},{"user_id":161,"name":"Shattered Glass","steam_id":76561198116835391,"connected_time":50000000000,"state":"active","ping":92},{"user_id":142,"name":"guy who loves eating cigarettes","steam_id":76561198094495920,"connected_time":1588000000000,"state":"active","ping":53},{"user_id":157,"name":"happy man!!! :D!!!!","steam_id":76561198128468316,"connected_time":126000000000,"state":"active","ping":58},{"user_id":141,"name":"lego star wars on the psp","steam_id":76561198148014773,"connected_time":1990000000000,"state":"active","ping":89},{"user_id":160,"name":"redhaze337","steam_id":76561199247051273,"connected_time":63000000000,"state":"active","ping":71},{"user_id":162,"name":"你好","steam_id":76561198873043242,"connected_time":43000000000,"state":"active","ping":144},{"user_id":150,"name":"crayonnipple","steam_id":76561198070253331,"connected_time":1214000000000,"state":"active","ping":87},{"user_id":130,"name":"flaccid","steam_id":76561198299241777,"connected_time":3108000000000,"state":"active","ping":97},{"user_id":128,"name":"floofy","steam_id":76561198389769098,"connected_time":3397000000000,"state":"active","ping":83},{"user_id":154,"name":"Emily50AE","steam_id":76561198088619665,"connected_time":818000000000,"state":"active","ping":79},{"user_id":149,"name":"GX thedittoguy","steam_id":76561199013129784,"connected_time":1321000000000,"state":"active","ping":57},{"user_id":124,"name":"hopdon","steam_id":76561198051616613,"connected_time":4463000000000,"state":"active","ping":90},{"user_id":99,"name":"*Gage*","steam_id":76561197975233869,"connected_time":6510000000000,"state":"active","ping":67},{"user_id":151,"name":"Fatal","steam_id":76561198061407587,"connected_time":1024000000000,"state":"active","ping":61},{"user_id":152,"name":"smokecloud","steam_id":76561198136296903,"connected_time":908000000000,"state":"active","ping":105},{"user_id":148,"name":"arsenic microdoser","steam_id":76561198418172095,"connected_time":1420000000000,"state":"active","ping":88}]},{"server_id":108,"name":"Uncletopia | Dallas | 2 | All Maps","name_short":"dal-2","host":"dal-1.us.uncletopia.com","port":27025,"enabled":true,"region":"us-central","cc":"us","latitude":32.779167,"longitude":-96.80889,"reserved":0,"last_update":"0001-01-01T00:00:00Z","name_a2s":"Uncletopia | Dallas | 2 | All Maps","protocol":17,"map":"koth_lakeside_final","folder":"tf","game":"Team Fortress","app_id":440,"player_count":11,"max_players":24,"Bots":0,"server_type":"Dedicated","server_os":"Linux","password":true,"vac":true,"version":"7961495","steam_id":85568392924469988,"keywords":["cp","nocrits","nodmgspread","uncletopia"],"game_id":440,"stv_port":27026,"stv_name":"Uncletopia | Dallas | 2 | All Maps | STV","players":[{"user_id":4,"name":"Ceo of Anti-Racism","steam_id":76561198831997540,"connected_time":2496000000000,"state":"active","ping":62},{"user_id":5,"name":"Gettiz","steam_id":76561198160801090,"connected_time":2417000000000,"state":"active","ping":110},{"user_id":7,"name":"Fizite","steam_id":76561199061965517,"connected_time":1581000000000,"state":"active","ping":48},{"user_id":8,"name":"Wendo_Gogh","steam_id":76561198080999985,"connected_time":1581000000000,"state":"active","ping":109},{"user_id":10,"name":"ACTION REPLAY","steam_id":76561198190323610,"connected_time":847000000000,"state":"active","ping":104},{"user_id":11,"name":"Zenabie","steam_id":76561198088372680,"connected_time":828000000000,"state":"active","ping":109},{"user_id":14,"name":"technoninja395","steam_id":76561199368978007,"connected_time":447000000000,"state":"active","ping":74},{"user_id":15,"name":"That70sDog","steam_id":76561198119396142,"connected_time":431000000000,"state":"active","ping":63},{"user_id":18,"name":"Campasrt","steam_id":76561198165410359,"connected_time":145000000000,"state":"active","ping":68},{"user_id":17,"name":"dip_bip","steam_id":76561198844530216,"connected_time":243000000000,"state":"active","ping":75},{"user_id":19,"name":"Engideer","steam_id":76561198145733164,"connected_time":90000000000,"state":"active","ping":42}]},{"server_id":404,"name":"Uncletopia | Dallas | 3 | All Maps","name_short":"dal-3","host":"dal-1.us.uncletopia.com","port":27035,"enabled":true,"region":"us-central","cc":"us","latitude":32.779167,"longitude":-96.80889,"reserved":0,"last_update":"0001-01-01T00:00:00Z","name_a2s":"Uncletopia | Dallas | 3 | All Maps","protocol":17,"map":"koth_highpass","folder":"tf","game":"Team Fortress","app_id":440,"player_count":0,"max_players":24,"Bots":0,"server_type":"Dedicated","server_os":"Linux","password":true,"vac":true,"version":"7961495","steam_id":85568392924515219,"keywords":["cp","nocrits","nodmgspread","uncletopia"],"game_id":440,"stv_port":27036,"stv_name":"Uncletopia | Dallas | 3 | All Maps | STV","players":null},{"server_id":405,"name":"Uncletopia | Dallas | 4 | Community","name_short":"dal-4","host":"dal-1.us.uncletopia.com","port":27045,"enabled":true,"region":"us-central","cc":"us","latitude":32.779167,"longitude":-96.80889,"reserved":0,"last_update":"0001-01-01T00:00:00Z","name_a2s":"Uncletopia | Dallas | 4 | Community","protocol":17,"map":"pl_badwater","folder":"tf","game":"Team Fortress","app_id":440,"player_count":0,"max_players":24,"Bots":0,"server_type":"Dedicated","server_os":"Linux","password":true,"vac":true,"version":"7961495","steam_id":85568392924515220,"keywords":["nocrits","nodmgspread","payload","uncletopia"],"game_id":440,"stv_port":27046,"stv_name":"Uncletopia | Dallas | 4 | Community | STV","players":null},{"server_id":5,"name":"Uncletopia | Frankfurt | 1 | All Maps","name_short":"frk-1","host":"frk-1.de.uncletopia.com","port":27015,"enabled":true,"region":"eu","cc":"de","latitude":50.110924,"longitude":8.682127,"reserved":0,"last_update":"0001-01-01T00:00:00Z","name_a2s":"Uncletopia | Frankfurt | 1 | All Maps","protocol":17,"map":"plr_pipeline","folder":"tf","game":"Team Fortress","app_id":440,"player_count":22,"max_players":24,"Bots":0,"server_type":"Dedicated","server_os":"Linux","password":true,"vac":true,"version":"7961495","steam_id":85568392924469989,"keywords":["nocrits","nodmgspread","payload","uncletopia"],"game_id":440,"stv_port":27016,"stv_name":"Uncletopia | Frankfurt | 1 | All Maps | STV","players":[{"user_id":500,"name":"Kolomaster","steam_id":76561198143356545,"connected_time":2065000000000,"state":"active","ping":70},{"user_id":499,"name":"mashete","steam_id":76561198151829282,"connected_time":2117000000000,"state":"active","ping":63},{"user_id":509,"name":"Waifu Meow","steam_id":76561198345515402,"connected_time":1156000000000,"state":"active","ping":48},{"user_id":522,"name":"why rum gone","steam_id":76561198158484784,"connected_time":493000000000,"state":"active","ping":52},{"user_id":506,"name":"Mega Saturn","steam_id":76561198024750500,"connected_time":1336000000000,"state":"active","ping":89},{"user_id":523,"name":"Sammeh","steam_id":76561198001926428,"connected_time":457000000000,"state":"active","ping":75},{"user_id":521,"name":"Fofenho","steam_id":76561198436817109,"connected_time":500000000000,"state":"active","ping":64},{"user_id":503,"name":"zak","steam_id":76561197998895428,"connected_time":1741000000000,"state":"active","ping":59},{"user_id":529,"name":"Urfangonultasadana","steam_id":76561199389286151,"connected_time":153000000000,"state":"active","ping":86},{"user_id":524,"name":"Le Chevalier Pingouin","steam_id":76561198221355000,"connected_time":440000000000,"state":"active","ping":52},{"user_id":485,"name":"john fortress","steam_id":76561198013237629,"connected_time":2938000000000,"state":"active","ping":105},{"user_id":525,"name":"mateusz","steam_id":76561198111599735,"connected_time":405000000000,"state":"active","ping":55},{"user_id":531,"name":"BioticReign","steam_id":76561198388146096,"connected_time":32000000000,"state":"active","ping":107},{"user_id":514,"name":"halow","steam_id":76561198061505163,"connected_time":1104000000000,"state":"active","ping":85},{"user_id":512,"name":"Skeletros","steam_id":76561198130969152,"connected_time":1152000000000,"state":"active","ping":134},{"user_id":528,"name":"Risinger","steam_id":76561198079789688,"connected_time":250000000000,"state":"active","ping":66},{"user_id":508,"name":"Bleidd","steam_id":76561198353277765,"connected_time":1191000000000,"state":"active","ping":91},{"user_id":518,"name":"❤Speedbump❤","steam_id":76561198388690313,"connected_time":837000000000,"state":"active","ping":56},{"user_id":494,"name":"femboy enjoyer","steam_id":76561198372077936,"connected_time":2571000000000,"state":"active","ping":79},{"user_id":530,"name":"Mr.Schnittlauch","steam_id":76561198295868113,"connected_time":128000000000,"state":"active","ping":47},{"user_id":491,"name":"depressed","steam_id":76561198336523288,"connected_time":2783000000000,"state":"active","ping":128},{"user_id":527,"name":"chachiply","steam_id":76561198316355509,"connected_time":400000000000,"state":"active","ping":74}]},{"server_id":110,"name":"Uncletopia | Frankfurt | 2 | All Maps","name_short":"frk-2","host":"frk-1.de.uncletopia.com","port":27025,"enabled":true,"region":"eu","cc":"de","latitude":50.110924,"longitude":8.682127,"reserved":0,"last_update":"0001-01-01T00:00:00Z","name_a2s":"Uncletopia | Frankfurt | 2 | All Maps","protocol":17,"map":"koth_nucleus","folder":"tf","game":"Team Fortress","app_id":440,"player_count":19,"max_players":24,"Bots":0,"server_type":"Dedicated","server_os":"Linux","password":true,"vac":true,"version":"7961495","steam_id":85568392924469990,"keywords":["cp","nocrits","nodmgspread","uncletopia"],"game_id":440,"stv_port":27026,"stv_name":"Uncletopia | Frankfurt | 2 | All Maps | STV","players":[{"user_id":101,"name":"Nyhde","steam_id":76561198012771416,"connected_time":9968000000000,"state":"active","ping":86},{"user_id":246,"name":"CAR DOOR","steam_id":76561198055283295,"connected_time":125000000000,"state":"active","ping":40},{"user_id":231,"name":"gerg","steam_id":76561198041663219,"connected_time":1242000000000,"state":"active","ping":153},{"user_id":240,"name":"Vivon","steam_id":76561198830042245,"connected_time":488000000000,"state":"active","ping":146},{"user_id":245,"name":"-gunripp0r^be / Obelix^","steam_id":76561197999306879,"connected_time":262000000000,"state":"active","ping":74},{"user_id":247,"name":"Two-Eyed Dancer","steam_id":76561198872013525,"connected_time":65000000000,"state":"active","ping":95},{"user_id":230,"name":"shr1mple","steam_id":76561198173537027,"connected_time":1256000000000,"state":"active","ping":44},{"user_id":189,"name":"꧁༒Xenon༒꧂","steam_id":76561198120502313,"connected_time":5227000000000,"state":"active","ping":70},{"user_id":244,"name":"gaming time","steam_id":76561197971182017,"connected_time":333000000000,"state":"active","ping":74},{"user_id":177,"name":"disposablesuperbread","steam_id":76561199074703607,"connected_time":6017000000000,"state":"active","ping":64},{"user_id":235,"name":"sofa king","steam_id":76561198175456289,"connected_time":747000000000,"state":"active","ping":101},{"user_id":233,"name":"FilipeLuk","steam_id":76561198150675438,"connected_time":961000000000,"state":"active","ping":74},{"user_id":172,"name":"BD[PL]","steam_id":76561198115995871,"connected_time":6482000000000,"state":"active","ping":81},{"user_id":236,"name":"Decaying Chpok","steam_id":76561198112855332,"connected_time":737000000000,"state":"active","ping":158},{"user_id":239,"name":"Neraz","steam_id":76561198002386385,"connected_time":529000000000,"state":"active","ping":62},{"user_id":237,"name":"Kanny","steam_id":76561198058810184,"connected_time":691000000000,"state":"active","ping":57},{"user_id":176,"name":"Commander DM","steam_id":76561198059236770,"connected_time":6297000000000,"state":"active","ping":71},{"user_id":226,"name":"The Cock Inspector","steam_id":76561198355608148,"connected_time":1661000000000,"state":"active","ping":117},{"user_id":193,"name":"Spy is Sapping my Sandwich","steam_id":76561198011840096,"connected_time":4840000000000,"state":"active","ping":70}]},{"server_id":308,"name":"Uncletopia | Frankfurt | 3 | All Maps","name_short":"frk-3","host":"frk-1.de.uncletopia.com","port":27035,"enabled":true,"region":"eu","cc":"de","latitude":50.110924,"longitude":8.682127,"reserved":0,"last_update":"0001-01-01T00:00:00Z","name_a2s":"Uncletopia | Frankfurt | 3 | All Maps","protocol":17,"map":"pl_swiftwater_final1","folder":"tf","game":"Team Fortress","app_id":440,"player_count":6,"max_players":24,"Bots":0,"server_type":"Dedicated","server_os":"Linux","password":true,"vac":true,"version":"7961495","steam_id":85568392924504274,"keywords":["nocrits","nodmgspread","payload","uncletopia"],"game_id":440,"stv_port":27036,"stv_name":"Uncletopia | Frankfurt | 3 | All Maps | STV","players":[{"user_id":12,"name":"Dimitri_612","steam_id":76561199223984137,"connected_time":1897000000000,"state":"active","ping":54},{"user_id":21,"name":"Wholesome","steam_id":76561198010329501,"connected_time":599000000000,"state":"active","ping":67},{"user_id":23,"name":"ehs","steam_id":76561198431048339,"connected_time":483000000000,"state":"active","ping":213},{"user_id":19,"name":"PapaMaxy","steam_id":76561198256362726,"connected_time":797000000000,"state":"active","ping":63},{"user_id":24,"name":"engineer drip","steam_id":76561198991032570,"connected_time":67000000000,"state":"active","ping":92},{"user_id":17,"name":"Roxy_Joestar","steam_id":76561199122275646,"connected_time":837000000000,"state":"active","ping":102}]},{"server_id":309,"name":"Uncletopia | Frankfurt | 4 | All Maps","name_short":"frk-4","host":"frk-1.de.uncletopia.com","port":27045,"enabled":true,"region":"eu","cc":"de","latitude":50.110924,"longitude":8.682127,"reserved":0,"last_update":"0001-01-01T00:00:00Z","name_a2s":"Uncletopia | Frankfurt | 4 | All Maps","protocol":17,"map":"pl_badwater","folder":"tf","game":"Team Fortress","app_id":440,"player_count":21,"max_players":24,"Bots":0,"server_type":"Dedicated","server_os":"Linux","password":true,"vac":true,"version":"7961495","steam_id":85568392924504275,"keywords":["nocrits","nodmgspread","payload","uncletopia"],"game_id":440,"stv_port":27046,"stv_name":"Uncletopia | Frankfurt | 4 | All Maps | STV","players":[{"user_id":41,"name":"Henry Fonda","steam_id":76561199378865926,"connected_time":8045000000000,"state":"active","ping":86},{"user_id":180,"name":"failed poet","steam_id":76561198987041283,"connected_time":854000000000,"state":"active","ping":66},{"user_id":125,"name":"mt","steam_id":76561197961319303,"connected_time":4251000000000,"state":"active","ping":47},{"user_id":177,"name":"shit gaming","steam_id":76561198153877395,"connected_time":1181000000000,"state":"active","ping":85},{"user_id":186,"name":"Cypher","steam_id":76561197996967254,"connected_time":403000000000,"state":"active","ping":51},{"user_id":178,"name":"DeterminedXD[HUN]","steam_id":76561199469006453,"connected_time":1154000000000,"state":"active","ping":92},{"user_id":194,"name":"average furry gaymer","steam_id":76561199085624224,"connected_time":9000000000,"state":"active","ping":155},{"user_id":128,"name":"Mr. Masturbeast","steam_id":76561198942024930,"connected_time":3828000000000,"state":"active","ping":92},{"user_id":188,"name":"tea girl","steam_id":76561198068054530,"connected_time":363000000000,"state":"active","ping":73},{"user_id":158,"name":"ムGeRmAn |×UA×ム","steam_id":76561199044754898,"connected_time":2342000000000,"state":"active","ping":60},{"user_id":189,"name":"Daniel","steam_id":76561198055873312,"connected_time":272000000000,"state":"active","ping":49},{"user_id":176,"name":"huskey","steam_id":76561198152392309,"connected_time":1366000000000,"state":"active","ping":44},{"user_id":173,"name":"Shadowdrake88","steam_id":76561198113085367,"connected_time":1769000000000,"state":"active","ping":83},{"user_id":191,"name":"le'pablo","steam_id":76561199009805208,"connected_time":187000000000,"state":"active","ping":105},{"user_id":184,"name":"wouris","steam_id":76561198876188003,"connected_time":535000000000,"state":"active","ping":48},{"user_id":183,"name":"Varsk","steam_id":76561198061398890,"connected_time":651000000000,"state":"active","ping":57},{"user_id":135,"name":"Fat Pigeon","steam_id":76561198817940142,"connected_time":3232000000000,"state":"active","ping":48},{"user_id":91,"name":"Welder","steam_id":76561198355300561,"connected_time":6302000000000,"state":"active","ping":64},{"user_id":192,"name":"LOBZIK","steam_id":76561198114830120,"connected_time":125000000000,"state":"active","ping":80},{"user_id":167,"name":"Bruschetta","steam_id":76561198251927162,"connected_time":1973000000000,"state":"active","ping":59},{"user_id":193,"name":"Purple Soup :D","steam_id":76561198985100366,"connected_time":107000000000,"state":"active","ping":93}]},{"server_id":310,"name":"Uncletopia | Frankfurt | 5 | All Maps","name_short":"frk-5","host":"frk-1.de.uncletopia.com","port":27055,"enabled":true,"region":"eu","cc":"de","latitude":50.110924,"longitude":8.682127,"reserved":0,"last_update":"0001-01-01T00:00:00Z","name_a2s":"Uncletopia | Frankfurt | 5 | All Maps","protocol":17,"map":"cp_process_final","folder":"tf","game":"Team Fortress","app_id":440,"player_count":24,"max_players":24,"Bots":0,"server_type":"Dedicated","server_os":"Linux","password":true,"vac":true,"version":"7961495","steam_id":85568392924504277,"keywords":["cp","nocrits","nodmgspread","uncletopia"],"game_id":440,"stv_port":27056,"stv_name":"Uncletopia | Frankfurt | 5 | All Maps | STV","players":[{"user_id":203,"name":"GZimmer","steam_id":76561198088794767,"connected_time":1377000000000,"state":"active","ping":53},{"user_id":181,"name":"ehehehehehhe","steam_id":76561198044502435,"connected_time":4316000000000,"state":"active","ping":80},{"user_id":145,"name":"Unseen","steam_id":76561198154670360,"connected_time":6659000000000,"state":"active","ping":82},{"user_id":207,"name":"burgz","steam_id":76561198109955787,"connected_time":1078000000000,"state":"active","ping":56},{"user_id":164,"name":"Lordware","steam_id":76561198022011299,"connected_time":5694000000000,"state":"active","ping":98},{"user_id":218,"name":"Vitamin Weee","steam_id":76561199183937747,"connected_time":127000000000,"state":"active","ping":82},{"user_id":204,"name":"rajAs | Aoeitalia.com","steam_id":76561198035928111,"connected_time":1305000000000,"state":"active","ping":72},{"user_id":210,"name":"Aynas Slayerow","steam_id":76561198122300668,"connected_time":949000000000,"state":"active","ping":92},{"user_id":179,"name":"s a i","steam_id":76561197970379754,"connected_time":4333000000000,"state":"active","ping":56},{"user_id":161,"name":"roblan11","steam_id":76561198066839258,"connected_time":5732000000000,"state":"active","ping":44},{"user_id":190,"name":"Romultra","steam_id":76561198354105082,"connected_time":3493000000000,"state":"active","ping":57},{"user_id":219,"name":"Dragon","steam_id":76561198163255365,"connected_time":78000000000,"state":"active","ping":104},{"user_id":215,"name":"overpriced pitogyro","steam_id":76561199103991437,"connected_time":532000000000,"state":"active","ping":106},{"user_id":220,"name":"Sim","steam_id":76561198086641180,"connected_time":54000000000,"state":"active","ping":106},{"user_id":208,"name":"MaRo","steam_id":76561198992286676,"connected_time":1044000000000,"state":"active","ping":69},{"user_id":116,"name":"SuntanPikachu","steam_id":76561198121242476,"connected_time":7855000000000,"state":"active","ping":71},{"user_id":211,"name":"evegioyidechadab","steam_id":76561198075991626,"connected_time":864000000000,"state":"active","ping":62},{"user_id":212,"name":"sparkynerd","steam_id":76561199040106887,"connected_time":858000000000,"state":"active","ping":72},{"user_id":216,"name":"Deckard","steam_id":76561198004704647,"connected_time":263000000000,"state":"active","ping":73},{"user_id":167,"name":"mge brother","steam_id":76561198996092998,"connected_time":5445000000000,"state":"active","ping":85},{"user_id":193,"name":"soup","steam_id":76561198386933065,"connected_time":2906000000000,"state":"active","ping":55},{"user_id":221,"name":"Astolfo","steam_id":76561198354584982,"connected_time":28000000000,"state":"active","ping":59},{"user_id":168,"name":"AleXandriX","steam_id":76561198035203950,"connected_time":5209000000000,"state":"active","ping":62},{"user_id":214,"name":"Luuk","steam_id":76561198088266026,"connected_time":750000000000,"state":"active","ping":58}]},{"server_id":311,"name":"Uncletopia | Frankfurt | 6 | All Maps","name_short":"frk-6","host":"frk-1.de.uncletopia.com","port":27065,"enabled":true,"region":"eu","cc":"de","latitude":50.110924,"longitude":8.682127,"reserved":0,"last_update":"0001-01-01T00:00:00Z","name_a2s":"Uncletopia | Frankfurt | 6 | All Maps","protocol":17,"map":"koth_cascade","folder":"tf","game":"Team Fortress","app_id":440,"player_count":0,"max_players":24,"Bots":0,"server_type":"Dedicated","server_os":"Linux","password":true,"vac":true,"version":"7961495","steam_id":85568392924504278,"keywords":["cp","nocrits","nodmgspread","uncletopia"],"game_id":440,"stv_port":27066,"stv_name":"Uncletopia | Frankfurt | 6 | All Maps | STV","players":null},{"server_id":23,"name":"Uncletopia | Frankfurt | 7 | Stopwatch Beta","name_short":"frk-7","host":"frk-1.de.uncletopia.com","port":27075,"enabled":true,"region":"eu","cc":"de","latitude":50.110924,"longitude":8.682127,"reserved":0,"last_update":"0001-01-01T00:00:00Z","name_a2s":"Uncletopia | Frankfurt | 7 | Stopwatch Beta","protocol":17,"map":"koth_cascade","folder":"tf","game":"Team Fortress","app_id":440,"player_count":0,"max_players":24,"Bots":0,"server_type":"Dedicated","server_os":"Linux","password":true,"vac":true,"version":"7961495","steam_id":85568392924742827,"keywords":["cp","nocrits","nodmgspread","uncletopia"],"game_id":440,"stv_port":27076,"stv_name":"Uncletopia | Frankfurt | 7 | Stopwatch Beta | STV","players":null},{"server_id":24,"name":"Uncletopia | Frankfurt | 8 | Community","name_short":"frk-8","host":"frk-1.de.uncletopia.com","port":27085,"enabled":true,"region":"eu","cc":"de","latitude":50.110924,"longitude":8.682127,"reserved":0,"last_update":"0001-01-01T00:00:00Z","name_a2s":"Uncletopia | Frankfurt | 8 | Community","protocol":17,"map":"workshop/cp_indulge.ugc528106646","folder":"tf","game":"Team Fortress","app_id":440,"player_count":0,"max_players":24,"Bots":0,"server_type":"Dedicated","server_os":"Linux","password":true,"vac":true,"version":"7961495","steam_id":85568392924742828,"keywords":["cp","nocrits","nodmgspread","uncletopia"],"game_id":440,"stv_port":27086,"stv_name":"Uncletopia | Frankfurt | 8 | Community | STV","players":null},{"server_id":202,"name":"Uncletopia | Hong Kong | 1 | All Maps","name_short":"hgk-1","host":"hgk-1.hk.uncletopia.com","port":27015,"enabled":true,"region":"asia","cc":"hk","latitude":22.302711,"longitude":114.177216,"reserved":0,"last_update":"0001-01-01T00:00:00Z","name_a2s":"Uncletopia | Hong Kong | 1 | All Maps","protocol":17,"map":"pl_frontier_final","folder":"tf","game":"Team Fortress","app_id":440,"player_count":11,"max_players":24,"Bots":0,"server_type":"Dedicated","server_os":"Linux","password":true,"vac":true,"version":"7961495","steam_id":85568392924494504,"keywords":["nocrits","nodmgspread","payload","uncletopia"],"game_id":440,"stv_port":27016,"stv_name":"Uncletopia | Hong Kong | 1 | All Maps | STV","players":[{"user_id":304,"name":"母の肉団子@hao123.com","steam_id":76561198069561896,"connected_time":5801000000000,"state":"active","ping":45},{"user_id":381,"name":"Sam_So","steam_id":76561198970994835,"connected_time":38000000000,"state":"spawning","ping":40},{"user_id":371,"name":"Sophia the librarian werewolf","steam_id":76561199131651798,"connected_time":537000000000,"state":"active","ping":82},{"user_id":373,"name":"NOPE","steam_id":76561199244543572,"connected_time":531000000000,"state":"spawning","ping":33},{"user_id":363,"name":"arona (devbuild v0.69.2)","steam_id":76561199487160658,"connected_time":841000000000,"state":"active","ping":94},{"user_id":280,"name":"쿠키","steam_id":76561197997220367,"connected_time":8860000000000,"state":"active","ping":47},{"user_id":379,"name":"nyanCatsu","steam_id":76561198136675237,"connected_time":283000000000,"state":"active","ping":45},{"user_id":377,"name":"Armada","steam_id":76561198982405215,"connected_time":418000000000,"state":"active","ping":59},{"user_id":359,"name":"Kumaz","steam_id":76561199062190085,"connected_time":1064000000000,"state":"active","ping":58},{"user_id":308,"name":"Hay","steam_id":76561199438952901,"connected_time":5779000000000,"state":"active","ping":48},{"user_id":364,"name":"clori墮天地獄獸","steam_id":76561199146847474,"connected_time":830000000000,"state":"active","ping":48}]},{"server_id":1,"name":"Uncletopia | Los Angeles | 1 | All Maps","name_short":"lax-1","host":"lax-1.us.uncletopia.com","port":27015,"enabled":true,"region":"us-west","cc":"us","latitude":33.94279,"longitude":-118.41004,"reserved":0,"last_update":"0001-01-01T00:00:00Z","name_a2s":"Uncletopia | Los Angeles | 1 | All Maps","protocol":17,"map":"cp_altitude","folder":"tf","game":"Team Fortress","app_id":440,"player_count":0,"max_players":24,"Bots":0,"server_type":"Dedicated","server_os":"Linux","password":true,"vac":true,"version":"7961495","steam_id":85568392924469991,"keywords":["cp","nocrits","nodmgspread","uncletopia"],"game_id":440,"stv_port":27016,"stv_name":"Uncletopia | Los Angeles | 1 | All Maps | STV","players":null},{"server_id":112,"name":"Uncletopia | Los Angeles | 2 | All Maps","name_short":"lax-2","host":"lax-1.us.uncletopia.com","port":27025,"enabled":true,"region":"us-west","cc":"us","latitude":33.94279,"longitude":-118.41004,"reserved":0,"last_update":"0001-01-01T00:00:00Z","name_a2s":"Uncletopia | Los Angeles | 2 | All Maps","protocol":17,"map":"pl_borneo","folder":"tf","game":"Team Fortress","app_id":440,"player_count":0,"max_players":24,"Bots":0,"server_type":"Dedicated","server_os":"Linux","password":true,"vac":true,"version":"7961495","steam_id":85568392924469992,"keywords":["nocrits","nodmgspread","payload","uncletopia"],"game_id":440,"stv_port":27026,"stv_name":"Uncletopia | Los Angeles | 2 | All Maps | STV","players":null},{"server_id":324,"name":"Uncletopia | Los Angeles | 3 | All Maps","name_short":"lax-3","host":"lax-1.us.uncletopia.com","port":27035,"enabled":true,"region":"us-west","cc":"us","latitude":33.94279,"longitude":-118.41004,"reserved":0,"last_update":"0001-01-01T00:00:00Z","name_a2s":"Uncletopia | Los Angeles | 3 | All Maps","protocol":17,"map":"cp_process_final","folder":"tf","game":"Team Fortress","app_id":440,"player_count":0,"max_players":24,"Bots":0,"server_type":"Dedicated","server_os":"Linux","password":true,"vac":true,"version":"7961495","steam_id":85568392924510198,"keywords":["cp","nocrits","nodmgspread","uncletopia"],"game_id":440,"stv_port":27036,"stv_name":"Uncletopia | Los Angeles | 3 | All Maps | STV","players":null},{"server_id":25,"name":"Uncletopia | Los Angeles | 4 | Stopwatch Beta","name_short":"lax-4","host":"lax-1.us.uncletopia.com","port":27045,"enabled":true,"region":"us-west","cc":"us","latitude":33.94279,"longitude":-118.41004,"reserved":0,"last_update":"0001-01-01T00:00:00Z","name_a2s":"Uncletopia | Los Angeles | 4 | Stopwatch Beta","protocol":17,"map":"pl_upward","folder":"tf","game":"Team Fortress","app_id":440,"player_count":0,"max_players":24,"Bots":0,"server_type":"Dedicated","server_os":"Linux","password":true,"vac":true,"version":"7961495","steam_id":85568392924510199,"keywords":["nocrits","nodmgspread","payload","uncletopia"],"game_id":440,"stv_port":27046,"stv_name":"Uncletopia | Los Angeles | 4 | Stopwatch Beta | STV","players":null},{"server_id":11,"name":"Uncletopia | London | 1 | All Maps","name_short":"lon-1","host":"lon-1.uk.uncletopia.com","port":27015,"enabled":true,"region":"eu","cc":"gb","latitude":51.509865,"longitude":-0.118092,"reserved":0,"last_update":"0001-01-01T00:00:00Z","name_a2s":"Uncletopia | London | 1 | All Maps","protocol":17,"map":"pl_upward","folder":"tf","game":"Team Fortress","app_id":440,"player_count":24,"max_players":24,"Bots":0,"server_type":"Dedicated","server_os":"Linux","password":true,"vac":true,"version":"7961495","steam_id":85568392924367362,"keywords":["nocrits","nodmgspread","payload","uncletopia"],"game_id":440,"stv_port":27016,"stv_name":"Uncletopia | London | 1 | All Maps | STV","players":[{"user_id":172,"name":"fabacher","steam_id":76561198057905272,"connected_time":2349000000000,"state":"active","ping":60},{"user_id":196,"name":"skill based","steam_id":76561198341178432,"connected_time":964000000000,"state":"active","ping":63},{"user_id":243,"name":"Kreygan","steam_id":76561198014580270,"connected_time":216000000000,"state":"active","ping":72},{"user_id":159,"name":"Umbraprism","steam_id":76561197984504910,"connected_time":3307000000000,"state":"active","ping":56},{"user_id":218,"name":"axalotly-gaming","steam_id":76561199131971501,"connected_time":697000000000,"state":"active","ping":96},{"user_id":72,"name":"Ullr","steam_id":76561198140547483,"connected_time":9476000000000,"state":"active","ping":45},{"user_id":212,"name":"DwoaC","steam_id":76561198005686118,"connected_time":751000000000,"state":"active","ping":70},{"user_id":203,"name":"TriaxelStew","steam_id":76561198201701331,"connected_time":888000000000,"state":"active","ping":49},{"user_id":126,"name":"Average Medic Enjoyer","steam_id":76561198048867302,"connected_time":5236000000000,"state":"active","ping":63},{"user_id":246,"name":"Mammut","steam_id":76561198056773933,"connected_time":21000000000,"state":"spawning","ping":61},{"user_id":237,"name":"Mister_fLeXsS","steam_id":76561198075613556,"connected_time":317000000000,"state":"active","ping":104},{"user_id":188,"name":"Golden Boy","steam_id":76561198049072159,"connected_time":1638000000000,"state":"active","ping":346},{"user_id":187,"name":"Irme","steam_id":76561198161590299,"connected_time":1673000000000,"state":"active","ping":78},{"user_id":189,"name":"cinder block enthusiast","steam_id":76561199062160061,"connected_time":1537000000000,"state":"active","ping":51},{"user_id":192,"name":"Mav","steam_id":76561198004403881,"connected_time":1250000000000,"state":"active","ping":72},{"user_id":198,"name":"LUXXOR","steam_id":76561198056665315,"connected_time":947000000000,"state":"active","ping":284},{"user_id":77,"name":"Grillem Dafoe","steam_id":76561198306874574,"connected_time":8862000000000,"state":"active","ping":65},{"user_id":150,"name":"scrunt","steam_id":76561198128250460,"connected_time":3665000000000,"state":"active","ping":113},{"user_id":169,"name":"The Daniella","steam_id":76561198023075547,"connected_time":2547000000000,"state":"active","ping":61},{"user_id":175,"name":"krayy (she/her)","steam_id":76561198035037830,"connected_time":2314000000000,"state":"active","ping":56},{"user_id":176,"name":"cazador","steam_id":76561198123096922,"connected_time":2305000000000,"state":"active","ping":102},{"user_id":191,"name":"Voxel","steam_id":76561199225333422,"connected_time":1449000000000,"state":"active","ping":152},{"user_id":185,"name":"Anadddest","steam_id":76561198992528373,"connected_time":1849000000000,"state":"active","ping":78},{"user_id":195,"name":"madijo","steam_id":76561198012617400,"connected_time":981000000000,"state":"active","ping":72}]},{"server_id":114,"name":"Uncletopia | London | 2 | All Maps","name_short":"lon-2","host":"lon-1.uk.uncletopia.com","port":27025,"enabled":true,"region":"eu","cc":"gb","latitude":51.509865,"longitude":-0.118092,"reserved":0,"last_update":"0001-01-01T00:00:00Z","name_a2s":"Uncletopia | London | 2 | All Maps","protocol":17,"map":"pl_frontier_final","folder":"tf","game":"Team Fortress","app_id":440,"player_count":11,"max_players":24,"Bots":0,"server_type":"Dedicated","server_os":"Linux","password":true,"vac":true,"version":"7961495","steam_id":85568392924470941,"keywords":["nocrits","nodmgspread","payload","uncletopia"],"game_id":440,"stv_port":27026,"stv_name":"Uncletopia | London | 2 | All Maps | STV","players":[{"user_id":72,"name":"hammertime","steam_id":76561199097714393,"connected_time":16000000000,"state":"active","ping":164},{"user_id":61,"name":"alien","steam_id":76561197968892194,"connected_time":980000000000,"state":"active","ping":45},{"user_id":31,"name":"quickfast","steam_id":76561199438900919,"connected_time":2607000000000,"state":"active","ping":40},{"user_id":24,"name":"Nickel","steam_id":76561199037745941,"connected_time":3389000000000,"state":"active","ping":138},{"user_id":69,"name":"Pomson 6000","steam_id":76561198344588858,"connected_time":416000000000,"state":"active","ping":48},{"user_id":32,"name":"God´s Cock","steam_id":76561198058947923,"connected_time":2593000000000,"state":"active","ping":61},{"user_id":64,"name":"The Worst TF2 Player (Real)","steam_id":76561199230635041,"connected_time":706000000000,"state":"active","ping":53},{"user_id":65,"name":"mesλ","steam_id":76561198324582918,"connected_time":673000000000,"state":"active","ping":93},{"user_id":48,"name":"Your Local Pybro","steam_id":76561198801472157,"connected_time":2064000000000,"state":"active","ping":44},{"user_id":63,"name":"Skuld","steam_id":76561198064734905,"connected_time":862000000000,"state":"active","ping":119},{"user_id":56,"name":"Spinya","steam_id":76561198086653667,"connected_time":1901000000000,"state":"active","ping":60}]},{"server_id":320,"name":"Uncletopia | London | 3 | All Maps","name_short":"lon-3","host":"lon-1.uk.uncletopia.com","port":27035,"enabled":true,"region":"eu","cc":"gb","latitude":51.509865,"longitude":-0.118092,"reserved":0,"last_update":"0001-01-01T00:00:00Z","name_a2s":"Uncletopia | London | 3 | All Maps","protocol":17,"map":"cp_foundry","folder":"tf","game":"Team Fortress","app_id":440,"player_count":7,"max_players":24,"Bots":0,"server_type":"Dedicated","server_os":"Linux","password":true,"vac":true,"version":"7961495","steam_id":85568392924510192,"keywords":["cp","nocrits","nodmgspread","uncletopia"],"game_id":440,"stv_port":27036,"stv_name":"Uncletopia | London | 3 | All Maps | STV","players":[{"user_id":18,"name":"Tx_madmash","steam_id":76561198924656512,"connected_time":1342000000000,"state":"active","ping":101},{"user_id":17,"name":"Secretti","steam_id":76561198151480179,"connected_time":2052000000000,"state":"active","ping":104},{"user_id":27,"name":"Boku no Pico best anime","steam_id":76561199195214616,"connected_time":231000000000,"state":"active","ping":54},{"user_id":28,"name":"Male_07","steam_id":76561198079411460,"connected_time":227000000000,"state":"active","ping":50},{"user_id":25,"name":"I-I","steam_id":76561198267969436,"connected_time":525000000000,"state":"active","ping":70},{"user_id":26,"name":"resu eht","steam_id":76561198978262040,"connected_time":428000000000,"state":"active","ping":76},{"user_id":29,"name":"nemelex","steam_id":76561198958005865,"connected_time":136000000000,"state":"active","ping":59}]},{"server_id":321,"name":"Uncletopia | London | 4 | All Maps","name_short":"lon-4","host":"lon-1.uk.uncletopia.com","port":27045,"enabled":true,"region":"eu","cc":"gb","latitude":51.509865,"longitude":-0.118092,"reserved":0,"last_update":"0001-01-01T00:00:00Z","name_a2s":"Uncletopia | London | 4 | All Maps","protocol":17,"map":"pl_upward","folder":"tf","game":"Team Fortress","app_id":440,"player_count":24,"max_players":24,"Bots":0,"server_type":"Dedicated","server_os":"Linux","password":true,"vac":true,"version":"7961495","steam_id":85568392924510193,"keywords":["nocrits","nodmgspread","payload","uncletopia"],"game_id":440,"stv_port":27046,"stv_name":"Uncletopia | London | 4 | All Maps | STV","players":[{"user_id":127,"name":"Brinier","steam_id":76561199012604288,"connected_time":358000000000,"state":"active","ping":73},{"user_id":120,"name":"skullhead289","steam_id":76561199086481600,"connected_time":1336000000000,"state":"active","ping":39},{"user_id":89,"name":"Mirage","steam_id":76561199013190566,"connected_time":2845000000000,"state":"active","ping":47},{"user_id":106,"name":"GlueTasty {she/her}","steam_id":76561199086480891,"connected_time":1791000000000,"state":"active","ping":82},{"user_id":107,"name":"Skatnaset","steam_id":76561198298457353,"connected_time":1781000000000,"state":"active","ping":70},{"user_id":79,"name":"romaingallo","steam_id":76561198268112907,"connected_time":3761000000000,"state":"active","ping":58},{"user_id":114,"name":"your_local_penguin","steam_id":76561199224954346,"connected_time":1571000000000,"state":"active","ping":104},{"user_id":108,"name":"Kjat","steam_id":76561198839433592,"connected_time":1706000000000,"state":"active","ping":60},{"user_id":92,"name":"Zambiealex","steam_id":76561198356826485,"connected_time":2227000000000,"state":"active","ping":50},{"user_id":104,"name":"ArikMor","steam_id":76561199124472513,"connected_time":1878000000000,"state":"active","ping":116},{"user_id":94,"name":"gronk","steam_id":76561199031539961,"connected_time":2181000000000,"state":"active","ping":101},{"user_id":105,"name":"Ixsus\u003c3","steam_id":76561198094756869,"connected_time":1874000000000,"state":"active","ping":61},{"user_id":128,"name":"Grand Piano Tuna","steam_id":76561198135137213,"connected_time":334000000000,"state":"active","ping":150},{"user_id":123,"name":"we're running out of monster","steam_id":76561199065336628,"connected_time":1067000000000,"state":"active","ping":84},{"user_id":125,"name":"Princess Fuzz","steam_id":76561198025783000,"connected_time":846000000000,"state":"active","ping":35},{"user_id":124,"name":"Orpheus","steam_id":76561198442035906,"connected_time":957000000000,"state":"active","ping":59},{"user_id":126,"name":"Steebox","steam_id":76561198035110097,"connected_time":820000000000,"state":"active","ping":73},{"user_id":129,"name":"Geoff the Oracle","steam_id":76561198053759965,"connected_time":292000000000,"state":"active","ping":60},{"user_id":130,"name":"Charles Darwin","steam_id":76561197973496139,"connected_time":288000000000,"state":"active","ping":69},{"user_id":133,"name":"Spurt","steam_id":76561198078523852,"connected_time":128000000000,"state":"active","ping":54},{"user_id":132,"name":"Miss Bari","steam_id":76561198365286092,"connected_time":134000000000,"state":"active","ping":44},{"user_id":115,"name":"Jack","steam_id":76561198079575891,"connected_time":1551000000000,"state":"active","ping":46},{"user_id":118,"name":"Verin","steam_id":76561199440799610,"connected_time":1486000000000,"state":"active","ping":88},{"user_id":122,"name":"Dystopia","steam_id":76561198180975126,"connected_time":1261000000000,"state":"active","ping":61}]},{"server_id":21,"name":"Uncletopia | London | 5 | All Maps","name_short":"lon-5","host":"lon-1.uk.uncletopia.com","port":27055,"enabled":true,"region":"eu","cc":"gb","latitude":51.509865,"longitude":-0.118092,"reserved":0,"last_update":"0001-01-01T00:00:00Z","name_a2s":"Uncletopia | London | 5 | All Maps","protocol":17,"map":"pl_barnblitz","folder":"tf","game":"Team Fortress","app_id":440,"player_count":2,"max_players":24,"Bots":0,"server_type":"Dedicated","server_os":"Linux","password":true,"vac":true,"version":"7961495","steam_id":85568392924742829,"keywords":["nocrits","nodmgspread","payload","uncletopia"],"game_id":440,"stv_port":27056,"stv_name":"Uncletopia | London | 5 | All Maps | STV","players":[{"user_id":7,"name":"onlyoneskumbag","steam_id":76561199453432269,"connected_time":436000000000,"state":"active","ping":41},{"user_id":8,"name":"Beauford333","steam_id":76561199229732049,"connected_time":385000000000,"state":"active","ping":57}]},{"server_id":22,"name":"Uncletopia | London | 6 | All Maps","name_short":"lon-6","host":"lon-1.uk.uncletopia.com","port":27065,"enabled":true,"region":"eu","cc":"gb","latitude":51.509865,"longitude":-0.118092,"reserved":0,"last_update":"0001-01-01T00:00:00Z","name_a2s":"Uncletopia | London | 6 | All Maps","protocol":17,"map":"pl_frontier_final","folder":"tf","game":"Team Fortress","app_id":440,"player_count":24,"max_players":24,"Bots":0,"server_type":"Dedicated","server_os":"Linux","password":true,"vac":true,"version":"7961495","steam_id":85568392924742830,"keywords":["nocrits","nodmgspread","payload","uncletopia"],"game_id":440,"stv_port":27066,"stv_name":"Uncletopia | London | 6 | All Maps | STV","players":[{"user_id":131,"name":"Andy","steam_id":76561198046918834,"connected_time":3731000000000,"state":"active","ping":59},{"user_id":192,"name":"Spawn","steam_id":76561199119237023,"connected_time":476000000000,"state":"active","ping":66},{"user_id":110,"name":"SparteonRage","steam_id":76561197963401834,"connected_time":4830000000000,"state":"active","ping":57},{"user_id":77,"name":"Ash","steam_id":76561198148738525,"connected_time":7423000000000,"state":"active","ping":102},{"user_id":169,"name":"Hoodley","steam_id":76561198066974902,"connected_time":1747000000000,"state":"active","ping":91},{"user_id":190,"name":"africain communauté","steam_id":76561198798803845,"connected_time":775000000000,"state":"active","ping":51},{"user_id":188,"name":"Lukgames","steam_id":76561198341496232,"connected_time":1028000000000,"state":"active","ping":98},{"user_id":161,"name":"flub_","steam_id":76561198337519315,"connected_time":2048000000000,"state":"active","ping":46},{"user_id":178,"name":"dozer58","steam_id":76561198133812159,"connected_time":1380000000000,"state":"active","ping":100},{"user_id":176,"name":"Asfreild","steam_id":76561198055901120,"connected_time":1424000000000,"state":"active","ping":72},{"user_id":134,"name":"The Builder","steam_id":76561198403959663,"connected_time":3508000000000,"state":"active","ping":98},{"user_id":135,"name":"klefedroniarz thc","steam_id":76561198087437472,"connected_time":3446000000000,"state":"active","ping":70},{"user_id":191,"name":"𝕸𝖆𝖑𝖊𝖋","steam_id":76561198999963900,"connected_time":535000000000,"state":"active","ping":133},{"user_id":170,"name":"t0ast","steam_id":76561198141722573,"connected_time":1706000000000,"state":"active","ping":44},{"user_id":196,"name":"mq","steam_id":76561198091888948,"connected_time":39000000000,"state":"active","ping":54},{"user_id":173,"name":"lidl","steam_id":76561198895235231,"connected_time":1605000000000,"state":"active","ping":54},{"user_id":195,"name":"EpicSwag2010","steam_id":76561199025892770,"connected_time":85000000000,"state":"active","ping":91},{"user_id":33,"name":"♂ Animan ♂ Studios ♂","steam_id":76561198308302932,"connected_time":10805000000000,"state":"active","ping":99},{"user_id":123,"name":"Real (Real)","steam_id":76561198323425034,"connected_time":4308000000000,"state":"active","ping":85},{"user_id":124,"name":"Syd","steam_id":76561198020515027,"connected_time":4232000000000,"state":"active","ping":76},{"user_id":155,"name":"Puss in Boots","steam_id":76561198211599767,"connected_time":2615000000000,"state":"active","ping":51},{"user_id":45,"name":"hyvakii705","steam_id":76561198086630552,"connected_time":10082000000000,"state":"active","ping":91},{"user_id":180,"name":"avenje","steam_id":76561198155824845,"connected_time":1226000000000,"state":"active","ping":55},{"user_id":186,"name":"Lilliputt","steam_id":76561198090146457,"connected_time":1086000000000,"state":"active","ping":44}]},{"server_id":40,"name":"Uncletopia | London | 7 | No Payload","name_short":"lon-7","host":"lon-1.uk.uncletopia.com","port":27075,"enabled":true,"region":"eu","cc":"gb","latitude":51.509865,"longitude":-0.118092,"reserved":0,"last_update":"0001-01-01T00:00:00Z","name_a2s":"Uncletopia | London | 7 | No Payload","protocol":17,"map":"cp_badlands","folder":"tf","game":"Team Fortress","app_id":440,"player_count":21,"max_players":24,"Bots":0,"server_type":"Dedicated","server_os":"Linux","password":true,"vac":true,"version":"7961495","steam_id":85568392924964314,"keywords":["cp","nocrits","nodmgspread","uncletopia"],"game_id":440,"stv_port":27076,"stv_name":"Uncletopia | London | 7 | No Payload | STV","players":[{"user_id":113,"name":"poopshitter9000","steam_id":76561198074624639,"connected_time":14000000000,"state":"active","ping":187},{"user_id":80,"name":"ShadowVincent","steam_id":76561198950588763,"connected_time":1721000000000,"state":"active","ping":76},{"user_id":79,"name":"dame","steam_id":76561199057279551,"connected_time":1983000000000,"state":"active","ping":60},{"user_id":90,"name":"IronHawk✨","steam_id":76561198008959448,"connected_time":1112000000000,"state":"active","ping":75},{"user_id":81,"name":"david.klemen","steam_id":76561198382246222,"connected_time":1591000000000,"state":"active","ping":84},{"user_id":16,"name":"WHUSSKEY","steam_id":76561198137827441,"connected_time":4853000000000,"state":"active","ping":79},{"user_id":44,"name":"A fish and sea","steam_id":76561198194745827,"connected_time":4321000000000,"state":"active","ping":59},{"user_id":99,"name":"Silvestro","steam_id":76561198021660066,"connected_time":601000000000,"state":"active","ping":82},{"user_id":106,"name":"Jeffrey Harpen","steam_id":76561199073314677,"connected_time":329000000000,"state":"active","ping":77},{"user_id":112,"name":"boneez","steam_id":76561198186800982,"connected_time":113000000000,"state":"active","ping":60},{"user_id":105,"name":"hud_saytext_time 0","steam_id":76561198010327228,"connected_time":390000000000,"state":"active","ping":72},{"user_id":107,"name":"skille","steam_id":76561198005794325,"connected_time":313000000000,"state":"active","ping":72},{"user_id":104,"name":"Sky Tree","steam_id":76561198027103242,"connected_time":468000000000,"state":"active","ping":108},{"user_id":101,"name":"wrpipe","steam_id":76561198854305411,"connected_time":558000000000,"state":"active","ping":57},{"user_id":108,"name":"Eltonius","steam_id":76561198157560715,"connected_time":307000000000,"state":"active","ping":85},{"user_id":89,"name":"я сосал меня ебал","steam_id":76561197971140507,"connected_time":1214000000000,"state":"active","ping":61},{"user_id":91,"name":"Hatonfire","steam_id":76561198287372060,"connected_time":1063000000000,"state":"active","ping":47},{"user_id":109,"name":"._.","steam_id":76561198300316801,"connected_time":267000000000,"state":"active","ping":106},{"user_id":93,"name":"Kkikok","steam_id":76561198055767709,"connected_time":1023000000000,"state":"active","ping":72},{"user_id":110,"name":"TomNoSocks","steam_id":76561198114071046,"connected_time":266000000000,"state":"active","ping":60},{"user_id":96,"name":"Zyliath","steam_id":76561198245083212,"connected_time":862000000000,"state":"active","ping":98}]},{"server_id":41,"name":"Uncletopia | London | 8 | Community","name_short":"lon-8","host":"lon-1.uk.uncletopia.com","port":27085,"enabled":true,"region":"eu","cc":"gb","latitude":51.509865,"longitude":-0.118092,"reserved":0,"last_update":"0001-01-01T00:00:00Z","name_a2s":"Uncletopia | London | 8 | Community","protocol":17,"map":"workshop/cp_fulgur_rc2a.ugc2068252300","folder":"tf","game":"Team Fortress","app_id":440,"player_count":0,"max_players":24,"Bots":0,"server_type":"Dedicated","server_os":"Linux","password":true,"vac":true,"version":"7961495","steam_id":85568392924964315,"keywords":["cp","nocrits","nodmgspread","uncletopia"],"game_id":440,"stv_port":27086,"stv_name":"Uncletopia | London | 8 | Community | STV","players":null},{"server_id":300,"name":"Uncletopia | Montréal | 1 | All Maps","name_short":"mtl-1","host":"mtl-1.ca.uncletopia.com","port":27015,"enabled":true,"region":"us-east","cc":"ca","latitude":45.50889,"longitude":-73.56167,"reserved":0,"last_update":"0001-01-01T00:00:00Z","name_a2s":"Uncletopia | Montréal | 1 | All Maps","protocol":17,"map":"pl_swiftwater_final1","folder":"tf","game":"Team Fortress","app_id":440,"player_count":0,"max_players":24,"Bots":0,"server_type":"Dedicated","server_os":"Linux","password":true,"vac":true,"version":"7961495","steam_id":85568392924500087,"keywords":["nocrits","nodmgspread","payload","uncletopia"],"game_id":440,"stv_port":27016,"stv_name":"Uncletopia | Montréal | 1 | All Maps | STV","players":null},{"server_id":301,"name":"Uncletopia | Montréal | 2 | All Maps","name_short":"mtl-2","host":"mtl-1.ca.uncletopia.com","port":27025,"enabled":true,"region":"us-east","cc":"ca","latitude":45.50889,"longitude":-73.56167,"reserved":0,"last_update":"0001-01-01T00:00:00Z","name_a2s":"Uncletopia | Montréal | 2 | All Maps","protocol":17,"map":"cp_dustbowl","folder":"tf","game":"Team Fortress","app_id":440,"player_count":0,"max_players":24,"Bots":0,"server_type":"Dedicated","server_os":"Linux","password":true,"vac":true,"version":"7961495","steam_id":85568392924500088,"keywords":["cp","nocrits","nodmgspread","uncletopia"],"game_id":440,"stv_port":27026,"stv_name":"Uncletopia | Montréal | 2 | All Maps | STV","players":null},{"server_id":302,"name":"Uncletopia | Montréal | 3 | All Maps","name_short":"mtl-3","host":"mtl-1.ca.uncletopia.com","port":27035,"enabled":true,"region":"us-east","cc":"ca","latitude":45.50889,"longitude":-73.56167,"reserved":0,"last_update":"0001-01-01T00:00:00Z","name_a2s":"Uncletopia | Montréal | 3 | All Maps","protocol":17,"map":"koth_cascade","folder":"tf","game":"Team Fortress","app_id":440,"player_count":0,"max_players":24,"Bots":0,"server_type":"Dedicated","server_os":"Linux","password":true,"vac":true,"version":"7961495","steam_id":85568392924500089,"keywords":["cp","nocrits","nodmgspread","uncletopia"],"game_id":440,"stv_port":27036,"stv_name":"Uncletopia | Montréal | 3 | All Maps | STV","players":null},{"server_id":303,"name":"Uncletopia | Montréal | 4 | No Payload","name_short":"mtl-4","host":"mtl-1.ca.uncletopia.com","port":27045,"enabled":true,"region":"us-east","cc":"ca","latitude":45.50889,"longitude":-73.56167,"reserved":0,"last_update":"0001-01-01T00:00:00Z","name_a2s":"Uncletopia | Montréal | 4 | No Payload","protocol":17,"map":"koth_lakeside_final","folder":"tf","game":"Team Fortress","app_id":440,"player_count":0,"max_players":24,"Bots":0,"server_type":"Dedicated","server_os":"Linux","password":true,"vac":true,"version":"7961495","steam_id":85568392924500090,"keywords":["cp","nocrits","nodmgspread","uncletopia"],"game_id":440,"stv_port":27046,"stv_name":"Uncletopia | Montréal | 4 | No Payload | STV","players":null},{"server_id":13,"name":"Uncletopia | New York City | 1 | All Maps","name_short":"nyc-1","host":"nyc-1.us.uncletopia.com","port":27015,"enabled":true,"region":"us-east","cc":"us","latitude":40.73061,"longitude":-73.93524,"reserved":0,"last_update":"0001-01-01T00:00:00Z","name_a2s":"Uncletopia | New York City | 1 | All Maps","protocol":17,"map":"pl_badwater","folder":"tf","game":"Team Fortress","app_id":440,"player_count":0,"max_players":24,"Bots":0,"server_type":"Dedicated","server_os":"Linux","password":true,"vac":true,"version":"7961495","steam_id":85568392924469993,"keywords":["nocrits","nodmgspread","payload","uncletopia"],"game_id":440,"stv_port":27016,"stv_name":"Uncletopia | New York City | 1 | All Maps | STV","players":null},{"server_id":14,"name":"Uncletopia | New York City | 2 | All Maps","name_short":"nyc-2","host":"nyc-1.us.uncletopia.com","port":27025,"enabled":true,"region":"us-east","cc":"us","latitude":40.73061,"longitude":-73.93524,"reserved":0,"last_update":"0001-01-01T00:00:00Z","name_a2s":"Uncletopia | New York City | 2 | All Maps","protocol":17,"map":"pl_frontier_final","folder":"tf","game":"Team Fortress","app_id":440,"player_count":0,"max_players":24,"Bots":0,"server_type":"Dedicated","server_os":"Linux","password":true,"vac":true,"version":"7961495","steam_id":85568392924469994,"keywords":["nocrits","nodmgspread","payload","uncletopia"],"game_id":440,"stv_port":27026,"stv_name":"Uncletopia | New York City | 2 | All Maps | STV","players":null},{"server_id":15,"name":"Uncletopia | New York City | 3 | Stopwatch Beta","name_short":"nyc-3","host":"nyc-1.us.uncletopia.com","port":27035,"enabled":true,"region":"us-east","cc":"us","latitude":40.73061,"longitude":-73.93524,"reserved":0,"last_update":"0001-01-01T00:00:00Z","name_a2s":"Uncletopia | New York City | 3 | Stopwatch Beta","protocol":17,"map":"cp_mountainlab","folder":"tf","game":"Team Fortress","app_id":440,"player_count":0,"max_players":24,"Bots":0,"server_type":"Dedicated","server_os":"Linux","password":true,"vac":true,"version":"7961495","steam_id":85568392924742820,"keywords":["cp","nocrits","nodmgspread","uncletopia"],"game_id":440,"stv_port":27036,"stv_name":"Uncletopia | New York City | 3 | Stopwatch Beta | STV","players":null},{"server_id":16,"name":"Uncletopia | New York City | 4 | Community","name_short":"nyc-4","host":"nyc-1.us.uncletopia.com","port":27045,"enabled":true,"region":"us-east","cc":"us","latitude":40.73061,"longitude":-73.93524,"reserved":0,"last_update":"0001-01-01T00:00:00Z","name_a2s":"Uncletopia | New York City | 4 | Community","protocol":17,"map":"koth_lakeside_final","folder":"tf","game":"Team Fortress","app_id":440,"player_count":0,"max_players":24,"Bots":0,"server_type":"Dedicated","server_os":"Linux","password":true,"vac":true,"version":"7961495","steam_id":85568392924742821,"keywords":["cp","nocrits","nodmgspread","uncletopia"],"game_id":440,"stv_port":27046,"stv_name":"Uncletopia | New York City | 4 | Community | STV","players":null},{"server_id":142,"name":"Uncletopia | São Paulo | 1 | All Maps","name_short":"sao-1","host":"sao-1.br.uncletopia.com","port":27015,"enabled":true,"region":"sa","cc":"br","latitude":-23.533773,"longitude":-46.62529,"reserved":0,"last_update":"0001-01-01T00:00:00Z","name_a2s":"Uncletopia | São Paulo | 1 | All Maps","protocol":17,"map":"koth_highpass","folder":"tf","game":"Team Fortress","app_id":440,"player_count":0,"max_players":24,"Bots":0,"server_type":"Dedicated","server_os":"Linux","password":true,"vac":true,"version":"7961495","steam_id":85568392924469996,"keywords":["cp","nocrits","nodmgspread","uncletopia"],"game_id":440,"stv_port":27016,"stv_name":"Uncletopia | São Paulo | 1 | All Maps | STV","players":null},{"server_id":143,"name":"Uncletopia | São Paulo | 2 | Community","name_short":"sao-2","host":"sao-2.br.uncletopia.com","port":27015,"enabled":true,"region":"sa","cc":"br","latitude":-23.533773,"longitude":-46.62529,"reserved":0,"last_update":"0001-01-01T00:00:00Z","name_a2s":"Uncletopia | São Paulo | 2 | Community","protocol":17,"map":"cp_snakewater_final1","folder":"tf","game":"Team Fortress","app_id":440,"player_count":0,"max_players":24,"Bots":0,"server_type":"Dedicated","server_os":"Linux","password":true,"vac":true,"version":"7961495","steam_id":85568392924485349,"keywords":["cp","nocrits","nodmgspread","uncletopia"],"game_id":440,"stv_port":27016,"stv_name":"Uncletopia | São Paulo | 2 | Community | STV","players":null},{"server_id":7,"name":"Uncletopia | Seattle | 1 | All Maps","name_short":"sea-1","host":"sea-1.us.uncletopia.com","port":27015,"enabled":true,"region":"us-west","cc":"us","latitude":47.608013,"longitude":-122.33517,"reserved":0,"last_update":"0001-01-01T00:00:00Z","name_a2s":"Uncletopia | Seattle | 1 | All Maps","protocol":17,"map":"koth_lakeside_final","folder":"tf","game":"Team Fortress","app_id":440,"player_count":0,"max_players":24,"Bots":0,"server_type":"Dedicated","server_os":"Linux","password":true,"vac":true,"version":"7961495","steam_id":85568392924469997,"keywords":["cp","nocrits","nodmgspread","uncletopia"],"game_id":440,"stv_port":27016,"stv_name":"Uncletopia | Seattle | 1 | All Maps | STV","players":null},{"server_id":119,"name":"Uncletopia | Seattle | 2 | All Maps","name_short":"sea-2","host":"sea-1.us.uncletopia.com","port":27025,"enabled":true,"region":"us-west","cc":"us","latitude":47.608013,"longitude":-122.33517,"reserved":0,"last_update":"0001-01-01T00:00:00Z","name_a2s":"Uncletopia | Seattle | 2 | All Maps","protocol":17,"map":"ctf_landfall","folder":"tf","game":"Team Fortress","app_id":440,"player_count":24,"max_players":24,"Bots":0,"server_type":"Dedicated","server_os":"Linux","password":true,"vac":true,"version":"7961495","steam_id":85568392924469998,"keywords":["ctf","nocrits","nodmgspread","uncletopia"],"game_id":440,"stv_port":27026,"stv_name":"Uncletopia | Seattle | 2 | All Maps | STV","players":[{"user_id":152,"name":"VixianUwU","steam_id":76561198948815060,"connected_time":1623000000000,"state":"active","ping":77},{"user_id":161,"name":"Outta Kenya","steam_id":76561198153604875,"connected_time":946000000000,"state":"active","ping":64},{"user_id":120,"name":"Hottodoggu","steam_id":76561198084080712,"connected_time":3336000000000,"state":"active","ping":97},{"user_id":124,"name":"dust | she/it","steam_id":76561198045218909,"connected_time":2694000000000,"state":"active","ping":44},{"user_id":114,"name":"Feet Gangbang (Ascended)","steam_id":76561198873979109,"connected_time":4450000000000,"state":"active","ping":53},{"user_id":125,"name":"ian","steam_id":76561198119616750,"connected_time":2676000000000,"state":"active","ping":122},{"user_id":157,"name":"oo","steam_id":76561198119626492,"connected_time":1303000000000,"state":"active","ping":71},{"user_id":174,"name":"harkz!","steam_id":76561198084847056,"connected_time":490000000000,"state":"active","ping":90},{"user_id":134,"name":"Enkinanna","steam_id":76561198045965821,"connected_time":2503000000000,"state":"active","ping":119},{"user_id":155,"name":"atmBomb","steam_id":76561198055557988,"connected_time":1419000000000,"state":"active","ping":104},{"user_id":176,"name":"NotThatGuyPal","steam_id":76561199127607812,"connected_time":77000000000,"state":"active","ping":77},{"user_id":175,"name":"GhostBomb","steam_id":76561198058197782,"connected_time":475000000000,"state":"active","ping":70},{"user_id":79,"name":"Goose","steam_id":76561198036774894,"connected_time":6206000000000,"state":"active","ping":58},{"user_id":148,"name":"Lemon","steam_id":76561198119362095,"connected_time":1841000000000,"state":"active","ping":102},{"user_id":159,"name":"Cave Dweller","steam_id":76561198374825685,"connected_time":1165000000000,"state":"active","ping":73},{"user_id":169,"name":"Demoman","steam_id":76561199144302768,"connected_time":641000000000,"state":"active","ping":118},{"user_id":177,"name":"Bun Shapiro","steam_id":76561198158725023,"connected_time":59000000000,"state":"active","ping":87},{"user_id":178,"name":"Daz","steam_id":76561198041431938,"connected_time":38000000000,"state":"active","ping":50},{"user_id":172,"name":"☆Ruke☆","steam_id":76561198072441047,"connected_time":541000000000,"state":"active","ping":63},{"user_id":165,"name":"Skabbety","steam_id":76561198168044257,"connected_time":772000000000,"state":"active","ping":45},{"user_id":168,"name":"Hindmost","steam_id":76561199081837220,"connected_time":669000000000,"state":"active","ping":115},{"user_id":149,"name":"BetoelAff es","steam_id":76561198377842585,"connected_time":1831000000000,"state":"active","ping":148},{"user_id":181,"name":"lil boogie","steam_id":76561198064059721,"connected_time":13000000000,"state":"spawning","ping":36},{"user_id":173,"name":"LeRoy42","steam_id":76561198035591428,"connected_time":521000000000,"state":"active","ping":123}]},{"server_id":406,"name":"Uncletopia | Seattle | 3 | Stopwatch Beta","name_short":"sea-3","host":"sea-1.us.uncletopia.com","port":27035,"enabled":true,"region":"us-west","cc":"us","latitude":47.608013,"longitude":-122.33517,"reserved":0,"last_update":"0001-01-01T00:00:00Z","name_a2s":"Uncletopia | Seattle | 3 | Stopwatch Beta","protocol":17,"map":"koth_lakeside_final","folder":"tf","game":"Team Fortress","app_id":440,"player_count":0,"max_players":24,"Bots":0,"server_type":"Dedicated","server_os":"Linux","password":true,"vac":true,"version":"7961495","steam_id":85568392924515217,"keywords":["cp","nocrits","nodmgspread","uncletopia"],"game_id":440,"stv_port":27036,"stv_name":"Uncletopia | Seattle | 3 | Stopwatch Beta | STV","players":null},{"server_id":17,"name":"Uncletopia | San Francisco | 1 | All Maps","name_short":"sfo-1","host":"sfo-1.us.uncletopia.com","port":27015,"enabled":true,"region":"us-west","cc":"us","latitude":37.77397,"longitude":-122.4313,"reserved":0,"last_update":"0001-01-01T00:00:00Z","name_a2s":"Uncletopia | San Francisco | 1 | All Maps","protocol":17,"map":"pl_snowycoast","folder":"tf","game":"Team Fortress","app_id":440,"player_count":0,"max_players":24,"Bots":0,"server_type":"Dedicated","server_os":"Linux","password":true,"vac":true,"version":"7961495","steam_id":85568392924469999,"keywords":["nocrits","nodmgspread","payload","uncletopia"],"game_id":440,"stv_port":27016,"stv_name":"Uncletopia | San Francisco | 1 | All Maps | STV","players":null},{"server_id":18,"name":"Uncletopia | San Francisco | 2 | All Maps","name_short":"sfo-2","host":"sfo-1.us.uncletopia.com","port":27025,"enabled":true,"region":"us-west","cc":"us","latitude":37.77397,"longitude":-122.4313,"reserved":0,"last_update":"0001-01-01T00:00:00Z","name_a2s":"Uncletopia | San Francisco | 2 | All Maps","protocol":17,"map":"cp_process_final","folder":"tf","game":"Team Fortress","app_id":440,"player_count":0,"max_players":24,"Bots":0,"server_type":"Dedicated","server_os":"Linux","password":true,"vac":true,"version":"7961495","steam_id":85568392924470000,"keywords":["cp","nocrits","nodmgspread","uncletopia"],"game_id":440,"stv_port":27026,"stv_name":"Uncletopia | San Francisco | 2 | All Maps | STV","players":null},{"server_id":19,"name":"Uncletopia | San Francisco | 3 | Stopwatch Beta","name_short":"sfo-3","host":"sfo-1.us.uncletopia.com","port":27035,"enabled":true,"region":"us-west","cc":"us","latitude":37.77397,"longitude":-122.4313,"reserved":0,"last_update":"0001-01-01T00:00:00Z","name_a2s":"Uncletopia | San Francisco | 3 | Stopwatch Beta","protocol":17,"map":"pl_borneo","folder":"tf","game":"Team Fortress","app_id":440,"player_count":0,"max_players":24,"Bots":0,"server_type":"Dedicated","server_os":"Linux","password":true,"vac":true,"version":"7961495","steam_id":85568392924742824,"keywords":["nocrits","nodmgspread","payload","uncletopia"],"game_id":440,"stv_port":27036,"stv_name":"Uncletopia | San Francisco | 3 | Stopwatch Beta | STV","players":null},{"server_id":20,"name":"Uncletopia | San Francisco | 4 | Community","name_short":"sfo-4","host":"sfo-1.us.uncletopia.com","port":27045,"enabled":true,"region":"us-west","cc":"us","latitude":37.77397,"longitude":-122.4313,"reserved":0,"last_update":"0001-01-01T00:00:00Z","name_a2s":"Uncletopia | San Francisco | 4 | Community","protocol":17,"map":"koth_viaduct","folder":"tf","game":"Team Fortress","app_id":440,"player_count":0,"max_players":24,"Bots":0,"server_type":"Dedicated","server_os":"Linux","password":true,"vac":true,"version":"7961495","steam_id":85568392924742826,"keywords":["cp","nocrits","nodmgspread","uncletopia"],"game_id":440,"stv_port":27046,"stv_name":"Uncletopia | San Francisco | 4 | Community | STV","players":null},{"server_id":141,"name":"Uncletopia | Sydney | 1 | All Maps","name_short":"syd-1","host":"syd-1.au.uncletopia.com","port":27015,"enabled":true,"region":"au","cc":"au","latitude":-33.865143,"longitude":151.2099,"reserved":0,"last_update":"0001-01-01T00:00:00Z","name_a2s":"Uncletopia | Sydney | 1 | All Maps","protocol":17,"map":"koth_viaduct","folder":"tf","game":"Team Fortress","app_id":440,"player_count":0,"max_players":24,"Bots":0,"server_type":"Dedicated","server_os":"Linux","password":true,"vac":true,"version":"7961495","steam_id":85568392924470001,"keywords":["cp","nocrits","nodmgspread","uncletopia"],"game_id":440,"stv_port":27016,"stv_name":"Uncletopia | Sydney | 1 | All Maps | STV","players":null},{"server_id":123,"name":"Uncletopia | Sydney | 2 | All Maps","name_short":"syd-2","host":"syd-1.au.uncletopia.com","port":27025,"enabled":true,"region":"au","cc":"au","latitude":-33.865143,"longitude":151.2099,"reserved":0,"last_update":"0001-01-01T00:00:00Z","name_a2s":"Uncletopia | Sydney | 2 | All Maps","protocol":17,"map":"cp_altitude","folder":"tf","game":"Team Fortress","app_id":440,"player_count":0,"max_players":24,"Bots":0,"server_type":"Dedicated","server_os":"Linux","password":true,"vac":true,"version":"7961495","steam_id":85568392924470002,"keywords":["cp","nocrits","nodmgspread","uncletopia"],"game_id":440,"stv_port":27026,"stv_name":"Uncletopia | Sydney | 2 | All Maps | STV","players":null},{"server_id":395,"name":"Uncletopia | Sydney | 3 | All Maps","name_short":"syd-3","host":"syd-1.au.uncletopia.com","port":27035,"enabled":true,"region":"au","cc":"au","latitude":-33.865143,"longitude":151.2099,"reserved":0,"last_update":"0001-01-01T00:00:00Z","name_a2s":"Uncletopia | Sydney | 3 | All Maps","protocol":17,"map":"pl_borneo","folder":"tf","game":"Team Fortress","app_id":440,"player_count":0,"max_players":24,"Bots":0,"server_type":"Dedicated","server_os":"Linux","password":true,"vac":true,"version":"7961495","steam_id":85568392925194467,"keywords":["nocrits","nodmgspread","payload","uncletopia"],"game_id":440,"stv_port":27036,"stv_name":"Uncletopia | Sydney | 3 | All Maps | STV","players":null},{"server_id":396,"name":"Uncletopia | Sydney | 4 | All Maps","name_short":"syd-4","host":"syd-1.au.uncletopia.com","port":27045,"enabled":true,"region":"au","cc":"au","latitude":-33.865143,"longitude":151.2099,"reserved":0,"last_update":"0001-01-01T00:00:00Z","name_a2s":"Uncletopia | Sydney | 4 | All Maps","protocol":17,"map":"koth_highpass","folder":"tf","game":"Team Fortress","app_id":440,"player_count":0,"max_players":24,"Bots":0,"server_type":"Dedicated","server_os":"Linux","password":true,"vac":true,"version":"7961495","steam_id":85568392925397958,"keywords":["cp","nocrits","nodmgspread","uncletopia"],"game_id":440,"stv_port":27046,"stv_name":"Uncletopia | Sydney | 4 | All Maps | STV","players":null},{"server_id":58,"name":"Uncletopia | Sydney | 5 | Stopwatch Beta","name_short":"syd-5","host":"syd-1.au.uncletopia.com","port":27055,"enabled":true,"region":"au","cc":"au","latitude":-33.865143,"longitude":151.2099,"reserved":0,"last_update":"0001-01-01T00:00:00Z","name_a2s":"Uncletopia | Sydney | 5 | Stopwatch Beta","protocol":17,"map":"koth_viaduct","folder":"tf","game":"Team Fortress","app_id":440,"player_count":0,"max_players":24,"Bots":0,"server_type":"Dedicated","server_os":"Linux","password":true,"vac":true,"version":"7961495","steam_id":85568392925397959,"keywords":["cp","nocrits","nodmgspread","uncletopia"],"game_id":440,"stv_port":27056,"stv_name":"Uncletopia | Sydney | 5 | Stopwatch Beta | STV","players":null},{"server_id":59,"name":"Uncletopia | Sydney | 6 | Community","name_short":"syd-6","host":"syd-1.au.uncletopia.com","port":27065,"enabled":true,"region":"au","cc":"au","latitude":-33.865143,"longitude":151.2099,"reserved":0,"last_update":"0001-01-01T00:00:00Z","name_a2s":"Uncletopia | Sydney | 6 | Community","protocol":17,"map":"koth_cascade","folder":"tf","game":"Team Fortress","app_id":440,"player_count":0,"max_players":24,"Bots":0,"server_type":"Dedicated","server_os":"Linux","password":true,"vac":true,"version":"7961495","steam_id":85568392925397960,"keywords":["cp","nocrits","nodmgspread","uncletopia"],"game_id":440,"stv_port":27066,"stv_name":"Uncletopia | Sydney | 6 | Community | STV","players":null},{"server_id":49,"name":"Uncletopia | Warsaw | 1 | All Maps","name_short":"waw-1","host":"waw-1.pl.uncletopia.com","port":27015,"enabled":true,"region":"eu","cc":"pl","latitude":52.2297,"longitude":21.017532,"reserved":0,"last_update":"0001-01-01T00:00:00Z","name_a2s":"Uncletopia | Warsaw | 1 | All Maps","protocol":17,"map":"cp_altitude","folder":"tf","game":"Team Fortress","app_id":440,"player_count":0,"max_players":24,"Bots":0,"server_type":"Dedicated","server_os":"Linux","password":true,"vac":true,"version":"7961495","steam_id":85568392925397850,"keywords":["cp","nocrits","nodmgspread","uncletopia"],"game_id":440,"stv_port":27016,"stv_name":"Uncletopia | Warsaw | 1 | All Maps | STV","players":null},{"server_id":50,"name":"Uncletopia | Warsaw | 2 | All Maps","name_short":"waw-2","host":"waw-1.pl.uncletopia.com","port":27025,"enabled":true,"region":"eu","cc":"pl","latitude":52.2297,"longitude":21.017532,"reserved":0,"last_update":"0001-01-01T00:00:00Z","name_a2s":"Uncletopia | Warsaw | 2 | All Maps","protocol":17,"map":"koth_lakeside_final","folder":"tf","game":"Team Fortress","app_id":440,"player_count":0,"max_players":24,"Bots":0,"server_type":"Dedicated","server_os":"Linux","password":true,"vac":true,"version":"7961495","steam_id":85568392925397851,"keywords":["cp","nocrits","nodmgspread","uncletopia"],"game_id":440,"stv_port":27026,"stv_name":"Uncletopia | Warsaw | 2 | All Maps | STV","players":null},{"server_id":51,"name":"Uncletopia | Warsaw | 3 | All Maps","name_short":"waw-3","host":"waw-1.pl.uncletopia.com","port":27035,"enabled":true,"region":"eu","cc":"pl","latitude":52.2297,"longitude":21.017532,"reserved":0,"last_update":"0001-01-01T00:00:00Z","name_a2s":"Uncletopia | Warsaw | 3 | All Maps","protocol":17,"map":"cp_snakewater_final1","folder":"tf","game":"Team Fortress","app_id":440,"player_count":0,"max_players":24,"Bots":0,"server_type":"Dedicated","server_os":"Linux","password":true,"vac":true,"version":"7961495","steam_id":85568392925397852,"keywords":["cp","nocrits","nodmgspread","uncletopia"],"game_id":440,"stv_port":27036,"stv_name":"Uncletopia | Warsaw | 3 | All Maps | STV","players":null},{"server_id":52,"name":"Uncletopia | Warsaw | 4 | All Maps","name_short":"waw-4","host":"waw-1.pl.uncletopia.com","port":27045,"enabled":true,"region":"eu","cc":"pl","latitude":52.2297,"longitude":21.017532,"reserved":0,"last_update":"0001-01-01T00:00:00Z","name_a2s":"Uncletopia | Warsaw | 4 | All Maps","protocol":17,"map":"koth_viaduct","folder":"tf","game":"Team Fortress","app_id":440,"player_count":0,"max_players":24,"Bots":0,"server_type":"Dedicated","server_os":"Linux","password":true,"vac":true,"version":"7961495","steam_id":85568392925397853,"keywords":["cp","nocrits","nodmgspread","uncletopia"],"game_id":440,"stv_port":27046,"stv_name":"Uncletopia | Warsaw | 4 | All Maps | STV","players":null},{"server_id":53,"name":"Uncletopia | Warsaw | 5 | Stopwatch Beta","name_short":"waw-5","host":"waw-1.pl.uncletopia.com","port":27055,"enabled":true,"region":"eu","cc":"pl","latitude":52.2297,"longitude":21.017532,"reserved":0,"last_update":"0001-01-01T00:00:00Z","name_a2s":"Uncletopia | Warsaw | 5 | Stopwatch Beta","protocol":17,"map":"pl_swiftwater_final1","folder":"tf","game":"Team Fortress","app_id":440,"player_count":0,"max_players":24,"Bots":0,"server_type":"Dedicated","server_os":"Linux","password":true,"vac":true,"version":"7961495","steam_id":85568392925397854,"keywords":["nocrits","nodmgspread","payload","uncletopia"],"game_id":440,"stv_port":27056,"stv_name":"Uncletopia | Warsaw | 5 | Stopwatch Beta | STV","players":null},{"server_id":54,"name":"Uncletopia | Warsaw | 6 | Community","name_short":"waw-6","host":"waw-1.pl.uncletopia.com","port":27065,"enabled":true,"region":"eu","cc":"pl","latitude":52.2297,"longitude":21.017532,"reserved":0,"last_update":"0001-01-01T00:00:00Z","name_a2s":"Uncletopia | Warsaw | 6 | Community","protocol":17,"map":"workshop/cp_glacier_rc6.ugc2905735376","folder":"tf","game":"Team Fortress","app_id":440,"player_count":0,"max_players":24,"Bots":0,"server_type":"Dedicated","server_os":"Linux","password":true,"vac":true,"version":"7961495","steam_id":85568392925397856,"keywords":["cp","nocrits","nodmgspread","uncletopia"],"game_id":440,"stv_port":27066,"stv_name":"Uncletopia | Warsaw | 6 | Community | STV","players":null}]}