{"status":true,"message":"","result":[{"server_id":9,"name":"Uncletopia | Atlanta | 1 | All Maps","name_short":"atl-1","host":"atl-1.us.uncletopia.com","port":27015,"enabled":true,"region":"us-east","cc":"us","latitude":33.753746,"longitude":-84.38633,"reserved":0,"last_update":"0001-01-01T00:00:00Z","name_a2s":"Uncletopia | Atlanta | 1 | All Maps","protocol":17,"map":"pl_snowycoast","folder":"tf","game":"Team Fortress","app_id":440,"player_count":24,"max_players":24,"Bots":0,"server_type":"Dedicated","server_os":"Linux","password":true,"vac":true,"version":"7757534","steam_id":85568392924469982,"keywords":["nocrits","nodmgspread","payload","uncletopia"],"game_id":440,"stv_port":27016,"stv_name":"Uncletopia | Atlanta | 1 | All Maps | STV","players":[{"user_id":177,"name":"bendera","steam_id":76561197965486503,"connected_time":8375000000000,"state":"active","ping":79},{"user_id":254,"name":"RoboWarrior0410a","steam_id":76561199106531261,"connected_time":304000000000,"state":"active","ping":69},{"user_id":242,"name":"SneakySneak","steam_id":76561198064847921,"connected_time":1734000000000,"state":"active","ping":76},{"user_id":240,"name":"blazzeh","steam_id":76561198053407069,"connected_time":1936000000000,"state":"active","ping":90},{"user_id":205,"name":"ItsRoy","steam_id":76561198119525485,"connected_time":4318000000000,"state":"active","ping":59},{"user_id":247,"name":"leonardo doujinshi","steam_id":76561198025810326,"connected_time":1613000000000,"state":"active","ping":75},{"user_id":185,"name":"ATL1 | Kramer","steam_id":76561198083595936,"connected_time":6566000000000,"state":"active","ping":77},{"user_id":227,"name":"yomokha","steam_id":76561198063175935,"connected_time":2888000000000,"state":"active","ping":59},{"user_id":253,"name":"ATLS1 | SparkStorm","steam_id":76561198095817025,"connected_time":556000000000,"state":"active","ping":40},{"user_id":230,"name":"phone","steam_id":76561198029268743,"connected_time":2756000000000,"state":"active","ping":45},{"user_id":232,"name":"Toa of Time","steam_id":76561198086867556,"connected_time":2575000000000,"state":"active","ping":211},{"user_id":203,"name":"lu","steam_id":76561198080731872,"connected_time":4365000000000,"state":"active","ping":76},{"user_id":251,"name":"DFR DeezNoodlez","steam_id":76561198246700372,"connected_time":571000000000,"state":"active","ping":60},{"user_id":248,"name":"Devilkid","steam_id":76561199082474364,"connected_time":1546000000000,"state":"active","ping":74},{"user_id":233,"name":"MEATBALL","steam_id":76561198028499312,"connected_time":2535000000000,"state":"active","ping":59},{"user_id":78,"name":"Ashes!","steam_id":76561197998475441,"connected_time":15941000000000,"state":"active","ping":105},{"user_id":249,"name":"The Spy from TF2","steam_id":76561199121276474,"connected_time":1138000000000,"state":"active","ping":85},{"user_id":243,"name":"DFR loot","steam_id":76561198069954956,"connected_time":1731000000000,"state":"active","ping":47},{"user_id":244,"name":"floofy","steam_id":76561198389769098,"connected_time":1726000000000,"state":"active","ping":89},{"user_id":219,"name":"ash","steam_id":76561198127890645,"connected_time":3742000000000,"state":"active","ping":73},{"user_id":250,"name":"UpN$m()ke","steam_id":76561197962463073,"connected_time":577000000000,"state":"active","ping":69},{"user_id":161,"name":"lil hog","steam_id":76561199230929836,"connected_time":9336000000000,"state":"active","ping":88},{"user_id":237,"name":"quality_ch3ck","steam_id":76561198361132101,"connected_time":2134000000000,"state":"active","ping":94},{"user_id":226,"name":"DFR Wingm4n","steam_id":76561198064127012,"connected_time":3131000000000,"state":"active","ping":47}]},{"server_id":400,"name":"Uncletopia | Atlanta | 3 | Stopwatch Beta","name_short":"atl-3","host":"atl-1.us.uncletopia.com","port":27035,"enabled":true,"region":"us-east","cc":"us","latitude":33.753746,"longitude":-84.38633,"reserved":0,"last_update":"0001-01-01T00:00:00Z","name_a2s":"Uncletopia | Atlanta | 3 | Stopwatch Beta","protocol":17,"map":"pl_upward","folder":"tf","game":"Team Fortress","app_id":440,"player_count":0,"max_players":24,"Bots":0,"server_type":"Dedicated","server_os":"Linux","password":true,"vac":true,"version":"7757534","steam_id":85568392924515187,"keywords":["nocrits","nodmgspread","payload","uncletopia"],"game_id":440,"stv_port":27036,"stv_name":"Uncletopia | Atlanta | 3 | Stopwatch Beta | STV","players":null},{"server_id":401,"name":"Uncletopia | Atlanta | 4 | No Payload","name_short":"atl-4","host":"atl-1.us.uncletopia.com","port":27045,"enabled":true,"region":"us-east","cc":"us","latitude":33.753746,"longitude":-84.38633,"reserved":0,"last_update":"0001-01-01T00:00:00Z","name_a2s":"Uncletopia | Atlanta | 4 | No Payload","protocol":17,"map":"pl_pier","folder":"tf","game":"Team Fortress","app_id":440,"player_count":0,"max_players":24,"Bots":0,"server_type":"Dedicated","server_os":"Linux","password":true,"vac":true,"version":"7723704","steam_id":85568392924515188,"keywords":["nocrits","nodmgspread","payload","uncletopia"],"game_id":440,"stv_port":27046,"stv_name":"Uncletopia | Atlanta | 4 | No Payload | STV","players":null},{"server_id":2,"name":"Uncletopia | Chicago | 1 | All Maps","name_short":"chi-1","host":"chi-1.us.uncletopia.com","port":27015,"enabled":true,"region":"us-central","cc":"us","latitude":41.881832,"longitude":-87.62318,"reserved":0,"last_update":"0001-01-01T00:00:00Z","name_a2s":"Uncletopia | Chicago | 1 | All Maps","protocol":17,"map":"pl_borneo","folder":"tf","game":"Team Fortress","app_id":440,"player_count":20,"max_players":24,"Bots":0,"server_type":"Dedicated","server_os":"Linux","password":true,"vac":true,"version":"7757534","steam_id":85568392924469984,"keywords":["nocrits","nodmgspread","payload","uncletopia"],"game_id":440,"stv_port":27016,"stv_name":"Uncletopia | Chicago | 1 | All Maps | STV","players":[{"user_id":263,"name":"Zaxophone","steam_id":76561198806169089,"connected_time":235000000000,"state":"active","ping":85},{"user_id":267,"name":"hobbiebobbie","steam_id":76561199168320895,"connected_time":215000000000,"state":"active","ping":78},{"user_id":247,"name":"Sigiferd","steam_id":76561198148788110,"connected_time":1348000000000,"state":"active","ping":115},{"user_id":222,"name":"AmirKhaan","steam_id":76561198992403254,"connected_time":2252000000000,"state":"active","ping":73},{"user_id":254,"name":"Inevitable","steam_id":76561198210050169,"connected_time":1087000000000,"state":"active","ping":59},{"user_id":266,"name":"bruiseraaron","steam_id":76561198020092380,"connected_time":219000000000,"state":"active","ping":55},{"user_id":240,"name":"ERRAfan72","steam_id":76561198025747866,"connected_time":1628000000000,"state":"active","ping":90},{"user_id":273,"name":"SnakeoilSalesman","steam_id":76561199098759485,"connected_time":72000000000,"state":"active","ping":56},{"user_id":265,"name":"pOTATO","steam_id":76561198834489470,"connected_time":222000000000,"state":"active","ping":86},{"user_id":272,"name":"Cheatcommando","steam_id":76561198034825735,"connected_time":89000000000,"state":"active","ping":48},{"user_id":260,"name":"chicken banker","steam_id":76561199195196632,"connected_time":407000000000,"state":"active","ping":76},{"user_id":274,"name":"MonsterHunter","steam_id":76561198146118010,"connected_time":64000000000,"state":"active","ping":72},{"user_id":258,"name":"D(b) Hell","steam_id":76561198067869016,"connected_time":746000000000,"state":"active","ping":39},{"user_id":241,"name":"Solaire","steam_id":76561198035762837,"connected_time":1612000000000,"state":"active","ping":91},{"user_id":275,"name":"prodbyepic","steam_id":76561198853066534,"connected_time":24000000000,"state":"active","ping":60},{"user_id":269,"name":"0llybros","steam_id":76561198272633495,"connected_time":196000000000,"state":"active","ping":68},{"user_id":237,"name":"Kuma","steam_id":76561199100813140,"connected_time":1746000000000,"state":"active","ping":109},{"user_id":270,"name":"the best commander","steam_id":76561199079513908,"connected_time":194000000000,"state":"active","ping":183},{"user_id":245,"name":"Pep Seeman","steam_id":76561198038393007,"connected_time":1513000000000,"state":"active","ping":48},{"user_id":202,"name":"schnedwob","steam_id":76561197999146588,"connected_time":3784000000000,"state":"active","ping":66}]},{"server_id":106,"name":"Uncletopia | Chicago | 2 | All Maps","name_short":"chi-2","host":"chi-1.us.uncletopia.com","port":27025,"enabled":true,"region":"us-central","cc":"us","latitude":41.881832,"longitude":-87.62318,"reserved":0,"last_update":"0001-01-01T00:00:00Z","name_a2s":"Uncletopia | Chicago | 2 | All Maps","protocol":17,"map":"pl_frontier_final","folder":"tf","game":"Team Fortress","app_id":440,"player_count":24,"max_players":24,"Bots":0,"server_type":"Dedicated","server_os":"Linux","password":true,"vac":true,"version":"7757534","steam_id":85568392924469985,"keywords":["nocrits","nodmgspread","payload","uncletopia"],"game_id":440,"stv_port":27026,"stv_name":"Uncletopia | Chicago | 2 | All Maps | STV","players":[{"user_id":241,"name":"The Classy Ferret","steam_id":76561198200961750,"connected_time":1246000000000,"state":"active","ping":116},{"user_id":255,"name":"trobin120","steam_id":76561199122420273,"connected_time":399000000000,"state":"active","ping":64},{"user_id":258,"name":"scrapheap","steam_id":76561198202407087,"connected_time":359000000000,"state":"active","ping":72},{"user_id":248,"name":"CapnKris22","steam_id":76561198049010994,"connected_time":733000000000,"state":"active","ping":57},{"user_id":159,"name":"halfpint","steam_id":76561198148217618,"connected_time":6307000000000,"state":"active","ping":96},{"user_id":193,"name":"SenTreats","steam_id":76561198085835841,"connected_time":3718000000000,"state":"active","ping":116},{"user_id":250,"name":"Wubba","steam_id":76561198880517335,"connected_time":563000000000,"state":"active","ping":81},{"user_id":238,"name":"Tallboi","steam_id":76561198274286470,"connected_time":1395000000000,"state":"active","ping":118},{"user_id":242,"name":"Cthulhu","steam_id":76561198326381898,"connected_time":1226000000000,"state":"active","ping":80},{"user_id":245,"name":"Kreal","steam_id":76561198073437224,"connected_time":1124000000000,"state":"active","ping":59},{"user_id":249,"name":"Claydaddy","steam_id":76561198211153109,"connected_time":706000000000,"state":"active","ping":64},{"user_id":256,"name":"rlty","steam_id":76561198009395055,"connected_time":389000000000,"state":"active","ping":67},{"user_id":240,"name":"Dad 2","steam_id":76561198138546187,"connected_time":1275000000000,"state":"active","ping":93},{"user_id":259,"name":"vinny6","steam_id":76561198386735728,"connected_time":338000000000,"state":"active","ping":64},{"user_id":102,"name":"Tyrfang, The Poultry Knight","steam_id":76561198044001262,"connected_time":9820000000000,"state":"active","ping":80},{"user_id":234,"name":"Broadsword","steam_id":76561198011160411,"connected_time":1549000000000,"state":"active","ping":96},{"user_id":251,"name":"John Darksoul","steam_id":76561198999712284,"connected_time":541000000000,"state":"active","ping":75},{"user_id":214,"name":"thundermuffin","steam_id":76561198067770965,"connected_time":2282000000000,"state":"active","ping":54},{"user_id":260,"name":"Pie","steam_id":76561198935859163,"connected_time":321000000000,"state":"active","ping":84},{"user_id":224,"name":"slothful jeremiah","steam_id":76561198170276601,"connected_time":1996000000000,"state":"active","ping":94},{"user_id":247,"name":"Doody","steam_id":76561198284068886,"connected_time":892000000000,"state":"active","ping":83},{"user_id":130,"name":"Lamy","steam_id":76561198348354629,"connected_time":8311000000000,"state":"active","ping":98},{"user_id":198,"name":"Keg","steam_id":76561198242688458,"connected_time":3410000000000,"state":"active","ping":165},{"user_id":225,"name":"MEGAFARTBLAST","steam_id":76561198166982558,"connected_time":1974000000000,"state":"active","ping":90}]},{"server_id":402,"name":"Uncletopia | Chicago | 3 | All Maps","name_short":"chi-3","host":"chi-1.us.uncletopia.com","port":27035,"enabled":true,"region":"us-central","cc":"us","latitude":41.881832,"longitude":-87.62318,"reserved":0,"last_update":"0001-01-01T00:00:00Z","name_a2s":"Uncletopia | Chicago | 3 | All Maps","protocol":17,"map":"pl_upward","folder":"tf","game":"Team Fortress","app_id":440,"player_count":24,"max_players":24,"Bots":0,"server_type":"Dedicated","server_os":"Linux","password":true,"vac":true,"version":"7757534","steam_id":85568392924515191,"keywords":["nocrits","nodmgspread","payload","uncletopia"],"game_id":440,"stv_port":27036,"stv_name":"Uncletopia | Chicago | 3 | All Maps | STV","players":[{"user_id":135,"name":"McGangBang","steam_id":76561198862379865,"connected_time":754000000000,"state":"active","ping":56},{"user_id":125,"name":"muffinm565","steam_id":76561199135226250,"connected_time":1027000000000,"state":"active","ping":95},{"user_id":127,"name":"demoknight tf2","steam_id":76561198070393998,"connected_time":844000000000,"state":"active","ping":59},{"user_id":137,"name":"Thog","steam_id":76561198093699060,"connected_time":459000000000,"state":"active","ping":71},{"user_id":128,"name":"[S]Mr. X [No Monitor]","steam_id":76561197963746035,"connected_time":841000000000,"state":"active","ping":106},{"user_id":115,"name":"Cap","steam_id":76561198448848625,"connected_time":1542000000000,"state":"active","ping":87},{"user_id":95,"name":"grey","steam_id":76561198050618142,"connected_time":2751000000000,"state":"active","ping":100},{"user_id":122,"name":"yeetisthedeletis","steam_id":76561198842567021,"connected_time":1303000000000,"state":"active","ping":96},{"user_id":106,"name":"Tatchi Mi","steam_id":76561198042913655,"connected_time":2414000000000,"state":"active","ping":74},{"user_id":121,"name":"Skelebob","steam_id":76561198880649335,"connected_time":1383000000000,"state":"active","ping":65},{"user_id":140,"name":"klaus","steam_id":76561199008634102,"connected_time":366000000000,"state":"active","ping":87},{"user_id":138,"name":"pest","steam_id":76561198052571208,"connected_time":424000000000,"state":"active","ping":64},{"user_id":143,"name":"Corbe","steam_id":76561198353893927,"connected_time":142000000000,"state":"active","ping":39},{"user_id":54,"name":"HollyBlocky","steam_id":76561198030156100,"connected_time":5284000000000,"state":"active","ping":71},{"user_id":134,"name":"mineblast99","steam_id":76561199065648954,"connected_time":793000000000,"state":"active","ping":77},{"user_id":123,"name":"chanoc","steam_id":76561198026734746,"connected_time":1253000000000,"state":"active","ping":97},{"user_id":142,"name":"oopsssuck","steam_id":76561199017625000,"connected_time":221000000000,"state":"active","ping":80},{"user_id":131,"name":"evan_is_sauce","steam_id":76561199086802383,"connected_time":823000000000,"state":"active","ping":109},{"user_id":144,"name":"Stock Medic","steam_id":76561198065479730,"connected_time":76000000000,"state":"active","ping":45},{"user_id":118,"name":"Jolly WhackaLacka","steam_id":76561198140969564,"connected_time":1525000000000,"state":"active","ping":74},{"user_id":124,"name":"Love Being an Owl","steam_id":76561198293422282,"connected_time":1176000000000,"state":"active","ping":87},{"user_id":120,"name":"fridolin","steam_id":76561198005806915,"connected_time":1396000000000,"state":"active","ping":86},{"user_id":133,"name":"Moarry","steam_id":76561198043924650,"connected_time":807000000000,"state":"active","ping":182},{"user_id":83,"name":"Queen Frau the Round","steam_id":76561197999942134,"connected_time":4583000000000,"state":"active","ping":49}]},{"server_id":403,"name":"Uncletopia | Chicago | 4 | All Maps","name_short":"chi-4","host":"chi-1.us.uncletopia.com","port":27045,"enabled":true,"region":"us-central","cc":"us","latitude":41.881832,"longitude":-87.62318,"reserved":0,"last_update":"0001-01-01T00:00:00Z","name_a2s":"Uncletopia | Chicago | 4 | All Maps","protocol":17,"map":"cp_dustbowl","folder":"tf","game":"Team Fortress","app_id":440,"player_count":24,"max_players":24,"Bots":0,"server_type":"Dedicated","server_os":"Linux","password":true,"vac":true,"version":"7757534","steam_id":85568392924515193,"keywords":["cp","nocrits","nodmgspread","uncletopia"],"game_id":440,"stv_port":27046,"stv_name":"Uncletopia | Chicago | 4 | All Maps | STV","players":[{"user_id":616,"name":"MoisesNP","steam_id":76561198027957879,"connected_time":849000000000,"state":"active","ping":105},{"user_id":620,"name":"Toasty Gyro","steam_id":76561198001026643,"connected_time":380000000000,"state":"active","ping":45},{"user_id":621,"name":"Unknown","steam_id":76561198192450663,"connected_time":376000000000,"state":"active","ping":64},{"user_id":587,"name":"galoomba","steam_id":76561199201917180,"connected_time":2481000000000,"state":"active","ping":80},{"user_id":600,"name":"GreenApples","steam_id":76561198120559543,"connected_time":1546000000000,"state":"active","ping":102},{"user_id":622,"name":"CrankShaft","steam_id":76561197970750813,"connected_time":370000000000,"state":"active","ping":59},{"user_id":617,"name":"[DEEP] Roz257","steam_id":76561198842844532,"connected_time":749000000000,"state":"active","ping":58},{"user_id":605,"name":"PopeZombie","steam_id":76561198031953911,"connected_time":1393000000000,"state":"active","ping":76},{"user_id":623,"name":"blue gatorade","steam_id":76561198413125750,"connected_time":359000000000,"state":"active","ping":71},{"user_id":613,"name":"Jimmy Two-Times","steam_id":76561198013308693,"connected_time":972000000000,"state":"active","ping":68},{"user_id":615,"name":"Lia_Rein","steam_id":76561198151569597,"connected_time":935000000000,"state":"active","ping":140},{"user_id":618,"name":"drottle","steam_id":76561198072244644,"connected_time":677000000000,"state":"active","ping":65},{"user_id":593,"name":"bhop","steam_id":76561198064885639,"connected_time":1902000000000,"state":"active","ping":85},{"user_id":588,"name":"Lichy","steam_id":76561198310682841,"connected_time":2309000000000,"state":"active","ping":57},{"user_id":626,"name":"Mara Roo","steam_id":76561198279341789,"connected_time":255000000000,"state":"active","ping":67},{"user_id":628,"name":"miles","steam_id":76561198006838401,"connected_time":52000000000,"state":"active","ping":79},{"user_id":599,"name":"DanFunTime","steam_id":76561199070914651,"connected_time":1580000000000,"state":"active","ping":62},{"user_id":597,"name":"drippy man","steam_id":76561199074936388,"connected_time":1799000000000,"state":"active","ping":81},{"user_id":624,"name":"Mittens the Rancor","steam_id":76561198028640976,"connected_time":320000000000,"state":"active","ping":87},{"user_id":619,"name":"Dullahan","steam_id":76561198119668908,"connected_time":443000000000,"state":"active","ping":95},{"user_id":603,"name":"Kronk","steam_id":76561198010276205,"connected_time":1439000000000,"state":"active","ping":83},{"user_id":581,"name":"Gigabars","steam_id":76561198119267479,"connected_time":2681000000000,"state":"active","ping":66},{"user_id":627,"name":"DerogatoryDuck","steam_id":76561198036441628,"connected_time":253000000000,"state":"active","ping":86},{"user_id":583,"name":"Otterrific","steam_id":76561198401947855,"connected_time":2637000000000,"state":"active","ping":102}]},{"server_id":36,"name":"Uncletopia | Chicago | 5 | All Maps","name_short":"chi-5","host":"chi-2.us.uncletopia.com","port":27015,"enabled":true,"region":"us-central","cc":"us","latitude":41.881832,"longitude":-87.62318,"reserved":0,"last_update":"0001-01-01T00:00:00Z","name_a2s":"Uncletopia | Chicago | 5 | All Maps","protocol":17,"map":"pl_borneo","folder":"tf","game":"Team Fortress","app_id":440,"player_count":23,"max_players":24,"Bots":0,"server_type":"Dedicated","server_os":"Linux","password":true,"vac":true,"version":"7757534","steam_id":85568392924866362,"keywords":["nocrits","nodmgspread","payload","uncletopia"],"game_id":440,"stv_port":27016,"stv_name":"Uncletopia | Chicago | 5 | All Maps | STV","players":[{"user_id":71,"name":"catrinaisahuman","steam_id":76561198281355729,"connected_time":1057000000000,"state":"active","ping":70},{"user_id":56,"name":"Nic0","steam_id":76561198305690218,"connected_time":1682000000000,"state":"active","ping":68},{"user_id":57,"name":"Kelpy G","steam_id":76561198105330587,"connected_time":1677000000000,"state":"active","ping":85},{"user_id":79,"name":"hashmap","steam_id":76561198043794014,"connected_time":724000000000,"state":"active","ping":46},{"user_id":66,"name":"creeeeeee","steam_id":76561198392539722,"connected_time":1102000000000,"state":"active","ping":80},{"user_id":89,"name":"Spon","steam_id":76561198347098230,"connected_time":8000000000,"state":"active","ping":115},{"user_id":75,"name":"Insurance Frog","steam_id":76561198067556825,"connected_time":989000000000,"state":"active","ping":69},{"user_id":68,"name":"10 INCH TGIRL SCHLONG","steam_id":76561198122059018,"connected_time":1091000000000,"state":"active","ping":54},{"user_id":22,"name":"JacobTheScout","steam_id":76561198200131337,"connected_time":3262000000000,"state":"active","ping":61},{"user_id":86,"name":"warewarewa","steam_id":76561197965022076,"connected_time":78000000000,"state":"active","ping":52},{"user_id":25,"name":"Fudgely","steam_id":76561198039425862,"connected_time":3218000000000,"state":"active","ping":75},{"user_id":46,"name":"fuckterry","steam_id":76561198271957738,"connected_time":2646000000000,"state":"active","ping":72},{"user_id":87,"name":"CaptainPikachu","steam_id":76561198075667401,"connected_time":76000000000,"state":"active","ping":70},{"user_id":88,"name":"capybara","steam_id":76561198843437081,"connected_time":62000000000,"state":"active","ping":112},{"user_id":73,"name":"Samsiel","steam_id":76561198094134951,"connected_time":1047000000000,"state":"active","ping":89},{"user_id":30,"name":"Kerpal45","steam_id":76561198153340350,"connected_time":3058000000000,"state":"active","ping":94},{"user_id":31,"name":"Meh but good","steam_id":76561199005772246,"connected_time":3036000000000,"state":"active","ping":69},{"user_id":32,"name":"Toothpick Enthusiast","steam_id":76561198156746320,"connected_time":3029000000000,"state":"active","ping":43},{"user_id":82,"name":"smacked to the shadow realm","steam_id":76561199047187302,"connected_time":617000000000,"state":"active","ping":48},{"user_id":76,"name":"WannaSeeA","steam_id":76561198097701042,"connected_time":769000000000,"state":"active","ping":75},{"user_id":83,"name":"Quatts","steam_id":76561198051482153,"connected_time":422000000000,"state":"active","ping":56},{"user_id":78,"name":"NANOBITES","steam_id":76561198186944363,"connected_time":760000000000,"state":"active","ping":35},{"user_id":64,"name":"Anthid","steam_id":76561198074493797,"connected_time":1259000000000,"state":"active","ping":61}]},{"server_id":37,"name":"Uncletopia | Chicago | 6 | All Maps","name_short":"chi-6","host":"chi-2.us.uncletopia.com","port":27025,"enabled":true,"region":"us-central","cc":"us","latitude":41.881832,"longitude":-87.62318,"reserved":0,"last_update":"0001-01-01T00:00:00Z","name_a2s":"Uncletopia | Chicago | 6 | All Maps","protocol":17,"map":"koth_lakeside_final","folder":"tf","game":"Team Fortress","app_id":440,"player_count":1,"max_players":24,"Bots":0,"server_type":"Dedicated","server_os":"Linux","password":true,"vac":true,"version":"7757534","steam_id":85568392924866363,"keywords":["cp","nocrits","nodmgspread","uncletopia"],"game_id":440,"stv_port":27026,"stv_name":"Uncletopia | Chicago | 6 | All Maps | STV","players":[{"user_id":23,"name":"bdefg","steam_id":76561199422915609,"connected_time":73000000000,"state":"active","ping":115}]},{"server_id":38,"name":"Uncletopia | Chicago | 7 | Stopwatch Beta","name_short":"chi-7","host":"chi-2.us.uncletopia.com","port":27035,"enabled":true,"region":"us-central","cc":"us","latitude":41.881832,"longitude":-87.62318,"reserved":0,"last_update":"0001-01-01T00:00:00Z","name_a2s":"Uncletopia | Chicago | 7 | Stopwatch Beta","protocol":17,"map":"pl_borneo","folder":"tf","game":"Team Fortress","app_id":440,"player_count":0,"max_players":24,"Bots":0,"server_type":"Dedicated","server_os":"Linux","password":true,"vac":true,"version":"7757534","steam_id":85568392924866364,"keywords":["nocrits","nodmgspread","payload","uncletopia"],"game_id":440,"stv_port":27036,"stv_name":"Uncletopia | Chicago | 7 | Stopwatch Beta | STV","players":null},{"server_id":39,"name":"Uncletopia | Chicago | 8 | Community","name_short":"chi-8","host":"chi-2.us.uncletopia.com","port":27045,"enabled":true,"region":"us-central","cc":"us","latitude":41.881832,"longitude":-87.62318,"reserved":0,"last_update":"0001-01-01T00:00:00Z","name_a2s":"Uncletopia | Chicago | 8 | Community","protocol":17,"map":"workshop/koth_synthetic_rc6a.ugc1549817316","folder":"tf","game":"Team Fortress","app_id":440,"player_count":0,"max_players":24,"Bots":0,"server_type":"Dedicated","server_os":"Linux","password":true,"vac":true,"version":"7757534","steam_id":85568392924866365,"keywords":["cp","nocrits","nodmgspread","uncletopia"],"game_id":440,"stv_port":27046,"stv_name":"Uncletopia | Chicago | 8 | Community | STV","players":null},{"server_id":8,"name":"Uncletopia | Dallas | 1 | All Maps","name_short":"dal-1","host":"dal-1.us.uncletopia.com","port":27015,"enabled":true,"region":"us-central","cc":"us","latitude":32.779167,"longitude":-96.80889,"reserved":0,"last_update":"0001-01-01T00:00:00Z","name_a2s":"Uncletopia | Dallas | 1 | All Maps","protocol":17,"map":"pl_barnblitz","folder":"tf","game":"Team Fortress","app_id":440,"player_count":24,"max_players":24,"Bots":0,"server_type":"Dedicated","server_os":"Linux","password":true,"vac":true,"version":"7757534","steam_id":85568392924469986,"keywords":["nocrits","nodmgspread","payload","uncletopia"],"game_id":440,"stv_port":27016,"stv_name":"Uncletopia | Dallas | 1 | All Maps | STV","players":[{"user_id":150,"name":"benson","steam_id":76561198105075752,"connected_time":15629000000000,"state":"active","ping":79},{"user_id":379,"name":"TheGreatDong","steam_id":76561198000634178,"connected_time":464000000000,"state":"active","ping":107},{"user_id":376,"name":"Laxander","steam_id":76561198034106470,"connected_time":603000000000,"state":"active","ping":66},{"user_id":324,"name":"Dad Rock Deluxe","steam_id":76561198051224819,"connected_time":4766000000000,"state":"active","ping":44},{"user_id":375,"name":"Strongman","steam_id":76561198088318074,"connected_time":764000000000,"state":"active","ping":54},{"user_id":369,"name":"Onyx","steam_id":76561198275349640,"connected_time":1534000000000,"state":"active","ping":55},{"user_id":380,"name":"Grizzly","steam_id":76561198176174371,"connected_time":444000000000,"state":"active","ping":108},{"user_id":388,"name":"Slashes","steam_id":76561197968573499,"connected_time":128000000000,"state":"active","ping":88},{"user_id":328,"name":"Bagaboned","steam_id":76561198043761335,"connected_time":4725000000000,"state":"active","ping":88},{"user_id":353,"name":"J. Lightning","steam_id":76561198147148998,"connected_time":2999000000000,"state":"active","ping":103},{"user_id":370,"name":"Team Fortress Forever","steam_id":76561199192132061,"connected_time":1456000000000,"state":"active","ping":81},{"user_id":348,"name":"HanakoToast","steam_id":76561198045233131,"connected_time":3533000000000,"state":"active","ping":71},{"user_id":382,"name":"Omega-Kiba","steam_id":76561198154594523,"connected_time":385000000000,"state":"active","ping":107},{"user_id":355,"name":"Dance4gravy","steam_id":76561198007325113,"connected_time":2962000000000,"state":"active","ping":58},{"user_id":362,"name":"Sriracha","steam_id":76561198114781841,"connected_time":2326000000000,"state":"active","ping":57},{"user_id":383,"name":"OwlOddity","steam_id":76561198389068053,"connected_time":379000000000,"state":"active","ping":52},{"user_id":389,"name":"Полковник Mоль","steam_id":76561198120551680,"connected_time":102000000000,"state":"active","ping":58},{"user_id":385,"name":"Fredrick","steam_id":76561197981419964,"connected_time":351000000000,"state":"active","ping":98},{"user_id":371,"name":"Chunts up with that?","steam_id":76561198063808137,"connected_time":1376000000000,"state":"active","ping":70},{"user_id":356,"name":"a bucket of chicken","steam_id":76561198023710042,"connected_time":2642000000000,"state":"active","ping":57},{"user_id":374,"name":"XYZed","steam_id":76561198100804737,"connected_time":888000000000,"state":"active","ping":81},{"user_id":318,"name":"-π- BakaD","steam_id":76561197960559169,"connected_time":5642000000000,"state":"active","ping":72},{"user_id":265,"name":"Blart","steam_id":76561198101234582,"connected_time":9676000000000,"state":"active","ping":66},{"user_id":386,"name":"bobbyreinman2009","steam_id":76561198804763186,"connected_time":350000000000,"state":"active","ping":86}]},{"server_id":108,"name":"Uncletopia | Dallas | 2 | All Maps","name_short":"dal-2","host":"dal-1.us.uncletopia.com","port":27025,"enabled":true,"region":"us-central","cc":"us","latitude":32.779167,"longitude":-96.80889,"reserved":0,"last_update":"0001-01-01T00:00:00Z","name_a2s":"Uncletopia | Dallas | 2 | All Maps","protocol":17,"map":"koth_cascade","folder":"tf","game":"Team Fortress","app_id":440,"player_count":0,"max_players":24,"Bots":0,"server_type":"Dedicated","server_os":"Linux","password":true,"vac":true,"version":"7757534","steam_id":85568392924469988,"keywords":["cp","nocrits","nodmgspread","uncletopia"],"game_id":440,"stv_port":27026,"stv_name":"Uncletopia | Dallas | 2 | All Maps | STV","players":null},{"server_id":5,"name":"Uncletopia | Frankfurt | 1 | All Maps","name_short":"frk-1","host":"frk-1.de.uncletopia.com","port":27015,"enabled":true,"region":"eu","cc":"de","latitude":50.110924,"longitude":8.682127,"reserved":0,"last_update":"0001-01-01T00:00:00Z","name_a2s":"Uncletopia | Frankfurt | 1 | All Maps","protocol":17,"map":"cp_process_final","folder":"tf","game":"Team Fortress","app_id":440,"player_count":24,"max_players":24,"Bots":0,"server_type":"Dedicated","server_os":"Linux","password":true,"vac":true,"version":"7757534","steam_id":85568392924469989,"keywords":["cp","nocrits","nodmgspread","uncletopia"],"game_id":440,"stv_port":27016,"stv_name":"Uncletopia | Frankfurt | 1 | All Maps | STV","players":[{"user_id":615,"name":"giclure :;","steam_id":76561197986362828,"connected_time":2593000000000,"state":"active","ping":64},{"user_id":644,"name":"Sanctified","steam_id":76561198057092208,"connected_time":268000000000,"state":"active","ping":57},{"user_id":577,"name":"Udinese Dion","steam_id":76561198067931573,"connected_time":5208000000000,"state":"active","ping":46},{"user_id":622,"name":"century","steam_id":76561198091656119,"connected_time":2052000000000,"state":"active","ping":58},{"user_id":646,"name":"Gustavo Fring","steam_id":76561198034769199,"connected_time":251000000000,"state":"active","ping":72},{"user_id":647,"name":"AquaEclipse","steam_id":76561198225964744,"connected_time":231000000000,"state":"active","ping":148},{"user_id":638,"name":"Pirateer","steam_id":76561198017114970,"connected_time":1114000000000,"state":"active","ping":59},{"user_id":634,"name":"Volcyy","steam_id":76561198063979124,"connected_time":1433000000000,"state":"active","ping":39},{"user_id":631,"name":"Raven","steam_id":76561198036076305,"connected_time":1562000000000,"state":"active","ping":54},{"user_id":641,"name":"kevin","steam_id":76561197996149548,"connected_time":623000000000,"state":"active","ping":60},{"user_id":632,"name":"Koleisus","steam_id":76561198045374646,"connected_time":1551000000000,"state":"active","ping":64},{"user_id":649,"name":"nedilya","steam_id":76561198039692077,"connected_time":143000000000,"state":"active","ping":56},{"user_id":633,"name":"CruelGospel","steam_id":76561197990884259,"connected_time":1535000000000,"state":"active","ping":84},{"user_id":527,"name":"Vampire tampon","steam_id":76561198042593027,"connected_time":8206000000000,"state":"active","ping":101},{"user_id":607,"name":"VergilFromDmc5","steam_id":76561198390314734,"connected_time":3214000000000,"state":"active","ping":59},{"user_id":524,"name":"nytronytronytro","steam_id":76561198080496833,"connected_time":8228000000000,"state":"active","ping":70},{"user_id":651,"name":"dn4k","steam_id":76561199221755690,"connected_time":77000000000,"state":"active","ping":76},{"user_id":621,"name":"Cossack","steam_id":76561198076661772,"connected_time":2099000000000,"state":"active","ping":86},{"user_id":636,"name":"Knösta","steam_id":76561198143422139,"connected_time":1388000000000,"state":"active","ping":107},{"user_id":639,"name":"r2d2.(/ˌɑːr.tuːˈdiːtuː/)","steam_id":76561198201235703,"connected_time":990000000000,"state":"active","ping":56},{"user_id":643,"name":"Tomex999","steam_id":76561198049587675,"connected_time":517000000000,"state":"active","ping":78},{"user_id":603,"name":"beagán","steam_id":76561198051966142,"connected_time":3333000000000,"state":"active","ping":157},{"user_id":549,"name":"glyph","steam_id":76561197980736364,"connected_time":6601000000000,"state":"active","ping":77},{"user_id":588,"name":"Grandpa Dingelberg","steam_id":76561198072166743,"connected_time":4089000000000,"state":"active","ping":184}]},{"server_id":110,"name":"Uncletopia | Frankfurt | 2 | All Maps","name_short":"frk-2","host":"frk-1.de.uncletopia.com","port":27025,"enabled":true,"region":"eu","cc":"de","latitude":50.110924,"longitude":8.682127,"reserved":0,"last_update":"0001-01-01T00:00:00Z","name_a2s":"Uncletopia | Frankfurt | 2 | All Maps","protocol":17,"map":"pl_badwater","folder":"tf","game":"Team Fortress","app_id":440,"player_count":19,"max_players":24,"Bots":0,"server_type":"Dedicated","server_os":"Linux","password":true,"vac":true,"version":"7757534","steam_id":85568392924469990,"keywords":["nocrits","nodmgspread","payload","uncletopia"],"game_id":440,"stv_port":27026,"stv_name":"Uncletopia | Frankfurt | 2 | All Maps | STV","players":[{"user_id":411,"name":"Kretes","steam_id":76561198982786431,"connected_time":20000000000,"state":"active","ping":65},{"user_id":392,"name":"Laxslow","steam_id":76561198065361846,"connected_time":2363000000000,"state":"active","ping":59},{"user_id":412,"name":"Nameless_Mann","steam_id":76561198015543601,"connected_time":16000000000,"state":"spawning","ping":61},{"user_id":408,"name":"mohemmedmokhter2005","steam_id":76561199197650506,"connected_time":114000000000,"state":"active","ping":103},{"user_id":391,"name":"lvl. 50 honkler","steam_id":76561198061688660,"connected_time":2504000000000,"state":"active","ping":100},{"user_id":406,"name":"FJADL","steam_id":76561198237008214,"connected_time":204000000000,"state":"active","ping":60},{"user_id":409,"name":"Norbert Hallelujah","steam_id":76561198137876982,"connected_time":107000000000,"state":"active","ping":63},{"user_id":368,"name":"shinji crank that soulja boy","steam_id":76561198099696876,"connected_time":3171000000000,"state":"active","ping":60},{"user_id":401,"name":"peams","steam_id":76561198343328308,"connected_time":1312000000000,"state":"active","ping":91},{"user_id":382,"name":"Breadcrab","steam_id":76561198015924039,"connected_time":2897000000000,"state":"active","ping":83},{"user_id":369,"name":"ff:ff:ff:ff:ff:ff","steam_id":76561198072122983,"connected_time":3142000000000,"state":"active","ping":85},{"user_id":395,"name":"DiditoGM","steam_id":76561198153343383,"connected_time":2196000000000,"state":"active","ping":63},{"user_id":371,"name":"Mata_FM11","steam_id":76561198044824504,"connected_time":3083000000000,"state":"active","ping":60},{"user_id":372,"name":"Sploink","steam_id":76561198115504907,"connected_time":3071000000000,"state":"active","ping":109},{"user_id":282,"name":"Psychicpie","steam_id":76561198126065206,"connected_time":10425000000000,"state":"active","ping":46},{"user_id":410,"name":"Korrwus","steam_id":76561198099710300,"connected_time":104000000000,"state":"active","ping":82},{"user_id":375,"name":"b ull","steam_id":76561199233979726,"connected_time":3049000000000,"state":"active","ping":83},{"user_id":393,"name":"scarfy","steam_id":76561197992645322,"connected_time":2235000000000,"state":"active","ping":75},{"user_id":390,"name":"Na'vi Misato (by popular demand","steam_id":76561198130860698,"connected_time":2566000000000,"state":"active","ping":67}]},{"server_id":308,"name":"Uncletopia | Frankfurt | 3 | All Maps","name_short":"frk-3","host":"frk-1.de.uncletopia.com","port":27035,"enabled":true,"region":"eu","cc":"de","latitude":50.110924,"longitude":8.682127,"reserved":0,"last_update":"0001-01-01T00:00:00Z","name_a2s":"Uncletopia | Frankfurt | 3 | All Maps","protocol":17,"map":"pl_barnblitz","folder":"tf","game":"Team Fortress","app_id":440,"player_count":24,"max_players":24,"Bots":0,"server_type":"Dedicated","server_os":"Linux","password":true,"vac":true,"version":"7757534","steam_id":85568392924504274,"keywords":["nocrits","nodmgspread","payload","uncletopia"],"game_id":440,"stv_port":27036,"stv_name":"Uncletopia | Frankfurt | 3 | All Maps | STV","players":[{"user_id":677,"name":"Argo'","steam_id":76561197961753975,"connected_time":954000000000,"state":"active","ping":45},{"user_id":659,"name":"Syll","steam_id":76561198040736202,"connected_time":2186000000000,"state":"active","ping":104},{"user_id":626,"name":"vroom doom","steam_id":76561198192671475,"connected_time":4617000000000,"state":"active","ping":59},{"user_id":641,"name":"Lazulura","steam_id":76561198103569919,"connected_time":4248000000000,"state":"active","ping":95},{"user_id":660,"name":"FELHEEE","steam_id":76561197987151150,"connected_time":1763000000000,"state":"active","ping":81},{"user_id":683,"name":"Verculum","steam_id":76561198894912634,"connected_time":658000000000,"state":"active","ping":97},{"user_id":655,"name":"Sukramm","steam_id":76561198057537744,"connected_time":3155000000000,"state":"active","ping":107},{"user_id":631,"name":"Cosmetic brain","steam_id":76561198055936410,"connected_time":4588000000000,"state":"active","ping":84},{"user_id":645,"name":"Volterion #SaveTf2","steam_id":76561198293088484,"connected_time":3857000000000,"state":"active","ping":77},{"user_id":673,"name":"Tri-","steam_id":76561198133524794,"connected_time":1083000000000,"state":"active","ping":56},{"user_id":642,"name":"Spoody #JustPassing","steam_id":76561198031523769,"connected_time":4181000000000,"state":"active","ping":48},{"user_id":653,"name":"davlevan","steam_id":76561198090848620,"connected_time":3210000000000,"state":"active","ping":63},{"user_id":654,"name":"playstation3","steam_id":76561198070281183,"connected_time":3205000000000,"state":"active","ping":86},{"user_id":685,"name":"Dachowiec","steam_id":76561198195408281,"connected_time":442000000000,"state":"active","ping":64},{"user_id":617,"name":"Chambersite","steam_id":76561198197022399,"connected_time":5460000000000,"state":"active","ping":71},{"user_id":648,"name":"Miss Bari","steam_id":76561198365286092,"connected_time":3819000000000,"state":"active","ping":51},{"user_id":681,"name":"Luuklin","steam_id":76561198093127283,"connected_time":730000000000,"state":"active","ping":70},{"user_id":682,"name":"Brass beast heavy","steam_id":76561198274197623,"connected_time":725000000000,"state":"active","ping":70},{"user_id":666,"name":"Eck","steam_id":76561198170101474,"connected_time":1636000000000,"state":"active","ping":64},{"user_id":678,"name":"Albatar2","steam_id":76561199403178899,"connected_time":954000000000,"state":"active","ping":66},{"user_id":686,"name":"Morgomasina","steam_id":76561197962411128,"connected_time":208000000000,"state":"active","ping":77},{"user_id":669,"name":"[funyun] Gabagool? Ova heeeere","steam_id":76561198035649208,"connected_time":1476000000000,"state":"active","ping":188},{"user_id":668,"name":"MagicTITIKAKA","steam_id":76561198129509548,"connected_time":1569000000000,"state":"active","ping":110},{"user_id":684,"name":"fregaropa","steam_id":76561198150806166,"connected_time":647000000000,"state":"active","ping":83}]},{"server_id":309,"name":"Uncletopia | Frankfurt | 4 | All Maps","name_short":"frk-4","host":"frk-1.de.uncletopia.com","port":27045,"enabled":true,"region":"eu","cc":"de","latitude":50.110924,"longitude":8.682127,"reserved":0,"last_update":"0001-01-01T00:00:00Z","name_a2s":"Uncletopia | Frankfurt | 4 | All Maps","protocol":17,"map":"pl_borneo","folder":"tf","game":"Team Fortress","app_id":440,"player_count":0,"max_players":24,"Bots":0,"server_type":"Dedicated","server_os":"Linux","password":true,"vac":true,"version":"7757534","steam_id":85568392924504275,"keywords":["nocrits","nodmgspread","payload","uncletopia"],"game_id":440,"stv_port":27046,"stv_name":"Uncletopia | Frankfurt | 4 | All Maps | STV","players":null},{"server_id":310,"name":"Uncletopia | Frankfurt | 5 | All Maps","name_short":"frk-5","host":"frk-1.de.uncletopia.com","port":27055,"enabled":true,"region":"eu","cc":"de","latitude":50.110924,"longitude":8.682127,"reserved":0,"last_update":"0001-01-01T00:00:00Z","name_a2s":"Uncletopia | Frankfurt | 5 | All Maps","protocol":17,"map":"koth_lakeside_final","folder":"tf","game":"Team Fortress","app_id":440,"player_count":0,"max_players":24,"Bots":0,"server_type":"Dedicated","server_os":"Linux","password":true,"vac":true,"version":"7757534","steam_id":85568392924504277,"keywords":["cp","nocrits","nodmgspread","uncletopia"],"game_id":440,"stv_port":27056,"stv_name":"Uncletopia | Frankfurt | 5 | All Maps | STV","players":null},{"server_id":311,"name":"Uncletopia | Frankfurt | 6 | All Maps","name_short":"frk-6","host":"frk-1.de.uncletopia.com","port":27065,"enabled":true,"region":"eu","cc":"de","latitude":50.110924,"longitude":8.682127,"reserved":0,"last_update":"0001-01-01T00:00:00Z","name_a2s":"Uncletopia | Frankfurt | 6 | All Maps","protocol":17,"map":"pl_badwater","folder":"tf","game":"Team Fortress","app_id":440,"player_count":23,"max_players":24,"Bots":0,"server_type":"Dedicated","server_os":"Linux","password":true,"vac":true,"version":"7757534","steam_id":85568392924504278,"keywords":["nocrits","nodmgspread","payload","uncletopia"],"game_id":440,"stv_port":27066,"stv_name":"Uncletopia | Frankfurt | 6 | All Maps | STV","players":[{"user_id":592,"name":"jmp","steam_id":76561198168283286,"connected_time":3043000000000,"state":"active","ping":74},{"user_id":598,"name":"Sabour","steam_id":76561197963965445,"connected_time":1920000000000,"state":"active","ping":61},{"user_id":574,"name":"Poor Fucking Infantry","steam_id":76561198055978522,"connected_time":3982000000000,"state":"active","ping":59},{"user_id":608,"name":"Fogic yo!","steam_id":76561198084624833,"connected_time":534000000000,"state":"active","ping":67},{"user_id":571,"name":"Fizzing Fool","steam_id":76561198425415033,"connected_time":4403000000000,"state":"active","ping":97},{"user_id":588,"name":"The Original Aboriginal","steam_id":76561198341886313,"connected_time":3600000000000,"state":"active","ping":83},{"user_id":595,"name":"Ninkazai Learning stick","steam_id":76561198297107931,"connected_time":2787000000000,"state":"active","ping":48},{"user_id":599,"name":"Tequilanator","steam_id":76561198072873953,"connected_time":1896000000000,"state":"active","ping":89},{"user_id":610,"name":"kaelan!","steam_id":76561198001425310,"connected_time":156000000000,"state":"active","ping":75},{"user_id":580,"name":"Zelmor","steam_id":76561197997708311,"connected_time":3827000000000,"state":"active","ping":59},{"user_id":609,"name":"Piteras","steam_id":76561198858532207,"connected_time":475000000000,"state":"active","ping":79},{"user_id":596,"name":"Kati","steam_id":76561198007231088,"connected_time":2769000000000,"state":"active","ping":60},{"user_id":568,"name":"Miton","steam_id":76561197970323209,"connected_time":4764000000000,"state":"active","ping":76},{"user_id":602,"name":"PuttePossu","steam_id":76561198350078793,"connected_time":1503000000000,"state":"active","ping":92},{"user_id":559,"name":"dubysa","steam_id":76561198079774530,"connected_time":5492000000000,"state":"active","ping":64},{"user_id":600,"name":"R@DIO","steam_id":76561197995533046,"connected_time":1850000000000,"state":"active","ping":75},{"user_id":515,"name":"Tordenkalven!","steam_id":76561197980490417,"connected_time":7841000000000,"state":"active","ping":79},{"user_id":597,"name":"joe","steam_id":76561198026484403,"connected_time":2575000000000,"state":"active","ping":74},{"user_id":584,"name":"Deacon Dracul","steam_id":76561198046880663,"connected_time":3732000000000,"state":"active","ping":99},{"user_id":591,"name":"Lemon","steam_id":76561198188535947,"connected_time":3362000000000,"state":"active","ping":80},{"user_id":603,"name":"azeroy","steam_id":76561198079277466,"connected_time":1195000000000,"state":"active","ping":55},{"user_id":543,"name":"Benzo Fury","steam_id":76561198025259336,"connected_time":6482000000000,"state":"active","ping":59}]},{"server_id":23,"name":"Uncletopia | Frankfurt | 7 | Stopwatch Beta","name_short":"frk-7","host":"frk-1.de.uncletopia.com","port":27075,"enabled":true,"region":"eu","cc":"de","latitude":50.110924,"longitude":8.682127,"reserved":0,"last_update":"0001-01-01T00:00:00Z","name_a2s":"Uncletopia | Frankfurt | 7 | Stopwatch Beta","protocol":17,"map":"workshop/pl_vigil_rc9.ugc1266210012","folder":"tf","game":"Team Fortress","app_id":440,"player_count":0,"max_players":24,"Bots":0,"server_type":"Dedicated","server_os":"Linux","password":true,"vac":true,"version":"7757534","steam_id":85568392924742827,"keywords":["nocrits","nodmgspread","payload","uncletopia"],"game_id":440,"stv_port":27076,"stv_name":"Uncletopia | Frankfurt | 7 | Stopwatch Beta | STV","players":null},{"server_id":24,"name":"Uncletopia | Frankfurt | 8 | Community","name_short":"frk-8","host":"frk-1.de.uncletopia.com","port":27085,"enabled":true,"region":"eu","cc":"de","latitude":50.110924,"longitude":8.682127,"reserved":0,"last_update":"0001-01-01T00:00:00Z","name_a2s":"Uncletopia | Frankfurt | 8 | Community","protocol":17,"map":"workshop/pl_barnblitz_pro7.ugc582280235","folder":"tf","game":"Team Fortress","app_id":440,"player_count":12,"max_players":24,"Bots":0,"server_type":"Dedicated","server_os":"Linux","password":true,"vac":true,"version":"7757534","steam_id":85568392924742828,"keywords":["nocrits","nodmgspread","payload","uncletopia"],"game_id":440,"stv_port":27086,"stv_name":"Uncletopia | Frankfurt | 8 | Community | STV","players":[{"user_id":455,"name":"hud_saytext_time 0","steam_id":76561198010327228,"connected_time":1218000000000,"state":"active","ping":54},{"user_id":438,"name":"iAmBack!\u003c3","steam_id":76561198004525276,"connected_time":2368000000000,"state":"active","ping":71},{"user_id":440,"name":"ViciousVinnyD","steam_id":76561198053822329,"connected_time":2321000000000,"state":"spawning","ping":294},{"user_id":451,"name":"❄ Kami ❄","steam_id":76561198158209651,"connected_time":2058000000000,"state":"active","ping":65},{"user_id":402,"name":"Dinges360","steam_id":76561198042032834,"connected_time":5250000000000,"state":"active","ping":48},{"user_id":458,"name":"SPONGE","steam_id":76561198040933472,"connected_time":1145000000000,"state":"active","ping":55},{"user_id":388,"name":"Just Navlis","steam_id":76561198090479609,"connected_time":5776000000000,"state":"active","ping":36},{"user_id":447,"name":"Osiris x Saint-14 9k Page Fanfi","steam_id":76561198133063760,"connected_time":2242000000000,"state":"active","ping":70},{"user_id":407,"name":"Zaf-Zaf","steam_id":76561198192667798,"connected_time":4700000000000,"state":"active","ping":46},{"user_id":410,"name":"Pamperchu","steam_id":76561199102156562,"connected_time":4548000000000,"state":"active","ping":73},{"user_id":460,"name":"akakez","steam_id":76561198095432821,"connected_time":1024000000000,"state":"active","ping":115},{"user_id":431,"name":"that1pig","steam_id":76561198185459619,"connected_time":3161000000000,"state":"active","ping":63}]},{"server_id":202,"name":"Uncletopia | Hong Kong | 1 | All Maps","name_short":"hgk-1","host":"hgk-1.hk.uncletopia.com","port":27015,"enabled":true,"region":"asia","cc":"hk","latitude":22.302711,"longitude":114.177216,"reserved":0,"last_update":"0001-01-01T00:00:00Z","name_a2s":"Uncletopia | Hong Kong | 1 | All Maps","protocol":17,"map":"pl_frontier_final","folder":"tf","game":"Team Fortress","app_id":440,"player_count":0,"max_players":24,"Bots":0,"server_type":"Dedicated","server_os":"Linux","password":true,"vac":true,"version":"7757534","steam_id":85568392924494504,"keywords":["nocrits","nodmgspread","payload","uncletopia"],"game_id":440,"stv_port":27016,"stv_name":"Uncletopia | Hong Kong | 1 | All Maps | STV","players":null},{"server_id":1,"name":"Uncletopia | Los Angeles | 1 | All Maps","name_short":"lax-1","host":"lax-1.us.uncletopia.com","port":27015,"enabled":true,"region":"us-west","cc":"us","latitude":33.94279,"longitude":-118.41004,"reserved":0,"last_update":"0001-01-01T00:00:00Z","name_a2s":"Uncletopia | Los Angeles | 1 | All Maps","protocol":17,"map":"pl_pier","folder":"tf","game":"Team Fortress","app_id":440,"player_count":0,"max_players":24,"Bots":0,"server_type":"Dedicated","server_os":"Linux","password":true,"vac":true,"version":"7757534","steam_id":85568392924469991,"keywords":["nocrits","nodmgspread","payload","uncletopia"],"game_id":440,"stv_port":27016,"stv_name":"Uncletopia | Los Angeles | 1 | All Maps | STV","players":null},{"server_id":112,"name":"Uncletopia | Los Angeles | 2 | All Maps","name_short":"lax-2","host":"lax-1.us.uncletopia.com","port":27025,"enabled":true,"region":"us-west","cc":"us","latitude":33.94279,"longitude":-118.41004,"reserved":0,"last_update":"0001-01-01T00:00:00Z","name_a2s":"Uncletopia | Los Angeles | 2 | All Maps","protocol":17,"map":"koth_viaduct","folder":"tf","game":"Team Fortress","app_id":440,"player_count":0,"max_players":24,"Bots":0,"server_type":"Dedicated","server_os":"Linux","password":true,"vac":true,"version":"7757534","steam_id":85568392924469992,"keywords":["cp","nocrits","nodmgspread","uncletopia"],"game_id":440,"stv_port":27026,"stv_name":"Uncletopia | Los Angeles | 2 | All Maps | STV","players":null},{"server_id":324,"name":"Uncletopia | Los Angeles | 3 | All Maps","name_short":"lax-3","host":"lax-1.us.uncletopia.com","port":27035,"enabled":true,"region":"us-west","cc":"us","latitude":33.94279,"longitude":-118.41004,"reserved":0,"last_update":"0001-01-01T00:00:00Z","name_a2s":"Uncletopia | Los Angeles | 3 | All Maps","protocol":17,"map":"koth_cascade","folder":"tf","game":"Team Fortress","app_id":440,"player_count":0,"max_players":24,"Bots":0,"server_type":"Dedicated","server_os":"Linux","password":true,"vac":true,"version":"7757534","steam_id":85568392924510198,"keywords":["cp","nocrits","nodmgspread","uncletopia"],"game_id":440,"stv_port":27036,"stv_name":"Uncletopia | Los Angeles | 3 | All Maps | STV","players":null},{"server_id":25,"name":"Uncletopia | Los Angeles | 4 | Stopwatch Beta","name_short":"lax-4","host":"lax-1.us.uncletopia.com","port":27045,"enabled":true,"region":"us-west","cc":"us","latitude":33.94279,"longitude":-118.41004,"reserved":0,"last_update":"0001-01-01T00:00:00Z","name_a2s":"Uncletopia | Los Angeles | 4 | Stopwatch Beta","protocol":17,"map":"koth_viaduct","folder":"tf","game":"Team Fortress","app_id":440,"player_count":0,"max_players":24,"Bots":0,"server_type":"Dedicated","server_os":"Linux","password":true,"vac":true,"version":"7757534","steam_id":85568392924510199,"keywords":["cp","nocrits","nodmgspread","uncletopia"],"game_id":440,"stv_port":27046,"stv_name":"Uncletopia | Los Angeles | 4 | Stopwatch Beta | STV","players":null},{"server_id":11,"name":"Uncletopia | London | 1 | All Maps","name_short":"lon-1","host":"lon-1.uk.uncletopia.com","port":27015,"enabled":true,"region":"eu","cc":"gb","latitude":51.509865,"longitude":-0.118092,"reserved":0,"last_update":"0001-01-01T00:00:00Z","name_a2s":"Uncletopia | London | 1 | All Maps","protocol":17,"map":"koth_viaduct","folder":"tf","game":"Team Fortress","app_id":440,"player_count":21,"max_players":24,"Bots":0,"server_type":"Dedicated","server_os":"Linux","password":true,"vac":true,"version":"7757534","steam_id":85568392924367362,"keywords":["cp","nocrits","nodmgspread","uncletopia"],"game_id":440,"stv_port":27016,"stv_name":"Uncletopia | London | 1 | All Maps | STV","players":[{"user_id":427,"name":"archy","steam_id":76561198180596135,"connected_time":259000000000,"state":"active","ping":44},{"user_id":428,"name":"abigail","steam_id":76561198132932617,"connected_time":167000000000,"state":"active","ping":54},{"user_id":425,"name":"Penis Contortionist","steam_id":76561198073663784,"connected_time":844000000000,"state":"active","ping":37},{"user_id":412,"name":"homeinvasion$","steam_id":76561199111905021,"connected_time":1893000000000,"state":"active","ping":120},{"user_id":429,"name":"blade","steam_id":76561199308850812,"connected_time":147000000000,"state":"active","ping":70},{"user_id":404,"name":"Dom.","steam_id":76561199065917088,"connected_time":2278000000000,"state":"active","ping":58},{"user_id":414,"name":"WolFFinE","steam_id":76561198125790408,"connected_time":1449000000000,"state":"active","ping":80},{"user_id":430,"name":"Pinkchup","steam_id":76561198106802803,"connected_time":112000000000,"state":"active","ping":75},{"user_id":431,"name":"JimTheMagicJumper","steam_id":76561197996773886,"connected_time":86000000000,"state":"active","ping":36},{"user_id":405,"name":"UGH!","steam_id":76561198004335297,"connected_time":2214000000000,"state":"active","ping":56},{"user_id":432,"name":"Watson","steam_id":76561198815648445,"connected_time":83000000000,"state":"active","ping":51},{"user_id":267,"name":"Aurora","steam_id":76561199385280253,"connected_time":15043000000000,"state":"active","ping":123},{"user_id":392,"name":"sora","steam_id":76561198096547662,"connected_time":3283000000000,"state":"active","ping":48},{"user_id":411,"name":"DeathStrike1","steam_id":76561198020934765,"connected_time":2061000000000,"state":"active","ping":79},{"user_id":433,"name":"wG silentes","steam_id":76561197999595616,"connected_time":60000000000,"state":"active","ping":41},{"user_id":375,"name":"JoelTheMoelTTV","steam_id":76561198326357465,"connected_time":4490000000000,"state":"active","ping":47},{"user_id":434,"name":"Sacrishee","steam_id":76561198169853697,"connected_time":21000000000,"state":"active","ping":62},{"user_id":393,"name":"tmac","steam_id":76561198047685716,"connected_time":3261000000000,"state":"active","ping":46},{"user_id":426,"name":"HEHRAHA KRITTY KRAT :3","steam_id":76561198917309036,"connected_time":822000000000,"state":"active","ping":130},{"user_id":381,"name":"Buiruc","steam_id":76561198978832107,"connected_time":4417000000000,"state":"active","ping":61},{"user_id":422,"name":"anime drug dealer","steam_id":76561198235739036,"connected_time":1057000000000,"state":"active","ping":76}]},{"server_id":114,"name":"Uncletopia | London | 2 | All Maps","name_short":"lon-2","host":"lon-1.uk.uncletopia.com","port":27025,"enabled":true,"region":"eu","cc":"gb","latitude":51.509865,"longitude":-0.118092,"reserved":0,"last_update":"0001-01-01T00:00:00Z","name_a2s":"Uncletopia | London | 2 | All Maps","protocol":17,"map":"pl_upward","folder":"tf","game":"Team Fortress","app_id":440,"player_count":24,"max_players":24,"Bots":0,"server_type":"Dedicated","server_os":"Linux","password":true,"vac":true,"version":"7757534","steam_id":85568392924470941,"keywords":["nocrits","nodmgspread","payload","uncletopia"],"game_id":440,"stv_port":27026,"stv_name":"Uncletopia | London | 2 | All Maps | STV","players":[{"user_id":702,"name":"doctor sex","steam_id":76561198882986104,"connected_time":1974000000000,"state":"active","ping":145},{"user_id":687,"name":"ryan55510","steam_id":76561198054750052,"connected_time":3797000000000,"state":"active","ping":56},{"user_id":705,"name":"walking sentry","steam_id":76561199225363633,"connected_time":1938000000000,"state":"active","ping":65},{"user_id":707,"name":"Jospinoscope","steam_id":76561197968575924,"connected_time":1479000000000,"state":"active","ping":66},{"user_id":728,"name":"snowii","steam_id":76561198836246326,"connected_time":329000000000,"state":"active","ping":82},{"user_id":698,"name":"Hilldog","steam_id":76561198082209322,"connected_time":3261000000000,"state":"active","ping":87},{"user_id":717,"name":"Tresthebest360","steam_id":76561198965347175,"connected_time":980000000000,"state":"active","ping":146},{"user_id":716,"name":"Detective KOnan","steam_id":76561198046702519,"connected_time":990000000000,"state":"active","ping":104},{"user_id":729,"name":"JugoTopia","steam_id":76561197996067209,"connected_time":277000000000,"state":"active","ping":111},{"user_id":730,"name":"paul.mikson","steam_id":76561199244226099,"connected_time":51000000000,"state":"active","ping":122},{"user_id":711,"name":"jankomit","steam_id":76561198043024857,"connected_time":1336000000000,"state":"active","ping":81},{"user_id":712,"name":"Electro_Creeper","steam_id":76561199196836893,"connected_time":1306000000000,"state":"active","ping":184},{"user_id":731,"name":"tone","steam_id":76561197975301462,"connected_time":28000000000,"state":"active","ping":63},{"user_id":714,"name":"Cosmic Gamer","steam_id":76561198027357981,"connected_time":1166000000000,"state":"active","ping":98},{"user_id":732,"name":"Lennox","steam_id":76561198069063554,"connected_time":26000000000,"state":"active","ping":48},{"user_id":733,"name":"BeefHammer","steam_id":76561198078426223,"connected_time":14000000000,"state":"spawning","ping":83},{"user_id":721,"name":"theancientnut","steam_id":76561199396708880,"connected_time":873000000000,"state":"active","ping":147},{"user_id":722,"name":"TheConchinator","steam_id":76561199388149092,"connected_time":848000000000,"state":"active","ping":154},{"user_id":734,"name":"Flopes21","steam_id":76561198289293436,"connected_time":8000000000,"state":"spawning","ping":73},{"user_id":735,"name":"Jiant","steam_id":76561198374998274,"connected_time":6000000000,"state":"spawning","ping":64},{"user_id":697,"name":"Hotgamerdad","steam_id":76561198085940613,"connected_time":3397000000000,"state":"active","ping":55},{"user_id":726,"name":"b i g  j a k e y","steam_id":76561198089054485,"connected_time":643000000000,"state":"active","ping":57},{"user_id":681,"name":"randompixel","steam_id":76561198003941207,"connected_time":4402000000000,"state":"active","ping":49}]},{"server_id":320,"name":"Uncletopia | London | 3 | All Maps","name_short":"lon-3","host":"lon-1.uk.uncletopia.com","port":27035,"enabled":true,"region":"eu","cc":"gb","latitude":51.509865,"longitude":-0.118092,"reserved":0,"last_update":"0001-01-01T00:00:00Z","name_a2s":"Uncletopia | London | 3 | All Maps","protocol":17,"map":"koth_viaduct","folder":"tf","game":"Team Fortress","app_id":440,"player_count":0,"max_players":24,"Bots":0,"server_type":"Dedicated","server_os":"Linux","password":true,"vac":true,"version":"7757534","steam_id":85568392924510192,"keywords":["cp","nocrits","nodmgspread","uncletopia"],"game_id":440,"stv_port":27036,"stv_name":"Uncletopia | London | 3 | All Maps | STV","players":null},{"server_id":321,"name":"Uncletopia | London | 4 | All Maps","name_short":"lon-4","host":"lon-1.uk.uncletopia.com","port":27045,"enabled":true,"region":"eu","cc":"gb","latitude":51.509865,"longitude":-0.118092,"reserved":0,"last_update":"0001-01-01T00:00:00Z","name_a2s":"Uncletopia | London | 4 | All Maps","protocol":17,"map":"pl_upward","folder":"tf","game":"Team Fortress","app_id":440,"player_count":24,"max_players":24,"Bots":0,"server_type":"Dedicated","server_os":"Linux","password":true,"vac":true,"version":"7757534","steam_id":85568392924510193,"keywords":["nocrits","nodmgspread","payload","uncletopia"],"game_id":440,"stv_port":27046,"stv_name":"Uncletopia | London | 4 | All Maps | STV","players":[{"user_id":248,"name":"Midnight","steam_id":76561198323577707,"connected_time":239000000000,"state":"active","ping":152},{"user_id":235,"name":"vyjugi ygcfjbgcvjhbbvgugk","steam_id":76561198097712283,"connected_time":504000000000,"state":"active","ping":72},{"user_id":252,"name":"siental","steam_id":76561198275457864,"connected_time":36000000000,"state":"active","ping":34},{"user_id":239,"name":"fuego","steam_id":76561198054162681,"connected_time":429000000000,"state":"active","ping":63},{"user_id":214,"name":"vexo","steam_id":76561198186680410,"connected_time":1104000000000,"state":"active","ping":44},{"user_id":243,"name":"Ted Kaczynski","steam_id":76561198064795519,"connected_time":329000000000,"state":"active","ping":61},{"user_id":241,"name":"mr mufasi","steam_id":76561198068453867,"connected_time":348000000000,"state":"active","ping":49},{"user_id":244,"name":"Mr Prince","steam_id":76561199006591691,"connected_time":305000000000,"state":"active","ping":70},{"user_id":253,"name":"GustafTheThief","steam_id":76561198177623450,"connected_time":21000000000,"state":"active","ping":212},{"user_id":254,"name":"Christmas Ham","steam_id":76561198119601623,"connected_time":17000000000,"state":"active","ping":53},{"user_id":247,"name":"Cursed.jpg","steam_id":76561198164146325,"connected_time":260000000000,"state":"active","ping":174},{"user_id":210,"name":"A Pigeon","steam_id":76561198114090555,"connected_time":1530000000000,"state":"active","ping":76},{"user_id":230,"name":"Mach |=|20BB|)","steam_id":76561198952487564,"connected_time":721000000000,"state":"active","ping":88},{"user_id":92,"name":"✪ qua ✪","steam_id":76561198066408333,"connected_time":8988000000000,"state":"active","ping":62},{"user_id":236,"name":"Grape Juice","steam_id":76561198380337568,"connected_time":452000000000,"state":"active","ping":160},{"user_id":238,"name":"DarmaniClan #savetf2","steam_id":76561199134103145,"connected_time":437000000000,"state":"active","ping":158},{"user_id":233,"name":"tiagrossin","steam_id":76561198075391779,"connected_time":702000000000,"state":"active","ping":75},{"user_id":201,"name":"Pineapple Okanつ ◕_◕ ༽\ufffd\ufffd","steam_id":76561198069199449,"connected_time":1943000000000,"state":"active","ping":111},{"user_id":242,"name":"keepflatandenjoy","steam_id":76561198976062150,"connected_time":347000000000,"state":"active","ping":54},{"user_id":187,"name":"Mickyb18a.await","steam_id":76561198155231014,"connected_time":2479000000000,"state":"active","ping":44},{"user_id":184,"name":"CamoS1250","steam_id":76561198309917434,"connected_time":2843000000000,"state":"active","ping":148},{"user_id":245,"name":"Shads","steam_id":76561198080817039,"connected_time":291000000000,"state":"active","ping":44},{"user_id":249,"name":"Joe","steam_id":76561198061717026,"connected_time":208000000000,"state":"active","ping":38},{"user_id":193,"name":"John Dorie","steam_id":76561198119634726,"connected_time":2375000000000,"state":"active","ping":155}]},{"server_id":21,"name":"Uncletopia | London | 5 | All Maps","name_short":"lon-5","host":"lon-1.uk.uncletopia.com","port":27055,"enabled":true,"region":"eu","cc":"gb","latitude":51.509865,"longitude":-0.118092,"reserved":0,"last_update":"0001-01-01T00:00:00Z","name_a2s":"Uncletopia | London | 5 | All Maps","protocol":17,"map":"pl_upward","folder":"tf","game":"Team Fortress","app_id":440,"player_count":24,"max_players":24,"Bots":0,"server_type":"Dedicated","server_os":"Linux","password":true,"vac":true,"version":"7757534","steam_id":85568392924742829,"keywords":["nocrits","nodmgspread","payload","uncletopia"],"game_id":440,"stv_port":27056,"stv_name":"Uncletopia | London | 5 | All Maps | STV","players":[{"user_id":369,"name":"Johnny Cockroach","steam_id":76561198049648277,"connected_time":3776000000000,"state":"active","ping":103},{"user_id":359,"name":"MAJAX","steam_id":76561198254828632,"connected_time":3908000000000,"state":"active","ping":49},{"user_id":387,"name":"Soggy.burrito14","steam_id":76561198066249669,"connected_time":429000000000,"state":"active","ping":126},{"user_id":299,"name":"RebirthInFire","steam_id":76561198200555755,"connected_time":7511000000000,"state":"active","ping":51},{"user_id":378,"name":"certified caber enjoyer","steam_id":76561199012488416,"connected_time":1830000000000,"state":"active","ping":82},{"user_id":296,"name":"tonedude","steam_id":76561198280837376,"connected_time":7601000000000,"state":"active","ping":48},{"user_id":361,"name":"Bl_ue2th","steam_id":76561198804551869,"connected_time":3872000000000,"state":"active","ping":110},{"user_id":351,"name":"joecalmatt","steam_id":76561198172552015,"connected_time":5087000000000,"state":"active","ping":43},{"user_id":379,"name":"Harrison256","steam_id":76561198078975210,"connected_time":1413000000000,"state":"active","ping":54},{"user_id":380,"name":"Jeikku","steam_id":76561198078651679,"connected_time":1375000000000,"state":"active","ping":41},{"user_id":385,"name":"kotamine","steam_id":76561198068907991,"connected_time":476000000000,"state":"active","ping":75},{"user_id":363,"name":"jovi_","steam_id":76561198449280552,"connected_time":3867000000000,"state":"active","ping":48},{"user_id":377,"name":"RoXeUr-KaMiKaZe","steam_id":76561197998204782,"connected_time":1863000000000,"state":"active","ping":54},{"user_id":368,"name":"cosmo kramer, lord of the manor","steam_id":76561198074979596,"connected_time":3810000000000,"state":"active","ping":89},{"user_id":355,"name":"snoow","steam_id":76561199389638136,"connected_time":5018000000000,"state":"active","ping":74},{"user_id":312,"name":"BAD BALD \u0026 BEYOND","steam_id":76561198029873185,"connected_time":6883000000000,"state":"active","ping":58},{"user_id":383,"name":"ULTIMATE_GORDON","steam_id":76561198044470038,"connected_time":1168000000000,"state":"active","ping":45},{"user_id":340,"name":"Djingis Khan","steam_id":76561197967864460,"connected_time":5557000000000,"state":"active","ping":50},{"user_id":384,"name":"obliteratedthenaho","steam_id":76561198127441800,"connected_time":809000000000,"state":"active","ping":60},{"user_id":326,"name":"Bounter","steam_id":76561198072614188,"connected_time":6396000000000,"state":"active","ping":76},{"user_id":381,"name":"Boki","steam_id":76561198044553351,"connected_time":1352000000000,"state":"active","ping":61},{"user_id":382,"name":"🏍","steam_id":76561198050990633,"connected_time":1349000000000,"state":"active","ping":79},{"user_id":391,"name":"Trash Bandicoot","steam_id":76561198127596400,"connected_time":99000000000,"state":"active","ping":72},{"user_id":341,"name":"Semyr","steam_id":76561198125655939,"connected_time":5548000000000,"state":"active","ping":135}]},{"server_id":22,"name":"Uncletopia | London | 6 | All Maps","name_short":"lon-6","host":"lon-1.uk.uncletopia.com","port":27065,"enabled":true,"region":"eu","cc":"gb","latitude":51.509865,"longitude":-0.118092,"reserved":0,"last_update":"0001-01-01T00:00:00Z","name_a2s":"Uncletopia | London | 6 | All Maps","protocol":17,"map":"pl_goldrush","folder":"tf","game":"Team Fortress","app_id":440,"player_count":0,"max_players":24,"Bots":0,"server_type":"Dedicated","server_os":"Linux","password":true,"vac":true,"version":"7757534","steam_id":85568392924742830,"keywords":["nocrits","nodmgspread","payload","uncletopia"],"game_id":440,"stv_port":27066,"stv_name":"Uncletopia | London | 6 | All Maps | STV","players":null},{"server_id":40,"name":"Uncletopia | London | 7 | No Payload","name_short":"lon-7","host":"lon-1.uk.uncletopia.com","port":27075,"enabled":true,"region":"eu","cc":"gb","latitude":51.509865,"longitude":-0.118092,"reserved":0,"last_update":"0001-01-01T00:00:00Z","name_a2s":"Uncletopia | London | 7 | No Payload","protocol":17,"map":"plr_nightfall_final","folder":"tf","game":"Team Fortress","app_id":440,"player_count":0,"max_players":24,"Bots":0,"server_type":"Dedicated","server_os":"Linux","password":true,"vac":true,"version":"7757534","steam_id":85568392924964314,"keywords":["nocrits","nodmgspread","payload","uncletopia"],"game_id":440,"stv_port":27076,"stv_name":"Uncletopia | London | 7 | No Payload | STV","players":null},{"server_id":41,"name":"Uncletopia | London | 8 | Community","name_short":"lon-8","host":"lon-1.uk.uncletopia.com","port":27085,"enabled":true,"region":"eu","cc":"gb","latitude":51.509865,"longitude":-0.118092,"reserved":0,"last_update":"0001-01-01T00:00:00Z","name_a2s":"Uncletopia | London | 8 | Community","protocol":17,"map":"workshop/koth_product_final.ugc454272353","folder":"tf","game":"Team Fortress","app_id":440,"player_count":0,"max_players":24,"Bots":0,"server_type":"Dedicated","server_os":"Linux","password":true,"vac":true,"version":"7757534","steam_id":85568392924964315,"keywords":["cp","nocrits","nodmgspread","uncletopia"],"game_id":440,"stv_port":27086,"stv_name":"Uncletopia | London | 8 | Community | STV","players":null},{"server_id":300,"name":"Uncletopia | Montréal | 1 | All Maps","name_short":"mtl-1","host":"mtl-1.ca.uncletopia.com","port":27015,"enabled":true,"region":"us-east","cc":"ca","latitude":45.50889,"longitude":-73.56167,"reserved":0,"last_update":"0001-01-01T00:00:00Z","name_a2s":"Uncletopia | Montréal | 1 | All Maps","protocol":17,"map":"pl_upward","folder":"tf","game":"Team Fortress","app_id":440,"player_count":0,"max_players":24,"Bots":0,"server_type":"Dedicated","server_os":"Linux","password":true,"vac":true,"version":"7757534","steam_id":85568392924500087,"keywords":["nocrits","nodmgspread","payload","uncletopia"],"game_id":440,"stv_port":27016,"stv_name":"Uncletopia | Montréal | 1 | All Maps | STV","players":null},{"server_id":301,"name":"Uncletopia | Montréal | 2 | All Maps","name_short":"mtl-2","host":"mtl-1.ca.uncletopia.com","port":27025,"enabled":true,"region":"us-east","cc":"ca","latitude":45.50889,"longitude":-73.56167,"reserved":0,"last_update":"0001-01-01T00:00:00Z","name_a2s":"Uncletopia | Montréal | 2 | All Maps","protocol":17,"map":"koth_nucleus","folder":"tf","game":"Team Fortress","app_id":440,"player_count":0,"max_players":24,"Bots":0,"server_type":"Dedicated","server_os":"Linux","password":true,"vac":true,"version":"7757534","steam_id":85568392924500088,"keywords":["cp","nocrits","nodmgspread","uncletopia"],"game_id":440,"stv_port":27026,"stv_name":"Uncletopia | Montréal | 2 | All Maps | STV","players":null},{"server_id":302,"name":"Uncletopia | Montréal | 3 | All Maps","name_short":"mtl-3","host":"mtl-1.ca.uncletopia.com","port":27035,"enabled":true,"region":"us-east","cc":"ca","latitude":45.50889,"longitude":-73.56167,"reserved":0,"last_update":"0001-01-01T00:00:00Z","name_a2s":"Uncletopia | Montréal | 3 | All Maps","protocol":17,"map":"pl_snowycoast","folder":"tf","game":"Team Fortress","app_id":440,"player_count":0,"max_players":24,"Bots":0,"server_type":"Dedicated","server_os":"Linux","password":true,"vac":true,"version":"7757534","steam_id":85568392924500089,"keywords":["nocrits","nodmgspread","payload","uncletopia"],"game_id":440,"stv_port":27036,"stv_name":"Uncletopia | Montréal | 3 | All Maps | STV","players":null},{"server_id":303,"name":"Uncletopia | Montréal | 4 | No Payload","name_short":"mtl-4","host":"mtl-1.ca.uncletopia.com","port":27045,"enabled":true,"region":"us-east","cc":"ca","latitude":45.50889,"longitude":-73.56167,"reserved":0,"last_update":"0001-01-01T00:00:00Z","name_a2s":"Uncletopia | Montréal | 4 | No Payload","protocol":17,"map":"koth_lakeside_final","folder":"tf","game":"Team Fortress","app_id":440,"player_count":0,"max_players":24,"Bots":0,"server_type":"Dedicated","server_os":"Linux","password":true,"vac":true,"version":"7757534","steam_id":85568392924500090,"keywords":["cp","nocrits","nodmgspread","uncletopia"],"game_id":440,"stv_port":27046,"stv_name":"Uncletopia | Montréal | 4 | No Payload | STV","players":null},{"server_id":13,"name":"Uncletopia | New York City | 1 | All Maps","name_short":"nyc-1","host":"nyc-1.us.uncletopia.com","port":27015,"enabled":true,"region":"us-east","cc":"us","latitude":40.73061,"longitude":-73.93524,"reserved":0,"last_update":"0001-01-01T00:00:00Z","name_a2s":"Uncletopia | New York City | 1 | All Maps","protocol":17,"map":"koth_suijin","folder":"tf","game":"Team Fortress","app_id":440,"player_count":22,"max_players":24,"Bots":0,"server_type":"Dedicated","server_os":"Linux","password":true,"vac":true,"version":"7757534","steam_id":85568392924469993,"keywords":["cp","nocrits","nodmgspread","uncletopia"],"game_id":440,"stv_port":27016,"stv_name":"Uncletopia | New York City | 1 | All Maps | STV","players":[{"user_id":490,"name":"super99coolman","steam_id":76561199249081889,"connected_time":72000000000,"state":"active","ping":84},{"user_id":482,"name":"NeverAcedIt (Pinnacle -\u003e Pit)","steam_id":76561198406671743,"connected_time":303000000000,"state":"active","ping":85},{"user_id":429,"name":"that fat croc from donkey kong","steam_id":76561198159172495,"connected_time":3926000000000,"state":"active","ping":145},{"user_id":486,"name":"Doom Cart","steam_id":76561198158543955,"connected_time":139000000000,"state":"active","ping":30},{"user_id":458,"name":"fast","steam_id":76561198311704368,"connected_time":2039000000000,"state":"active","ping":61},{"user_id":489,"name":"Loogey03","steam_id":76561198155483586,"connected_time":105000000000,"state":"active","ping":75},{"user_id":438,"name":"PinkLemonade","steam_id":76561198799286228,"connected_time":3475000000000,"state":"active","ping":46},{"user_id":471,"name":"Xavibite","steam_id":76561198209380493,"connected_time":804000000000,"state":"active","ping":37},{"user_id":480,"name":"raisedbybirds","steam_id":76561198131531646,"connected_time":523000000000,"state":"active","ping":60},{"user_id":472,"name":"MrrPickle","steam_id":76561198122046514,"connected_time":748000000000,"state":"active","ping":60},{"user_id":487,"name":"Yatso Bagelmenson","steam_id":76561198004329919,"connected_time":135000000000,"state":"active","ping":76},{"user_id":484,"name":"The_N_Man_44","steam_id":76561198802835217,"connected_time":231000000000,"state":"active","ping":88},{"user_id":408,"name":"MILF Gaming","steam_id":76561198155378170,"connected_time":5579000000000,"state":"active","ping":57},{"user_id":431,"name":"Fishandfish","steam_id":76561198298483804,"connected_time":3909000000000,"state":"active","ping":115},{"user_id":488,"name":"tomatofrog","steam_id":76561199166803296,"connected_time":125000000000,"state":"active","ping":81},{"user_id":470,"name":"mzjosef","steam_id":76561197985742638,"connected_time":988000000000,"state":"active","ping":61},{"user_id":457,"name":"nalezinik","steam_id":76561198030026119,"connected_time":2270000000000,"state":"active","ping":64},{"user_id":491,"name":"caberknight tf2","steam_id":76561199273882768,"connected_time":61000000000,"state":"active","ping":55},{"user_id":473,"name":"'LaxAttack","steam_id":76561198044129346,"connected_time":736000000000,"state":"active","ping":57},{"user_id":478,"name":"{[F.H]} Hydroida","steam_id":76561197999797274,"connected_time":556000000000,"state":"active","ping":73},{"user_id":492,"name":"Drunken Tuscan","steam_id":76561198244203066,"connected_time":13000000000,"state":"spawning","ping":79},{"user_id":493,"name":"Cherri.mp4","steam_id":76561198867419734,"connected_time":6000000000,"state":"spawning","ping":32}]},{"server_id":14,"name":"Uncletopia | New York City | 2 | All Maps","name_short":"nyc-2","host":"nyc-1.us.uncletopia.com","port":27025,"enabled":true,"region":"us-east","cc":"us","latitude":40.73061,"longitude":-73.93524,"reserved":0,"last_update":"0001-01-01T00:00:00Z","name_a2s":"Uncletopia | New York City | 2 | All Maps","protocol":17,"map":"pl_pier","folder":"tf","game":"Team Fortress","app_id":440,"player_count":17,"max_players":24,"Bots":0,"server_type":"Dedicated","server_os":"Linux","password":true,"vac":true,"version":"7757534","steam_id":85568392924469994,"keywords":["nocrits","nodmgspread","payload","uncletopia"],"game_id":440,"stv_port":27026,"stv_name":"Uncletopia | New York City | 2 | All Maps | STV","players":[{"user_id":101,"name":"alfredodan","steam_id":76561198025011044,"connected_time":3459000000000,"state":"active","ping":66},{"user_id":124,"name":"LionHeart","steam_id":76561198075573693,"connected_time":1704000000000,"state":"active","ping":56},{"user_id":134,"name":"meinsword","steam_id":76561198272653535,"connected_time":713000000000,"state":"active","ping":61},{"user_id":88,"name":"Red Scientist","steam_id":76561198151349793,"connected_time":4712000000000,"state":"active","ping":80},{"user_id":129,"name":"QubicaAMF Bowling Systems LLC","steam_id":76561199134895220,"connected_time":1250000000000,"state":"active","ping":55},{"user_id":111,"name":"Walter Motrin","steam_id":76561198139095697,"connected_time":2664000000000,"state":"active","ping":52},{"user_id":94,"name":"Brown_Dream","steam_id":76561198975766145,"connected_time":4026000000000,"state":"active","ping":82},{"user_id":99,"name":"goron","steam_id":76561198051089144,"connected_time":3491000000000,"state":"active","ping":55},{"user_id":121,"name":"Toxic Medic Main","steam_id":76561198009314845,"connected_time":1775000000000,"state":"active","ping":106},{"user_id":108,"name":"Gang_Weed","steam_id":76561198301213645,"connected_time":3239000000000,"state":"active","ping":69},{"user_id":80,"name":"pablo.gonzales.2007","steam_id":76561199088646500,"connected_time":4873000000000,"state":"active","ping":189},{"user_id":110,"name":"guyinatophat51","steam_id":76561198180230694,"connected_time":2857000000000,"state":"active","ping":85},{"user_id":83,"name":"Help Me","steam_id":76561198133851467,"connected_time":4815000000000,"state":"active","ping":91},{"user_id":135,"name":"Reniculous","steam_id":76561199214769940,"connected_time":340000000000,"state":"active","ping":78},{"user_id":122,"name":"Gram Tokers Count Doinkula","steam_id":76561198112811565,"connected_time":1728000000000,"state":"active","ping":49},{"user_id":131,"name":"Menlymen","steam_id":76561198046508051,"connected_time":1052000000000,"state":"active","ping":77},{"user_id":123,"name":"Loafus","steam_id":76561198154561111,"connected_time":1722000000000,"state":"active","ping":65}]},{"server_id":15,"name":"Uncletopia | New York City | 3 | Stopwatch Beta","name_short":"nyc-3","host":"nyc-1.us.uncletopia.com","port":27035,"enabled":true,"region":"us-east","cc":"us","latitude":40.73061,"longitude":-73.93524,"reserved":0,"last_update":"0001-01-01T00:00:00Z","name_a2s":"Uncletopia | New York City | 3 | Stopwatch Beta","protocol":17,"map":"workshop/koth_clearcut_b15.ugc2107050255","folder":"tf","game":"Team Fortress","app_id":440,"player_count":0,"max_players":24,"Bots":0,"server_type":"Dedicated","server_os":"Linux","password":true,"vac":true,"version":"7757534","steam_id":85568392924742820,"keywords":["cp","nocrits","nodmgspread","uncletopia"],"game_id":440,"stv_port":27036,"stv_name":"Uncletopia | New York City | 3 | Stopwatch Beta | STV","players":null},{"server_id":16,"name":"Uncletopia | New York City | 4 | Community","name_short":"nyc-4","host":"nyc-1.us.uncletopia.com","port":27045,"enabled":true,"region":"us-east","cc":"us","latitude":40.73061,"longitude":-73.93524,"reserved":0,"last_update":"0001-01-01T00:00:00Z","name_a2s":"Uncletopia | New York City | 4 | Community","protocol":17,"map":"pl_borneo","folder":"tf","game":"Team Fortress","app_id":440,"player_count":0,"max_players":24,"Bots":0,"server_type":"Dedicated","server_os":"Linux","password":true,"vac":true,"version":"7757534","steam_id":85568392924742821,"keywords":["nocrits","nodmgspread","payload","uncletopia"],"game_id":440,"stv_port":27046,"stv_name":"Uncletopia | New York City | 4 | Community | STV","players":null},{"server_id":142,"name":"Uncletopia | São Paulo | 1 | All Maps","name_short":"sao-1","host":"sao-1.br.uncletopia.com","port":27015,"enabled":true,"region":"sa","cc":"br","latitude":-23.533773,"longitude":-46.62529,"reserved":0,"last_update":"0001-01-01T00:00:00Z","name_a2s":"Uncletopia | São Paulo | 1 | All Maps","protocol":17,"map":"koth_highpass","folder":"tf","game":"Team Fortress","app_id":440,"player_count":0,"max_players":24,"Bots":0,"server_type":"Dedicated","server_os":"Linux","password":true,"vac":true,"version":"7757534","steam_id":85568392924469996,"keywords":["cp","nocrits","nodmgspread","uncletopia"],"game_id":440,"stv_port":27016,"stv_name":"Uncletopia | São Paulo | 1 | All Maps | STV","players":null},{"server_id":143,"name":"Uncletopia | São Paulo | 2 | All Maps","name_short":"sao-2","host":"sao-2.br.uncletopia.com","port":27015,"enabled":true,"region":"sa","cc":"br","latitude":-23.533773,"longitude":-46.62529,"reserved":0,"last_update":"0001-01-01T00:00:00Z","name_a2s":"Uncletopia | São Paulo | 2 | All Maps","protocol":17,"map":"pl_frontier_final","folder":"tf","game":"Team Fortress","app_id":440,"player_count":0,"max_players":24,"Bots":0,"server_type":"Dedicated","server_os":"Linux","password":true,"vac":true,"version":"7757534","steam_id":85568392924485349,"keywords":["nocrits","nodmgspread","payload","uncletopia"],"game_id":440,"stv_port":27016,"stv_name":"Uncletopia | São Paulo | 2 | All Maps | STV","players":null},{"server_id":7,"name":"Uncletopia | Seattle | 1 | All Maps","name_short":"sea-1","host":"sea-1.us.uncletopia.com","port":27015,"enabled":true,"region":"us-west","cc":"us","latitude":47.608013,"longitude":-122.33517,"reserved":0,"last_update":"0001-01-01T00:00:00Z","name_a2s":"Uncletopia | Seattle | 1 | All Maps","protocol":17,"map":"pl_upward","folder":"tf","game":"Team Fortress","app_id":440,"player_count":24,"max_players":24,"Bots":0,"server_type":"Dedicated","server_os":"Linux","password":true,"vac":true,"version":"7757534","steam_id":85568392924469997,"keywords":["nocrits","nodmgspread","payload","uncletopia"],"game_id":440,"stv_port":27016,"stv_name":"Uncletopia | Seattle | 1 | All Maps | STV","players":[{"user_id":225,"name":"[chef] iron","steam_id":76561197970888616,"connected_time":662000000000,"state":"active","ping":75},{"user_id":217,"name":"BrendanLorLowry","steam_id":76561198018879322,"connected_time":1700000000000,"state":"active","ping":60},{"user_id":196,"name":"Minerkid2004","steam_id":76561198044262827,"connected_time":3143000000000,"state":"active","ping":64},{"user_id":223,"name":"Schnitz(Lost my Glasses)","steam_id":76561198265484253,"connected_time":969000000000,"state":"active","ping":84},{"user_id":203,"name":"dubious creature","steam_id":76561198387519753,"connected_time":2197000000000,"state":"active","ping":78},{"user_id":224,"name":"NeoN","steam_id":76561198117608366,"connected_time":719000000000,"state":"active","ping":43},{"user_id":159,"name":"EXPLOSIVE_master 1","steam_id":76561198016168993,"connected_time":7660000000000,"state":"active","ping":118},{"user_id":227,"name":"Naffers","steam_id":76561198195957335,"connected_time":632000000000,"state":"active","ping":45},{"user_id":186,"name":"Sloppy Joe (Extra Sauce)","steam_id":76561198359703432,"connected_time":4519000000000,"state":"active","ping":80},{"user_id":226,"name":"Specc","steam_id":76561199090005976,"connected_time":660000000000,"state":"active","ping":63},{"user_id":188,"name":"weegeebad","steam_id":76561198280841437,"connected_time":4037000000000,"state":"active","ping":116},{"user_id":222,"name":"the them","steam_id":76561198082922382,"connected_time":1025000000000,"state":"active","ping":78},{"user_id":181,"name":"Clean your room","steam_id":76561198011617388,"connected_time":4972000000000,"state":"active","ping":63},{"user_id":231,"name":"ʀ.ꕤ｡.","steam_id":76561198029580420,"connected_time":575000000000,"state":"active","ping":173},{"user_id":228,"name":"A.D Dair","steam_id":76561198333878731,"connected_time":626000000000,"state":"active","ping":130},{"user_id":199,"name":"Sam","steam_id":76561198146472900,"connected_time":2913000000000,"state":"active","ping":71},{"user_id":232,"name":"Jack from Jack in The Box","steam_id":76561199083594971,"connected_time":566000000000,"state":"active","ping":86},{"user_id":214,"name":"Hobbes","steam_id":76561198087956236,"connected_time":1931000000000,"state":"active","ping":86},{"user_id":215,"name":"nzippy","steam_id":76561199048618678,"connected_time":1904000000000,"state":"active","ping":48},{"user_id":211,"name":"Ignignokt","steam_id":76561198162207470,"connected_time":1993000000000,"state":"active","ping":62},{"user_id":229,"name":"weed lesbian","steam_id":76561198042263805,"connected_time":626000000000,"state":"active","ping":45},{"user_id":235,"name":"Scansy","steam_id":76561198140528754,"connected_time":280000000000,"state":"active","ping":51},{"user_id":230,"name":"SkadooshPlayz","steam_id":76561198310986662,"connected_time":611000000000,"state":"active","ping":93},{"user_id":221,"name":"fish fingers","steam_id":76561199078516567,"connected_time":1096000000000,"state":"active","ping":137}]},{"server_id":119,"name":"Uncletopia | Seattle | 2 | All Maps","name_short":"sea-2","host":"sea-1.us.uncletopia.com","port":27025,"enabled":true,"region":"us-west","cc":"us","latitude":47.608013,"longitude":-122.33517,"reserved":0,"last_update":"0001-01-01T00:00:00Z","name_a2s":"Uncletopia | Seattle | 2 | All Maps","protocol":17,"map":"cp_gorge","folder":"tf","game":"Team Fortress","app_id":440,"player_count":24,"max_players":24,"Bots":0,"server_type":"Dedicated","server_os":"Linux","password":true,"vac":true,"version":"7757534","steam_id":85568392924469998,"keywords":["cp","nocrits","nodmgspread","uncletopia"],"game_id":440,"stv_port":27026,"stv_name":"Uncletopia | Seattle | 2 | All Maps | STV","players":[{"user_id":159,"name":"BoX_hEaD101","steam_id":76561198200875467,"connected_time":707000000000,"state":"active","ping":89},{"user_id":161,"name":"Striker","steam_id":76561198149380317,"connected_time":671000000000,"state":"active","ping":88},{"user_id":167,"name":"cool_guy_jones","steam_id":76561199010658004,"connected_time":537000000000,"state":"active","ping":114},{"user_id":105,"name":"Dry Gin","steam_id":76561198196503877,"connected_time":2968000000000,"state":"active","ping":45},{"user_id":152,"name":"level 1 pyro","steam_id":76561198281197072,"connected_time":1325000000000,"state":"active","ping":94},{"user_id":163,"name":"Matella","steam_id":76561198097427947,"connected_time":642000000000,"state":"active","ping":125},{"user_id":164,"name":"Killer Fish from San Diego","steam_id":76561199037594575,"connected_time":605000000000,"state":"active","ping":61},{"user_id":168,"name":"76561198212421513","steam_id":76561198212421513,"connected_time":518000000000,"state":"active","ping":75},{"user_id":172,"name":"plaiddd","steam_id":76561198353053169,"connected_time":246000000000,"state":"active","ping":140},{"user_id":157,"name":"dodecadron","steam_id":76561198027397222,"connected_time":752000000000,"state":"active","ping":62},{"user_id":160,"name":"Nuggets","steam_id":76561198267826226,"connected_time":699000000000,"state":"active","ping":87},{"user_id":175,"name":"praveus","steam_id":76561199227557263,"connected_time":13000000000,"state":"spawning","ping":118},{"user_id":153,"name":"✿ PoutyBun ✿","steam_id":76561197965762847,"connected_time":1319000000000,"state":"active","ping":38},{"user_id":142,"name":"aon135","steam_id":76561197966931637,"connected_time":1523000000000,"state":"active","ping":58},{"user_id":158,"name":"Joseph Stalin","steam_id":76561198126234142,"connected_time":727000000000,"state":"active","ping":73},{"user_id":170,"name":"Blink","steam_id":76561197996051178,"connected_time":301000000000,"state":"active","ping":58},{"user_id":156,"name":"float","steam_id":76561198363371528,"connected_time":911000000000,"state":"active","ping":49},{"user_id":143,"name":"knife girl","steam_id":76561198182530755,"connected_time":1520000000000,"state":"active","ping":116},{"user_id":148,"name":"Lane","steam_id":76561197965828506,"connected_time":1432000000000,"state":"active","ping":77},{"user_id":133,"name":"PigeonGirlMera","steam_id":76561198080830664,"connected_time":1599000000000,"state":"active","ping":111},{"user_id":154,"name":"well i'll be","steam_id":76561198272092906,"connected_time":1165000000000,"state":"active","ping":90},{"user_id":147,"name":"Pooryoungfrog","steam_id":76561199174779667,"connected_time":1438000000000,"state":"active","ping":117},{"user_id":151,"name":"swag","steam_id":76561198094615739,"connected_time":1370000000000,"state":"active","ping":90},{"user_id":174,"name":"Small Man (is in your area)","steam_id":76561198146228439,"connected_time":130000000000,"state":"active","ping":45}]},{"server_id":406,"name":"Uncletopia | Seattle | 3 | Stopwatch Beta","name_short":"sea-3","host":"sea-1.us.uncletopia.com","port":27035,"enabled":true,"region":"us-west","cc":"us","latitude":47.608013,"longitude":-122.33517,"reserved":0,"last_update":"0001-01-01T00:00:00Z","name_a2s":"Uncletopia | Seattle | 3 | Stopwatch Beta","protocol":17,"map":"koth_lakeside_final","folder":"tf","game":"Team Fortress","app_id":440,"player_count":0,"max_players":24,"Bots":0,"server_type":"Dedicated","server_os":"Linux","password":true,"vac":true,"version":"7757534","steam_id":85568392924515217,"keywords":["cp","nocrits","nodmgspread","uncletopia"],"game_id":440,"stv_port":27036,"stv_name":"Uncletopia | Seattle | 3 | Stopwatch Beta | STV","players":null},{"server_id":17,"name":"Uncletopia | San Francisco | 1 | All Maps","name_short":"sfo-1","host":"sfo-1.us.uncletopia.com","port":27015,"enabled":true,"region":"us-west","cc":"us","latitude":37.77397,"longitude":-122.4313,"reserved":0,"last_update":"0001-01-01T00:00:00Z","name_a2s":"Uncletopia | San Francisco | 1 | All Maps","protocol":17,"map":"pl_swiftwater_final1","folder":"tf","game":"Team Fortress","app_id":440,"player_count":0,"max_players":24,"Bots":0,"server_type":"Dedicated","server_os":"Linux","password":true,"vac":true,"version":"7757534","steam_id":85568392924469999,"keywords":["nocrits","nodmgspread","payload","uncletopia"],"game_id":440,"stv_port":27016,"stv_name":"Uncletopia | San Francisco | 1 | All Maps | STV","players":null},{"server_id":18,"name":"Uncletopia | San Francisco | 2 | All Maps","name_short":"sfo-2","host":"sfo-1.us.uncletopia.com","port":27025,"enabled":true,"region":"us-west","cc":"us","latitude":37.77397,"longitude":-122.4313,"reserved":0,"last_update":"0001-01-01T00:00:00Z","name_a2s":"Uncletopia | San Francisco | 2 | All Maps","protocol":17,"map":"pl_pier","folder":"tf","game":"Team Fortress","app_id":440,"player_count":0,"max_players":24,"Bots":0,"server_type":"Dedicated","server_os":"Linux","password":true,"vac":true,"version":"7757534","steam_id":85568392924470000,"keywords":["nocrits","nodmgspread","payload","uncletopia"],"game_id":440,"stv_port":27026,"stv_name":"Uncletopia | San Francisco | 2 | All Maps | STV","players":null},{"server_id":19,"name":"Uncletopia | San Francisco | 3 | Stopwatch Beta","name_short":"sfo-3","host":"sfo-1.us.uncletopia.com","port":27035,"enabled":true,"region":"us-west","cc":"us","latitude":37.77397,"longitude":-122.4313,"reserved":0,"last_update":"0001-01-01T00:00:00Z","name_a2s":"Uncletopia | San Francisco | 3 | Stopwatch Beta","protocol":17,"map":"koth_viaduct","folder":"tf","game":"Team Fortress","app_id":440,"player_count":1,"max_players":24,"Bots":0,"server_type":"Dedicated","server_os":"Linux","password":true,"vac":true,"version":"7757534","steam_id":85568392924742824,"keywords":["cp","nocrits","nodmgspread","uncletopia"],"game_id":440,"stv_port":27036,"stv_name":"Uncletopia | San Francisco | 3 | Stopwatch Beta | STV","players":[{"user_id":4,"name":"BrachialSoap","steam_id":76561199246417086,"connected_time":181000000000,"state":"active","ping":137}]},{"server_id":20,"name":"Uncletopia | San Francisco | 4 | Community","name_short":"sfo-4","host":"sfo-1.us.uncletopia.com","port":27045,"enabled":true,"region":"us-west","cc":"us","latitude":37.77397,"longitude":-122.4313,"reserved":0,"last_update":"0001-01-01T00:00:00Z","name_a2s":"Uncletopia | San Francisco | 4 | Community","protocol":17,"map":"workshop/cp_logjam_rc12.ugc454812035","folder":"tf","game":"Team Fortress","app_id":440,"player_count":0,"max_players":24,"Bots":0,"server_type":"Dedicated","server_os":"Linux","password":true,"vac":true,"version":"7757534","steam_id":85568392924742826,"keywords":["cp","nocrits","nodmgspread","uncletopia"],"game_id":440,"stv_port":27046,"stv_name":"Uncletopia | San Francisco | 4 | Community | STV","players":null},{"server_id":141,"name":"Uncletopia | Sydney | 1 | All Maps","name_short":"syd-1","host":"syd-1.au.uncletopia.com","port":27015,"enabled":true,"region":"au","cc":"au","latitude":-33.865143,"longitude":151.2099,"reserved":0,"last_update":"0001-01-01T00:00:00Z","name_a2s":"Uncletopia | Sydney | 1 | All Maps","protocol":17,"map":"koth_highpass","folder":"tf","game":"Team Fortress","app_id":440,"player_count":0,"max_players":24,"Bots":0,"server_type":"Dedicated","server_os":"Linux","password":true,"vac":true,"version":"7757534","steam_id":85568392924470001,"keywords":["cp","nocrits","nodmgspread","uncletopia"],"game_id":440,"stv_port":27016,"stv_name":"Uncletopia | Sydney | 1 | All Maps | STV","players":null},{"server_id":123,"name":"Uncletopia | Sydney | 2 | All Maps","name_short":"syd-2","host":"syd-1.au.uncletopia.com","port":27025,"enabled":true,"region":"au","cc":"au","latitude":-33.865143,"longitude":151.2099,"reserved":0,"last_update":"0001-01-01T00:00:00Z","name_a2s":"Uncletopia | Sydney | 2 | All Maps","protocol":17,"map":"koth_viaduct","folder":"tf","game":"Team Fortress","app_id":440,"player_count":0,"max_players":24,"Bots":0,"server_type":"Dedicated","server_os":"Linux","password":true,"vac":true,"version":"7757534","steam_id":85568392924470002,"keywords":["cp","nocrits","nodmgspread","uncletopia"],"game_id":440,"stv_port":27026,"stv_name":"Uncletopia | Sydney | 2 | All Maps | STV","players":null},{"server_id":395,"name":"Uncletopia | Sydney | 3 | All Maps","name_short":"syd-3","host":"syd-1.au.uncletopia.com","port":27035,"enabled":true,"region":"au","cc":"au","latitude":-33.865143,"longitude":151.2099,"reserved":0,"last_update":"0001-01-01T00:00:00Z","name_a2s":"Uncletopia | Sydney | 3 | All Maps","protocol":17,"map":"koth_viaduct","folder":"tf","game":"Team Fortress","app_id":440,"player_count":3,"max_players":24,"Bots":0,"server_type":"Dedicated","server_os":"Linux","password":true,"vac":true,"version":"7757534","steam_id":85568392925194467,"keywords":["cp","nocrits","nodmgspread","uncletopia"],"game_id":440,"stv_port":27036,"stv_name":"Uncletopia | Sydney | 3 | All Maps | STV","players":[{"user_id":5,"name":"jchthm12","steam_id":76561199376385352,"connected_time":621000000000,"state":"active","ping":60},{"user_id":4,"name":"not a giant eyeball","steam_id":76561198879150611,"connected_time":1533000000000,"state":"active","ping":73},{"user_id":6,"name":"Meme Aids","steam_id":76561198847593053,"connected_time":599000000000,"state":"active","ping":60}]},{"server_id":396,"name":"Uncletopia | Sydney | 4 | All Maps","name_short":"syd-4","host":"syd-1.au.uncletopia.com","port":27045,"enabled":true,"region":"au","cc":"au","latitude":-33.865143,"longitude":151.2099,"reserved":0,"last_update":"0001-01-01T00:00:00Z","name_a2s":"Uncletopia | Sydney | 4 | All Maps","protocol":17,"map":"cp_snakewater_final1","folder":"tf","game":"Team Fortress","app_id":440,"player_count":0,"max_players":24,"Bots":0,"server_type":"Dedicated","server_os":"Linux","password":true,"vac":true,"version":"7757534","steam_id":85568392925397958,"keywords":["cp","nocrits","nodmgspread","uncletopia"],"game_id":440,"stv_port":27046,"stv_name":"Uncletopia | Sydney | 4 | All Maps | STV","players":null},{"server_id":58,"name":"Uncletopia | Sydney | 5 | Stopwatch Beta","name_short":"syd-5","host":"syd-1.au.uncletopia.com","port":27055,"enabled":true,"region":"au","cc":"au","latitude":-33.865143,"longitude":151.2099,"reserved":0,"last_update":"0001-01-01T00:00:00Z","name_a2s":"Uncletopia | Sydney | 5 | Stopwatch Beta","protocol":17,"map":"pl_barnblitz","folder":"tf","game":"Team Fortress","app_id":440,"player_count":0,"max_players":24,"Bots":0,"server_type":"Dedicated","server_os":"Linux","password":true,"vac":true,"version":"7757534","steam_id":85568392925397959,"keywords":["nocrits","nodmgspread","payload","uncletopia"],"game_id":440,"stv_port":27056,"stv_name":"Uncletopia | Sydney | 5 | Stopwatch Beta | STV","players":null},{"server_id":59,"name":"Uncletopia | Sydney | 6 | Community","name_short":"syd-6","host":"syd-1.au.uncletopia.com","port":27065,"enabled":true,"region":"au","cc":"au","latitude":-33.865143,"longitude":151.2099,"reserved":0,"last_update":"0001-01-01T00:00:00Z","name_a2s":"Uncletopia | Sydney | 6 | Community","protocol":17,"map":"cp_mountainlab","folder":"tf","game":"Team Fortress","app_id":440,"player_count":0,"max_players":24,"Bots":0,"server_type":"Dedicated","server_os":"Linux","password":true,"vac":true,"version":"7757534","steam_id":85568392925397960,"keywords":["cp","nocrits","nodmgspread","uncletopia"],"game_id":440,"stv_port":27066,"stv_name":"Uncletopia | Sydney | 6 | Community | STV","players":null},{"server_id":49,"name":"Uncletopia | Warsaw | 1 | All Maps","name_short":"waw-1","host":"waw-1.pl.uncletopia.com","port":27015,"enabled":true,"region":"eu","cc":"pl","latitude":52.2297,"longitude":21.017532,"reserved":0,"last_update":"0001-01-01T00:00:00Z","name_a2s":"","protocol":0,"map":"","folder":"","game":"","app_id":0,"player_count":0,"max_players":0,"Bots":0,"server_type":"","server_os":"","password":false,"vac":false,"version":"","steam_id":0,"keywords":null,"game_id":0,"stv_port":0,"stv_name":"","players":null},{"server_id":50,"name":"Uncletopia | Warsaw | 2 | All Maps","name_short":"waw-2","host":"waw-1.pl.uncletopia.com","port":27025,"enabled":true,"region":"eu","cc":"pl","latitude":52.2297,"longitude":21.017532,"reserved":0,"last_update":"0001-01-01T00:00:00Z","name_a2s":"Uncletopia | Warsaw | 2 | All Maps","protocol":17,"map":"koth_harvest_final","folder":"tf","game":"Team Fortress","app_id":440,"player_count":0,"max_players":24,"Bots":0,"server_type":"Dedicated","server_os":"Linux","password":true,"vac":true,"version":"7757534","steam_id":85568392925397851,"keywords":["cp","nocrits","nodmgspread","uncletopia"],"game_id":440,"stv_port":27026,"stv_name":"Uncletopia | Warsaw | 2 | All Maps | STV","players":null},{"server_id":51,"name":"Uncletopia | Warsaw | 3 | All Maps","name_short":"waw-3","host":"waw-1.pl.uncletopia.com","port":27035,"enabled":true,"region":"eu","cc":"pl","latitude":52.2297,"longitude":21.017532,"reserved":0,"last_update":"0001-01-01T00:00:00Z","name_a2s":"Uncletopia | Warsaw | 3 | All Maps","protocol":17,"map":"koth_viaduct","folder":"tf","game":"Team Fortress","app_id":440,"player_count":0,"max_players":24,"Bots":0,"server_type":"Dedicated","server_os":"Linux","password":true,"vac":true,"version":"7757534","steam_id":85568392925397852,"keywords":["cp","nocrits","nodmgspread","uncletopia"],"game_id":440,"stv_port":27036,"stv_name":"Uncletopia | Warsaw | 3 | All Maps | STV","players":null},{"server_id":52,"name":"Uncletopia | Warsaw | 4 | All Maps","name_short":"waw-4","host":"waw-1.pl.uncletopia.com","port":27045,"enabled":true,"region":"eu","cc":"pl","latitude":52.2297,"longitude":21.017532,"reserved":0,"last_update":"0001-01-01T00:00:00Z","name_a2s":"Uncletopia | Warsaw | 4 | All Maps","protocol":17,"map":"koth_cascade","folder":"tf","game":"Team Fortress","app_id":440,"player_count":0,"max_players":24,"Bots":0,"server_type":"Dedicated","server_os":"Linux","password":true,"vac":true,"version":"7757534","steam_id":85568392925397853,"keywords":["cp","nocrits","nodmgspread","uncletopia"],"game_id":440,"stv_port":27046,"stv_name":"Uncletopia | Warsaw | 4 | All Maps | STV","players":null},{"server_id":53,"name":"Uncletopia | Warsaw | 5 | Stopwatch Beta","name_short":"waw-5","host":"waw-1.pl.uncletopia.com","port":27055,"enabled":true,"region":"eu","cc":"pl","latitude":52.2297,"longitude":21.017532,"reserved":0,"last_update":"0001-01-01T00:00:00Z","name_a2s":"Uncletopia | Warsaw | 5 | Stopwatch Beta","protocol":17,"map":"pl_upward","folder":"tf","game":"Team Fortress","app_id":440,"player_count":0,"max_players":24,"Bots":0,"server_type":"Dedicated","server_os":"Linux","password":true,"vac":true,"version":"7757534","steam_id":85568392925397854,"keywords":["nocrits","nodmgspread","payload","uncletopia"],"game_id":440,"stv_port":27056,"stv_name":"Uncletopia | Warsaw | 5 | Stopwatch Beta | STV","players":null},{"server_id":54,"name":"Uncletopia | Warsaw | 6 | Community","name_short":"waw-6","host":"waw-1.pl.uncletopia.com","port":27065,"enabled":true,"region":"eu","cc":"pl","latitude":52.2297,"longitude":21.017532,"reserved":0,"last_update":"0001-01-01T00:00:00Z","name_a2s":"Uncletopia | Warsaw | 6 | Community","protocol":17,"map":"workshop/pl_vigil_rc9.ugc1266210012","folder":"tf","game":"Team Fortress","app_id":440,"player_count":0,"max_players":24,"Bots":0,"server_type":"Dedicated","server_os":"Linux","password":true,"vac":true,"version":"7757534","steam_id":85568392925397856,"keywords":["nocrits","nodmgspread","payload","uncletopia"],"game_id":440,"stv_port":27066,"stv_name":"Uncletopia | Warsaw | 6 | Community | STV","players":null}]}