{"status":true,"message":"","result":[{"server_id":9,"name":"Uncletopia | Atlanta | 1 | All Maps","name_short":"atl-1","host":"atl-1.us.uncletopia.com","port":27015,"enabled":true,"region":"us-east","cc":"us","latitude":33.753746,"longitude":-84.38633,"reserved":0,"last_update":"0001-01-01T00:00:00Z","name_a2s":"Uncletopia | Atlanta | 1 | All Maps","protocol":17,"map":"koth_cascade","folder":"tf","game":"Team Fortress","app_id":440,"player_count":0,"max_players":24,"Bots":0,"server_type":"Dedicated","server_os":"Linux","password":true,"vac":true,"version":"7742253","steam_id":85568392924469982,"keywords":["cp","nocrits","nodmgspread","uncletopia"],"game_id":440,"stv_port":27016,"stv_name":"Uncletopia | Atlanta | 1 | All Maps | STV","players":null},{"server_id":400,"name":"Uncletopia | Atlanta | 3 | Stopwatch Beta","name_short":"atl-3","host":"atl-1.us.uncletopia.com","port":27035,"enabled":true,"region":"us-east","cc":"us","latitude":33.753746,"longitude":-84.38633,"reserved":0,"last_update":"0001-01-01T00:00:00Z","name_a2s":"Uncletopia | Atlanta | 3 | Stopwatch Beta","protocol":17,"map":"pl_pier","folder":"tf","game":"Team Fortress","app_id":440,"player_count":0,"max_players":24,"Bots":0,"server_type":"Dedicated","server_os":"Linux","password":true,"vac":true,"version":"7742253","steam_id":85568392924515187,"keywords":["nocrits","nodmgspread","payload","uncletopia"],"game_id":440,"stv_port":27036,"stv_name":"Uncletopia | Atlanta | 3 | Stopwatch Beta | STV","players":null},{"server_id":401,"name":"Uncletopia | Atlanta | 4 | No Payload","name_short":"atl-4","host":"atl-1.us.uncletopia.com","port":27045,"enabled":true,"region":"us-east","cc":"us","latitude":33.753746,"longitude":-84.38633,"reserved":0,"last_update":"0001-01-01T00:00:00Z","name_a2s":"Uncletopia | Atlanta | 4 | No Payload","protocol":17,"map":"pl_pier","folder":"tf","game":"Team Fortress","app_id":440,"player_count":0,"max_players":24,"Bots":0,"server_type":"Dedicated","server_os":"Linux","password":true,"vac":true,"version":"7723704","steam_id":85568392924515188,"keywords":["nocrits","nodmgspread","payload","uncletopia"],"game_id":440,"stv_port":27046,"stv_name":"Uncletopia | Atlanta | 4 | No Payload | STV","players":null},{"server_id":2,"name":"Uncletopia | Chicago | 1 | All Maps","name_short":"chi-1","host":"chi-1.us.uncletopia.com","port":27015,"enabled":true,"region":"us-central","cc":"us","latitude":41.881832,"longitude":-87.62318,"reserved":0,"last_update":"0001-01-01T00:00:00Z","name_a2s":"Uncletopia | Chicago | 1 | All Maps","protocol":17,"map":"pl_pier","folder":"tf","game":"Team Fortress","app_id":440,"player_count":25,"max_players":24,"Bots":0,"server_type":"Dedicated","server_os":"Linux","password":true,"vac":true,"version":"7742253","steam_id":85568392924469984,"keywords":["nocrits","nodmgspread","payload","uncletopia"],"game_id":440,"stv_port":27016,"stv_name":"Uncletopia | Chicago | 1 | All Maps | STV","players":[{"user_id":5,"name":"Juni Rocket Racer Rebel Cortez","steam_id":76561198115552623,"connected_time":4018000000000,"state":"active","ping":50},{"user_id":58,"name":"Braixen","steam_id":76561198354314389,"connected_time":764000000000,"state":"active","ping":79},{"user_id":74,"name":"Sir Loincloth","steam_id":76561198033073991,"connected_time":454000000000,"state":"active","ping":75},{"user_id":40,"name":"Binky Den","steam_id":76561198164035863,"connected_time":1786000000000,"state":"active","ping":59},{"user_id":64,"name":"Chad","steam_id":76561199013296484,"connected_time":579000000000,"state":"active","ping":114},{"user_id":17,"name":"AmirKhaan","steam_id":76561198992403254,"connected_time":2395000000000,"state":"active","ping":63},{"user_id":85,"name":"Andr√©","steam_id":76561198848885591,"connected_time":84000000000,"state":"active","ping":166},{"user_id":86,"name":"adderall","steam_id":76561198328109873,"connected_time":69000000000,"state":"active","ping":66},{"user_id":87,"name":"Errrmmett","steam_id":76561198041314051,"connected_time":18000000000,"state":"spawning","ping":59},{"user_id":43,"name":"F0rest","steam_id":76561199112458876,"connected_time":1602000000000,"state":"active","ping":47},{"user_id":20,"name":"davi_b11","steam_id":76561199071416407,"connected_time":2276000000000,"state":"active","ping":73},{"user_id":21,"name":"GrantTheMedicYT","steam_id":76561199077176696,"connected_time":2213000000000,"state":"active","ping":94},{"user_id":22,"name":"AlexLovesYou","steam_id":76561199163263543,"connected_time":2200000000000,"state":"active","ping":101},{"user_id":51,"name":"Gabriel Iglesias","steam_id":76561198320218630,"connected_time":1044000000000,"state":"active","ping":91},{"user_id":24,"name":"t.tv/FamilyGuyFunnyMoments277","steam_id":76561198416047580,"connected_time":2180000000000,"state":"active","ping":67},{"user_id":54,"name":"jootloops","steam_id":76561198155447794,"connected_time":995000000000,"state":"active","ping":75},{"user_id":44,"name":"Owl Pacino","steam_id":76561197979970666,"connected_time":1367000000000,"state":"active","ping":52},{"user_id":27,"name":"ATL1 | to4st","steam_id":76561198981009008,"connected_time":2167000000000,"state":"active","ping":53},{"user_id":34,"name":"Dandy Randy","steam_id":76561198022905122,"connected_time":2017000000000,"state":"active","ping":102},{"user_id":48,"name":"frid","steam_id":76561198005806915,"connected_time":1240000000000,"state":"active","ping":61},{"user_id":61,"name":"CFGU || RAWRWAFL","steam_id":76561198032118386,"connected_time":689000000000,"state":"active","ping":88},{"user_id":38,"name":"gorgonzola112","steam_id":76561199215152245,"connected_time":1912000000000,"state":"active","ping":86},{"user_id":32,"name":"O D J","steam_id":76561198071254599,"connected_time":2079000000000,"state":"active","ping":100},{"user_id":56,"name":"KingDian","steam_id":76561198027052986,"connected_time":889000000000,"state":"active","ping":60},{"user_id":60,"name":"DannyM","steam_id":76561198351165570,"connected_time":717000000000,"state":"active","ping":59}]},{"server_id":106,"name":"Uncletopia | Chicago | 2 | All Maps","name_short":"chi-2","host":"chi-1.us.uncletopia.com","port":27025,"enabled":true,"region":"us-central","cc":"us","latitude":41.881832,"longitude":-87.62318,"reserved":0,"last_update":"0001-01-01T00:00:00Z","name_a2s":"Uncletopia | Chicago | 2 | All Maps","protocol":17,"map":"plr_hightower","folder":"tf","game":"Team Fortress","app_id":440,"player_count":24,"max_players":24,"Bots":0,"server_type":"Dedicated","server_os":"Linux","password":true,"vac":true,"version":"7742253","steam_id":85568392924469985,"keywords":["nocrits","nodmgspread","payload","uncletopia"],"game_id":440,"stv_port":27026,"stv_name":"Uncletopia | Chicago | 2 | All Maps | STV","players":[{"user_id":92,"name":"The Grinch Lyncher","steam_id":76561198081617990,"connected_time":4064000000000,"state":"active","ping":98},{"user_id":103,"name":"Winter the Witchie","steam_id":76561198151971178,"connected_time":3513000000000,"state":"active","ping":59},{"user_id":134,"name":"Deathbot2k","steam_id":76561198045499333,"connected_time":401000000000,"state":"active","ping":57},{"user_id":111,"name":"LunarrD","steam_id":76561198811220107,"connected_time":3063000000000,"state":"active","ping":73},{"user_id":139,"name":"thebestman982","steam_id":76561199001698710,"connected_time":126000000000,"state":"active","ping":76},{"user_id":140,"name":"kametro4","steam_id":76561198835430429,"connected_time":123000000000,"state":"active","ping":79},{"user_id":133,"name":"A Gallon of PCP","steam_id":76561198958460901,"connected_time":414000000000,"state":"active","ping":73},{"user_id":124,"name":"Missing Minus","steam_id":76561198120822928,"connected_time":1398000000000,"state":"active","ping":60},{"user_id":110,"name":"Brumpo Tungus","steam_id":76561198054669779,"connected_time":3219000000000,"state":"active","ping":67},{"user_id":79,"name":"Gas Can","steam_id":76561198162853003,"connected_time":4315000000000,"state":"active","ping":69},{"user_id":135,"name":"Funny Skeleton Man","steam_id":76561198264262564,"connected_time":393000000000,"state":"active","ping":78},{"user_id":120,"name":"Ulrich Stern","steam_id":76561198101739682,"connected_time":1712000000000,"state":"active","ping":75},{"user_id":138,"name":"Mirage","steam_id":76561198855376206,"connected_time":209000000000,"state":"active","ping":62},{"user_id":108,"name":"Super Noob","steam_id":76561199179611350,"connected_time":3291000000000,"state":"active","ping":52},{"user_id":125,"name":"deech","steam_id":76561198066429444,"connected_time":1383000000000,"state":"active","ping":67},{"user_id":86,"name":"Garfield","steam_id":76561198427292932,"connected_time":4288000000000,"state":"active","ping":59},{"user_id":127,"name":"Mad Cow‚Äª","steam_id":76561198132498594,"connected_time":1215000000000,"state":"active","ping":52},{"user_id":121,"name":"Len","steam_id":76561199141913673,"connected_time":1560000000000,"state":"active","ping":85},{"user_id":136,"name":"Chase McCain","steam_id":76561198314538469,"connected_time":367000000000,"state":"active","ping":71},{"user_id":137,"name":"Dusenedezi","steam_id":76561198167133541,"connected_time":287000000000,"state":"active","ping":184},{"user_id":105,"name":"TheFlyingTortis","steam_id":76561198071576016,"connected_time":3325000000000,"state":"active","ping":59},{"user_id":141,"name":"sahok1112","steam_id":76561198345303033,"connected_time":116000000000,"state":"active","ping":195},{"user_id":118,"name":"rude boi","steam_id":76561198006783260,"connected_time":2016000000000,"state":"active","ping":60},{"user_id":126,"name":"[slug]","steam_id":76561197989592178,"connected_time":1281000000000,"state":"active","ping":66}]},{"server_id":402,"name":"Uncletopia | Chicago | 3 | All Maps","name_short":"chi-3","host":"chi-1.us.uncletopia.com","port":27035,"enabled":true,"region":"us-central","cc":"us","latitude":41.881832,"longitude":-87.62318,"reserved":0,"last_update":"0001-01-01T00:00:00Z","name_a2s":"Uncletopia | Chicago | 3 | All Maps","protocol":17,"map":"koth_viaduct","folder":"tf","game":"Team Fortress","app_id":440,"player_count":0,"max_players":24,"Bots":0,"server_type":"Dedicated","server_os":"Linux","password":true,"vac":true,"version":"7742253","steam_id":85568392924515191,"keywords":["cp","nocrits","nodmgspread","uncletopia"],"game_id":440,"stv_port":27036,"stv_name":"Uncletopia | Chicago | 3 | All Maps | STV","players":null},{"server_id":403,"name":"Uncletopia | Chicago | 4 | All Maps","name_short":"chi-4","host":"chi-1.us.uncletopia.com","port":27045,"enabled":true,"region":"us-central","cc":"us","latitude":41.881832,"longitude":-87.62318,"reserved":0,"last_update":"0001-01-01T00:00:00Z","name_a2s":"Uncletopia | Chicago | 4 | All Maps","protocol":17,"map":"koth_lakeside_final","folder":"tf","game":"Team Fortress","app_id":440,"player_count":0,"max_players":24,"Bots":0,"server_type":"Dedicated","server_os":"Linux","password":true,"vac":true,"version":"7742253","steam_id":85568392924515193,"keywords":["cp","nocrits","nodmgspread","uncletopia"],"game_id":440,"stv_port":27046,"stv_name":"Uncletopia | Chicago | 4 | All Maps | STV","players":null},{"server_id":36,"name":"Uncletopia | Chicago | 5 | All Maps","name_short":"chi-5","host":"chi-2.us.uncletopia.com","port":27015,"enabled":true,"region":"us-central","cc":"us","latitude":41.881832,"longitude":-87.62318,"reserved":0,"last_update":"0001-01-01T00:00:00Z","name_a2s":"Uncletopia | Chicago | 5 | All Maps","protocol":17,"map":"pl_upward","folder":"tf","game":"Team Fortress","app_id":440,"player_count":16,"max_players":24,"Bots":0,"server_type":"Dedicated","server_os":"Linux","password":true,"vac":true,"version":"7742253","steam_id":85568392924866362,"keywords":["nocrits","nodmgspread","payload","uncletopia"],"game_id":440,"stv_port":27016,"stv_name":"Uncletopia | Chicago | 5 | All Maps | STV","players":[{"user_id":4,"name":"Jason the DemoKnight main","steam_id":76561199100258990,"connected_time":1612000000000,"state":"active","ping":49},{"user_id":17,"name":"oopsboom24","steam_id":76561199105248648,"connected_time":513000000000,"state":"active","ping":89},{"user_id":18,"name":"valz","steam_id":76561198263040660,"connected_time":504000000000,"state":"active","ping":53},{"user_id":22,"name":"WAFFLES 1billion","steam_id":76561199447136573,"connected_time":433000000000,"state":"active","ping":77},{"user_id":8,"name":"WannaSeeA","steam_id":76561198097701042,"connected_time":1293000000000,"state":"active","ping":63},{"user_id":25,"name":"srv","steam_id":76561198026589960,"connected_time":236000000000,"state":"active","ping":45},{"user_id":11,"name":"Vruk","steam_id":76561198116930332,"connected_time":984000000000,"state":"active","ping":90},{"user_id":12,"name":"gordon freeman","steam_id":76561199058140274,"connected_time":962000000000,"state":"active","ping":82},{"user_id":13,"name":"stale bread boi","steam_id":76561198879238698,"connected_time":760000000000,"state":"active","ping":66},{"user_id":28,"name":"PapaPatrick","steam_id":76561199017975241,"connected_time":72000000000,"state":"spawning","ping":89},{"user_id":15,"name":"Mirari","steam_id":76561198126889358,"connected_time":641000000000,"state":"active","ping":71},{"user_id":16,"name":"Zornplays","steam_id":76561199175292302,"connected_time":639000000000,"state":"active","ping":88},{"user_id":24,"name":"Sharper Spoon","steam_id":76561198877130687,"connected_time":271000000000,"state":"active","ping":59},{"user_id":27,"name":"Mal","steam_id":76561198066074151,"connected_time":87000000000,"state":"active","ping":72},{"user_id":29,"name":"RedMustrd","steam_id":76561199246218857,"connected_time":52000000000,"state":"active","ping":68},{"user_id":30,"name":"BlueSpy","steam_id":76561198134707089,"connected_time":5000000000,"state":"spawning","ping":61}]},{"server_id":37,"name":"Uncletopia | Chicago | 6 | All Maps","name_short":"chi-6","host":"chi-2.us.uncletopia.com","port":27025,"enabled":true,"region":"us-central","cc":"us","latitude":41.881832,"longitude":-87.62318,"reserved":0,"last_update":"0001-01-01T00:00:00Z","name_a2s":"Uncletopia | Chicago | 6 | All Maps","protocol":17,"map":"koth_highpass","folder":"tf","game":"Team Fortress","app_id":440,"player_count":0,"max_players":24,"Bots":0,"server_type":"Dedicated","server_os":"Linux","password":true,"vac":true,"version":"7742253","steam_id":85568392924866363,"keywords":["cp","nocrits","nodmgspread","uncletopia"],"game_id":440,"stv_port":27026,"stv_name":"Uncletopia | Chicago | 6 | All Maps | STV","players":null},{"server_id":38,"name":"Uncletopia | Chicago | 7 | Stopwatch Beta","name_short":"chi-7","host":"chi-2.us.uncletopia.com","port":27035,"enabled":true,"region":"us-central","cc":"us","latitude":41.881832,"longitude":-87.62318,"reserved":0,"last_update":"0001-01-01T00:00:00Z","name_a2s":"Uncletopia | Chicago | 7 | Stopwatch Beta","protocol":17,"map":"koth_lakeside_final","folder":"tf","game":"Team Fortress","app_id":440,"player_count":0,"max_players":24,"Bots":0,"server_type":"Dedicated","server_os":"Linux","password":true,"vac":true,"version":"7742253","steam_id":85568392924866364,"keywords":["cp","nocrits","nodmgspread","uncletopia"],"game_id":440,"stv_port":27036,"stv_name":"Uncletopia | Chicago | 7 | Stopwatch Beta | STV","players":null},{"server_id":39,"name":"Uncletopia | Chicago | 8 | Community","name_short":"chi-8","host":"chi-2.us.uncletopia.com","port":27045,"enabled":true,"region":"us-central","cc":"us","latitude":41.881832,"longitude":-87.62318,"reserved":0,"last_update":"0001-01-01T00:00:00Z","name_a2s":"Uncletopia | Chicago | 8 | Community","protocol":17,"map":"koth_lakeside_final","folder":"tf","game":"Team Fortress","app_id":440,"player_count":0,"max_players":24,"Bots":0,"server_type":"Dedicated","server_os":"Linux","password":true,"vac":true,"version":"7742253","steam_id":85568392924866365,"keywords":["cp","nocrits","nodmgspread","uncletopia"],"game_id":440,"stv_port":27046,"stv_name":"Uncletopia | Chicago | 8 | Community | STV","players":null},{"server_id":8,"name":"Uncletopia | Dallas | 1 | All Maps","name_short":"dal-1","host":"dal-1.us.uncletopia.com","port":27015,"enabled":true,"region":"us-central","cc":"us","latitude":32.779167,"longitude":-96.80889,"reserved":0,"last_update":"0001-01-01T00:00:00Z","name_a2s":"Uncletopia | Dallas | 1 | All Maps","protocol":17,"map":"cp_mountainlab","folder":"tf","game":"Team Fortress","app_id":440,"player_count":0,"max_players":24,"Bots":0,"server_type":"Dedicated","server_os":"Linux","password":true,"vac":true,"version":"7742253","steam_id":85568392924469986,"keywords":["cp","nocrits","nodmgspread","uncletopia"],"game_id":440,"stv_port":27016,"stv_name":"Uncletopia | Dallas | 1 | All Maps | STV","players":null},{"server_id":108,"name":"Uncletopia | Dallas | 2 | All Maps","name_short":"dal-2","host":"dal-1.us.uncletopia.com","port":27025,"enabled":true,"region":"us-central","cc":"us","latitude":32.779167,"longitude":-96.80889,"reserved":0,"last_update":"0001-01-01T00:00:00Z","name_a2s":"Uncletopia | Dallas | 2 | All Maps","protocol":17,"map":"koth_highpass","folder":"tf","game":"Team Fortress","app_id":440,"player_count":0,"max_players":24,"Bots":0,"server_type":"Dedicated","server_os":"Linux","password":true,"vac":true,"version":"7742253","steam_id":85568392924469988,"keywords":["cp","nocrits","nodmgspread","uncletopia"],"game_id":440,"stv_port":27026,"stv_name":"Uncletopia | Dallas | 2 | All Maps | STV","players":null},{"server_id":5,"name":"Uncletopia | Frankfurt | 1 | All Maps","name_short":"frk-1","host":"frk-1.de.uncletopia.com","port":27015,"enabled":true,"region":"eu","cc":"de","latitude":50.110924,"longitude":8.682127,"reserved":0,"last_update":"0001-01-01T00:00:00Z","name_a2s":"Uncletopia | Frankfurt | 1 | All Maps","protocol":17,"map":"pl_swiftwater_final1","folder":"tf","game":"Team Fortress","app_id":440,"player_count":24,"max_players":24,"Bots":0,"server_type":"Dedicated","server_os":"Linux","password":true,"vac":true,"version":"7742253","steam_id":85568392924469989,"keywords":["nocrits","nodmgspread","payload","uncletopia"],"game_id":440,"stv_port":27016,"stv_name":"Uncletopia | Frankfurt | 1 | All Maps | STV","players":[{"user_id":427,"name":"gaming","steam_id":76561198044461938,"connected_time":1406000000000,"state":"active","ping":57},{"user_id":358,"name":"big hoops","steam_id":76561198004703799,"connected_time":6434000000000,"state":"active","ping":53},{"user_id":424,"name":"CRWND","steam_id":76561198329810027,"connected_time":1705000000000,"state":"active","ping":51},{"user_id":402,"name":"I am piss man","steam_id":76561198039209685,"connected_time":3110000000000,"state":"active","ping":53},{"user_id":437,"name":"MatesThePlayer","steam_id":76561198066156449,"connected_time":605000000000,"state":"active","ping":63},{"user_id":364,"name":"abdo11","steam_id":76561199219926869,"connected_time":6174000000000,"state":"active","ping":150},{"user_id":443,"name":"zeppa114","steam_id":76561198065192734,"connected_time":378000000000,"state":"active","ping":59},{"user_id":433,"name":"ruby (ribbit)","steam_id":76561198040870467,"connected_time":648000000000,"state":"active","ping":61},{"user_id":444,"name":"Germanium_Ge","steam_id":76561198130561775,"connected_time":369000000000,"state":"active","ping":58},{"user_id":445,"name":"Silent Person","steam_id":76561198107763537,"connected_time":334000000000,"state":"active","ping":70},{"user_id":434,"name":"Edla","steam_id":76561198062815315,"connected_time":646000000000,"state":"active","ping":133},{"user_id":353,"name":"galaxy","steam_id":76561198164819022,"connected_time":7276000000000,"state":"active","ping":59},{"user_id":425,"name":"Lieutenant Lead","steam_id":76561198336867604,"connected_time":1694000000000,"state":"active","ping":53},{"user_id":430,"name":"Use The Finger","steam_id":76561198050203563,"connected_time":1174000000000,"state":"active","ping":70},{"user_id":431,"name":"jill valentine","steam_id":76561198075068529,"connected_time":1126000000000,"state":"active","ping":56},{"user_id":429,"name":"KoraSona","steam_id":76561199000322836,"connected_time":1183000000000,"state":"active","ping":86},{"user_id":420,"name":"Osmo","steam_id":76561199286764992,"connected_time":1955000000000,"state":"active","ping":78},{"user_id":410,"name":"Ducky[WADZ]üê§","steam_id":76561198060341245,"connected_time":2828000000000,"state":"active","ping":50},{"user_id":359,"name":"Ôº≤ ÔºØ Ôº¢ Ôº¢ Ôº• Ôº≤ Ôº¥","steam_id":76561198134404830,"connected_time":6434000000000,"state":"active","ping":129},{"user_id":441,"name":"PixelHyde","steam_id":76561198040878617,"connected_time":525000000000,"state":"active","ping":68},{"user_id":442,"name":"GAMEler","steam_id":76561198121624163,"connected_time":442000000000,"state":"active","ping":76},{"user_id":416,"name":"Mingo","steam_id":76561199191245650,"connected_time":2422000000000,"state":"active","ping":81},{"user_id":422,"name":"We are in a world of magic","steam_id":76561198104745492,"connected_time":1951000000000,"state":"active","ping":59},{"user_id":346,"name":"Yaire","steam_id":76561198017343510,"connected_time":7815000000000,"state":"active","ping":72}]},{"server_id":110,"name":"Uncletopia | Frankfurt | 2 | All Maps","name_short":"frk-2","host":"frk-1.de.uncletopia.com","port":27025,"enabled":true,"region":"eu","cc":"de","latitude":50.110924,"longitude":8.682127,"reserved":0,"last_update":"0001-01-01T00:00:00Z","name_a2s":"Uncletopia | Frankfurt | 2 | All Maps","protocol":17,"map":"pl_upward","folder":"tf","game":"Team Fortress","app_id":440,"player_count":24,"max_players":24,"Bots":0,"server_type":"Dedicated","server_os":"Linux","password":true,"vac":true,"version":"7742253","steam_id":85568392924469990,"keywords":["nocrits","nodmgspread","payload","uncletopia"],"game_id":440,"stv_port":27026,"stv_name":"Uncletopia | Frankfurt | 2 | All Maps | STV","players":[{"user_id":163,"name":"Xydran","steam_id":76561198042397402,"connected_time":1047000000000,"state":"active","ping":80},{"user_id":159,"name":"Boycie","steam_id":76561198179116027,"connected_time":1483000000000,"state":"active","ping":65},{"user_id":146,"name":"banrab","steam_id":76561198083615367,"connected_time":1806000000000,"state":"active","ping":52},{"user_id":160,"name":"DocTwoEight","steam_id":76561198153488940,"connected_time":1248000000000,"state":"active","ping":67},{"user_id":157,"name":"unnam3d","steam_id":76561198286257338,"connected_time":1543000000000,"state":"active","ping":56},{"user_id":126,"name":"Taskyy","steam_id":76561198134901175,"connected_time":3196000000000,"state":"active","ping":80},{"user_id":154,"name":"Sidewall Girts","steam_id":76561198092234302,"connected_time":1705000000000,"state":"active","ping":61},{"user_id":140,"name":"Unexpected","steam_id":76561198944781914,"connected_time":2368000000000,"state":"active","ping":83},{"user_id":162,"name":"Dolcelatte","steam_id":76561198038501770,"connected_time":1095000000000,"state":"active","ping":58},{"user_id":164,"name":"bigwish | bmod.tf","steam_id":76561197997859723,"connected_time":855000000000,"state":"active","ping":69},{"user_id":161,"name":"grave","steam_id":76561198836825741,"connected_time":1146000000000,"state":"active","ping":58},{"user_id":107,"name":"‚ô£–ë—Ä–µ–¥–æ–≤—ã–π –ú–µ—Å—è—Ü","steam_id":76561198796404149,"connected_time":4263000000000,"state":"active","ping":87},{"user_id":166,"name":"lvl. 50 honkler","steam_id":76561198061688660,"connected_time":744000000000,"state":"active","ping":104},{"user_id":79,"name":"Dr Sex","steam_id":76561198029044617,"connected_time":6514000000000,"state":"active","ping":64},{"user_id":155,"name":"DailyCage","steam_id":76561198013580622,"connected_time":1700000000000,"state":"active","ping":105},{"user_id":124,"name":"Jedi Knight","steam_id":76561198039030709,"connected_time":3420000000000,"state":"active","ping":48},{"user_id":78,"name":"invis","steam_id":76561198120668070,"connected_time":6592000000000,"state":"active","ping":61},{"user_id":152,"name":"bruh","steam_id":76561198109262927,"connected_time":1756000000000,"state":"active","ping":74},{"user_id":153,"name":"monikka","steam_id":76561198297003397,"connected_time":1753000000000,"state":"active","ping":77},{"user_id":147,"name":"barni","steam_id":76561198170420173,"connected_time":1805000000000,"state":"active","ping":84},{"user_id":165,"name":"El Gato Volador","steam_id":76561198021296882,"connected_time":784000000000,"state":"active","ping":77},{"user_id":148,"name":"Jerry","steam_id":76561198211030863,"connected_time":1804000000000,"state":"active","ping":59},{"user_id":167,"name":"Alin","steam_id":76561198059679991,"connected_time":126000000000,"state":"active","ping":91},{"user_id":145,"name":"PROFILE NAME","steam_id":76561198180056982,"connected_time":2161000000000,"state":"active","ping":72}]},{"server_id":308,"name":"Uncletopia | Frankfurt | 3 | All Maps","name_short":"frk-3","host":"frk-1.de.uncletopia.com","port":27035,"enabled":true,"region":"eu","cc":"de","latitude":50.110924,"longitude":8.682127,"reserved":0,"last_update":"0001-01-01T00:00:00Z","name_a2s":"Uncletopia | Frankfurt | 3 | All Maps","protocol":17,"map":"pl_badwater","folder":"tf","game":"Team Fortress","app_id":440,"player_count":0,"max_players":24,"Bots":0,"server_type":"Dedicated","server_os":"Linux","password":true,"vac":true,"version":"7742253","steam_id":85568392924504274,"keywords":["nocrits","nodmgspread","payload","uncletopia"],"game_id":440,"stv_port":27036,"stv_name":"Uncletopia | Frankfurt | 3 | All Maps | STV","players":null},{"server_id":309,"name":"Uncletopia | Frankfurt | 4 | All Maps","name_short":"frk-4","host":"frk-1.de.uncletopia.com","port":27045,"enabled":true,"region":"eu","cc":"de","latitude":50.110924,"longitude":8.682127,"reserved":0,"last_update":"0001-01-01T00:00:00Z","name_a2s":"Uncletopia | Frankfurt | 4 | All Maps","protocol":17,"map":"pl_pier","folder":"tf","game":"Team Fortress","app_id":440,"player_count":0,"max_players":24,"Bots":0,"server_type":"Dedicated","server_os":"Linux","password":true,"vac":true,"version":"7742253","steam_id":85568392924504275,"keywords":["nocrits","nodmgspread","payload","uncletopia"],"game_id":440,"stv_port":27046,"stv_name":"Uncletopia | Frankfurt | 4 | All Maps | STV","players":null},{"server_id":310,"name":"Uncletopia | Frankfurt | 5 | All Maps","name_short":"frk-5","host":"frk-1.de.uncletopia.com","port":27055,"enabled":true,"region":"eu","cc":"de","latitude":50.110924,"longitude":8.682127,"reserved":0,"last_update":"0001-01-01T00:00:00Z","name_a2s":"Uncletopia | Frankfurt | 5 | All Maps","protocol":17,"map":"pl_snowycoast","folder":"tf","game":"Team Fortress","app_id":440,"player_count":24,"max_players":24,"Bots":0,"server_type":"Dedicated","server_os":"Linux","password":true,"vac":true,"version":"7742253","steam_id":85568392924504277,"keywords":["nocrits","nodmgspread","payload","uncletopia"],"game_id":440,"stv_port":27056,"stv_name":"Uncletopia | Frankfurt | 5 | All Maps | STV","players":[{"user_id":172,"name":"G.R.E","steam_id":76561197979806514,"connected_time":3958000000000,"state":"active","ping":38},{"user_id":151,"name":"JeanCorben","steam_id":76561197965133561,"connected_time":5456000000000,"state":"active","ping":45},{"user_id":190,"name":"legobro","steam_id":76561198053394831,"connected_time":3140000000000,"state":"active","ping":61},{"user_id":161,"name":"MAJAX","steam_id":76561198254828632,"connected_time":4671000000000,"state":"active","ping":56},{"user_id":234,"name":"Minimi","steam_id":76561198873850443,"connected_time":113000000000,"state":"active","ping":50},{"user_id":226,"name":"F","steam_id":76561199149462792,"connected_time":315000000000,"state":"active","ping":58},{"user_id":194,"name":"God¬¥s Cock","steam_id":76561198058947923,"connected_time":2797000000000,"state":"active","ping":57},{"user_id":235,"name":"risan071","steam_id":76561198280690113,"connected_time":66000000000,"state":"spawning","ping":90},{"user_id":225,"name":"PLUTO","steam_id":76561198312436128,"connected_time":324000000000,"state":"active","ping":122},{"user_id":229,"name":"tealoverr.190","steam_id":76561199028497703,"connected_time":225000000000,"state":"active","ping":106},{"user_id":199,"name":"TheBeardedM1G","steam_id":76561198040208946,"connected_time":2374000000000,"state":"active","ping":69},{"user_id":207,"name":"Blink","steam_id":76561198144033005,"connected_time":2134000000000,"state":"active","ping":65},{"user_id":230,"name":"loop zoop","steam_id":76561198969373800,"connected_time":222000000000,"state":"active","ping":70},{"user_id":200,"name":"Taekio","steam_id":76561198158934992,"connected_time":2338000000000,"state":"active","ping":77},{"user_id":201,"name":"Sputnik1","steam_id":76561199059003709,"connected_time":2337000000000,"state":"active","ping":131},{"user_id":195,"name":"Mi Manchi","steam_id":76561198171573129,"connected_time":2429000000000,"state":"active","ping":60},{"user_id":231,"name":"Kurage","steam_id":76561198021221288,"connected_time":210000000000,"state":"active","ping":57},{"user_id":222,"name":"MooshMoore","steam_id":76561199120833084,"connected_time":478000000000,"state":"active","ping":67},{"user_id":236,"name":"Solymr ibn Wali Barad","steam_id":76561198044008976,"connected_time":54000000000,"state":"active","ping":75},{"user_id":189,"name":"Raxor","steam_id":76561198239927434,"connected_time":3229000000000,"state":"active","ping":90},{"user_id":232,"name":"nikke","steam_id":76561198035655270,"connected_time":203000000000,"state":"active","ping":88},{"user_id":233,"name":"CJ_from_Groove","steam_id":76561198889928743,"connected_time":200000000000,"state":"active","ping":92},{"user_id":215,"name":"Soulman25 (FIN)","steam_id":76561198103611974,"connected_time":1339000000000,"state":"active","ping":102},{"user_id":224,"name":"‚ô´‚òÖXriasp‚òÖ‚ô´","steam_id":76561198104721321,"connected_time":378000000000,"state":"active","ping":96}]},{"server_id":311,"name":"Uncletopia | Frankfurt | 6 | All Maps","name_short":"frk-6","host":"frk-1.de.uncletopia.com","port":27065,"enabled":true,"region":"eu","cc":"de","latitude":50.110924,"longitude":8.682127,"reserved":0,"last_update":"0001-01-01T00:00:00Z","name_a2s":"Uncletopia | Frankfurt | 6 | All Maps","protocol":17,"map":"pl_snowycoast","folder":"tf","game":"Team Fortress","app_id":440,"player_count":1,"max_players":24,"Bots":0,"server_type":"Dedicated","server_os":"Linux","password":true,"vac":true,"version":"7742253","steam_id":85568392924504278,"keywords":["nocrits","nodmgspread","payload","uncletopia"],"game_id":440,"stv_port":27066,"stv_name":"Uncletopia | Frankfurt | 6 | All Maps | STV","players":[{"user_id":10,"name":"fried","steam_id":76561198307522022,"connected_time":2397000000000,"state":"active","ping":45}]},{"server_id":23,"name":"Uncletopia | Frankfurt | 7 | Stopwatch Beta","name_short":"frk-7","host":"frk-1.de.uncletopia.com","port":27075,"enabled":true,"region":"eu","cc":"de","latitude":50.110924,"longitude":8.682127,"reserved":0,"last_update":"0001-01-01T00:00:00Z","name_a2s":"Uncletopia | Frankfurt | 7 | Stopwatch Beta","protocol":17,"map":"pl_badwater","folder":"tf","game":"Team Fortress","app_id":440,"player_count":0,"max_players":24,"Bots":0,"server_type":"Dedicated","server_os":"Linux","password":true,"vac":true,"version":"7742253","steam_id":85568392924742827,"keywords":["nocrits","nodmgspread","payload","uncletopia"],"game_id":440,"stv_port":27076,"stv_name":"Uncletopia | Frankfurt | 7 | Stopwatch Beta | STV","players":null},{"server_id":24,"name":"Uncletopia | Frankfurt | 8 | Community","name_short":"frk-8","host":"frk-1.de.uncletopia.com","port":27085,"enabled":true,"region":"eu","cc":"de","latitude":50.110924,"longitude":8.682127,"reserved":0,"last_update":"0001-01-01T00:00:00Z","name_a2s":"Uncletopia | Frankfurt | 8 | Community","protocol":17,"map":"workshop/koth_bagel_rc5.ugc2514036946","folder":"tf","game":"Team Fortress","app_id":440,"player_count":0,"max_players":24,"Bots":0,"server_type":"Dedicated","server_os":"Linux","password":true,"vac":true,"version":"7742253","steam_id":85568392924742828,"keywords":["cp","nocrits","nodmgspread","uncletopia"],"game_id":440,"stv_port":27086,"stv_name":"Uncletopia | Frankfurt | 8 | Community | STV","players":null},{"server_id":202,"name":"Uncletopia | Hong Kong | 1 | All Maps","name_short":"hgk-1","host":"hgk-1.hk.uncletopia.com","port":27015,"enabled":true,"region":"asia","cc":"hk","latitude":22.302711,"longitude":114.177216,"reserved":0,"last_update":"0001-01-01T00:00:00Z","name_a2s":"Uncletopia | Hong Kong | 1 | All Maps","protocol":17,"map":"pl_enclosure_final","folder":"tf","game":"Team Fortress","app_id":440,"player_count":24,"max_players":24,"Bots":0,"server_type":"Dedicated","server_os":"Linux","password":true,"vac":true,"version":"7742253","steam_id":85568392924494504,"keywords":["nocrits","nodmgspread","payload","uncletopia"],"game_id":440,"stv_port":27016,"stv_name":"Uncletopia | Hong Kong | 1 | All Maps | STV","players":[{"user_id":403,"name":"Noyour","steam_id":76561198323259830,"connected_time":9248000000000,"state":"active","ping":108},{"user_id":531,"name":"lettuce at 58p","steam_id":76561199401283123,"connected_time":2304000000000,"state":"active","ping":94},{"user_id":534,"name":"„Ç§„Éä„Ç§„É¨","steam_id":76561198299742244,"connected_time":1310000000000,"state":"active","ping":91},{"user_id":452,"name":"AmaiToxic","steam_id":76561199122491157,"connected_time":6264000000000,"state":"active","ping":62},{"user_id":528,"name":"m1ko-  ‚ùÄ‚ùÜ","steam_id":76561198337154745,"connected_time":3099000000000,"state":"active","ping":88},{"user_id":537,"name":"Pillboi","steam_id":76561198011172886,"connected_time":1084000000000,"state":"active","ping":47},{"user_id":511,"name":"floating pussy homing missle","steam_id":76561198262120562,"connected_time":4293000000000,"state":"active","ping":97},{"user_id":456,"name":"im ill informed","steam_id":76561198802525936,"connected_time":6176000000000,"state":"active","ping":86},{"user_id":542,"name":"Beef Wellington","steam_id":76561197995635241,"connected_time":116000000000,"state":"active","ping":112},{"user_id":523,"name":"pls","steam_id":76561199159894607,"connected_time":3324000000000,"state":"active","ping":74},{"user_id":470,"name":"BlackMarketDoctor","steam_id":76561199087075409,"connected_time":5769000000000,"state":"active","ping":90},{"user_id":538,"name":"Owmyn","steam_id":76561199239651098,"connected_time":1069000000000,"state":"active","ping":102},{"user_id":543,"name":"Mr.Quin","steam_id":76561198105846007,"connected_time":31000000000,"state":"active","ping":225},{"user_id":520,"name":"GrotesqueHorse","steam_id":76561198151298791,"connected_time":3740000000000,"state":"active","ping":83},{"user_id":491,"name":"bocchi the cock sucka","steam_id":76561198169178491,"connected_time":5175000000000,"state":"active","ping":44},{"user_id":536,"name":"uptriste","steam_id":76561198158666692,"connected_time":1141000000000,"state":"active","ping":46},{"user_id":518,"name":"Infra","steam_id":76561198924576271,"connected_time":3839000000000,"state":"active","ping":86},{"user_id":500,"name":"ÊØç„ÅÆËÇâÂõ£Â≠ê","steam_id":76561198069561896,"connected_time":4969000000000,"state":"active","ping":45},{"user_id":533,"name":"Puddin","steam_id":76561198140052918,"connected_time":1799000000000,"state":"active","ping":92},{"user_id":525,"name":"Violezine","steam_id":76561199000502615,"connected_time":3264000000000,"state":"active","ping":81},{"user_id":460,"name":"Antzen","steam_id":76561198041343470,"connected_time":6145000000000,"state":"active","ping":63},{"user_id":532,"name":"Cod0fDuty","steam_id":76561198958062892,"connected_time":2303000000000,"state":"active","ping":49},{"user_id":514,"name":"Banana Milk","steam_id":76561198005156257,"connected_time":3872000000000,"state":"active","ping":130},{"user_id":515,"name":"Michael Scott","steam_id":76561198023082794,"connected_time":3872000000000,"state":"active","ping":44}]},{"server_id":1,"name":"Uncletopia | Los Angeles | 1 | All Maps","name_short":"lax-1","host":"lax-1.us.uncletopia.com","port":27015,"enabled":true,"region":"us-west","cc":"us","latitude":33.94279,"longitude":-118.41004,"reserved":0,"last_update":"0001-01-01T00:00:00Z","name_a2s":"Uncletopia | Los Angeles | 1 | All Maps","protocol":17,"map":"cp_dustbowl","folder":"tf","game":"Team Fortress","app_id":440,"player_count":0,"max_players":24,"Bots":0,"server_type":"Dedicated","server_os":"Linux","password":true,"vac":true,"version":"7742253","steam_id":85568392924469991,"keywords":["cp","nocrits","nodmgspread","uncletopia"],"game_id":440,"stv_port":27016,"stv_name":"Uncletopia | Los Angeles | 1 | All Maps | STV","players":null},{"server_id":112,"name":"Uncletopia | Los Angeles | 2 | All Maps","name_short":"lax-2","host":"lax-1.us.uncletopia.com","port":27025,"enabled":true,"region":"us-west","cc":"us","latitude":33.94279,"longitude":-118.41004,"reserved":0,"last_update":"0001-01-01T00:00:00Z","name_a2s":"Uncletopia | Los Angeles | 2 | All Maps","protocol":17,"map":"pl_frontier_final","folder":"tf","game":"Team Fortress","app_id":440,"player_count":0,"max_players":24,"Bots":0,"server_type":"Dedicated","server_os":"Linux","password":true,"vac":true,"version":"7742253","steam_id":85568392924469992,"keywords":["nocrits","nodmgspread","payload","uncletopia"],"game_id":440,"stv_port":27026,"stv_name":"Uncletopia | Los Angeles | 2 | All Maps | STV","players":null},{"server_id":324,"name":"Uncletopia | Los Angeles | 3 | All Maps","name_short":"lax-3","host":"lax-1.us.uncletopia.com","port":27035,"enabled":true,"region":"us-west","cc":"us","latitude":33.94279,"longitude":-118.41004,"reserved":0,"last_update":"0001-01-01T00:00:00Z","name_a2s":"Uncletopia | Los Angeles | 3 | All Maps","protocol":17,"map":"cp_snakewater_final1","folder":"tf","game":"Team Fortress","app_id":440,"player_count":0,"max_players":24,"Bots":0,"server_type":"Dedicated","server_os":"Linux","password":true,"vac":true,"version":"7742253","steam_id":85568392924510198,"keywords":["cp","nocrits","nodmgspread","uncletopia"],"game_id":440,"stv_port":27036,"stv_name":"Uncletopia | Los Angeles | 3 | All Maps | STV","players":null},{"server_id":25,"name":"Uncletopia | Los Angeles | 4 | Stopwatch Beta","name_short":"lax-4","host":"lax-1.us.uncletopia.com","port":27045,"enabled":true,"region":"us-west","cc":"us","latitude":33.94279,"longitude":-118.41004,"reserved":0,"last_update":"0001-01-01T00:00:00Z","name_a2s":"Uncletopia | Los Angeles | 4 | Stopwatch Beta","protocol":17,"map":"cp_snakewater_final1","folder":"tf","game":"Team Fortress","app_id":440,"player_count":0,"max_players":24,"Bots":0,"server_type":"Dedicated","server_os":"Linux","password":true,"vac":true,"version":"7742253","steam_id":85568392924510199,"keywords":["cp","nocrits","nodmgspread","uncletopia"],"game_id":440,"stv_port":27046,"stv_name":"Uncletopia | Los Angeles | 4 | Stopwatch Beta | STV","players":null},{"server_id":11,"name":"Uncletopia | London | 1 | All Maps","name_short":"lon-1","host":"lon-1.uk.uncletopia.com","port":27015,"enabled":true,"region":"eu","cc":"gb","latitude":51.509865,"longitude":-0.118092,"reserved":0,"last_update":"0001-01-01T00:00:00Z","name_a2s":"Uncletopia | London | 1 | All Maps","protocol":17,"map":"cp_dustbowl","folder":"tf","game":"Team Fortress","app_id":440,"player_count":23,"max_players":24,"Bots":0,"server_type":"Dedicated","server_os":"Linux","password":true,"vac":true,"version":"7742253","steam_id":85568392924367362,"keywords":["cp","nocrits","nodmgspread","uncletopia"],"game_id":440,"stv_port":27016,"stv_name":"Uncletopia | London | 1 | All Maps | STV","players":[{"user_id":282,"name":"fzubic6","steam_id":76561199390237727,"connected_time":789000000000,"state":"active","ping":68},{"user_id":269,"name":"trite","steam_id":76561197983765323,"connected_time":1051000000000,"state":"active","ping":44},{"user_id":229,"name":"Avoonix","steam_id":76561198186954897,"connected_time":1730000000000,"state":"active","ping":74},{"user_id":263,"name":"Fishy","steam_id":76561198819316173,"connected_time":1141000000000,"state":"active","ping":177},{"user_id":243,"name":"Johnny Boy","steam_id":76561197969525453,"connected_time":1488000000000,"state":"active","ping":63},{"user_id":255,"name":"GOUD","steam_id":76561198071823072,"connected_time":1258000000000,"state":"active","ping":75},{"user_id":267,"name":"Azor554","steam_id":76561198340344220,"connected_time":1102000000000,"state":"active","ping":84},{"user_id":234,"name":"Ythern","steam_id":76561198051877486,"connected_time":1592000000000,"state":"active","ping":46},{"user_id":235,"name":"PaperPlay","steam_id":76561198046838964,"connected_time":1583000000000,"state":"active","ping":112},{"user_id":189,"name":"sumweeb","steam_id":76561198311624395,"connected_time":2668000000000,"state":"active","ping":43},{"user_id":236,"name":"the rizzler","steam_id":76561198070664114,"connected_time":1580000000000,"state":"active","ping":67},{"user_id":286,"name":"FishNachoz","steam_id":76561198026519426,"connected_time":772000000000,"state":"active","ping":56},{"user_id":315,"name":"The Bonk Man‚Ñ¢","steam_id":76561199044260792,"connected_time":39000000000,"state":"active","ping":66},{"user_id":280,"name":"Michael","steam_id":76561198003146906,"connected_time":800000000000,"state":"active","ping":46},{"user_id":297,"name":"Slex_","steam_id":76561198118483396,"connected_time":534000000000,"state":"active","ping":46},{"user_id":148,"name":"Espa√±aa","steam_id":76561198879587832,"connected_time":4221000000000,"state":"active","ping":101},{"user_id":270,"name":"Majami","steam_id":76561198054365738,"connected_time":1033000000000,"state":"active","ping":95},{"user_id":256,"name":"Liba","steam_id":76561198118006754,"connected_time":1252000000000,"state":"active","ping":79},{"user_id":191,"name":"M.L.JEW","steam_id":76561198997375055,"connected_time":2658000000000,"state":"active","ping":154},{"user_id":281,"name":"British Disapproval","steam_id":76561198001375260,"connected_time":800000000000,"state":"active","ping":51},{"user_id":252,"name":"Diggity","steam_id":76561198297157085,"connected_time":1392000000000,"state":"active","ping":37},{"user_id":279,"name":"Stick on a sun","steam_id":76561199036142255,"connected_time":820000000000,"state":"active","ping":73},{"user_id":268,"name":"L√∂ys√§ Masa","steam_id":76561198343396172,"connected_time":1080000000000,"state":"active","ping":102}]},{"server_id":114,"name":"Uncletopia | London | 2 | All Maps","name_short":"lon-2","host":"lon-1.uk.uncletopia.com","port":27025,"enabled":true,"region":"eu","cc":"gb","latitude":51.509865,"longitude":-0.118092,"reserved":0,"last_update":"0001-01-01T00:00:00Z","name_a2s":"Uncletopia | London | 2 | All Maps","protocol":17,"map":"koth_king","folder":"tf","game":"Team Fortress","app_id":440,"player_count":24,"max_players":24,"Bots":0,"server_type":"Dedicated","server_os":"Linux","password":true,"vac":true,"version":"7742253","steam_id":85568392924470941,"keywords":["cp","nocrits","nodmgspread","uncletopia"],"game_id":440,"stv_port":27026,"stv_name":"Uncletopia | London | 2 | All Maps | STV","players":[{"user_id":469,"name":"loveless","steam_id":76561198142256651,"connected_time":2482000000000,"state":"active","ping":84},{"user_id":495,"name":"Zed der H√∂llenhund","steam_id":76561198001478331,"connected_time":861000000000,"state":"active","ping":91},{"user_id":450,"name":"eggslut","steam_id":76561198010752241,"connected_time":3595000000000,"state":"active","ping":63},{"user_id":472,"name":"Jamie Hyneman","steam_id":76561198364121077,"connected_time":2232000000000,"state":"active","ping":88},{"user_id":475,"name":"brokenphilip","steam_id":76561198080960604,"connected_time":2191000000000,"state":"active","ping":79},{"user_id":488,"name":"Loberless","steam_id":76561198277844777,"connected_time":1103000000000,"state":"active","ping":45},{"user_id":485,"name":"Khoreo","steam_id":76561198208096339,"connected_time":1779000000000,"state":"active","ping":47},{"user_id":454,"name":"r0la","steam_id":76561198128315340,"connected_time":2871000000000,"state":"active","ping":72},{"user_id":480,"name":"burial","steam_id":76561198009115060,"connected_time":2028000000000,"state":"active","ping":76},{"user_id":490,"name":"Great recession of 2008","steam_id":76561198881151562,"connected_time":1091000000000,"state":"active","ping":74},{"user_id":476,"name":"tete","steam_id":76561198045222850,"connected_time":2120000000000,"state":"active","ping":72},{"user_id":496,"name":"KarlRanzeier","steam_id":76561198066281337,"connected_time":856000000000,"state":"active","ping":60},{"user_id":434,"name":"OutOfDucks","steam_id":76561198166376227,"connected_time":4451000000000,"state":"active","ping":60},{"user_id":504,"name":"Gaattori","steam_id":76561198065624683,"connected_time":60000000000,"state":"active","ping":87},{"user_id":494,"name":"wolffy","steam_id":76561198083145076,"connected_time":962000000000,"state":"active","ping":69},{"user_id":483,"name":"binkstug","steam_id":76561198867644865,"connected_time":1937000000000,"state":"active","ping":71},{"user_id":491,"name":"kag","steam_id":76561198059813166,"connected_time":1081000000000,"state":"active","ping":47},{"user_id":492,"name":"Bonk!","steam_id":76561198402289367,"connected_time":1061000000000,"state":"active","ping":46},{"user_id":498,"name":"tactical783","steam_id":76561199051688560,"connected_time":826000000000,"state":"active","ping":64},{"user_id":439,"name":"Penis Contortionist","steam_id":76561198073663784,"connected_time":4249000000000,"state":"active","ping":38},{"user_id":479,"name":"Such XD","steam_id":76561198129454909,"connected_time":2036000000000,"state":"active","ping":79},{"user_id":503,"name":"century","steam_id":76561198091656119,"connected_time":183000000000,"state":"active","ping":44},{"user_id":414,"name":"Bruschetta","steam_id":76561198251927162,"connected_time":6773000000000,"state":"active","ping":56},{"user_id":502,"name":"Sgreff","steam_id":76561198036304365,"connected_time":339000000000,"state":"active","ping":46}]},{"server_id":320,"name":"Uncletopia | London | 3 | All Maps","name_short":"lon-3","host":"lon-1.uk.uncletopia.com","port":27035,"enabled":true,"region":"eu","cc":"gb","latitude":51.509865,"longitude":-0.118092,"reserved":0,"last_update":"0001-01-01T00:00:00Z","name_a2s":"Uncletopia | London | 3 | All Maps","protocol":17,"map":"pl_barnblitz","folder":"tf","game":"Team Fortress","app_id":440,"player_count":24,"max_players":24,"Bots":0,"server_type":"Dedicated","server_os":"Linux","password":true,"vac":true,"version":"7742253","steam_id":85568392924510192,"keywords":["nocrits","nodmgspread","payload","uncletopia"],"game_id":440,"stv_port":27036,"stv_name":"Uncletopia | London | 3 | All Maps | STV","players":[{"user_id":306,"name":"‚Ä¢stepbro‚Ä¢","steam_id":76561198119607160,"connected_time":1427000000000,"state":"active","ping":79},{"user_id":264,"name":"MF Spiffylad","steam_id":76561197973698934,"connected_time":5844000000000,"state":"active","ping":75},{"user_id":321,"name":"[Sheep] Tomco","steam_id":76561198388549261,"connected_time":70000000000,"state":"active","ping":55},{"user_id":310,"name":"dadaevmagamed339","steam_id":76561199403308234,"connected_time":1011000000000,"state":"active","ping":113},{"user_id":314,"name":"camion","steam_id":76561199230091758,"connected_time":656000000000,"state":"active","ping":69},{"user_id":319,"name":"HeresyMan","steam_id":76561198169154183,"connected_time":165000000000,"state":"active","ping":80},{"user_id":302,"name":"casual zyzz praiser","steam_id":76561198022382969,"connected_time":2073000000000,"state":"active","ping":75},{"user_id":289,"name":"thepoltroon294","steam_id":76561198236015392,"connected_time":3678000000000,"state":"active","ping":120},{"user_id":323,"name":"4's up Rigby","steam_id":76561199122067976,"connected_time":35000000000,"state":"active","ping":47},{"user_id":307,"name":"Blo","steam_id":76561198161651469,"connected_time":1259000000000,"state":"active","ping":40},{"user_id":268,"name":"Son Goku","steam_id":76561199383437138,"connected_time":5749000000000,"state":"active","ping":118},{"user_id":317,"name":"[BRE] Estienne / HONK","steam_id":76561198359045489,"connected_time":502000000000,"state":"active","ping":74},{"user_id":267,"name":"weed fairy","steam_id":76561197998843096,"connected_time":5781000000000,"state":"active","ping":78},{"user_id":299,"name":"pidgeonlord","steam_id":76561198297290160,"connected_time":2145000000000,"state":"active","ping":76},{"user_id":322,"name":"Levi379","steam_id":76561198017202969,"connected_time":60000000000,"state":"active","ping":52},{"user_id":269,"name":"Mokie","steam_id":76561199360783914,"connected_time":5698000000000,"state":"active","ping":111},{"user_id":224,"name":"Mr Prince","steam_id":76561199006591691,"connected_time":8559000000000,"state":"active","ping":49},{"user_id":316,"name":"mimi","steam_id":76561198060648946,"connected_time":589000000000,"state":"active","ping":61},{"user_id":320,"name":"FutureCal","steam_id":76561198880307586,"connected_time":142000000000,"state":"active","ping":59},{"user_id":123,"name":"Mono","steam_id":76561198114569493,"connected_time":16058000000000,"state":"active","ping":42},{"user_id":301,"name":"mystery","steam_id":76561198969096986,"connected_time":2133000000000,"state":"active","ping":115},{"user_id":288,"name":"Tutel","steam_id":76561199375909993,"connected_time":3767000000000,"state":"active","ping":81},{"user_id":308,"name":"unconnected","steam_id":76561199216923710,"connected_time":1234000000000,"state":"active","ping":183},{"user_id":293,"name":"poliakov.noam","steam_id":76561199259322961,"connected_time":3061000000000,"state":"active","ping":103}]},{"server_id":321,"name":"Uncletopia | London | 4 | All Maps","name_short":"lon-4","host":"lon-1.uk.uncletopia.com","port":27045,"enabled":true,"region":"eu","cc":"gb","latitude":51.509865,"longitude":-0.118092,"reserved":0,"last_update":"0001-01-01T00:00:00Z","name_a2s":"Uncletopia | London | 4 | All Maps","protocol":17,"map":"pl_upward","folder":"tf","game":"Team Fortress","app_id":440,"player_count":24,"max_players":24,"Bots":0,"server_type":"Dedicated","server_os":"Linux","password":true,"vac":true,"version":"7742253","steam_id":85568392924510193,"keywords":["nocrits","nodmgspread","payload","uncletopia"],"game_id":440,"stv_port":27046,"stv_name":"Uncletopia | London | 4 | All Maps | STV","players":[{"user_id":96,"name":"GinoFastidio","steam_id":76561198075830259,"connected_time":312000000000,"state":"active","ping":134},{"user_id":89,"name":"Farmercy","steam_id":76561198000038039,"connected_time":1064000000000,"state":"active","ping":63},{"user_id":76,"name":"blurst of times","steam_id":76561197972325640,"connected_time":2977000000000,"state":"active","ping":50},{"user_id":97,"name":"a Goat","steam_id":76561197985705504,"connected_time":276000000000,"state":"active","ping":52},{"user_id":72,"name":"Fogic yo!","steam_id":76561198084624833,"connected_time":3129000000000,"state":"active","ping":81},{"user_id":92,"name":"AforeKingDwarf","steam_id":76561198043562926,"connected_time":987000000000,"state":"active","ping":39},{"user_id":77,"name":"Noob_with_source","steam_id":76561198870362103,"connected_time":2661000000000,"state":"active","ping":60},{"user_id":93,"name":"Foxyz","steam_id":76561198040642992,"connected_time":978000000000,"state":"active","ping":102},{"user_id":78,"name":"Equinox","steam_id":76561199055592635,"connected_time":2469000000000,"state":"active","ping":57},{"user_id":90,"name":"NALA","steam_id":76561198039806469,"connected_time":1058000000000,"state":"active","ping":84},{"user_id":94,"name":"Nerf Gun Survivor","steam_id":76561198036032168,"connected_time":975000000000,"state":"active","ping":126},{"user_id":40,"name":"player","steam_id":76561198054474684,"connected_time":5015000000000,"state":"active","ping":89},{"user_id":41,"name":"JGV","steam_id":76561198094654971,"connected_time":5009000000000,"state":"active","ping":88},{"user_id":43,"name":"Fat Pigeon","steam_id":76561198817940142,"connected_time":4953000000000,"state":"active","ping":47},{"user_id":82,"name":"Scutchy","steam_id":76561198104431220,"connected_time":2176000000000,"state":"active","ping":60},{"user_id":74,"name":"Umbro","steam_id":76561198881752406,"connected_time":3081000000000,"state":"active","ping":47},{"user_id":86,"name":"your_local_penguin","steam_id":76561199224954346,"connected_time":1074000000000,"state":"active","ping":92},{"user_id":51,"name":"Cosmetic brain","steam_id":76561198055936410,"connected_time":4762000000000,"state":"active","ping":83},{"user_id":83,"name":"Pipper","steam_id":76561197970326616,"connected_time":2176000000000,"state":"active","ping":54},{"user_id":56,"name":"Sneaky boi","steam_id":76561199195985387,"connected_time":4603000000000,"state":"active","ping":94},{"user_id":95,"name":"dafydd","steam_id":76561198052200325,"connected_time":962000000000,"state":"active","ping":89},{"user_id":100,"name":"festry","steam_id":76561198873296090,"connected_time":87000000000,"state":"active","ping":75},{"user_id":59,"name":"LordTrap.exe","steam_id":76561198318089716,"connected_time":4567000000000,"state":"active","ping":48},{"user_id":85,"name":"MAKENTAKEN","steam_id":76561199127359587,"connected_time":2144000000000,"state":"active","ping":92}]},{"server_id":21,"name":"Uncletopia | London | 5 | All Maps","name_short":"lon-5","host":"lon-1.uk.uncletopia.com","port":27055,"enabled":true,"region":"eu","cc":"gb","latitude":51.509865,"longitude":-0.118092,"reserved":0,"last_update":"0001-01-01T00:00:00Z","name_a2s":"Uncletopia | London | 5 | All Maps","protocol":17,"map":"koth_viaduct","folder":"tf","game":"Team Fortress","app_id":440,"player_count":0,"max_players":24,"Bots":0,"server_type":"Dedicated","server_os":"Linux","password":true,"vac":true,"version":"7742253","steam_id":85568392924742829,"keywords":["cp","nocrits","nodmgspread","uncletopia"],"game_id":440,"stv_port":27056,"stv_name":"Uncletopia | London | 5 | All Maps | STV","players":null},{"server_id":22,"name":"Uncletopia | London | 6 | All Maps","name_short":"lon-6","host":"lon-1.uk.uncletopia.com","port":27065,"enabled":true,"region":"eu","cc":"gb","latitude":51.509865,"longitude":-0.118092,"reserved":0,"last_update":"0001-01-01T00:00:00Z","name_a2s":"Uncletopia | London | 6 | All Maps","protocol":17,"map":"koth_viaduct","folder":"tf","game":"Team Fortress","app_id":440,"player_count":24,"max_players":24,"Bots":0,"server_type":"Dedicated","server_os":"Linux","password":true,"vac":true,"version":"7742253","steam_id":85568392924742830,"keywords":["cp","nocrits","nodmgspread","uncletopia"],"game_id":440,"stv_port":27066,"stv_name":"Uncletopia | London | 6 | All Maps | STV","players":[{"user_id":381,"name":"sigma female","steam_id":76561198298576765,"connected_time":441000000000,"state":"active","ping":64},{"user_id":344,"name":"Ross","steam_id":76561198965967986,"connected_time":1420000000000,"state":"active","ping":62},{"user_id":374,"name":"Albon","steam_id":76561198060378881,"connected_time":610000000000,"state":"active","ping":66},{"user_id":359,"name":"Stille Willem","steam_id":76561198093579428,"connected_time":877000000000,"state":"active","ping":57},{"user_id":355,"name":"Landsknecht","steam_id":76561199293036742,"connected_time":1082000000000,"state":"active","ping":58},{"user_id":362,"name":"dumpster","steam_id":76561198429917681,"connected_time":732000000000,"state":"active","ping":44},{"user_id":360,"name":"Zipnet","steam_id":76561198000218824,"connected_time":812000000000,"state":"active","ping":67},{"user_id":350,"name":"EchoBN","steam_id":76561198287127380,"connected_time":1256000000000,"state":"active","ping":46},{"user_id":365,"name":"Acheron","steam_id":76561198306593373,"connected_time":689000000000,"state":"active","ping":81},{"user_id":385,"name":"night.s","steam_id":76561198326287823,"connected_time":304000000000,"state":"active","ping":80},{"user_id":366,"name":"meatsoupcube","steam_id":76561198276802249,"connected_time":685000000000,"state":"active","ping":108},{"user_id":378,"name":"Insanitybomb","steam_id":76561198048707708,"connected_time":468000000000,"state":"active","ping":55},{"user_id":376,"name":"Grinch Gun","steam_id":76561198097789669,"connected_time":489000000000,"state":"active","ping":75},{"user_id":291,"name":"Milosz52","steam_id":76561199060940204,"connected_time":5478000000000,"state":"active","ping":75},{"user_id":383,"name":"Ax","steam_id":76561199201206556,"connected_time":414000000000,"state":"active","ping":94},{"user_id":377,"name":"casper","steam_id":76561198869567040,"connected_time":489000000000,"state":"active","ping":114},{"user_id":371,"name":"AndLogin","steam_id":76561198108601962,"connected_time":639000000000,"state":"active","ping":90},{"user_id":379,"name":"–†–°–ó–û \"–ì—Ä–∞–¥\"","steam_id":76561198925647075,"connected_time":464000000000,"state":"active","ping":181},{"user_id":380,"name":"Wayward Smile","steam_id":76561198058841506,"connected_time":457000000000,"state":"active","ping":47},{"user_id":382,"name":"PieTer","steam_id":76561198001999422,"connected_time":438000000000,"state":"active","ping":68},{"user_id":384,"name":".4b","steam_id":76561198249832770,"connected_time":360000000000,"state":"active","ping":50},{"user_id":253,"name":"Dominus.","steam_id":76561199065917088,"connected_time":6827000000000,"state":"active","ping":66},{"user_id":387,"name":"Gandalf","steam_id":76561199072668363,"connected_time":262000000000,"state":"active","ping":102},{"user_id":388,"name":"dr. coom","steam_id":76561198172193711,"connected_time":237000000000,"state":"active","ping":41}]},{"server_id":40,"name":"Uncletopia | London | 7 | No Payload","name_short":"lon-7","host":"lon-1.uk.uncletopia.com","port":27075,"enabled":true,"region":"eu","cc":"gb","latitude":51.509865,"longitude":-0.118092,"reserved":0,"last_update":"0001-01-01T00:00:00Z","name_a2s":"Uncletopia | London | 7 | No Payload","protocol":17,"map":"koth_viaduct","folder":"tf","game":"Team Fortress","app_id":440,"player_count":0,"max_players":24,"Bots":0,"server_type":"Dedicated","server_os":"Linux","password":true,"vac":true,"version":"7742253","steam_id":85568392924964314,"keywords":["cp","nocrits","nodmgspread","uncletopia"],"game_id":440,"stv_port":27076,"stv_name":"Uncletopia | London | 7 | No Payload | STV","players":null},{"server_id":41,"name":"Uncletopia | London | 8 | Community","name_short":"lon-8","host":"lon-1.uk.uncletopia.com","port":27085,"enabled":true,"region":"eu","cc":"gb","latitude":51.509865,"longitude":-0.118092,"reserved":0,"last_update":"0001-01-01T00:00:00Z","name_a2s":"Uncletopia | London | 8 | Community","protocol":17,"map":"workshop/cp_overgrown_rc7b.ugc503939302","folder":"tf","game":"Team Fortress","app_id":440,"player_count":0,"max_players":24,"Bots":0,"server_type":"Dedicated","server_os":"Linux","password":true,"vac":true,"version":"7742253","steam_id":85568392924964315,"keywords":["cp","nocrits","nodmgspread","uncletopia"],"game_id":440,"stv_port":27086,"stv_name":"Uncletopia | London | 8 | Community | STV","players":null},{"server_id":300,"name":"Uncletopia | Montr√©al | 1 | All Maps","name_short":"mtl-1","host":"mtl-1.ca.uncletopia.com","port":27015,"enabled":true,"region":"us-east","cc":"ca","latitude":45.50889,"longitude":-73.56167,"reserved":0,"last_update":"0001-01-01T00:00:00Z","name_a2s":"Uncletopia | Montr√©al | 1 | All Maps","protocol":17,"map":"cp_snakewater_final1","folder":"tf","game":"Team Fortress","app_id":440,"player_count":0,"max_players":24,"Bots":0,"server_type":"Dedicated","server_os":"Linux","password":true,"vac":true,"version":"7742253","steam_id":85568392924500087,"keywords":["cp","nocrits","nodmgspread","uncletopia"],"game_id":440,"stv_port":27016,"stv_name":"Uncletopia | Montr√©al | 1 | All Maps | STV","players":null},{"server_id":301,"name":"Uncletopia | Montr√©al | 2 | All Maps","name_short":"mtl-2","host":"mtl-1.ca.uncletopia.com","port":27025,"enabled":true,"region":"us-east","cc":"ca","latitude":45.50889,"longitude":-73.56167,"reserved":0,"last_update":"0001-01-01T00:00:00Z","name_a2s":"Uncletopia | Montr√©al | 2 | All Maps","protocol":17,"map":"koth_highpass","folder":"tf","game":"Team Fortress","app_id":440,"player_count":0,"max_players":24,"Bots":0,"server_type":"Dedicated","server_os":"Linux","password":true,"vac":true,"version":"7742253","steam_id":85568392924500088,"keywords":["cp","nocrits","nodmgspread","uncletopia"],"game_id":440,"stv_port":27026,"stv_name":"Uncletopia | Montr√©al | 2 | All Maps | STV","players":null},{"server_id":302,"name":"Uncletopia | Montr√©al | 3 | All Maps","name_short":"mtl-3","host":"mtl-1.ca.uncletopia.com","port":27035,"enabled":true,"region":"us-east","cc":"ca","latitude":45.50889,"longitude":-73.56167,"reserved":0,"last_update":"0001-01-01T00:00:00Z","name_a2s":"Uncletopia | Montr√©al | 3 | All Maps","protocol":17,"map":"koth_cascade","folder":"tf","game":"Team Fortress","app_id":440,"player_count":0,"max_players":24,"Bots":0,"server_type":"Dedicated","server_os":"Linux","password":true,"vac":true,"version":"7742253","steam_id":85568392924500089,"keywords":["cp","nocrits","nodmgspread","uncletopia"],"game_id":440,"stv_port":27036,"stv_name":"Uncletopia | Montr√©al | 3 | All Maps | STV","players":null},{"server_id":303,"name":"Uncletopia | Montr√©al | 4 | No Payload","name_short":"mtl-4","host":"mtl-1.ca.uncletopia.com","port":27045,"enabled":true,"region":"us-east","cc":"ca","latitude":45.50889,"longitude":-73.56167,"reserved":0,"last_update":"0001-01-01T00:00:00Z","name_a2s":"Uncletopia | Montr√©al | 4 | No Payload","protocol":17,"map":"cp_snakewater_final1","folder":"tf","game":"Team Fortress","app_id":440,"player_count":0,"max_players":24,"Bots":0,"server_type":"Dedicated","server_os":"Linux","password":true,"vac":true,"version":"7742253","steam_id":85568392924500090,"keywords":["cp","nocrits","nodmgspread","uncletopia"],"game_id":440,"stv_port":27046,"stv_name":"Uncletopia | Montr√©al | 4 | No Payload | STV","players":null},{"server_id":13,"name":"Uncletopia | New York City | 1 | All Maps","name_short":"nyc-1","host":"nyc-1.us.uncletopia.com","port":27015,"enabled":true,"region":"us-east","cc":"us","latitude":40.73061,"longitude":-73.93524,"reserved":0,"last_update":"0001-01-01T00:00:00Z","name_a2s":"Uncletopia | New York City | 1 | All Maps","protocol":17,"map":"koth_cascade","folder":"tf","game":"Team Fortress","app_id":440,"player_count":0,"max_players":24,"Bots":0,"server_type":"Dedicated","server_os":"Linux","password":true,"vac":true,"version":"7742253","steam_id":85568392924469993,"keywords":["cp","nocrits","nodmgspread","uncletopia"],"game_id":440,"stv_port":27016,"stv_name":"Uncletopia | New York City | 1 | All Maps | STV","players":null},{"server_id":14,"name":"Uncletopia | New York City | 2 | All Maps","name_short":"nyc-2","host":"nyc-1.us.uncletopia.com","port":27025,"enabled":true,"region":"us-east","cc":"us","latitude":40.73061,"longitude":-73.93524,"reserved":0,"last_update":"0001-01-01T00:00:00Z","name_a2s":"Uncletopia | New York City | 2 | All Maps","protocol":17,"map":"pl_wutville_event","folder":"tf","game":"Team Fortress","app_id":440,"player_count":24,"max_players":24,"Bots":0,"server_type":"Dedicated","server_os":"Linux","password":true,"vac":true,"version":"7742253","steam_id":85568392924469994,"keywords":["nocrits","nodmgspread","payload","uncletopia"],"game_id":440,"stv_port":27026,"stv_name":"Uncletopia | New York City | 2 | All Maps | STV","players":[{"user_id":80,"name":"JakeisJake","steam_id":76561198980265522,"connected_time":150000000000,"state":"active","ping":90},{"user_id":79,"name":"ColonelKermit","steam_id":76561198318215660,"connected_time":527000000000,"state":"active","ping":71},{"user_id":20,"name":"Spooky Wizard","steam_id":76561198052573339,"connected_time":3688000000000,"state":"active","ping":89},{"user_id":10,"name":"Samus","steam_id":76561198121933439,"connected_time":4037000000000,"state":"active","ping":58},{"user_id":7,"name":"tommy | backpack .tf2","steam_id":76561198108010389,"connected_time":4245000000000,"state":"active","ping":65},{"user_id":41,"name":"flora","steam_id":76561197994492154,"connected_time":3110000000000,"state":"active","ping":146},{"user_id":70,"name":"WX-78","steam_id":76561199117263527,"connected_time":1069000000000,"state":"active","ping":55},{"user_id":71,"name":"CF-166 (CF-TF2 on YT)","steam_id":76561198145893044,"connected_time":939000000000,"state":"active","ping":61},{"user_id":77,"name":"Skidt","steam_id":76561199229045278,"connected_time":697000000000,"state":"active","ping":88},{"user_id":56,"name":"Oats","steam_id":76561198352207161,"connected_time":2069000000000,"state":"active","ping":58},{"user_id":72,"name":"KaleidoscopeOk7981","steam_id":76561198110449520,"connected_time":935000000000,"state":"active","ping":79},{"user_id":73,"name":"Pyro","steam_id":76561198860424456,"connected_time":844000000000,"state":"active","ping":140},{"user_id":65,"name":"unlucky","steam_id":76561199204822104,"connected_time":1523000000000,"state":"active","ping":126},{"user_id":74,"name":"ImFr0sty","steam_id":76561199441249487,"connected_time":834000000000,"state":"active","ping":69},{"user_id":47,"name":"ella guru","steam_id":76561198287124402,"connected_time":2903000000000,"state":"active","ping":71},{"user_id":23,"name":"bimbo blow up doll! \u003c3","steam_id":76561198959541006,"connected_time":3616000000000,"state":"active","ping":61},{"user_id":46,"name":"L0gicz","steam_id":76561198082466196,"connected_time":3016000000000,"state":"active","ping":91},{"user_id":75,"name":"MiesterMax","steam_id":76561199120803375,"connected_time":831000000000,"state":"active","ping":78},{"user_id":49,"name":"YelloGoat","steam_id":76561198367174421,"connected_time":2538000000000,"state":"active","ping":33},{"user_id":61,"name":"heywaitasecond","steam_id":76561199064548292,"connected_time":1731000000000,"state":"active","ping":63},{"user_id":76,"name":"Dexter","steam_id":76561198050149035,"connected_time":810000000000,"state":"active","ping":53},{"user_id":52,"name":"Maniaa","steam_id":76561198257140802,"connected_time":2236000000000,"state":"active","ping":48},{"user_id":62,"name":"walterfishing_17","steam_id":76561198976904099,"connected_time":1713000000000,"state":"active","ping":80},{"user_id":78,"name":"1920","steam_id":76561198111669774,"connected_time":696000000000,"state":"active","ping":64}]},{"server_id":15,"name":"Uncletopia | New York City | 3 | Stopwatch Beta","name_short":"nyc-3","host":"nyc-1.us.uncletopia.com","port":27035,"enabled":true,"region":"us-east","cc":"us","latitude":40.73061,"longitude":-73.93524,"reserved":0,"last_update":"0001-01-01T00:00:00Z","name_a2s":"Uncletopia | New York City | 3 | Stopwatch Beta","protocol":17,"map":"pl_pier","folder":"tf","game":"Team Fortress","app_id":440,"player_count":0,"max_players":24,"Bots":0,"server_type":"Dedicated","server_os":"Linux","password":true,"vac":true,"version":"7742253","steam_id":85568392924742820,"keywords":["nocrits","nodmgspread","payload","uncletopia"],"game_id":440,"stv_port":27036,"stv_name":"Uncletopia | New York City | 3 | Stopwatch Beta | STV","players":null},{"server_id":16,"name":"Uncletopia | New York City | 4 | Community","name_short":"nyc-4","host":"nyc-1.us.uncletopia.com","port":27045,"enabled":true,"region":"us-east","cc":"us","latitude":40.73061,"longitude":-73.93524,"reserved":0,"last_update":"0001-01-01T00:00:00Z","name_a2s":"Uncletopia | New York City | 4 | Community","protocol":17,"map":"koth_viaduct","folder":"tf","game":"Team Fortress","app_id":440,"player_count":0,"max_players":24,"Bots":0,"server_type":"Dedicated","server_os":"Linux","password":true,"vac":true,"version":"7742253","steam_id":85568392924742821,"keywords":["cp","nocrits","nodmgspread","uncletopia"],"game_id":440,"stv_port":27046,"stv_name":"Uncletopia | New York City | 4 | Community | STV","players":null},{"server_id":142,"name":"Uncletopia | S√£o Paulo | 1 | All Maps","name_short":"sao-1","host":"sao-1.br.uncletopia.com","port":27015,"enabled":true,"region":"sa","cc":"br","latitude":-23.533773,"longitude":-46.62529,"reserved":0,"last_update":"0001-01-01T00:00:00Z","name_a2s":"Uncletopia | S√£o Paulo | 1 | All Maps","protocol":17,"map":"koth_viaduct","folder":"tf","game":"Team Fortress","app_id":440,"player_count":0,"max_players":24,"Bots":0,"server_type":"Dedicated","server_os":"Linux","password":true,"vac":true,"version":"7742253","steam_id":85568392924469996,"keywords":["cp","nocrits","nodmgspread","uncletopia"],"game_id":440,"stv_port":27016,"stv_name":"Uncletopia | S√£o Paulo | 1 | All Maps | STV","players":null},{"server_id":143,"name":"Uncletopia | S√£o Paulo | 2 | All Maps","name_short":"sao-2","host":"sao-2.br.uncletopia.com","port":27015,"enabled":true,"region":"sa","cc":"br","latitude":-23.533773,"longitude":-46.62529,"reserved":0,"last_update":"0001-01-01T00:00:00Z","name_a2s":"Uncletopia | S√£o Paulo | 2 | All Maps","protocol":17,"map":"koth_viaduct","folder":"tf","game":"Team Fortress","app_id":440,"player_count":0,"max_players":24,"Bots":0,"server_type":"Dedicated","server_os":"Linux","password":true,"vac":true,"version":"7742253","steam_id":85568392924485349,"keywords":["cp","nocrits","nodmgspread","uncletopia"],"game_id":440,"stv_port":27016,"stv_name":"Uncletopia | S√£o Paulo | 2 | All Maps | STV","players":null},{"server_id":7,"name":"Uncletopia | Seattle | 1 | All Maps","name_short":"sea-1","host":"sea-1.us.uncletopia.com","port":27015,"enabled":true,"region":"us-west","cc":"us","latitude":47.608013,"longitude":-122.33517,"reserved":0,"last_update":"0001-01-01T00:00:00Z","name_a2s":"Uncletopia | Seattle | 1 | All Maps","protocol":17,"map":"cp_mossrock","folder":"tf","game":"Team Fortress","app_id":440,"player_count":20,"max_players":24,"Bots":0,"server_type":"Dedicated","server_os":"Linux","password":true,"vac":true,"version":"7742253","steam_id":85568392924469997,"keywords":["cp","nocrits","nodmgspread","uncletopia"],"game_id":440,"stv_port":27016,"stv_name":"Uncletopia | Seattle | 1 | All Maps | STV","players":[{"user_id":90,"name":"WalterMondale_84","steam_id":76561198979196151,"connected_time":450000000000,"state":"active","ping":103},{"user_id":57,"name":"resting neutral face","steam_id":76561197999259502,"connected_time":4178000000000,"state":"active","ping":60},{"user_id":91,"name":"zoo-music girl","steam_id":76561198325306660,"connected_time":159000000000,"state":"active","ping":56},{"user_id":92,"name":"iphone 7 plus","steam_id":76561198335836405,"connected_time":8000000000,"state":"spawning","ping":65},{"user_id":86,"name":"Reposas","steam_id":76561198058803197,"connected_time":844000000000,"state":"active","ping":105},{"user_id":15,"name":"AnonDark","steam_id":76561198293361279,"connected_time":7022000000000,"state":"active","ping":87},{"user_id":93,"name":"Chromatic","steam_id":76561198355976286,"connected_time":0,"state":"spawning","ping":164},{"user_id":18,"name":"nox","steam_id":76561198054390505,"connected_time":6518000000000,"state":"active","ping":94},{"user_id":85,"name":"ayaya?","steam_id":76561199000188109,"connected_time":962000000000,"state":"active","ping":74},{"user_id":52,"name":"fire323","steam_id":76561198057750466,"connected_time":4367000000000,"state":"active","ping":80},{"user_id":87,"name":"WalkinMan","steam_id":76561198047941142,"connected_time":793000000000,"state":"active","ping":53},{"user_id":82,"name":"laggy mcstab","steam_id":76561198106379962,"connected_time":1140000000000,"state":"active","ping":76},{"user_id":88,"name":"Jailbreak","steam_id":76561198802085218,"connected_time":728000000000,"state":"active","ping":97},{"user_id":25,"name":"stinkiest smelliest gamer ever","steam_id":76561198014593467,"connected_time":6129000000000,"state":"active","ping":108},{"user_id":81,"name":"another breloom","steam_id":76561198006938024,"connected_time":1169000000000,"state":"active","ping":58},{"user_id":89,"name":"Tritium","steam_id":76561198043305626,"connected_time":668000000000,"state":"active","ping":68},{"user_id":64,"name":"Daz","steam_id":76561198041431938,"connected_time":3615000000000,"state":"active","ping":121},{"user_id":43,"name":"Nassu","steam_id":76561198147367577,"connected_time":5524000000000,"state":"active","ping":130},{"user_id":80,"name":"THANOPOD!!!!!!!!!!","steam_id":76561198201875359,"connected_time":1665000000000,"state":"active","ping":76},{"user_id":55,"name":"LIFE IS A FUCK","steam_id":76561198025668771,"connected_time":4289000000000,"state":"active","ping":105}]},{"server_id":119,"name":"Uncletopia | Seattle | 2 | All Maps","name_short":"sea-2","host":"sea-1.us.uncletopia.com","port":27025,"enabled":true,"region":"us-west","cc":"us","latitude":47.608013,"longitude":-122.33517,"reserved":0,"last_update":"0001-01-01T00:00:00Z","name_a2s":"Uncletopia | Seattle | 2 | All Maps","protocol":17,"map":"cp_sunshine","folder":"tf","game":"Team Fortress","app_id":440,"player_count":0,"max_players":24,"Bots":0,"server_type":"Dedicated","server_os":"Linux","password":true,"vac":true,"version":"7742253","steam_id":85568392924469998,"keywords":["cp","nocrits","nodmgspread","uncletopia"],"game_id":440,"stv_port":27026,"stv_name":"Uncletopia | Seattle | 2 | All Maps | STV","players":null},{"server_id":406,"name":"Uncletopia | Seattle | 3 | Stopwatch Beta","name_short":"sea-3","host":"sea-1.us.uncletopia.com","port":27035,"enabled":true,"region":"us-west","cc":"us","latitude":47.608013,"longitude":-122.33517,"reserved":0,"last_update":"0001-01-01T00:00:00Z","name_a2s":"Uncletopia | Seattle | 3 | Stopwatch Beta","protocol":17,"map":"cp_altitude","folder":"tf","game":"Team Fortress","app_id":440,"player_count":0,"max_players":24,"Bots":0,"server_type":"Dedicated","server_os":"Linux","password":true,"vac":true,"version":"7742253","steam_id":85568392924515217,"keywords":["cp","nocrits","nodmgspread","uncletopia"],"game_id":440,"stv_port":27036,"stv_name":"Uncletopia | Seattle | 3 | Stopwatch Beta | STV","players":null},{"server_id":17,"name":"Uncletopia | San Francisco | 1 | All Maps","name_short":"sfo-1","host":"sfo-1.us.uncletopia.com","port":27015,"enabled":true,"region":"us-west","cc":"us","latitude":37.77397,"longitude":-122.4313,"reserved":0,"last_update":"0001-01-01T00:00:00Z","name_a2s":"Uncletopia | San Francisco | 1 | All Maps","protocol":17,"map":"pl_snowycoast","folder":"tf","game":"Team Fortress","app_id":440,"player_count":0,"max_players":24,"Bots":0,"server_type":"Dedicated","server_os":"Linux","password":true,"vac":true,"version":"7742253","steam_id":85568392924469999,"keywords":["nocrits","nodmgspread","payload","uncletopia"],"game_id":440,"stv_port":27016,"stv_name":"Uncletopia | San Francisco | 1 | All Maps | STV","players":null},{"server_id":18,"name":"Uncletopia | San Francisco | 2 | All Maps","name_short":"sfo-2","host":"sfo-1.us.uncletopia.com","port":27025,"enabled":true,"region":"us-west","cc":"us","latitude":37.77397,"longitude":-122.4313,"reserved":0,"last_update":"0001-01-01T00:00:00Z","name_a2s":"Uncletopia | San Francisco | 2 | All Maps","protocol":17,"map":"cp_altitude","folder":"tf","game":"Team Fortress","app_id":440,"player_count":0,"max_players":24,"Bots":0,"server_type":"Dedicated","server_os":"Linux","password":true,"vac":true,"version":"7742253","steam_id":85568392924470000,"keywords":["cp","nocrits","nodmgspread","uncletopia"],"game_id":440,"stv_port":27026,"stv_name":"Uncletopia | San Francisco | 2 | All Maps | STV","players":null},{"server_id":19,"name":"Uncletopia | San Francisco | 3 | Stopwatch Beta","name_short":"sfo-3","host":"sfo-1.us.uncletopia.com","port":27035,"enabled":true,"region":"us-west","cc":"us","latitude":37.77397,"longitude":-122.4313,"reserved":0,"last_update":"0001-01-01T00:00:00Z","name_a2s":"Uncletopia | San Francisco | 3 | Stopwatch Beta","protocol":17,"map":"cp_snakewater_final1","folder":"tf","game":"Team Fortress","app_id":440,"player_count":0,"max_players":24,"Bots":0,"server_type":"Dedicated","server_os":"Linux","password":true,"vac":true,"version":"7742253","steam_id":85568392924742824,"keywords":["cp","nocrits","nodmgspread","uncletopia"],"game_id":440,"stv_port":27036,"stv_name":"Uncletopia | San Francisco | 3 | Stopwatch Beta | STV","players":null},{"server_id":20,"name":"Uncletopia | San Francisco | 4 | Community","name_short":"sfo-4","host":"sfo-1.us.uncletopia.com","port":27045,"enabled":true,"region":"us-west","cc":"us","latitude":37.77397,"longitude":-122.4313,"reserved":0,"last_update":"0001-01-01T00:00:00Z","name_a2s":"Uncletopia | San Francisco | 4 | Community","protocol":17,"map":"cp_dustbowl","folder":"tf","game":"Team Fortress","app_id":440,"player_count":0,"max_players":24,"Bots":0,"server_type":"Dedicated","server_os":"Linux","password":true,"vac":true,"version":"7742253","steam_id":85568392924742826,"keywords":["cp","nocrits","nodmgspread","uncletopia"],"game_id":440,"stv_port":27046,"stv_name":"Uncletopia | San Francisco | 4 | Community | STV","players":null},{"server_id":141,"name":"Uncletopia | Sydney | 1 | All Maps","name_short":"syd-1","host":"syd-1.au.uncletopia.com","port":27015,"enabled":true,"region":"au","cc":"au","latitude":-33.865143,"longitude":151.2099,"reserved":0,"last_update":"0001-01-01T00:00:00Z","name_a2s":"Uncletopia | Sydney | 1 | All Maps","protocol":17,"map":"pl_frontier_final","folder":"tf","game":"Team Fortress","app_id":440,"player_count":0,"max_players":24,"Bots":0,"server_type":"Dedicated","server_os":"Linux","password":true,"vac":true,"version":"7742253","steam_id":85568392924470001,"keywords":["nocrits","nodmgspread","payload","uncletopia"],"game_id":440,"stv_port":27016,"stv_name":"Uncletopia | Sydney | 1 | All Maps | STV","players":null},{"server_id":123,"name":"Uncletopia | Sydney | 2 | All Maps","name_short":"syd-2","host":"syd-1.au.uncletopia.com","port":27025,"enabled":true,"region":"au","cc":"au","latitude":-33.865143,"longitude":151.2099,"reserved":0,"last_update":"0001-01-01T00:00:00Z","name_a2s":"Uncletopia | Sydney | 2 | All Maps","protocol":17,"map":"koth_lakeside_final","folder":"tf","game":"Team Fortress","app_id":440,"player_count":0,"max_players":24,"Bots":0,"server_type":"Dedicated","server_os":"Linux","password":true,"vac":true,"version":"7742253","steam_id":85568392924470002,"keywords":["cp","nocrits","nodmgspread","uncletopia"],"game_id":440,"stv_port":27026,"stv_name":"Uncletopia | Sydney | 2 | All Maps | STV","players":null},{"server_id":395,"name":"Uncletopia | Sydney | 3 | All Maps","name_short":"syd-3","host":"syd-1.au.uncletopia.com","port":27035,"enabled":true,"region":"au","cc":"au","latitude":-33.865143,"longitude":151.2099,"reserved":0,"last_update":"0001-01-01T00:00:00Z","name_a2s":"Uncletopia | Sydney | 3 | All Maps","protocol":17,"map":"koth_viaduct","folder":"tf","game":"Team Fortress","app_id":440,"player_count":0,"max_players":24,"Bots":0,"server_type":"Dedicated","server_os":"Linux","password":true,"vac":true,"version":"7742253","steam_id":85568392925194467,"keywords":["cp","nocrits","nodmgspread","uncletopia"],"game_id":440,"stv_port":27036,"stv_name":"Uncletopia | Sydney | 3 | All Maps | STV","players":null},{"server_id":396,"name":"Uncletopia | Sydney | 4 | All Maps","name_short":"syd-4","host":"syd-1.au.uncletopia.com","port":27045,"enabled":true,"region":"au","cc":"au","latitude":-33.865143,"longitude":151.2099,"reserved":0,"last_update":"0001-01-01T00:00:00Z","name_a2s":"Uncletopia | Sydney | 4 | All Maps","protocol":17,"map":"koth_highpass","folder":"tf","game":"Team Fortress","app_id":440,"player_count":0,"max_players":24,"Bots":0,"server_type":"Dedicated","server_os":"Linux","password":true,"vac":true,"version":"7742253","steam_id":85568392925397958,"keywords":["cp","nocrits","nodmgspread","uncletopia"],"game_id":440,"stv_port":27046,"stv_name":"Uncletopia | Sydney | 4 | All Maps | STV","players":null},{"server_id":58,"name":"Uncletopia | Sydney | 5 | Stopwatch Beta","name_short":"syd-5","host":"syd-1.au.uncletopia.com","port":27055,"enabled":true,"region":"au","cc":"au","latitude":-33.865143,"longitude":151.2099,"reserved":0,"last_update":"0001-01-01T00:00:00Z","name_a2s":"Uncletopia | Sydney | 5 | Stopwatch Beta","protocol":17,"map":"workshop/koth_product_final.ugc454272353","folder":"tf","game":"Team Fortress","app_id":440,"player_count":0,"max_players":24,"Bots":0,"server_type":"Dedicated","server_os":"Linux","password":true,"vac":true,"version":"7742253","steam_id":85568392925397959,"keywords":["cp","nocrits","nodmgspread","uncletopia"],"game_id":440,"stv_port":27056,"stv_name":"Uncletopia | Sydney | 5 | Stopwatch Beta | STV","players":null},{"server_id":59,"name":"Uncletopia | Sydney | 6 | Community","name_short":"syd-6","host":"syd-1.au.uncletopia.com","port":27065,"enabled":true,"region":"au","cc":"au","latitude":-33.865143,"longitude":151.2099,"reserved":0,"last_update":"0001-01-01T00:00:00Z","name_a2s":"Uncletopia | Sydney | 6 | Community","protocol":17,"map":"workshop/cp_overgrown_rc7b.ugc503939302","folder":"tf","game":"Team Fortress","app_id":440,"player_count":0,"max_players":24,"Bots":0,"server_type":"Dedicated","server_os":"Linux","password":true,"vac":true,"version":"7742253","steam_id":85568392925397960,"keywords":["cp","nocrits","nodmgspread","uncletopia"],"game_id":440,"stv_port":27066,"stv_name":"Uncletopia | Sydney | 6 | Community | STV","players":null},{"server_id":49,"name":"Uncletopia | Warsaw | 1 | All Maps","name_short":"waw-1","host":"waw-1.pl.uncletopia.com","port":27015,"enabled":true,"region":"eu","cc":"pl","latitude":52.2297,"longitude":21.017532,"reserved":0,"last_update":"0001-01-01T00:00:00Z","name_a2s":"","protocol":0,"map":"","folder":"","game":"","app_id":0,"player_count":0,"max_players":0,"Bots":0,"server_type":"","server_os":"","password":false,"vac":false,"version":"","steam_id":0,"keywords":null,"game_id":0,"stv_port":0,"stv_name":"","players":null},{"server_id":50,"name":"Uncletopia | Warsaw | 2 | All Maps","name_short":"waw-2","host":"waw-1.pl.uncletopia.com","port":27025,"enabled":true,"region":"eu","cc":"pl","latitude":52.2297,"longitude":21.017532,"reserved":0,"last_update":"0001-01-01T00:00:00Z","name_a2s":"Uncletopia | Warsaw | 2 | All Maps","protocol":17,"map":"cp_dustbowl","folder":"tf","game":"Team Fortress","app_id":440,"player_count":0,"max_players":24,"Bots":0,"server_type":"Dedicated","server_os":"Linux","password":true,"vac":true,"version":"7742253","steam_id":85568392925397851,"keywords":["cp","nocrits","nodmgspread","uncletopia"],"game_id":440,"stv_port":27026,"stv_name":"Uncletopia | Warsaw | 2 | All Maps | STV","players":null},{"server_id":51,"name":"Uncletopia | Warsaw | 3 | All Maps","name_short":"waw-3","host":"waw-1.pl.uncletopia.com","port":27035,"enabled":true,"region":"eu","cc":"pl","latitude":52.2297,"longitude":21.017532,"reserved":0,"last_update":"0001-01-01T00:00:00Z","name_a2s":"Uncletopia | Warsaw | 3 | All Maps","protocol":17,"map":"pl_snowycoast","folder":"tf","game":"Team Fortress","app_id":440,"player_count":0,"max_players":24,"Bots":0,"server_type":"Dedicated","server_os":"Linux","password":true,"vac":true,"version":"7742253","steam_id":85568392925397852,"keywords":["nocrits","nodmgspread","payload","uncletopia"],"game_id":440,"stv_port":27036,"stv_name":"Uncletopia | Warsaw | 3 | All Maps | STV","players":null},{"server_id":52,"name":"Uncletopia | Warsaw | 4 | All Maps","name_short":"waw-4","host":"waw-1.pl.uncletopia.com","port":27045,"enabled":true,"region":"eu","cc":"pl","latitude":52.2297,"longitude":21.017532,"reserved":0,"last_update":"0001-01-01T00:00:00Z","name_a2s":"Uncletopia | Warsaw | 4 | All Maps","protocol":17,"map":"cp_sunshine","folder":"tf","game":"Team Fortress","app_id":440,"player_count":0,"max_players":24,"Bots":0,"server_type":"Dedicated","server_os":"Linux","password":true,"vac":true,"version":"7742253","steam_id":85568392925397853,"keywords":["cp","nocrits","nodmgspread","uncletopia"],"game_id":440,"stv_port":27046,"stv_name":"Uncletopia | Warsaw | 4 | All Maps | STV","players":null},{"server_id":53,"name":"Uncletopia | Warsaw | 5 | Stopwatch Beta","name_short":"waw-5","host":"waw-1.pl.uncletopia.com","port":27055,"enabled":true,"region":"eu","cc":"pl","latitude":52.2297,"longitude":21.017532,"reserved":0,"last_update":"0001-01-01T00:00:00Z","name_a2s":"Uncletopia | Warsaw | 5 | Stopwatch Beta","protocol":17,"map":"pl_swiftwater_final1","folder":"tf","game":"Team Fortress","app_id":440,"player_count":0,"max_players":24,"Bots":0,"server_type":"Dedicated","server_os":"Linux","password":true,"vac":true,"version":"7742253","steam_id":85568392925397854,"keywords":["nocrits","nodmgspread","payload","uncletopia"],"game_id":440,"stv_port":27056,"stv_name":"Uncletopia | Warsaw | 5 | Stopwatch Beta | STV","players":null},{"server_id":54,"name":"Uncletopia | Warsaw | 6 | Community","name_short":"waw-6","host":"waw-1.pl.uncletopia.com","port":27065,"enabled":true,"region":"eu","cc":"pl","latitude":52.2297,"longitude":21.017532,"reserved":0,"last_update":"0001-01-01T00:00:00Z","name_a2s":"Uncletopia | Warsaw | 6 | Community","protocol":17,"map":"workshop/cp_overgrown_rc7b.ugc503939302","folder":"tf","game":"Team Fortress","app_id":440,"player_count":16,"max_players":24,"Bots":0,"server_type":"Dedicated","server_os":"Linux","password":true,"vac":true,"version":"7742253","steam_id":85568392925397856,"keywords":["cp","nocrits","nodmgspread","uncletopia"],"game_id":440,"stv_port":27066,"stv_name":"Uncletopia | Warsaw | 6 | Community | STV","players":[{"user_id":118,"name":"Average meme enjoyer","steam_id":76561199087566663,"connected_time":2062000000000,"state":"connecting","ping":80},{"user_id":138,"name":"PerskuleBenener","steam_id":76561198156899375,"connected_time":636000000000,"state":"connecting","ping":113},{"user_id":139,"name":"Welder","steam_id":76561198355300561,"connected_time":547000000000,"state":"connecting","ping":96},{"user_id":119,"name":"SoberOnion","steam_id":76561198987711995,"connected_time":1921000000000,"state":"connecting","ping":57},{"user_id":133,"name":"Krof enjoyer","steam_id":76561199101777637,"connected_time":1126000000000,"state":"connecting","ping":107},{"user_id":122,"name":"80riNG","steam_id":76561198047647460,"connected_time":1847000000000,"state":"connecting","ping":79},{"user_id":141,"name":"Delab Le Fou","steam_id":76561198846356572,"connected_time":199000000000,"state":"connecting","ping":137},{"user_id":134,"name":"Vi","steam_id":76561198025906485,"connected_time":1030000000000,"state":"connecting","ping":204},{"user_id":135,"name":"MartiMilkMan","steam_id":76561198124554595,"connected_time":1018000000000,"state":"connecting","ping":274},{"user_id":142,"name":"Rodia","steam_id":76561197968293161,"connected_time":183000000000,"state":"connecting","ping":43},{"user_id":136,"name":"TheArchitect2207","steam_id":76561199136784800,"connected_time":989000000000,"state":"connecting","ping":94},{"user_id":143,"name":"Jasza","steam_id":76561198169456836,"connected_time":161000000000,"state":"connecting","ping":60},{"user_id":144,"name":"Amon Gus","steam_id":76561199094540960,"connected_time":78000000000,"state":"connecting","ping":89},{"user_id":145,"name":"Dimes","steam_id":76561198948497014,"connected_time":26000000000,"state":"connecting","ping":131}]}]}