{"status":true,"message":"","result":[{"server_id":9,"name":"Uncletopia | Atlanta | 1 | All Maps","name_short":"atl-1","host":"atl-1.us.uncletopia.com","port":27015,"enabled":true,"region":"us-east","cc":"us","latitude":33.753746,"longitude":-84.38633,"reserved":0,"last_update":"0001-01-01T00:00:00Z","name_a2s":"Uncletopia | Atlanta | 1 | All Maps","protocol":17,"map":"cp_egypt_final","folder":"tf","game":"Team Fortress","app_id":440,"player_count":24,"max_players":24,"Bots":0,"server_type":"Dedicated","server_os":"Linux","password":true,"vac":true,"version":"7961495","steam_id":85568392924469982,"keywords":["cp","nocrits","nodmgspread","uncletopia"],"game_id":440,"stv_port":27016,"stv_name":"Uncletopia | Atlanta | 1 | All Maps | STV","players":[{"user_id":156,"name":"mio","steam_id":76561198239286750,"connected_time":3243000000000,"state":"active","ping":68},{"user_id":201,"name":"Icaras","steam_id":76561198416724843,"connected_time":815000000000,"state":"active","ping":124},{"user_id":188,"name":"Lylith!!!","steam_id":76561198386687546,"connected_time":1607000000000,"state":"active","ping":55},{"user_id":190,"name":"Ok-Par","steam_id":76561199221067945,"connected_time":1585000000000,"state":"active","ping":79},{"user_id":160,"name":"ATL 1 | Save your wifi","steam_id":76561198286147372,"connected_time":3186000000000,"state":"active","ping":60},{"user_id":193,"name":"Dractyl","steam_id":76561198034661004,"connected_time":1285000000000,"state":"active","ping":164},{"user_id":172,"name":"[CC] snh","steam_id":76561199489391928,"connected_time":2136000000000,"state":"active","ping":68},{"user_id":180,"name":"Heathcliff","steam_id":76561198044288534,"connected_time":2015000000000,"state":"active","ping":76},{"user_id":184,"name":"Le4n!!!","steam_id":76561198045522596,"connected_time":1802000000000,"state":"active","ping":62},{"user_id":81,"name":"sansa musa","steam_id":76561198163723555,"connected_time":10887000000000,"state":"active","ping":83},{"user_id":203,"name":"Dreszerg","steam_id":76561198838757422,"connected_time":604000000000,"state":"active","ping":85},{"user_id":129,"name":"ATL1 | cola","steam_id":76561198374390458,"connected_time":6729000000000,"state":"active","ping":71},{"user_id":181,"name":"lil hog","steam_id":76561199230929836,"connected_time":2015000000000,"state":"active","ping":85},{"user_id":195,"name":"kartoffel","steam_id":76561199301833092,"connected_time":1205000000000,"state":"active","ping":91},{"user_id":154,"name":"Albino Jellyfish","steam_id":76561198208561097,"connected_time":3266000000000,"state":"active","ping":60},{"user_id":165,"name":"vv","steam_id":76561198134813102,"connected_time":2643000000000,"state":"active","ping":89},{"user_id":191,"name":"The Undead Knight","steam_id":76561198010654500,"connected_time":1565000000000,"state":"active","ping":69},{"user_id":187,"name":"Sleepy Sounds","steam_id":76561198397009880,"connected_time":1698000000000,"state":"active","ping":53},{"user_id":103,"name":"freyja","steam_id":76561198249206656,"connected_time":9482000000000,"state":"active","ping":90},{"user_id":186,"name":"twitch.tv/kegaman_","steam_id":76561198043632775,"connected_time":1741000000000,"state":"active","ping":116},{"user_id":198,"name":"johnny wang","steam_id":76561198969143876,"connected_time":1026000000000,"state":"active","ping":67},{"user_id":194,"name":"Shame","steam_id":76561198100490994,"connected_time":1252000000000,"state":"active","ping":66},{"user_id":211,"name":"creeeeeee","steam_id":76561198392539722,"connected_time":396000000000,"state":"active","ping":93},{"user_id":177,"name":"Dragus","steam_id":76561198032967285,"connected_time":2022000000000,"state":"active","ping":74}]},{"server_id":104,"name":"Uncletopia | Atlanta | 2 | All Maps","name_short":"atl-2","host":"atl-1.us.uncletopia.com","port":27025,"enabled":true,"region":"us-east","cc":"us","latitude":33.753746,"longitude":-84.38633,"reserved":0,"last_update":"0001-01-01T00:00:00Z","name_a2s":"Uncletopia | Atlanta | 2 | All Maps","protocol":17,"map":"ctf_2fort","folder":"tf","game":"Team Fortress","app_id":440,"player_count":24,"max_players":24,"Bots":0,"server_type":"Dedicated","server_os":"Linux","password":true,"vac":true,"version":"7961495","steam_id":85568392924469983,"keywords":["ctf","nocrits","nodmgspread","uncletopia"],"game_id":440,"stv_port":27026,"stv_name":"Uncletopia | Atlanta | 2 | All Maps | STV","players":[{"user_id":416,"name":"feed me bugs","steam_id":76561198299344836,"connected_time":387000000000,"state":"active","ping":78},{"user_id":421,"name":"Armitage Shanks","steam_id":76561198129755592,"connected_time":90000000000,"state":"active","ping":133},{"user_id":343,"name":"oopsboom24","steam_id":76561199105248648,"connected_time":4303000000000,"state":"active","ping":58},{"user_id":385,"name":"SCraig64","steam_id":76561198171251965,"connected_time":2434000000000,"state":"active","ping":60},{"user_id":418,"name":"Moeseph Stalin","steam_id":76561198202453240,"connected_time":144000000000,"state":"active","ping":174},{"user_id":358,"name":"Mouse is fixed","steam_id":76561198798176670,"connected_time":4102000000000,"state":"active","ping":61},{"user_id":397,"name":"Leeous","steam_id":76561198081083248,"connected_time":1481000000000,"state":"active","ping":78},{"user_id":347,"name":"Tomoko2001","steam_id":76561198047117990,"connected_time":4286000000000,"state":"active","ping":82},{"user_id":386,"name":"Charlie","steam_id":76561198798127908,"connected_time":2235000000000,"state":"active","ping":80},{"user_id":390,"name":"SpongedSocks","steam_id":76561198374009086,"connected_time":1708000000000,"state":"active","ping":70},{"user_id":401,"name":"Blank_sicon","steam_id":76561198887041407,"connected_time":1108000000000,"state":"active","ping":69},{"user_id":413,"name":"Oxygen User","steam_id":76561199111975528,"connected_time":785000000000,"state":"active","ping":67},{"user_id":404,"name":"Chase McCain","steam_id":76561198314538469,"connected_time":1014000000000,"state":"active","ping":81},{"user_id":406,"name":"celestia ludenberg","steam_id":76561199196437823,"connected_time":996000000000,"state":"active","ping":129},{"user_id":398,"name":"cfamadas","steam_id":76561199055881965,"connected_time":1477000000000,"state":"active","ping":90},{"user_id":412,"name":"Rumble","steam_id":76561199170926322,"connected_time":843000000000,"state":"active","ping":89},{"user_id":414,"name":"Propaniac Gaming ☑","steam_id":76561198133963270,"connected_time":781000000000,"state":"active","ping":45},{"user_id":417,"name":"twizted","steam_id":76561197960407274,"connected_time":342000000000,"state":"active","ping":89},{"user_id":419,"name":"Rin \"Hindwing\" Redtail","steam_id":76561199074865638,"connected_time":139000000000,"state":"active","ping":59},{"user_id":408,"name":"Scrux","steam_id":76561198129763115,"connected_time":972000000000,"state":"active","ping":108},{"user_id":357,"name":"Miranha Noia","steam_id":76561198195613990,"connected_time":4138000000000,"state":"active","ping":167},{"user_id":420,"name":"Moe Jogan","steam_id":76561198043536092,"connected_time":138000000000,"state":"active","ping":144},{"user_id":384,"name":"olivia","steam_id":76561198288130849,"connected_time":2442000000000,"state":"active","ping":80},{"user_id":400,"name":"CheetoSmoke7","steam_id":76561198095217273,"connected_time":1147000000000,"state":"active","ping":59}]},{"server_id":400,"name":"Uncletopia | Atlanta | 3 | Stopwatch","name_short":"atl-3","host":"atl-1.us.uncletopia.com","port":27035,"enabled":true,"region":"us-east","cc":"us","latitude":33.753746,"longitude":-84.38633,"reserved":0,"last_update":"0001-01-01T00:00:00Z","name_a2s":"Uncletopia | Atlanta | 3 | Stopwatch","protocol":17,"map":"koth_lakeside_final","folder":"tf","game":"Team Fortress","app_id":440,"player_count":24,"max_players":24,"Bots":0,"server_type":"Dedicated","server_os":"Linux","password":true,"vac":true,"version":"7961495","steam_id":85568392924515187,"keywords":["cp","nocrits","nodmgspread","uncletopia"],"game_id":440,"stv_port":27036,"stv_name":"Uncletopia | Atlanta | 3 | Stopwatch | STV","players":[{"user_id":46,"name":"garfield","steam_id":76561198114119308,"connected_time":216000000000,"state":"active","ping":45},{"user_id":18,"name":"chrisd149","steam_id":76561198018710480,"connected_time":1266000000000,"state":"active","ping":60},{"user_id":10,"name":"Mask","steam_id":76561198877649728,"connected_time":2235000000000,"state":"active","ping":124},{"user_id":15,"name":"mge elitist","steam_id":76561199467334502,"connected_time":1453000000000,"state":"active","ping":101},{"user_id":25,"name":"rocket1714","steam_id":76561198255152396,"connected_time":741000000000,"state":"active","ping":73},{"user_id":48,"name":"Mentally Ill Woman","steam_id":76561198072030567,"connected_time":138000000000,"state":"active","ping":67},{"user_id":23,"name":"Try Gardening","steam_id":76561198120311340,"connected_time":909000000000,"state":"active","ping":60},{"user_id":26,"name":"vinny6","steam_id":76561198386735728,"connected_time":674000000000,"state":"active","ping":67},{"user_id":27,"name":"Uncle Leo From Seinfeld (Real)","steam_id":76561199102009679,"connected_time":606000000000,"state":"active","ping":75},{"user_id":28,"name":"Chelsea.","steam_id":76561198405299137,"connected_time":571000000000,"state":"active","ping":58},{"user_id":29,"name":"Oober Jackalope","steam_id":76561198285747760,"connected_time":526000000000,"state":"active","ping":122},{"user_id":31,"name":"BeyondEffect","steam_id":76561198061017324,"connected_time":506000000000,"state":"active","ping":64},{"user_id":33,"name":"Drake the Pixel","steam_id":76561198131824401,"connected_time":499000000000,"state":"active","ping":60},{"user_id":34,"name":"Mamas Texas Chicken","steam_id":76561199156409732,"connected_time":443000000000,"state":"active","ping":59},{"user_id":35,"name":"Mixed Up","steam_id":76561198042570322,"connected_time":412000000000,"state":"active","ping":75},{"user_id":36,"name":"ImTheRadicalLeft","steam_id":76561198355324064,"connected_time":408000000000,"state":"active","ping":125},{"user_id":37,"name":"MichaelBurger2","steam_id":76561198151131323,"connected_time":307000000000,"state":"active","ping":77},{"user_id":38,"name":"SlurpyTheDog","steam_id":76561198799733154,"connected_time":288000000000,"state":"active","ping":60},{"user_id":45,"name":"when","steam_id":76561198443289583,"connected_time":232000000000,"state":"active","ping":75},{"user_id":40,"name":"Boot Mcstink","steam_id":76561199226873917,"connected_time":282000000000,"state":"active","ping":74},{"user_id":41,"name":"Grimprr","steam_id":76561198275816797,"connected_time":260000000000,"state":"active","ping":79},{"user_id":42,"name":"coda","steam_id":76561198092052685,"connected_time":250000000000,"state":"active","ping":62},{"user_id":43,"name":"Hai","steam_id":76561199168680069,"connected_time":242000000000,"state":"active","ping":59},{"user_id":47,"name":"Nubert","steam_id":76561198990445167,"connected_time":188000000000,"state":"active","ping":55}]},{"server_id":401,"name":"Uncletopia | Atlanta | 4 | Community","name_short":"atl-4","host":"atl-1.us.uncletopia.com","port":27045,"enabled":true,"region":"us-east","cc":"us","latitude":33.753746,"longitude":-84.38633,"reserved":0,"last_update":"0001-01-01T00:00:00Z","name_a2s":"Uncletopia | Atlanta | 4 | Community","protocol":17,"map":"workshop/pl_phoenix_b4a.ugc2969509359","folder":"tf","game":"Team Fortress","app_id":440,"player_count":0,"max_players":24,"Bots":0,"server_type":"Dedicated","server_os":"Linux","password":true,"vac":true,"version":"7961495","steam_id":85568392924515188,"keywords":["nocrits","nodmgspread","payload","uncletopia"],"game_id":440,"stv_port":27046,"stv_name":"Uncletopia | Atlanta | 4 | Community | STV","players":null},{"server_id":2,"name":"Uncletopia | Chicago | 1 | All Maps","name_short":"chi-1","host":"chi-1.us.uncletopia.com","port":27015,"enabled":true,"region":"us-central","cc":"us","latitude":41.881832,"longitude":-87.62318,"reserved":0,"last_update":"0001-01-01T00:00:00Z","name_a2s":"Uncletopia | Chicago | 1 | All Maps","protocol":17,"map":"cp_steel","folder":"tf","game":"Team Fortress","app_id":440,"player_count":24,"max_players":24,"Bots":0,"server_type":"Dedicated","server_os":"Linux","password":true,"vac":true,"version":"7961495","steam_id":85568392924469984,"keywords":["cp","nocrits","nodmgspread","uncletopia"],"game_id":440,"stv_port":27016,"stv_name":"Uncletopia | Chicago | 1 | All Maps | STV","players":[{"user_id":160,"name":"Orb","steam_id":76561198353963523,"connected_time":5229000000000,"state":"active","ping":90},{"user_id":232,"name":"Mellow Yellow","steam_id":76561198406276981,"connected_time":15000000000,"state":"spawning","ping":52},{"user_id":199,"name":"Jack","steam_id":76561198079575891,"connected_time":1963000000000,"state":"active","ping":135},{"user_id":157,"name":"blob","steam_id":76561198122375328,"connected_time":5901000000000,"state":"active","ping":54},{"user_id":218,"name":"MikeLovesRabbit","steam_id":76561197997742625,"connected_time":923000000000,"state":"active","ping":68},{"user_id":220,"name":"neil","steam_id":76561198122666918,"connected_time":729000000000,"state":"active","ping":62},{"user_id":205,"name":"Maxwell Gaming","steam_id":76561199100160919,"connected_time":1770000000000,"state":"active","ping":85},{"user_id":223,"name":"Oni","steam_id":76561198112066584,"connected_time":636000000000,"state":"active","ping":61},{"user_id":189,"name":"Mandorin Moranges","steam_id":76561198277645423,"connected_time":2401000000000,"state":"active","ping":62},{"user_id":216,"name":"✪ Whales","steam_id":76561198064458078,"connected_time":1044000000000,"state":"active","ping":63},{"user_id":229,"name":"YOU WHAT?!","steam_id":76561198418679471,"connected_time":279000000000,"state":"active","ping":64},{"user_id":211,"name":"M","steam_id":76561198174958927,"connected_time":1393000000000,"state":"active","ping":86},{"user_id":164,"name":"Big Donnie","steam_id":76561198396789061,"connected_time":3951000000000,"state":"active","ping":74},{"user_id":166,"name":"ThatGamingKiwi","steam_id":76561199170522237,"connected_time":3567000000000,"state":"active","ping":76},{"user_id":209,"name":"Thoughtfully Ignorant","steam_id":76561199509991902,"connected_time":1594000000000,"state":"active","ping":52},{"user_id":222,"name":"Huloon","steam_id":76561198070837568,"connected_time":649000000000,"state":"active","ping":74},{"user_id":230,"name":"DeadErebus","steam_id":76561198286117045,"connected_time":275000000000,"state":"active","ping":42},{"user_id":217,"name":"Stacks63bs","steam_id":76561198067797130,"connected_time":1028000000000,"state":"active","ping":81},{"user_id":201,"name":"gamerfan539","steam_id":76561198803527852,"connected_time":1940000000000,"state":"active","ping":62},{"user_id":208,"name":"Mr.Frundles","steam_id":76561198134559026,"connected_time":1629000000000,"state":"active","ping":73},{"user_id":231,"name":"Fearex08","steam_id":76561199504317885,"connected_time":273000000000,"state":"active","ping":149},{"user_id":134,"name":"Chadmander","steam_id":76561197974136337,"connected_time":7708000000000,"state":"active","ping":41},{"user_id":195,"name":"Kilphax","steam_id":76561197993814144,"connected_time":2157000000000,"state":"active","ping":62},{"user_id":226,"name":"V. G. Sunderland","steam_id":76561198161839980,"connected_time":325000000000,"state":"active","ping":60}]},{"server_id":106,"name":"Uncletopia | Chicago | 2 | All Maps","name_short":"chi-2","host":"chi-1.us.uncletopia.com","port":27025,"enabled":true,"region":"us-central","cc":"us","latitude":41.881832,"longitude":-87.62318,"reserved":0,"last_update":"0001-01-01T00:00:00Z","name_a2s":"Uncletopia | Chicago | 2 | All Maps","protocol":17,"map":"cp_mountainlab","folder":"tf","game":"Team Fortress","app_id":440,"player_count":0,"max_players":24,"Bots":0,"server_type":"Dedicated","server_os":"Linux","password":true,"vac":true,"version":"7961495","steam_id":85568392924469985,"keywords":["cp","nocrits","nodmgspread","uncletopia"],"game_id":440,"stv_port":27026,"stv_name":"Uncletopia | Chicago | 2 | All Maps | STV","players":null},{"server_id":402,"name":"Uncletopia | Chicago | 3 | All Maps","name_short":"chi-3","host":"chi-1.us.uncletopia.com","port":27035,"enabled":true,"region":"us-central","cc":"us","latitude":41.881832,"longitude":-87.62318,"reserved":0,"last_update":"0001-01-01T00:00:00Z","name_a2s":"Uncletopia | Chicago | 3 | All Maps","protocol":17,"map":"plr_pipeline","folder":"tf","game":"Team Fortress","app_id":440,"player_count":24,"max_players":24,"Bots":0,"server_type":"Dedicated","server_os":"Linux","password":true,"vac":true,"version":"7961495","steam_id":85568392924515191,"keywords":["nocrits","nodmgspread","payload","uncletopia"],"game_id":440,"stv_port":27036,"stv_name":"Uncletopia | Chicago | 3 | All Maps | STV","players":[{"user_id":285,"name":"GUH","steam_id":76561199013202758,"connected_time":657000000000,"state":"active","ping":92},{"user_id":267,"name":"yair_1302","steam_id":76561199193064727,"connected_time":914000000000,"state":"active","ping":51},{"user_id":301,"name":"StompOnMeTTV","steam_id":76561199059396006,"connected_time":47000000000,"state":"active","ping":65},{"user_id":286,"name":"NukaColaHunter","steam_id":76561198078637492,"connected_time":652000000000,"state":"active","ping":67},{"user_id":269,"name":"scrotal recall","steam_id":76561198135945598,"connected_time":864000000000,"state":"active","ping":81},{"user_id":270,"name":"doog","steam_id":76561198136444198,"connected_time":842000000000,"state":"active","ping":70},{"user_id":272,"name":"gretchling","steam_id":76561198046111695,"connected_time":831000000000,"state":"active","ping":64},{"user_id":287,"name":"kevin minion","steam_id":76561198801147541,"connected_time":633000000000,"state":"active","ping":72},{"user_id":293,"name":"PageBoiSkull","steam_id":76561198237353578,"connected_time":489000000000,"state":"active","ping":95},{"user_id":297,"name":"Skyline","steam_id":76561198018382060,"connected_time":320000000000,"state":"active","ping":60},{"user_id":289,"name":"Yezman","steam_id":76561198138857306,"connected_time":616000000000,"state":"active","ping":53},{"user_id":295,"name":"Nega Goku","steam_id":76561198841559088,"connected_time":446000000000,"state":"active","ping":63},{"user_id":298,"name":"CynnyminRoll","steam_id":76561198209253427,"connected_time":249000000000,"state":"active","ping":74},{"user_id":296,"name":"Alpha","steam_id":76561199482290132,"connected_time":413000000000,"state":"active","ping":72},{"user_id":278,"name":"Sicko Mode (Chris Pratt Cover)","steam_id":76561198315786174,"connected_time":770000000000,"state":"active","ping":1163},{"user_id":239,"name":"Jelqing Table","steam_id":76561198051373750,"connected_time":3604000000000,"state":"active","ping":62},{"user_id":279,"name":"Griffin","steam_id":76561198159339442,"connected_time":754000000000,"state":"active","ping":68},{"user_id":294,"name":"A damien","steam_id":76561198174767478,"connected_time":467000000000,"state":"active","ping":91},{"user_id":282,"name":"Kaestal","steam_id":76561198033174157,"connected_time":727000000000,"state":"active","ping":73},{"user_id":258,"name":"The Idiot","steam_id":76561198049837377,"connected_time":2385000000000,"state":"active","ping":51},{"user_id":228,"name":"NovaGenetics","steam_id":76561198048539287,"connected_time":4292000000000,"state":"active","ping":83},{"user_id":283,"name":"Ruins","steam_id":76561198140372785,"connected_time":702000000000,"state":"active","ping":58},{"user_id":284,"name":"Ignalis","steam_id":76561198025662927,"connected_time":695000000000,"state":"active","ping":68},{"user_id":299,"name":"Team Fortress","steam_id":76561198058722801,"connected_time":213000000000,"state":"active","ping":145}]},{"server_id":403,"name":"Uncletopia | Chicago | 4 | All Maps","name_short":"chi-4","host":"chi-1.us.uncletopia.com","port":27045,"enabled":true,"region":"us-central","cc":"us","latitude":41.881832,"longitude":-87.62318,"reserved":0,"last_update":"0001-01-01T00:00:00Z","name_a2s":"Uncletopia | Chicago | 4 | All Maps","protocol":17,"map":"koth_viaduct","folder":"tf","game":"Team Fortress","app_id":440,"player_count":0,"max_players":24,"Bots":0,"server_type":"Dedicated","server_os":"Linux","password":true,"vac":true,"version":"7961495","steam_id":85568392924515193,"keywords":["cp","nocrits","nodmgspread","uncletopia"],"game_id":440,"stv_port":27046,"stv_name":"Uncletopia | Chicago | 4 | All Maps | STV","players":null},{"server_id":36,"name":"Uncletopia | Chicago | 5 | All Maps","name_short":"chi-5","host":"chi-2.us.uncletopia.com","port":27015,"enabled":true,"region":"us-central","cc":"us","latitude":41.881832,"longitude":-87.62318,"reserved":0,"last_update":"0001-01-01T00:00:00Z","name_a2s":"Uncletopia | Chicago | 5 | All Maps","protocol":17,"map":"cp_altitude","folder":"tf","game":"Team Fortress","app_id":440,"player_count":0,"max_players":24,"Bots":0,"server_type":"Dedicated","server_os":"Linux","password":true,"vac":true,"version":"7961495","steam_id":85568392924866362,"keywords":["cp","nocrits","nodmgspread","uncletopia"],"game_id":440,"stv_port":27016,"stv_name":"Uncletopia | Chicago | 5 | All Maps | STV","players":null},{"server_id":37,"name":"Uncletopia | Chicago | 6 | All Maps","name_short":"chi-6","host":"chi-2.us.uncletopia.com","port":27025,"enabled":true,"region":"us-central","cc":"us","latitude":41.881832,"longitude":-87.62318,"reserved":0,"last_update":"0001-01-01T00:00:00Z","name_a2s":"Uncletopia | Chicago | 6 | All Maps","protocol":17,"map":"pl_barnblitz","folder":"tf","game":"Team Fortress","app_id":440,"player_count":0,"max_players":24,"Bots":0,"server_type":"Dedicated","server_os":"Linux","password":true,"vac":true,"version":"7961495","steam_id":85568392924866363,"keywords":["nocrits","nodmgspread","payload","uncletopia"],"game_id":440,"stv_port":27026,"stv_name":"Uncletopia | Chicago | 6 | All Maps | STV","players":null},{"server_id":38,"name":"Uncletopia | Chicago | 7 | Stopwatch","name_short":"chi-7","host":"chi-2.us.uncletopia.com","port":27035,"enabled":true,"region":"us-central","cc":"us","latitude":41.881832,"longitude":-87.62318,"reserved":0,"last_update":"0001-01-01T00:00:00Z","name_a2s":"Uncletopia | Chicago | 7 | Stopwatch","protocol":17,"map":"workshop/koth_ashville_final.ugc2130459942","folder":"tf","game":"Team Fortress","app_id":440,"player_count":0,"max_players":24,"Bots":0,"server_type":"Dedicated","server_os":"Linux","password":true,"vac":true,"version":"7961495","steam_id":85568392924866364,"keywords":["cp","nocrits","nodmgspread","uncletopia"],"game_id":440,"stv_port":27036,"stv_name":"Uncletopia | Chicago | 7 | Stopwatch | STV","players":null},{"server_id":39,"name":"Uncletopia | Chicago | 8 | Community","name_short":"chi-8","host":"chi-2.us.uncletopia.com","port":27045,"enabled":true,"region":"us-central","cc":"us","latitude":41.881832,"longitude":-87.62318,"reserved":0,"last_update":"0001-01-01T00:00:00Z","name_a2s":"Uncletopia | Chicago | 8 | Community","protocol":17,"map":"workshop/pl_emerge_rc2.ugc888027758","folder":"tf","game":"Team Fortress","app_id":440,"player_count":0,"max_players":24,"Bots":0,"server_type":"Dedicated","server_os":"Linux","password":true,"vac":true,"version":"7961495","steam_id":85568392924866365,"keywords":["nocrits","nodmgspread","payload","uncletopia"],"game_id":440,"stv_port":27046,"stv_name":"Uncletopia | Chicago | 8 | Community | STV","players":null},{"server_id":8,"name":"Uncletopia | Dallas | 1 | All Maps","name_short":"dal-1","host":"dal-1.us.uncletopia.com","port":27015,"enabled":true,"region":"us-central","cc":"us","latitude":32.779167,"longitude":-96.80889,"reserved":0,"last_update":"0001-01-01T00:00:00Z","name_a2s":"Uncletopia | Dallas | 1 | All Maps","protocol":17,"map":"cp_gullywash_final1","folder":"tf","game":"Team Fortress","app_id":440,"player_count":23,"max_players":24,"Bots":0,"server_type":"Dedicated","server_os":"Linux","password":true,"vac":true,"version":"7961495","steam_id":85568392924469986,"keywords":["cp","nocrits","nodmgspread","uncletopia"],"game_id":440,"stv_port":27016,"stv_name":"Uncletopia | Dallas | 1 | All Maps | STV","players":[{"user_id":479,"name":"Lord Scrubling","steam_id":76561198263744445,"connected_time":1787000000000,"state":"active","ping":53},{"user_id":490,"name":"luigigario","steam_id":76561198881262416,"connected_time":871000000000,"state":"active","ping":95},{"user_id":297,"name":"jojo","steam_id":76561199509297015,"connected_time":9845000000000,"state":"active","ping":91},{"user_id":478,"name":"Tec-9 Fubar","steam_id":76561198403649648,"connected_time":1841000000000,"state":"active","ping":76},{"user_id":492,"name":"Cave Dweller","steam_id":76561198374825685,"connected_time":809000000000,"state":"active","ping":96},{"user_id":475,"name":"Pvt. Dimitri Petrenko","steam_id":76561198078040091,"connected_time":2645000000000,"state":"active","ping":61},{"user_id":460,"name":"PurplePond","steam_id":76561199062421006,"connected_time":3511000000000,"state":"active","ping":69},{"user_id":477,"name":"Can You Feel It Mr.Krabs","steam_id":76561198128302414,"connected_time":1880000000000,"state":"active","ping":71},{"user_id":491,"name":"wave papi","steam_id":76561198097555558,"connected_time":825000000000,"state":"active","ping":84},{"user_id":504,"name":"Mr.Pwesident","steam_id":76561198058114703,"connected_time":150000000000,"state":"active","ping":90},{"user_id":466,"name":"*-*","steam_id":76561199433913176,"connected_time":3415000000000,"state":"active","ping":75},{"user_id":497,"name":"myyuo","steam_id":76561198155659357,"connected_time":520000000000,"state":"active","ping":75},{"user_id":426,"name":"mrpineapple070","steam_id":76561199088278757,"connected_time":4416000000000,"state":"active","ping":62},{"user_id":344,"name":"mkl","steam_id":76561197986401685,"connected_time":6158000000000,"state":"active","ping":58},{"user_id":484,"name":"Jennifer Aniston's Nipples","steam_id":76561198086107548,"connected_time":1672000000000,"state":"active","ping":44},{"user_id":487,"name":"Facehurt","steam_id":76561198028504034,"connected_time":1558000000000,"state":"active","ping":91},{"user_id":488,"name":"Karma","steam_id":76561198320530905,"connected_time":1456000000000,"state":"active","ping":47},{"user_id":465,"name":"Zeek","steam_id":76561197987204351,"connected_time":3474000000000,"state":"active","ping":89},{"user_id":321,"name":"Mellou","steam_id":76561198212048740,"connected_time":7897000000000,"state":"active","ping":45},{"user_id":494,"name":"Traceback","steam_id":76561197993212340,"connected_time":738000000000,"state":"active","ping":72},{"user_id":481,"name":"el pan con pate","steam_id":76561199082491709,"connected_time":1738000000000,"state":"active","ping":186},{"user_id":501,"name":"The Two Fingers","steam_id":76561198212468175,"connected_time":426000000000,"state":"active","ping":113},{"user_id":303,"name":"smartest living creature","steam_id":76561198392069179,"connected_time":8854000000000,"state":"active","ping":68}]},{"server_id":108,"name":"Uncletopia | Dallas | 2 | All Maps","name_short":"dal-2","host":"dal-1.us.uncletopia.com","port":27025,"enabled":true,"region":"us-central","cc":"us","latitude":32.779167,"longitude":-96.80889,"reserved":0,"last_update":"0001-01-01T00:00:00Z","name_a2s":"Uncletopia | Dallas | 2 | All Maps","protocol":17,"map":"pl_borneo","folder":"tf","game":"Team Fortress","app_id":440,"player_count":24,"max_players":24,"Bots":0,"server_type":"Dedicated","server_os":"Linux","password":true,"vac":true,"version":"7961495","steam_id":85568392924469988,"keywords":["nocrits","nodmgspread","payload","uncletopia"],"game_id":440,"stv_port":27026,"stv_name":"Uncletopia | Dallas | 2 | All Maps | STV","players":[{"user_id":118,"name":"Cthulwho?","steam_id":76561198165550810,"connected_time":4626000000000,"state":"active","ping":81},{"user_id":174,"name":"zheon","steam_id":76561198318622241,"connected_time":1424000000000,"state":"active","ping":89},{"user_id":159,"name":"DMM","steam_id":76561198065426171,"connected_time":2499000000000,"state":"active","ping":51},{"user_id":181,"name":"Riff III","steam_id":76561198066921423,"connected_time":800000000000,"state":"active","ping":73},{"user_id":130,"name":"Major Woody","steam_id":76561198835541533,"connected_time":4178000000000,"state":"active","ping":57},{"user_id":183,"name":"9/11 Airlines","steam_id":76561198096306325,"connected_time":357000000000,"state":"active","ping":84},{"user_id":76,"name":"Eden","steam_id":76561198081284664,"connected_time":7979000000000,"state":"active","ping":86},{"user_id":164,"name":"[P-CAN] At\u0026t Home Internet","steam_id":76561198126700526,"connected_time":1950000000000,"state":"active","ping":124},{"user_id":187,"name":"ICBMonkey","steam_id":76561198033351821,"connected_time":223000000000,"state":"active","ping":56},{"user_id":180,"name":"dP | I'm in a Wookie Suit","steam_id":76561198083307644,"connected_time":934000000000,"state":"active","ping":106},{"user_id":184,"name":"CALL OF DUTY BLACKOPPS","steam_id":76561198262422184,"connected_time":250000000000,"state":"active","ping":56},{"user_id":139,"name":"reis","steam_id":76561199232952016,"connected_time":3650000000000,"state":"active","ping":193},{"user_id":143,"name":"doro","steam_id":76561198099041747,"connected_time":3148000000000,"state":"active","ping":80},{"user_id":188,"name":"newish player","steam_id":76561199090153532,"connected_time":223000000000,"state":"active","ping":50},{"user_id":158,"name":"brains","steam_id":76561198197388678,"connected_time":2522000000000,"state":"active","ping":49},{"user_id":165,"name":"frag movie extra","steam_id":76561198041048289,"connected_time":1931000000000,"state":"active","ping":76},{"user_id":179,"name":"delta","steam_id":76561198288966901,"connected_time":964000000000,"state":"active","ping":174},{"user_id":150,"name":"Joe, Banana","steam_id":76561198077551754,"connected_time":2992000000000,"state":"active","ping":73},{"user_id":96,"name":"2 Point Tom","steam_id":76561198087617008,"connected_time":6270000000000,"state":"active","ping":105},{"user_id":153,"name":"soona","steam_id":76561198127325351,"connected_time":2917000000000,"state":"active","ping":91},{"user_id":177,"name":"Vivzen","steam_id":76561198972619900,"connected_time":1201000000000,"state":"active","ping":55},{"user_id":117,"name":"dynam_ic554","steam_id":76561199068623664,"connected_time":4686000000000,"state":"active","ping":127},{"user_id":123,"name":"mr555","steam_id":76561199128375354,"connected_time":4549000000000,"state":"active","ping":176},{"user_id":138,"name":"tsz","steam_id":76561199246231090,"connected_time":3782000000000,"state":"active","ping":83}]},{"server_id":404,"name":"Uncletopia | Dallas | 3 | All Maps","name_short":"dal-3","host":"dal-1.us.uncletopia.com","port":27035,"enabled":true,"region":"us-central","cc":"us","latitude":32.779167,"longitude":-96.80889,"reserved":0,"last_update":"0001-01-01T00:00:00Z","name_a2s":"Uncletopia | Dallas | 3 | All Maps","protocol":17,"map":"koth_lakeside_final","folder":"tf","game":"Team Fortress","app_id":440,"player_count":2,"max_players":24,"Bots":0,"server_type":"Dedicated","server_os":"Linux","password":true,"vac":true,"version":"7961495","steam_id":85568392924515219,"keywords":["cp","nocrits","nodmgspread","uncletopia"],"game_id":440,"stv_port":27036,"stv_name":"Uncletopia | Dallas | 3 | All Maps | STV","players":[{"user_id":7,"name":"Kenku","steam_id":76561199086762926,"connected_time":1226000000000,"state":"active","ping":58},{"user_id":8,"name":"Magic Dragon","steam_id":76561198370684174,"connected_time":1185000000000,"state":"active","ping":31}]},{"server_id":405,"name":"Uncletopia | Dallas | 4 | Community","name_short":"dal-4","host":"dal-1.us.uncletopia.com","port":27045,"enabled":true,"region":"us-central","cc":"us","latitude":32.779167,"longitude":-96.80889,"reserved":0,"last_update":"0001-01-01T00:00:00Z","name_a2s":"Uncletopia | Dallas | 4 | Community","protocol":17,"map":"workshop/cp_croissant_final.ugc458840209","folder":"tf","game":"Team Fortress","app_id":440,"player_count":0,"max_players":24,"Bots":0,"server_type":"Dedicated","server_os":"Linux","password":true,"vac":true,"version":"7961495","steam_id":85568392924515220,"keywords":["cp","nocrits","nodmgspread","uncletopia"],"game_id":440,"stv_port":27046,"stv_name":"Uncletopia | Dallas | 4 | Community | STV","players":null},{"server_id":5,"name":"Uncletopia | Frankfurt | 1 | All Maps","name_short":"frk-1","host":"frk-1.de.uncletopia.com","port":27015,"enabled":true,"region":"eu","cc":"de","latitude":50.110924,"longitude":8.682127,"reserved":0,"last_update":"0001-01-01T00:00:00Z","name_a2s":"Uncletopia | Frankfurt | 1 | All Maps","protocol":17,"map":"pl_borneo","folder":"tf","game":"Team Fortress","app_id":440,"player_count":23,"max_players":24,"Bots":0,"server_type":"Dedicated","server_os":"Linux","password":true,"vac":true,"version":"7961495","steam_id":85568392924469989,"keywords":["nocrits","nodmgspread","payload","uncletopia"],"game_id":440,"stv_port":27016,"stv_name":"Uncletopia | Frankfurt | 1 | All Maps | STV","players":[{"user_id":428,"name":"azzy","steam_id":76561198061293740,"connected_time":381000000000,"state":"active","ping":76},{"user_id":436,"name":"Laru","steam_id":76561197998838438,"connected_time":135000000000,"state":"active","ping":75},{"user_id":434,"name":"Arsonist","steam_id":76561199087953833,"connected_time":266000000000,"state":"active","ping":94},{"user_id":418,"name":"MENTABETAI","steam_id":76561198049728799,"connected_time":1309000000000,"state":"active","ping":78},{"user_id":402,"name":"KLAMA  ❤","steam_id":76561198351549661,"connected_time":2468000000000,"state":"active","ping":69},{"user_id":429,"name":"kinimon","steam_id":76561198178453270,"connected_time":380000000000,"state":"active","ping":53},{"user_id":419,"name":"doomer","steam_id":76561198977420882,"connected_time":1273000000000,"state":"active","ping":51},{"user_id":431,"name":"Tomato","steam_id":76561199124472513,"connected_time":370000000000,"state":"active","ping":100},{"user_id":432,"name":"Right_Behind_you","steam_id":76561199126703552,"connected_time":361000000000,"state":"active","ping":60},{"user_id":437,"name":"Neyika","steam_id":76561199075639138,"connected_time":134000000000,"state":"active","ping":59},{"user_id":433,"name":"sloppy transgirl toppy","steam_id":76561198057092208,"connected_time":353000000000,"state":"active","ping":59},{"user_id":438,"name":"heavy sings (real)","steam_id":76561199023804405,"connected_time":120000000000,"state":"active","ping":70},{"user_id":308,"name":"pip","steam_id":76561198074275684,"connected_time":7266000000000,"state":"active","ping":57},{"user_id":422,"name":"rabbitface26","steam_id":76561198327540113,"connected_time":833000000000,"state":"active","ping":47},{"user_id":409,"name":"Mr_Joergen","steam_id":76561198364713702,"connected_time":1597000000000,"state":"active","ping":64},{"user_id":404,"name":"Zazou","steam_id":76561198028076362,"connected_time":2119000000000,"state":"active","ping":60},{"user_id":424,"name":"Chappi","steam_id":76561198075512843,"connected_time":767000000000,"state":"active","ping":81},{"user_id":340,"name":"Gorgeous George","steam_id":76561198144256544,"connected_time":5830000000000,"state":"active","ping":62},{"user_id":336,"name":"kavun","steam_id":76561198023461869,"connected_time":6109000000000,"state":"active","ping":77},{"user_id":423,"name":"☁ Lou1smeister ☁","steam_id":76561198004032968,"connected_time":811000000000,"state":"active","ping":61},{"user_id":416,"name":"Qdarks","steam_id":76561198013391340,"connected_time":1420000000000,"state":"active","ping":154},{"user_id":417,"name":"Lers","steam_id":76561198061619788,"connected_time":1417000000000,"state":"active","ping":60},{"user_id":421,"name":"kestrel","steam_id":76561198054061825,"connected_time":1020000000000,"state":"active","ping":52}]},{"server_id":110,"name":"Uncletopia | Frankfurt | 2 | All Maps","name_short":"frk-2","host":"frk-1.de.uncletopia.com","port":27025,"enabled":true,"region":"eu","cc":"de","latitude":50.110924,"longitude":8.682127,"reserved":0,"last_update":"0001-01-01T00:00:00Z","name_a2s":"Uncletopia | Frankfurt | 2 | All Maps","protocol":17,"map":"cp_dustbowl","folder":"tf","game":"Team Fortress","app_id":440,"player_count":24,"max_players":24,"Bots":0,"server_type":"Dedicated","server_os":"Linux","password":true,"vac":true,"version":"7961495","steam_id":85568392924469990,"keywords":["cp","nocrits","nodmgspread","uncletopia"],"game_id":440,"stv_port":27026,"stv_name":"Uncletopia | Frankfurt | 2 | All Maps | STV","players":[{"user_id":864,"name":"Adde","steam_id":76561198013158040,"connected_time":1930000000000,"state":"active","ping":86},{"user_id":843,"name":"Delere","steam_id":76561198061309755,"connected_time":3809000000000,"state":"active","ping":129},{"user_id":888,"name":"Jangli","steam_id":76561198103923652,"connected_time":1333000000000,"state":"active","ping":184},{"user_id":865,"name":"Uriri","steam_id":76561198085588686,"connected_time":1915000000000,"state":"active","ping":79},{"user_id":894,"name":"PLUTO","steam_id":76561198312436128,"connected_time":1017000000000,"state":"active","ping":120},{"user_id":869,"name":"Undercover Frank","steam_id":76561198018581627,"connected_time":1789000000000,"state":"active","ping":102},{"user_id":852,"name":"Umme","steam_id":76561198053809566,"connected_time":2527000000000,"state":"active","ping":76},{"user_id":862,"name":"bucketman_void","steam_id":76561199062719102,"connected_time":2004000000000,"state":"active","ping":91},{"user_id":866,"name":"SirNeeco \u003c3","steam_id":76561198103014203,"connected_time":1908000000000,"state":"active","ping":60},{"user_id":897,"name":"tort","steam_id":76561198147246166,"connected_time":586000000000,"state":"active","ping":79},{"user_id":896,"name":"monte","steam_id":76561199075506275,"connected_time":738000000000,"state":"active","ping":56},{"user_id":873,"name":"benjels big day","steam_id":76561198025970709,"connected_time":1712000000000,"state":"active","ping":57},{"user_id":887,"name":"dog?","steam_id":76561199232839385,"connected_time":1354000000000,"state":"active","ping":90},{"user_id":872,"name":"Arc","steam_id":76561198805049375,"connected_time":1731000000000,"state":"active","ping":59},{"user_id":898,"name":"RayTrain","steam_id":76561198874299515,"connected_time":281000000000,"state":"active","ping":77},{"user_id":892,"name":"Liventhor","steam_id":76561198054200625,"connected_time":1258000000000,"state":"active","ping":71},{"user_id":890,"name":"Mitrixie","steam_id":76561198842023498,"connected_time":1315000000000,"state":"active","ping":93},{"user_id":833,"name":"F4","steam_id":76561198960173064,"connected_time":4089000000000,"state":"active","ping":54},{"user_id":859,"name":"Pizza Totino's Boy","steam_id":76561198071487976,"connected_time":2292000000000,"state":"active","ping":74},{"user_id":877,"name":"Alexandr","steam_id":76561198415594381,"connected_time":1657000000000,"state":"active","ping":62},{"user_id":891,"name":"SaintBonkers","steam_id":76561198043219263,"connected_time":1310000000000,"state":"active","ping":69},{"user_id":895,"name":"Jansku","steam_id":76561198321340149,"connected_time":1005000000000,"state":"active","ping":89},{"user_id":879,"name":"Ram-horned Jack","steam_id":76561198043418582,"connected_time":1627000000000,"state":"active","ping":59},{"user_id":850,"name":"CV70","steam_id":76561198122440175,"connected_time":2679000000000,"state":"active","ping":69}]},{"server_id":308,"name":"Uncletopia | Frankfurt | 3 | All Maps","name_short":"frk-3","host":"frk-1.de.uncletopia.com","port":27035,"enabled":true,"region":"eu","cc":"de","latitude":50.110924,"longitude":8.682127,"reserved":0,"last_update":"0001-01-01T00:00:00Z","name_a2s":"Uncletopia | Frankfurt | 3 | All Maps","protocol":17,"map":"pl_frontier_final","folder":"tf","game":"Team Fortress","app_id":440,"player_count":24,"max_players":24,"Bots":0,"server_type":"Dedicated","server_os":"Linux","password":true,"vac":true,"version":"7961495","steam_id":85568392924504274,"keywords":["nocrits","nodmgspread","payload","uncletopia"],"game_id":440,"stv_port":27036,"stv_name":"Uncletopia | Frankfurt | 3 | All Maps | STV","players":[{"user_id":178,"name":"SirClyan","steam_id":76561199196651938,"connected_time":1710000000000,"state":"active","ping":64},{"user_id":176,"name":"Leviticus Cornwall","steam_id":76561197993702685,"connected_time":1826000000000,"state":"active","ping":71},{"user_id":168,"name":"Rigby","steam_id":76561198021552128,"connected_time":1974000000000,"state":"active","ping":95},{"user_id":99,"name":"tired","steam_id":76561198046838168,"connected_time":7734000000000,"state":"active","ping":46},{"user_id":189,"name":"Lunara","steam_id":76561198123141355,"connected_time":872000000000,"state":"active","ping":69},{"user_id":191,"name":"Pepegi","steam_id":76561198001230113,"connected_time":702000000000,"state":"active","ping":73},{"user_id":165,"name":"Saucisse","steam_id":76561198119955969,"connected_time":2361000000000,"state":"active","ping":60},{"user_id":193,"name":"skippy","steam_id":76561198171958773,"connected_time":116000000000,"state":"active","ping":73},{"user_id":183,"name":"riaron","steam_id":76561198187637390,"connected_time":1139000000000,"state":"active","ping":76},{"user_id":186,"name":"ST4F","steam_id":76561198262924022,"connected_time":984000000000,"state":"active","ping":59},{"user_id":166,"name":"AntiRampage","steam_id":76561198111621772,"connected_time":2164000000000,"state":"active","ping":71},{"user_id":184,"name":"rts","steam_id":76561199090876980,"connected_time":1114000000000,"state":"active","ping":78},{"user_id":147,"name":"goku ピップ・ペタル","steam_id":76561198147668373,"connected_time":3195000000000,"state":"active","ping":52},{"user_id":187,"name":"Benzo Fury","steam_id":76561198025259336,"connected_time":973000000000,"state":"active","ping":59},{"user_id":171,"name":"silicon based life form","steam_id":76561199127121346,"connected_time":1913000000000,"state":"active","ping":74},{"user_id":177,"name":"post-nuke jerma","steam_id":76561198094268619,"connected_time":1730000000000,"state":"active","ping":68},{"user_id":102,"name":"Zoro (Hun)","steam_id":76561199367182571,"connected_time":7431000000000,"state":"active","ping":59},{"user_id":161,"name":"sticks","steam_id":76561198127099299,"connected_time":2486000000000,"state":"active","ping":58},{"user_id":188,"name":"abdul (real)","steam_id":76561199405509062,"connected_time":968000000000,"state":"active","ping":159},{"user_id":167,"name":"Cencut","steam_id":76561198989449047,"connected_time":2148000000000,"state":"active","ping":116},{"user_id":164,"name":"Pepe","steam_id":76561199272030254,"connected_time":2434000000000,"state":"active","ping":76},{"user_id":192,"name":"Loona my beloved","steam_id":76561198067182918,"connected_time":585000000000,"state":"active","ping":84},{"user_id":181,"name":"Draku","steam_id":76561198129801642,"connected_time":1453000000000,"state":"active","ping":89},{"user_id":97,"name":"lugi","steam_id":76561198026903673,"connected_time":8072000000000,"state":"active","ping":58}]},{"server_id":309,"name":"Uncletopia | Frankfurt | 4 | All Maps","name_short":"frk-4","host":"frk-1.de.uncletopia.com","port":27045,"enabled":true,"region":"eu","cc":"de","latitude":50.110924,"longitude":8.682127,"reserved":0,"last_update":"0001-01-01T00:00:00Z","name_a2s":"Uncletopia | Frankfurt | 4 | All Maps","protocol":17,"map":"pl_thundermountain","folder":"tf","game":"Team Fortress","app_id":440,"player_count":24,"max_players":24,"Bots":0,"server_type":"Dedicated","server_os":"Linux","password":true,"vac":true,"version":"7961495","steam_id":85568392924504275,"keywords":["nocrits","nodmgspread","payload","uncletopia"],"game_id":440,"stv_port":27046,"stv_name":"Uncletopia | Frankfurt | 4 | All Maps | STV","players":[{"user_id":245,"name":"1/1 OJ","steam_id":76561198054745133,"connected_time":3673000000000,"state":"active","ping":76},{"user_id":293,"name":"lumikko","steam_id":76561198112012468,"connected_time":382000000000,"state":"active","ping":86},{"user_id":268,"name":"paguro","steam_id":76561198119560871,"connected_time":2376000000000,"state":"active","ping":68},{"user_id":239,"name":"Usagi Alohaoe","steam_id":76561198981191925,"connected_time":4087000000000,"state":"active","ping":42},{"user_id":270,"name":"Nidja","steam_id":76561198258232615,"connected_time":2244000000000,"state":"active","ping":81},{"user_id":292,"name":"=OKB= P4NTH3R","steam_id":76561197999204603,"connected_time":405000000000,"state":"active","ping":58},{"user_id":272,"name":"Meterious","steam_id":76561198262354374,"connected_time":2236000000000,"state":"active","ping":72},{"user_id":286,"name":"lokilolq","steam_id":76561198132316458,"connected_time":1214000000000,"state":"active","ping":104},{"user_id":241,"name":"Sunduchek","steam_id":76561198067934157,"connected_time":3720000000000,"state":"active","ping":128},{"user_id":238,"name":"Keroz1n","steam_id":76561197998681491,"connected_time":4219000000000,"state":"active","ping":62},{"user_id":288,"name":"ramunelis (ricardo edition)","steam_id":76561198103589961,"connected_time":1189000000000,"state":"active","ping":79},{"user_id":291,"name":"Egor Pomidor","steam_id":76561199175688390,"connected_time":631000000000,"state":"active","ping":75},{"user_id":252,"name":"clean carp","steam_id":76561198127053294,"connected_time":3494000000000,"state":"active","ping":70},{"user_id":289,"name":"Ace","steam_id":76561198979117577,"connected_time":955000000000,"state":"active","ping":76},{"user_id":236,"name":"Pico","steam_id":76561198063552545,"connected_time":4396000000000,"state":"active","ping":99},{"user_id":287,"name":"Lobster Man","steam_id":76561199167506926,"connected_time":1213000000000,"state":"active","ping":79},{"user_id":229,"name":"Batman Beyond","steam_id":76561198102091599,"connected_time":5089000000000,"state":"active","ping":107},{"user_id":290,"name":"cockroach","steam_id":76561198841841656,"connected_time":920000000000,"state":"active","ping":63},{"user_id":273,"name":"Dave The Sloth","steam_id":76561199135831355,"connected_time":2215000000000,"state":"active","ping":70},{"user_id":266,"name":"Gearless","steam_id":76561198362367074,"connected_time":2461000000000,"state":"active","ping":81},{"user_id":282,"name":"Na'vi Misato (by popular demand","steam_id":76561198130860698,"connected_time":1544000000000,"state":"active","ping":70},{"user_id":284,"name":"Mr. JC Denton","steam_id":76561198883964471,"connected_time":1261000000000,"state":"active","ping":153},{"user_id":240,"name":"KALACH","steam_id":76561198028664460,"connected_time":3750000000000,"state":"active","ping":84},{"user_id":255,"name":"Alice","steam_id":76561198052410860,"connected_time":3461000000000,"state":"active","ping":139}]},{"server_id":310,"name":"Uncletopia | Frankfurt | 5 | All Maps","name_short":"frk-5","host":"frk-1.de.uncletopia.com","port":27055,"enabled":true,"region":"eu","cc":"de","latitude":50.110924,"longitude":8.682127,"reserved":0,"last_update":"0001-01-01T00:00:00Z","name_a2s":"Uncletopia | Frankfurt | 5 | All Maps","protocol":17,"map":"pl_frontier_final","folder":"tf","game":"Team Fortress","app_id":440,"player_count":25,"max_players":24,"Bots":0,"server_type":"Dedicated","server_os":"Linux","password":true,"vac":true,"version":"7961495","steam_id":85568392924504277,"keywords":["nocrits","nodmgspread","payload","uncletopia"],"game_id":440,"stv_port":27056,"stv_name":"Uncletopia | Frankfurt | 5 | All Maps | STV","players":[{"user_id":392,"name":"Morshu The Bastard","steam_id":76561198005094790,"connected_time":2517000000000,"state":"active","ping":64},{"user_id":426,"name":"Lux","steam_id":76561198060417740,"connected_time":1155000000000,"state":"active","ping":50},{"user_id":419,"name":"Mayor Wank from Wanker Town","steam_id":76561197998253588,"connected_time":1412000000000,"state":"active","ping":45},{"user_id":430,"name":"Ott","steam_id":76561198276464481,"connected_time":762000000000,"state":"active","ping":71},{"user_id":420,"name":"HazelForest","steam_id":76561198171827033,"connected_time":1382000000000,"state":"active","ping":66},{"user_id":432,"name":"leeloo","steam_id":76561199256962353,"connected_time":87000000000,"state":"active","ping":69},{"user_id":433,"name":"literallyjasonx","steam_id":76561198835895387,"connected_time":86000000000,"state":"active","ping":99},{"user_id":345,"name":"Flarp von Karma","steam_id":76561198043855292,"connected_time":4142000000000,"state":"active","ping":48},{"user_id":434,"name":"rajAs","steam_id":76561198035928111,"connected_time":83000000000,"state":"active","ping":75},{"user_id":431,"name":"pablo","steam_id":76561198089285014,"connected_time":349000000000,"state":"active","ping":88},{"user_id":412,"name":"Freakin' dead scout!","steam_id":76561199195330565,"connected_time":1828000000000,"state":"active","ping":168},{"user_id":379,"name":"(:","steam_id":76561198080638046,"connected_time":3036000000000,"state":"active","ping":65},{"user_id":435,"name":"Lark","steam_id":76561198066937447,"connected_time":51000000000,"state":"connecting","ping":0},{"user_id":416,"name":"Seargant Snagge","steam_id":76561198055227276,"connected_time":1561000000000,"state":"active","ping":85},{"user_id":391,"name":"Toastiez","steam_id":76561197999284331,"connected_time":2643000000000,"state":"active","ping":65},{"user_id":428,"name":"Fran","steam_id":76561199070516960,"connected_time":957000000000,"state":"active","ping":65},{"user_id":436,"name":"lysik","steam_id":76561198039498027,"connected_time":48000000000,"state":"spawning","ping":683},{"user_id":422,"name":"atomNabber","steam_id":76561199150959412,"connected_time":1375000000000,"state":"active","ping":108},{"user_id":437,"name":"Indomitable Truck-sama","steam_id":76561198826861582,"connected_time":48000000000,"state":"active","ping":69},{"user_id":364,"name":"zyubrin","steam_id":76561199027256840,"connected_time":3640000000000,"state":"active","ping":133},{"user_id":411,"name":"southwest florida","steam_id":76561198049639319,"connected_time":1957000000000,"state":"active","ping":70},{"user_id":425,"name":"Nymph","steam_id":76561198042801329,"connected_time":1184000000000,"state":"active","ping":56},{"user_id":355,"name":"Boghir","steam_id":76561198003878887,"connected_time":3883000000000,"state":"active","ping":63},{"user_id":363,"name":"✪Beer☭","steam_id":76561198129884760,"connected_time":3658000000000,"state":"active","ping":78},{"user_id":438,"name":"Surgeon_Ungeneral","steam_id":76561198320311540,"connected_time":46000000000,"state":"active","ping":203}]},{"server_id":311,"name":"Uncletopia | Frankfurt | 6 | All Maps","name_short":"frk-6","host":"frk-1.de.uncletopia.com","port":27065,"enabled":true,"region":"eu","cc":"de","latitude":50.110924,"longitude":8.682127,"reserved":0,"last_update":"0001-01-01T00:00:00Z","name_a2s":"Uncletopia | Frankfurt | 6 | All Maps","protocol":17,"map":"pl_barnblitz","folder":"tf","game":"Team Fortress","app_id":440,"player_count":24,"max_players":24,"Bots":0,"server_type":"Dedicated","server_os":"Linux","password":true,"vac":true,"version":"7961495","steam_id":85568392924504278,"keywords":["nocrits","nodmgspread","payload","uncletopia"],"game_id":440,"stv_port":27066,"stv_name":"Uncletopia | Frankfurt | 6 | All Maps | STV","players":[{"user_id":524,"name":"Rezzy","steam_id":76561198410598772,"connected_time":3299000000000,"state":"active","ping":48},{"user_id":523,"name":"Jotun","steam_id":76561199015161498,"connected_time":3375000000000,"state":"active","ping":96},{"user_id":570,"name":"xo.aahhmmeedd.xo","steam_id":76561199242662647,"connected_time":272000000000,"state":"active","ping":113},{"user_id":540,"name":"CrusadingComrade","steam_id":76561198286511203,"connected_time":2241000000000,"state":"active","ping":129},{"user_id":567,"name":"Apox","steam_id":76561198008005377,"connected_time":545000000000,"state":"active","ping":56},{"user_id":565,"name":"Grym","steam_id":76561198119397460,"connected_time":563000000000,"state":"active","ping":67},{"user_id":530,"name":"Prawo Jazdy","steam_id":76561198121589024,"connected_time":2682000000000,"state":"active","ping":55},{"user_id":561,"name":"Rat Queen Emily","steam_id":76561198232446788,"connected_time":1581000000000,"state":"active","ping":143},{"user_id":564,"name":"void","steam_id":76561198035831433,"connected_time":567000000000,"state":"active","ping":68},{"user_id":534,"name":"LatschenLarry","steam_id":76561198012559888,"connected_time":2519000000000,"state":"active","ping":59},{"user_id":535,"name":"Reimu","steam_id":76561198109301435,"connected_time":2447000000000,"state":"active","ping":74},{"user_id":566,"name":"Caliban","steam_id":76561197999696839,"connected_time":549000000000,"state":"active","ping":99},{"user_id":539,"name":"Esquiloz","steam_id":76561198075645336,"connected_time":2286000000000,"state":"active","ping":77},{"user_id":556,"name":"sab","steam_id":76561197992945483,"connected_time":1838000000000,"state":"active","ping":55},{"user_id":555,"name":"Killer Bean","steam_id":76561198072567787,"connected_time":2008000000000,"state":"active","ping":70},{"user_id":563,"name":"em","steam_id":76561198163615254,"connected_time":704000000000,"state":"active","ping":59},{"user_id":560,"name":"mndk","steam_id":76561198295305088,"connected_time":1769000000000,"state":"active","ping":54},{"user_id":562,"name":"Humulus","steam_id":76561199069099538,"connected_time":1046000000000,"state":"active","ping":82},{"user_id":549,"name":"Tenshi","steam_id":76561197964915322,"connected_time":2081000000000,"state":"active","ping":89},{"user_id":558,"name":"(1)TFBot","steam_id":76561197994310420,"connected_time":1830000000000,"state":"active","ping":75},{"user_id":551,"name":"(NºFLQ) COUTESUDO","steam_id":76561198049262614,"connected_time":2059000000000,"state":"active","ping":96},{"user_id":552,"name":"HayLeX","steam_id":76561198130997343,"connected_time":2051000000000,"state":"active","ping":87},{"user_id":568,"name":"Ruffel :)","steam_id":76561198136828470,"connected_time":539000000000,"state":"active","ping":84},{"user_id":554,"name":"zinzyk","steam_id":76561198128011822,"connected_time":2029000000000,"state":"active","ping":59}]},{"server_id":23,"name":"Uncletopia | Frankfurt | 7 | Stopwatch","name_short":"frk-7","host":"frk-1.de.uncletopia.com","port":27075,"enabled":true,"region":"eu","cc":"de","latitude":50.110924,"longitude":8.682127,"reserved":0,"last_update":"0001-01-01T00:00:00Z","name_a2s":"Uncletopia | Frankfurt | 7 | Stopwatch","protocol":17,"map":"workshop/pl_badwater_pro_v12.ugc2142942074","folder":"tf","game":"Team Fortress","app_id":440,"player_count":5,"max_players":24,"Bots":0,"server_type":"Dedicated","server_os":"Linux","password":true,"vac":true,"version":"7961495","steam_id":85568392924742827,"keywords":["nocrits","nodmgspread","payload","uncletopia"],"game_id":440,"stv_port":27076,"stv_name":"Uncletopia | Frankfurt | 7 | Stopwatch | STV","players":[{"user_id":35,"name":"Ļą Δantə","steam_id":76561198078344149,"connected_time":3177000000000,"state":"active","ping":105},{"user_id":38,"name":"Badkitty","steam_id":76561199245159804,"connected_time":2450000000000,"state":"active","ping":104},{"user_id":41,"name":"Duckypog_J","steam_id":76561199002646204,"connected_time":459000000000,"state":"active","ping":362},{"user_id":42,"name":"LizaЯdlЧ","steam_id":76561198176750238,"connected_time":15000000000,"state":"spawning","ping":134},{"user_id":43,"name":"pablo_ricco","steam_id":76561198279839318,"connected_time":3000000000,"state":"spawning","ping":72}]},{"server_id":24,"name":"Uncletopia | Frankfurt | 8 | Community","name_short":"frk-8","host":"frk-1.de.uncletopia.com","port":27085,"enabled":true,"region":"eu","cc":"de","latitude":50.110924,"longitude":8.682127,"reserved":0,"last_update":"0001-01-01T00:00:00Z","name_a2s":"Uncletopia | Frankfurt | 8 | Community","protocol":17,"map":"workshop/cp_croissant_final.ugc458840209","folder":"tf","game":"Team Fortress","app_id":440,"player_count":0,"max_players":24,"Bots":0,"server_type":"Dedicated","server_os":"Linux","password":true,"vac":true,"version":"7961495","steam_id":85568392924742828,"keywords":["cp","nocrits","nodmgspread","uncletopia"],"game_id":440,"stv_port":27086,"stv_name":"Uncletopia | Frankfurt | 8 | Community | STV","players":null},{"server_id":202,"name":"Uncletopia | Hong Kong | 1 | All Maps","name_short":"hgk-1","host":"hgk-1.hk.uncletopia.com","port":27015,"enabled":true,"region":"asia","cc":"hk","latitude":22.302711,"longitude":114.177216,"reserved":0,"last_update":"0001-01-01T00:00:00Z","name_a2s":"Uncletopia | Hong Kong | 1 | All Maps","protocol":17,"map":"koth_lakeside_final","folder":"tf","game":"Team Fortress","app_id":440,"player_count":0,"max_players":24,"Bots":0,"server_type":"Dedicated","server_os":"Linux","password":true,"vac":true,"version":"7961495","steam_id":85568392924494504,"keywords":["cp","nocrits","nodmgspread","uncletopia"],"game_id":440,"stv_port":27016,"stv_name":"Uncletopia | Hong Kong | 1 | All Maps | STV","players":null},{"server_id":1,"name":"Uncletopia | Los Angeles | 1 | All Maps","name_short":"lax-1","host":"lax-1.us.uncletopia.com","port":27015,"enabled":true,"region":"us-west","cc":"us","latitude":33.94279,"longitude":-118.41004,"reserved":0,"last_update":"0001-01-01T00:00:00Z","name_a2s":"Uncletopia | Los Angeles | 1 | All Maps","protocol":17,"map":"pl_swiftwater_final1","folder":"tf","game":"Team Fortress","app_id":440,"player_count":24,"max_players":24,"Bots":0,"server_type":"Dedicated","server_os":"Linux","password":true,"vac":true,"version":"7961495","steam_id":85568392924469991,"keywords":["nocrits","nodmgspread","payload","uncletopia"],"game_id":440,"stv_port":27016,"stv_name":"Uncletopia | Los Angeles | 1 | All Maps | STV","players":[{"user_id":62,"name":"fart","steam_id":76561198074198286,"connected_time":2708000000000,"state":"active","ping":54},{"user_id":78,"name":"[TKC]NZNinja99","steam_id":76561198079315815,"connected_time":1333000000000,"state":"active","ping":42},{"user_id":83,"name":"leumas","steam_id":76561198240408540,"connected_time":715000000000,"state":"active","ping":121},{"user_id":92,"name":"kat","steam_id":76561198329367716,"connected_time":20000000000,"state":"active","ping":61},{"user_id":24,"name":"Sprucelass","steam_id":76561197998391724,"connected_time":4595000000000,"state":"active","ping":113},{"user_id":88,"name":"Satori Komeiji","steam_id":76561198158211423,"connected_time":553000000000,"state":"active","ping":36},{"user_id":51,"name":"1408 0-","steam_id":76561198126661080,"connected_time":3099000000000,"state":"active","ping":73},{"user_id":73,"name":"Bunni","steam_id":76561198065169997,"connected_time":2177000000000,"state":"active","ping":126},{"user_id":76,"name":"noceof","steam_id":76561198043656816,"connected_time":1906000000000,"state":"active","ping":175},{"user_id":42,"name":"Billy the talking Fridge","steam_id":76561198974448323,"connected_time":3531000000000,"state":"active","ping":46},{"user_id":90,"name":"new","steam_id":76561199070901945,"connected_time":204000000000,"state":"active","ping":124},{"user_id":93,"name":"C∅RVUS","steam_id":76561198100640019,"connected_time":4000000000,"state":"spawning","ping":62},{"user_id":85,"name":"714","steam_id":76561198144909435,"connected_time":666000000000,"state":"active","ping":46},{"user_id":86,"name":"novalowks","steam_id":76561198310485198,"connected_time":651000000000,"state":"active","ping":47},{"user_id":69,"name":"Sir Severus","steam_id":76561198061295188,"connected_time":2414000000000,"state":"active","ping":81},{"user_id":50,"name":"Lazuli","steam_id":76561198051894471,"connected_time":3140000000000,"state":"active","ping":44},{"user_id":87,"name":"vada","steam_id":76561198969687309,"connected_time":626000000000,"state":"active","ping":47},{"user_id":80,"name":"Jimmy","steam_id":76561198857959855,"connected_time":1308000000000,"state":"active","ping":47},{"user_id":71,"name":"waffles con leche","steam_id":76561198246934872,"connected_time":2214000000000,"state":"active","ping":63},{"user_id":91,"name":"yee haw","steam_id":76561198398638164,"connected_time":191000000000,"state":"active","ping":109},{"user_id":70,"name":"milk","steam_id":76561198053410877,"connected_time":2293000000000,"state":"active","ping":56},{"user_id":74,"name":"ronald_stackerusa55","steam_id":76561198150406851,"connected_time":2045000000000,"state":"active","ping":56},{"user_id":82,"name":"LIMBS","steam_id":76561198101220604,"connected_time":780000000000,"state":"active","ping":48}]},{"server_id":112,"name":"Uncletopia | Los Angeles | 2 | All Maps","name_short":"lax-2","host":"lax-1.us.uncletopia.com","port":27025,"enabled":true,"region":"us-west","cc":"us","latitude":33.94279,"longitude":-118.41004,"reserved":0,"last_update":"0001-01-01T00:00:00Z","name_a2s":"Uncletopia | Los Angeles | 2 | All Maps","protocol":17,"map":"koth_lazarus","folder":"tf","game":"Team Fortress","app_id":440,"player_count":0,"max_players":24,"Bots":0,"server_type":"Dedicated","server_os":"Linux","password":true,"vac":true,"version":"7961495","steam_id":85568392924469992,"keywords":["cp","nocrits","nodmgspread","uncletopia"],"game_id":440,"stv_port":27026,"stv_name":"Uncletopia | Los Angeles | 2 | All Maps | STV","players":null},{"server_id":324,"name":"Uncletopia | Los Angeles | 3 | All Maps","name_short":"lax-3","host":"lax-1.us.uncletopia.com","port":27035,"enabled":true,"region":"us-west","cc":"us","latitude":33.94279,"longitude":-118.41004,"reserved":0,"last_update":"0001-01-01T00:00:00Z","name_a2s":"Uncletopia | Los Angeles | 3 | All Maps","protocol":17,"map":"pl_frontier_final","folder":"tf","game":"Team Fortress","app_id":440,"player_count":0,"max_players":24,"Bots":0,"server_type":"Dedicated","server_os":"Linux","password":true,"vac":true,"version":"7961495","steam_id":85568392924510198,"keywords":["nocrits","nodmgspread","payload","uncletopia"],"game_id":440,"stv_port":27036,"stv_name":"Uncletopia | Los Angeles | 3 | All Maps | STV","players":null},{"server_id":25,"name":"Uncletopia | Los Angeles | 4 | Stopwatch","name_short":"lax-4","host":"lax-1.us.uncletopia.com","port":27045,"enabled":true,"region":"us-west","cc":"us","latitude":33.94279,"longitude":-118.41004,"reserved":0,"last_update":"0001-01-01T00:00:00Z","name_a2s":"Uncletopia | Los Angeles | 4 | Stopwatch","protocol":17,"map":"pl_upward","folder":"tf","game":"Team Fortress","app_id":440,"player_count":0,"max_players":24,"Bots":0,"server_type":"Dedicated","server_os":"Linux","password":true,"vac":true,"version":"7961495","steam_id":85568392924510199,"keywords":["nocrits","nodmgspread","payload","uncletopia"],"game_id":440,"stv_port":27046,"stv_name":"Uncletopia | Los Angeles | 4 | Stopwatch | STV","players":null},{"server_id":11,"name":"Uncletopia | London | 1 | All Maps","name_short":"lon-1","host":"lon-1.uk.uncletopia.com","port":27015,"enabled":true,"region":"eu","cc":"gb","latitude":51.509865,"longitude":-0.118092,"reserved":0,"last_update":"0001-01-01T00:00:00Z","name_a2s":"Uncletopia | London | 1 | All Maps","protocol":17,"map":"pl_badwater","folder":"tf","game":"Team Fortress","app_id":440,"player_count":24,"max_players":24,"Bots":0,"server_type":"Dedicated","server_os":"Linux","password":true,"vac":true,"version":"7961495","steam_id":85568392924367362,"keywords":["nocrits","nodmgspread","payload","uncletopia"],"game_id":440,"stv_port":27016,"stv_name":"Uncletopia | London | 1 | All Maps | STV","players":[{"user_id":508,"name":"topi tykki","steam_id":76561198107605938,"connected_time":505000000000,"state":"active","ping":90},{"user_id":504,"name":"November","steam_id":76561198156055894,"connected_time":1149000000000,"state":"active","ping":45},{"user_id":484,"name":"GooPig","steam_id":76561198032810579,"connected_time":3259000000000,"state":"active","ping":44},{"user_id":496,"name":"accuracyAimz@skill.com","steam_id":76561198723244199,"connected_time":2254000000000,"state":"active","ping":89},{"user_id":506,"name":"Mébh Óg MacTíre","steam_id":76561198346399624,"connected_time":1124000000000,"state":"active","ping":77},{"user_id":507,"name":"wG auto","steam_id":76561198062247888,"connected_time":710000000000,"state":"active","ping":61},{"user_id":515,"name":"Dark ^^","steam_id":76561198036241064,"connected_time":381000000000,"state":"active","ping":68},{"user_id":516,"name":"Dwevy","steam_id":76561198090379437,"connected_time":79000000000,"state":"active","ping":46},{"user_id":386,"name":"Lyra","steam_id":76561198043601838,"connected_time":8614000000000,"state":"active","ping":76},{"user_id":349,"name":"mertefe","steam_id":76561199237126613,"connected_time":11510000000000,"state":"active","ping":101},{"user_id":495,"name":"bolsonaro","steam_id":76561198074917015,"connected_time":2326000000000,"state":"active","ping":76},{"user_id":494,"name":"Salad Bar's medic","steam_id":76561199006455750,"connected_time":2373000000000,"state":"active","ping":41},{"user_id":486,"name":"tWIn","steam_id":76561197989544103,"connected_time":3084000000000,"state":"active","ping":64},{"user_id":517,"name":"finn","steam_id":76561198366652456,"connected_time":59000000000,"state":"active","ping":71},{"user_id":440,"name":"Healix","steam_id":76561198130270161,"connected_time":5707000000000,"state":"active","ping":48},{"user_id":503,"name":"MeBandae","steam_id":76561198910770432,"connected_time":1175000000000,"state":"active","ping":60},{"user_id":511,"name":"Purplenoogie","steam_id":76561198081872160,"connected_time":463000000000,"state":"active","ping":42},{"user_id":490,"name":"IndianKoolKid","steam_id":76561198259386987,"connected_time":2913000000000,"state":"active","ping":46},{"user_id":510,"name":"warforge3","steam_id":76561199276024310,"connected_time":487000000000,"state":"active","ping":113},{"user_id":500,"name":"After8","steam_id":76561198090750865,"connected_time":1889000000000,"state":"active","ping":75},{"user_id":474,"name":"doktor spiele","steam_id":76561199057953617,"connected_time":4210000000000,"state":"active","ping":73},{"user_id":445,"name":"itransition UKRAINE","steam_id":76561198080912087,"connected_time":5605000000000,"state":"active","ping":75},{"user_id":491,"name":"Elliebingo","steam_id":76561198132988035,"connected_time":2887000000000,"state":"active","ping":38},{"user_id":513,"name":"bartvanm","steam_id":76561198048553676,"connected_time":409000000000,"state":"active","ping":49}]},{"server_id":114,"name":"Uncletopia | London | 2 | All Maps","name_short":"lon-2","host":"lon-1.uk.uncletopia.com","port":27025,"enabled":true,"region":"eu","cc":"gb","latitude":51.509865,"longitude":-0.118092,"reserved":0,"last_update":"0001-01-01T00:00:00Z","name_a2s":"Uncletopia | London | 2 | All Maps","protocol":17,"map":"pl_barnblitz","folder":"tf","game":"Team Fortress","app_id":440,"player_count":24,"max_players":24,"Bots":0,"server_type":"Dedicated","server_os":"Linux","password":true,"vac":true,"version":"7961495","steam_id":85568392924470941,"keywords":["nocrits","nodmgspread","payload","uncletopia"],"game_id":440,"stv_port":27026,"stv_name":"Uncletopia | London | 2 | All Maps | STV","players":[{"user_id":433,"name":"✪ m_br3","steam_id":76561198044981990,"connected_time":1965000000000,"state":"active","ping":75},{"user_id":434,"name":"She Dooby","steam_id":76561198334042273,"connected_time":1959000000000,"state":"active","ping":56},{"user_id":415,"name":"stepbro","steam_id":76561198119607160,"connected_time":2718000000000,"state":"active","ping":76},{"user_id":513,"name":"hawkblob","steam_id":76561198803720565,"connected_time":227000000000,"state":"active","ping":76},{"user_id":482,"name":"cwasòn the croissant","steam_id":76561198317643652,"connected_time":795000000000,"state":"active","ping":60},{"user_id":480,"name":"God is serb","steam_id":76561198966246028,"connected_time":818000000000,"state":"active","ping":104},{"user_id":515,"name":"Mandele","steam_id":76561199183213205,"connected_time":189000000000,"state":"active","ping":53},{"user_id":420,"name":"DidoSquarepants","steam_id":76561198813776572,"connected_time":2636000000000,"state":"active","ping":64},{"user_id":512,"name":"smiley","steam_id":76561198042245117,"connected_time":241000000000,"state":"active","ping":66},{"user_id":390,"name":"Puff the Magic Adder","steam_id":76561198041578884,"connected_time":5544000000000,"state":"active","ping":159},{"user_id":518,"name":"|Marevuli|","steam_id":76561198398581260,"connected_time":161000000000,"state":"active","ping":82},{"user_id":421,"name":"spencer pooties","steam_id":76561198123044544,"connected_time":2436000000000,"state":"active","ping":80},{"user_id":422,"name":"2006 Mitsubishi Lancer","steam_id":76561198036632498,"connected_time":2338000000000,"state":"active","ping":36},{"user_id":511,"name":"Grumtsior","steam_id":76561198043563111,"connected_time":247000000000,"state":"active","ping":78},{"user_id":407,"name":"Old Boy Anter","steam_id":76561198153786963,"connected_time":4054000000000,"state":"active","ping":97},{"user_id":439,"name":"METhOphetamine","steam_id":76561198068216224,"connected_time":1805000000000,"state":"active","ping":60},{"user_id":516,"name":"comic_sans","steam_id":76561198845309519,"connected_time":188000000000,"state":"active","ping":87},{"user_id":440,"name":"Bob D","steam_id":76561198026375630,"connected_time":1804000000000,"state":"active","ping":60},{"user_id":500,"name":"Vanilla Autismotron","steam_id":76561198278604277,"connected_time":387000000000,"state":"active","ping":53},{"user_id":517,"name":"Goon Spoons","steam_id":76561198116391675,"connected_time":186000000000,"state":"active","ping":78},{"user_id":418,"name":"igvanhoute","steam_id":76561199509386378,"connected_time":2681000000000,"state":"active","ping":68},{"user_id":442,"name":"iq drops","steam_id":76561198035795130,"connected_time":1729000000000,"state":"active","ping":60},{"user_id":520,"name":"UltimateAura","steam_id":76561198338361324,"connected_time":142000000000,"state":"active","ping":44},{"user_id":459,"name":"Haku*","steam_id":76561198013292193,"connected_time":1236000000000,"state":"active","ping":75}]},{"server_id":320,"name":"Uncletopia | London | 3 | All Maps","name_short":"lon-3","host":"lon-1.uk.uncletopia.com","port":27035,"enabled":true,"region":"eu","cc":"gb","latitude":51.509865,"longitude":-0.118092,"reserved":0,"last_update":"0001-01-01T00:00:00Z","name_a2s":"Uncletopia | London | 3 | All Maps","protocol":17,"map":"pl_swiftwater_final1","folder":"tf","game":"Team Fortress","app_id":440,"player_count":24,"max_players":24,"Bots":0,"server_type":"Dedicated","server_os":"Linux","password":true,"vac":true,"version":"7961495","steam_id":85568392924510192,"keywords":["nocrits","nodmgspread","payload","uncletopia"],"game_id":440,"stv_port":27036,"stv_name":"Uncletopia | London | 3 | All Maps | STV","players":[{"user_id":124,"name":"ANGHENFILOD","steam_id":76561199492622823,"connected_time":5033000000000,"state":"active","ping":40},{"user_id":197,"name":"Dispenser(Dispenser)","steam_id":76561199211831658,"connected_time":600000000000,"state":"active","ping":56},{"user_id":122,"name":"Gabeyboy321","steam_id":76561199379213615,"connected_time":5065000000000,"state":"active","ping":166},{"user_id":199,"name":"eeeeee","steam_id":76561198017786875,"connected_time":423000000000,"state":"active","ping":71},{"user_id":179,"name":"P U R P L E","steam_id":76561198051534331,"connected_time":2052000000000,"state":"active","ping":64},{"user_id":198,"name":"Woman (Real)","steam_id":76561199151823932,"connected_time":581000000000,"state":"active","ping":87},{"user_id":125,"name":"Křest in the chest","steam_id":76561198981766281,"connected_time":5026000000000,"state":"active","ping":98},{"user_id":194,"name":"abra-kablam","steam_id":76561198195857751,"connected_time":1251000000000,"state":"active","ping":65},{"user_id":187,"name":"Alender","steam_id":76561198061122036,"connected_time":1544000000000,"state":"active","ping":55},{"user_id":195,"name":"lemoul","steam_id":76561198078099059,"connected_time":1221000000000,"state":"active","ping":76},{"user_id":200,"name":"Carrotcracker","steam_id":76561198034862396,"connected_time":298000000000,"state":"active","ping":83},{"user_id":174,"name":"Marquis de Hoto","steam_id":76561198080687708,"connected_time":2383000000000,"state":"active","ping":74},{"user_id":185,"name":"medick","steam_id":76561199380849468,"connected_time":1638000000000,"state":"active","ping":63},{"user_id":181,"name":"Speed-Dial","steam_id":76561198012428315,"connected_time":2045000000000,"state":"active","ping":56},{"user_id":183,"name":"mr.resetti","steam_id":76561198974520642,"connected_time":1983000000000,"state":"active","ping":78},{"user_id":154,"name":"Largo","steam_id":76561198844368927,"connected_time":3581000000000,"state":"active","ping":78},{"user_id":150,"name":"hyvakii705","steam_id":76561198086630552,"connected_time":3944000000000,"state":"active","ping":90},{"user_id":157,"name":"lulu","steam_id":76561199147764133,"connected_time":3502000000000,"state":"active","ping":76},{"user_id":184,"name":"Eradical","steam_id":76561199035578645,"connected_time":1977000000000,"state":"active","ping":93},{"user_id":163,"name":"Nurdbot","steam_id":76561197972640060,"connected_time":3112000000000,"state":"active","ping":53},{"user_id":117,"name":"greg","steam_id":76561198088253779,"connected_time":5550000000000,"state":"active","ping":44},{"user_id":190,"name":"BadLuckBard","steam_id":76561199404236041,"connected_time":1465000000000,"state":"active","ping":44},{"user_id":193,"name":"Spurt","steam_id":76561198078523852,"connected_time":1275000000000,"state":"active","ping":59},{"user_id":131,"name":"lazyッ","steam_id":76561198211039223,"connected_time":4841000000000,"state":"active","ping":62}]},{"server_id":321,"name":"Uncletopia | London | 4 | All Maps","name_short":"lon-4","host":"lon-1.uk.uncletopia.com","port":27045,"enabled":true,"region":"eu","cc":"gb","latitude":51.509865,"longitude":-0.118092,"reserved":0,"last_update":"0001-01-01T00:00:00Z","name_a2s":"Uncletopia | London | 4 | All Maps","protocol":17,"map":"pl_thundermountain","folder":"tf","game":"Team Fortress","app_id":440,"player_count":24,"max_players":24,"Bots":0,"server_type":"Dedicated","server_os":"Linux","password":true,"vac":true,"version":"7961495","steam_id":85568392924510193,"keywords":["nocrits","nodmgspread","payload","uncletopia"],"game_id":440,"stv_port":27046,"stv_name":"Uncletopia | London | 4 | All Maps | STV","players":[{"user_id":274,"name":"finbar","steam_id":76561198056812396,"connected_time":28000000000,"state":"active","ping":84},{"user_id":183,"name":"Circular","steam_id":76561198001536710,"connected_time":4658000000000,"state":"active","ping":45},{"user_id":213,"name":"cisgender clown","steam_id":76561199469909295,"connected_time":3496000000000,"state":"active","ping":67},{"user_id":267,"name":"BOYMODE","steam_id":76561198155314925,"connected_time":287000000000,"state":"active","ping":57},{"user_id":242,"name":"bean","steam_id":76561198072586621,"connected_time":1657000000000,"state":"active","ping":47},{"user_id":273,"name":"jeff","steam_id":76561198272815746,"connected_time":103000000000,"state":"active","ping":49},{"user_id":254,"name":"small-brained bipedal primate","steam_id":76561198061220702,"connected_time":672000000000,"state":"active","ping":58},{"user_id":260,"name":"Wyrm Boy for reals","steam_id":76561198147771980,"connected_time":498000000000,"state":"active","ping":39},{"user_id":268,"name":"proper brexit geezer","steam_id":76561198018350557,"connected_time":253000000000,"state":"active","ping":62},{"user_id":191,"name":"blank","steam_id":76561198805181599,"connected_time":4415000000000,"state":"active","ping":59},{"user_id":262,"name":"stwert","steam_id":76561199510343690,"connected_time":400000000000,"state":"active","ping":101},{"user_id":223,"name":"DVS","steam_id":76561198062909843,"connected_time":2984000000000,"state":"active","ping":45},{"user_id":272,"name":"Mogwarrior41","steam_id":76561199388063817,"connected_time":210000000000,"state":"active","ping":160},{"user_id":251,"name":"Renota","steam_id":76561198058224488,"connected_time":720000000000,"state":"active","ping":125},{"user_id":249,"name":"no...","steam_id":76561198184577023,"connected_time":894000000000,"state":"active","ping":45},{"user_id":247,"name":"sanctioned","steam_id":76561198851157897,"connected_time":1170000000000,"state":"active","ping":64},{"user_id":238,"name":"Nokah","steam_id":76561198973184361,"connected_time":2125000000000,"state":"active","ping":72},{"user_id":243,"name":"McAtka","steam_id":76561198019759329,"connected_time":1622000000000,"state":"active","ping":68},{"user_id":252,"name":"Stenhård Kuk","steam_id":76561198163141957,"connected_time":707000000000,"state":"active","ping":48},{"user_id":258,"name":"cez","steam_id":76561198361380956,"connected_time":587000000000,"state":"active","ping":42},{"user_id":248,"name":"Overseer Boots","steam_id":76561199115636221,"connected_time":965000000000,"state":"active","ping":66},{"user_id":259,"name":"Estyle","steam_id":76561198157804700,"connected_time":576000000000,"state":"active","ping":100},{"user_id":215,"name":"Chish n' Fips","steam_id":76561198012300440,"connected_time":3342000000000,"state":"active","ping":49},{"user_id":265,"name":"The Scoundrel","steam_id":76561199244090814,"connected_time":371000000000,"state":"active","ping":45}]},{"server_id":21,"name":"Uncletopia | London | 5 | All Maps","name_short":"lon-5","host":"lon-1.uk.uncletopia.com","port":27055,"enabled":true,"region":"eu","cc":"gb","latitude":51.509865,"longitude":-0.118092,"reserved":0,"last_update":"0001-01-01T00:00:00Z","name_a2s":"Uncletopia | London | 5 | All Maps","protocol":17,"map":"koth_suijin","folder":"tf","game":"Team Fortress","app_id":440,"player_count":0,"max_players":24,"Bots":0,"server_type":"Dedicated","server_os":"Linux","password":true,"vac":true,"version":"7961495","steam_id":85568392924742829,"keywords":["cp","nocrits","nodmgspread","uncletopia"],"game_id":440,"stv_port":27056,"stv_name":"Uncletopia | London | 5 | All Maps | STV","players":null},{"server_id":22,"name":"Uncletopia | London | 6 | All Maps","name_short":"lon-6","host":"lon-1.uk.uncletopia.com","port":27065,"enabled":true,"region":"eu","cc":"gb","latitude":51.509865,"longitude":-0.118092,"reserved":0,"last_update":"0001-01-01T00:00:00Z","name_a2s":"Uncletopia | London | 6 | All Maps","protocol":17,"map":"koth_viaduct","folder":"tf","game":"Team Fortress","app_id":440,"player_count":0,"max_players":24,"Bots":0,"server_type":"Dedicated","server_os":"Linux","password":true,"vac":true,"version":"7961495","steam_id":85568392924742830,"keywords":["cp","nocrits","nodmgspread","uncletopia"],"game_id":440,"stv_port":27066,"stv_name":"Uncletopia | London | 6 | All Maps | STV","players":null},{"server_id":40,"name":"Uncletopia | London | 7 | Stopwatch","name_short":"lon-7","host":"lon-1.uk.uncletopia.com","port":27075,"enabled":true,"region":"eu","cc":"gb","latitude":51.509865,"longitude":-0.118092,"reserved":0,"last_update":"0001-01-01T00:00:00Z","name_a2s":"Uncletopia | London | 7 | Stopwatch","protocol":17,"map":"pl_swiftwater_final1","folder":"tf","game":"Team Fortress","app_id":440,"player_count":2,"max_players":24,"Bots":0,"server_type":"Dedicated","server_os":"Linux","password":true,"vac":true,"version":"7961495","steam_id":85568392924964314,"keywords":["nocrits","nodmgspread","payload","uncletopia"],"game_id":440,"stv_port":27076,"stv_name":"Uncletopia | London | 7 | Stopwatch | STV","players":[{"user_id":37,"name":"curious femboy","steam_id":76561199199388221,"connected_time":213000000000,"state":"active","ping":48},{"user_id":38,"name":"snauusey","steam_id":76561199134329212,"connected_time":188000000000,"state":"active","ping":51}]},{"server_id":41,"name":"Uncletopia | London | 8 | Community","name_short":"lon-8","host":"lon-1.uk.uncletopia.com","port":27085,"enabled":true,"region":"eu","cc":"gb","latitude":51.509865,"longitude":-0.118092,"reserved":0,"last_update":"0001-01-01T00:00:00Z","name_a2s":"Uncletopia | London | 8 | Community","protocol":17,"map":"workshop/koth_bagel_rc6.ugc2514036946","folder":"tf","game":"Team Fortress","app_id":440,"player_count":0,"max_players":24,"Bots":0,"server_type":"Dedicated","server_os":"Linux","password":true,"vac":true,"version":"7961495","steam_id":85568392924964315,"keywords":["cp","nocrits","nodmgspread","uncletopia"],"game_id":440,"stv_port":27086,"stv_name":"Uncletopia | London | 8 | Community | STV","players":null},{"server_id":300,"name":"Uncletopia | Montréal | 1 | One Thousand Uncles","name_short":"mtl-1","host":"mtl-1.ca.uncletopia.com","port":27015,"enabled":true,"region":"us-east","cc":"ca","latitude":45.50889,"longitude":-73.56167,"reserved":0,"last_update":"0001-01-01T00:00:00Z","name_a2s":"Uncletopia | Montréal | 1 | One Thousand Uncles","protocol":17,"map":"pl_barnblitz","folder":"tf","game":"Team Fortress","app_id":440,"player_count":0,"max_players":32,"Bots":0,"server_type":"Dedicated","server_os":"Linux","password":true,"vac":true,"version":"7961495","steam_id":85568392924500087,"keywords":["alltalk","danepve","increased_maxplayers","norespawntime","payload","uncletopia"],"game_id":440,"stv_port":0,"stv_name":"","players":null},{"server_id":301,"name":"Uncletopia | Montréal | 2 | One Thousand Uncles","name_short":"mtl-2","host":"mtl-1.ca.uncletopia.com","port":27025,"enabled":true,"region":"us-east","cc":"ca","latitude":45.50889,"longitude":-73.56167,"reserved":0,"last_update":"0001-01-01T00:00:00Z","name_a2s":"Uncletopia | Montréal | 2 | One Thousand Uncles","protocol":17,"map":"pl_pier","folder":"tf","game":"Team Fortress","app_id":440,"player_count":0,"max_players":32,"Bots":0,"server_type":"Dedicated","server_os":"Linux","password":true,"vac":true,"version":"7961495","steam_id":85568392924500088,"keywords":["alltalk","danepve","increased_maxplayers","norespawntime","payload","uncletopia"],"game_id":440,"stv_port":0,"stv_name":"","players":null},{"server_id":302,"name":"Uncletopia | Montréal | 3 | One Thousand Uncles","name_short":"mtl-3","host":"mtl-1.ca.uncletopia.com","port":27035,"enabled":true,"region":"us-east","cc":"ca","latitude":45.50889,"longitude":-73.56167,"reserved":0,"last_update":"0001-01-01T00:00:00Z","name_a2s":"Uncletopia | Montréal | 3 | One Thousand Uncles","protocol":17,"map":"pl_upward","folder":"tf","game":"Team Fortress","app_id":440,"player_count":0,"max_players":32,"Bots":0,"server_type":"Dedicated","server_os":"Linux","password":true,"vac":true,"version":"7961495","steam_id":85568392924500089,"keywords":["alltalk","danepve","increased_maxplayers","norespawntime","payload","uncletopia"],"game_id":440,"stv_port":0,"stv_name":"","players":null},{"server_id":13,"name":"Uncletopia | New York City | 1 | All Maps","name_short":"nyc-1","host":"nyc-1.us.uncletopia.com","port":27015,"enabled":true,"region":"us-east","cc":"us","latitude":40.73061,"longitude":-73.93524,"reserved":0,"last_update":"0001-01-01T00:00:00Z","name_a2s":"Uncletopia | New York City | 1 | All Maps","protocol":17,"map":"cp_snakewater_final1","folder":"tf","game":"Team Fortress","app_id":440,"player_count":0,"max_players":24,"Bots":0,"server_type":"Dedicated","server_os":"Linux","password":true,"vac":true,"version":"7961495","steam_id":85568392924469993,"keywords":["cp","nocrits","nodmgspread","uncletopia"],"game_id":440,"stv_port":27016,"stv_name":"Uncletopia | New York City | 1 | All Maps | STV","players":null},{"server_id":14,"name":"Uncletopia | New York City | 2 | All Maps","name_short":"nyc-2","host":"nyc-1.us.uncletopia.com","port":27025,"enabled":true,"region":"us-east","cc":"us","latitude":40.73061,"longitude":-73.93524,"reserved":0,"last_update":"0001-01-01T00:00:00Z","name_a2s":"Uncletopia | New York City | 2 | All Maps","protocol":17,"map":"koth_suijin","folder":"tf","game":"Team Fortress","app_id":440,"player_count":0,"max_players":24,"Bots":0,"server_type":"Dedicated","server_os":"Linux","password":true,"vac":true,"version":"7961495","steam_id":85568392924469994,"keywords":["cp","nocrits","nodmgspread","uncletopia"],"game_id":440,"stv_port":27026,"stv_name":"Uncletopia | New York City | 2 | All Maps | STV","players":null},{"server_id":15,"name":"Uncletopia | New York City | 3 | Stopwatch","name_short":"nyc-3","host":"nyc-1.us.uncletopia.com","port":27035,"enabled":true,"region":"us-east","cc":"us","latitude":40.73061,"longitude":-73.93524,"reserved":0,"last_update":"0001-01-01T00:00:00Z","name_a2s":"Uncletopia | New York City | 3 | Stopwatch","protocol":17,"map":"workshop/cp_reckoner_rc6.ugc674719999","folder":"tf","game":"Team Fortress","app_id":440,"player_count":0,"max_players":24,"Bots":0,"server_type":"Dedicated","server_os":"Linux","password":true,"vac":true,"version":"7961495","steam_id":85568392924742820,"keywords":["cp","nocrits","nodmgspread","uncletopia"],"game_id":440,"stv_port":27036,"stv_name":"Uncletopia | New York City | 3 | Stopwatch | STV","players":null},{"server_id":16,"name":"Uncletopia | New York City | 4 | Community","name_short":"nyc-4","host":"nyc-1.us.uncletopia.com","port":27045,"enabled":true,"region":"us-east","cc":"us","latitude":40.73061,"longitude":-73.93524,"reserved":0,"last_update":"0001-01-01T00:00:00Z","name_a2s":"Uncletopia | New York City | 4 | Community","protocol":17,"map":"workshop/cp_glacier_rc6.ugc2905735376","folder":"tf","game":"Team Fortress","app_id":440,"player_count":0,"max_players":24,"Bots":0,"server_type":"Dedicated","server_os":"Linux","password":true,"vac":true,"version":"7961495","steam_id":85568392924742821,"keywords":["cp","nocrits","nodmgspread","uncletopia"],"game_id":440,"stv_port":27046,"stv_name":"Uncletopia | New York City | 4 | Community | STV","players":null},{"server_id":142,"name":"Uncletopia | São Paulo | 1 | All Maps","name_short":"sao-1","host":"sao-1.br.uncletopia.com","port":27015,"enabled":true,"region":"sa","cc":"br","latitude":-23.533773,"longitude":-46.62529,"reserved":0,"last_update":"0001-01-01T00:00:00Z","name_a2s":"Uncletopia | São Paulo | 1 | All Maps","protocol":17,"map":"cp_mountainlab","folder":"tf","game":"Team Fortress","app_id":440,"player_count":0,"max_players":24,"Bots":0,"server_type":"Dedicated","server_os":"Linux","password":true,"vac":true,"version":"7961495","steam_id":85568392924469996,"keywords":["cp","nocrits","nodmgspread","uncletopia"],"game_id":440,"stv_port":27016,"stv_name":"Uncletopia | São Paulo | 1 | All Maps | STV","players":null},{"server_id":143,"name":"Uncletopia | São Paulo | 2 | Community","name_short":"sao-2","host":"sao-2.br.uncletopia.com","port":27015,"enabled":true,"region":"sa","cc":"br","latitude":-23.533773,"longitude":-46.62529,"reserved":0,"last_update":"0001-01-01T00:00:00Z","name_a2s":"Uncletopia | São Paulo | 2 | Community","protocol":17,"map":"workshop/koth_slaughter_rc1.ugc1712845210","folder":"tf","game":"Team Fortress","app_id":440,"player_count":0,"max_players":24,"Bots":0,"server_type":"Dedicated","server_os":"Linux","password":true,"vac":true,"version":"7961495","steam_id":85568392924485349,"keywords":["cp","nocrits","nodmgspread","uncletopia"],"game_id":440,"stv_port":27016,"stv_name":"Uncletopia | São Paulo | 2 | Community | STV","players":null},{"server_id":7,"name":"Uncletopia | Seattle | 1 | All Maps","name_short":"sea-1","host":"sea-1.us.uncletopia.com","port":27015,"enabled":true,"region":"us-west","cc":"us","latitude":47.608013,"longitude":-122.33517,"reserved":0,"last_update":"0001-01-01T00:00:00Z","name_a2s":"Uncletopia | Seattle | 1 | All Maps","protocol":17,"map":"cp_dustbowl","folder":"tf","game":"Team Fortress","app_id":440,"player_count":21,"max_players":24,"Bots":0,"server_type":"Dedicated","server_os":"Linux","password":true,"vac":true,"version":"7961495","steam_id":85568392924469997,"keywords":["cp","nocrits","nodmgspread","uncletopia"],"game_id":440,"stv_port":27016,"stv_name":"Uncletopia | Seattle | 1 | All Maps | STV","players":[{"user_id":183,"name":"Keamy","steam_id":76561199471434875,"connected_time":110000000000,"state":"active","ping":44},{"user_id":173,"name":"guy","steam_id":76561198196443262,"connected_time":1377000000000,"state":"active","ping":71},{"user_id":174,"name":"Xanveil","steam_id":76561198370304125,"connected_time":1376000000000,"state":"active","ping":111},{"user_id":184,"name":"Alcohol + Bad Life Decisions","steam_id":76561198107973644,"connected_time":58000000000,"state":"active","ping":45},{"user_id":175,"name":"YunKoツ","steam_id":76561199107366261,"connected_time":1345000000000,"state":"active","ping":139},{"user_id":115,"name":"Sailor","steam_id":76561199081983517,"connected_time":6045000000000,"state":"active","ping":91},{"user_id":169,"name":"Cheezbeargur","steam_id":76561198164702899,"connected_time":1535000000000,"state":"active","ping":61},{"user_id":185,"name":"Hemorrhoid Gaming","steam_id":76561199006526991,"connected_time":51000000000,"state":"active","ping":73},{"user_id":165,"name":"coco","steam_id":76561199488457138,"connected_time":1707000000000,"state":"active","ping":60},{"user_id":92,"name":"99dentay","steam_id":76561198135771720,"connected_time":7658000000000,"state":"active","ping":52},{"user_id":120,"name":"Erbbew","steam_id":76561198014787195,"connected_time":5617000000000,"state":"active","ping":45},{"user_id":166,"name":"The Potato Romancer","steam_id":76561198204197648,"connected_time":1702000000000,"state":"active","ping":84},{"user_id":114,"name":"DaddyGalaxy","steam_id":76561198139697796,"connected_time":6115000000000,"state":"active","ping":56},{"user_id":139,"name":"Mannamannaa","steam_id":76561198024438635,"connected_time":3660000000000,"state":"active","ping":119},{"user_id":179,"name":"[BBC] myr","steam_id":76561198200786939,"connected_time":741000000000,"state":"active","ping":31},{"user_id":143,"name":"Dr.Blunt","steam_id":76561198096333958,"connected_time":3266000000000,"state":"active","ping":90},{"user_id":79,"name":"Penis Man","steam_id":76561198947885613,"connected_time":9411000000000,"state":"active","ping":67},{"user_id":176,"name":"Ulrich Stern","steam_id":76561198101739682,"connected_time":1342000000000,"state":"active","ping":117},{"user_id":178,"name":"Falleax","steam_id":76561198021154908,"connected_time":1263000000000,"state":"active","ping":101},{"user_id":75,"name":"NEЯO","steam_id":76561197965450216,"connected_time":9494000000000,"state":"active","ping":58},{"user_id":182,"name":"Imitation Caucasian","steam_id":76561198320536166,"connected_time":152000000000,"state":"active","ping":79}]},{"server_id":119,"name":"Uncletopia | Seattle | 2 | All Maps","name_short":"sea-2","host":"sea-1.us.uncletopia.com","port":27025,"enabled":true,"region":"us-west","cc":"us","latitude":47.608013,"longitude":-122.33517,"reserved":0,"last_update":"0001-01-01T00:00:00Z","name_a2s":"Uncletopia | Seattle | 2 | All Maps","protocol":17,"map":"cp_mountainlab","folder":"tf","game":"Team Fortress","app_id":440,"player_count":0,"max_players":24,"Bots":0,"server_type":"Dedicated","server_os":"Linux","password":true,"vac":true,"version":"7961495","steam_id":85568392924469998,"keywords":["cp","nocrits","nodmgspread","uncletopia"],"game_id":440,"stv_port":27026,"stv_name":"Uncletopia | Seattle | 2 | All Maps | STV","players":null},{"server_id":406,"name":"Uncletopia | Seattle | 3 | Stopwatch","name_short":"sea-3","host":"sea-1.us.uncletopia.com","port":27035,"enabled":true,"region":"us-west","cc":"us","latitude":47.608013,"longitude":-122.33517,"reserved":0,"last_update":"0001-01-01T00:00:00Z","name_a2s":"Uncletopia | Seattle | 3 | Stopwatch","protocol":17,"map":"cp_gullywash_final1","folder":"tf","game":"Team Fortress","app_id":440,"player_count":0,"max_players":24,"Bots":0,"server_type":"Dedicated","server_os":"Linux","password":true,"vac":true,"version":"7961495","steam_id":85568392924515217,"keywords":["cp","nocrits","nodmgspread","uncletopia"],"game_id":440,"stv_port":27036,"stv_name":"Uncletopia | Seattle | 3 | Stopwatch | STV","players":null},{"server_id":17,"name":"Uncletopia | San Francisco | 1 | All Maps","name_short":"sfo-1","host":"sfo-1.us.uncletopia.com","port":27015,"enabled":true,"region":"us-west","cc":"us","latitude":37.77397,"longitude":-122.4313,"reserved":0,"last_update":"0001-01-01T00:00:00Z","name_a2s":"Uncletopia | San Francisco | 1 | All Maps","protocol":17,"map":"cp_gullywash_final1","folder":"tf","game":"Team Fortress","app_id":440,"player_count":0,"max_players":24,"Bots":0,"server_type":"Dedicated","server_os":"Linux","password":true,"vac":true,"version":"7961495","steam_id":85568392924469999,"keywords":["cp","nocrits","nodmgspread","uncletopia"],"game_id":440,"stv_port":27016,"stv_name":"Uncletopia | San Francisco | 1 | All Maps | STV","players":null},{"server_id":18,"name":"Uncletopia | San Francisco | 2 | All Maps","name_short":"sfo-2","host":"sfo-1.us.uncletopia.com","port":27025,"enabled":true,"region":"us-west","cc":"us","latitude":37.77397,"longitude":-122.4313,"reserved":0,"last_update":"0001-01-01T00:00:00Z","name_a2s":"Uncletopia | San Francisco | 2 | All Maps","protocol":17,"map":"pl_hoodoo_final","folder":"tf","game":"Team Fortress","app_id":440,"player_count":0,"max_players":24,"Bots":0,"server_type":"Dedicated","server_os":"Linux","password":true,"vac":true,"version":"7961495","steam_id":85568392924470000,"keywords":["nocrits","nodmgspread","payload","uncletopia"],"game_id":440,"stv_port":27026,"stv_name":"Uncletopia | San Francisco | 2 | All Maps | STV","players":null},{"server_id":19,"name":"Uncletopia | San Francisco | 3 | Stopwatch","name_short":"sfo-3","host":"sfo-1.us.uncletopia.com","port":27035,"enabled":true,"region":"us-west","cc":"us","latitude":37.77397,"longitude":-122.4313,"reserved":0,"last_update":"0001-01-01T00:00:00Z","name_a2s":"Uncletopia | San Francisco | 3 | Stopwatch","protocol":17,"map":"workshop/koth_clearcut_b15.ugc2107050255","folder":"tf","game":"Team Fortress","app_id":440,"player_count":0,"max_players":24,"Bots":0,"server_type":"Dedicated","server_os":"Linux","password":true,"vac":true,"version":"7961495","steam_id":85568392924742824,"keywords":["cp","nocrits","nodmgspread","uncletopia"],"game_id":440,"stv_port":27036,"stv_name":"Uncletopia | San Francisco | 3 | Stopwatch | STV","players":null},{"server_id":20,"name":"Uncletopia | San Francisco | 4 | Community","name_short":"sfo-4","host":"sfo-1.us.uncletopia.com","port":27045,"enabled":true,"region":"us-west","cc":"us","latitude":37.77397,"longitude":-122.4313,"reserved":0,"last_update":"0001-01-01T00:00:00Z","name_a2s":"Uncletopia | San Francisco | 4 | Community","protocol":17,"map":"workshop/cp_reckoner_rc6.ugc674719999","folder":"tf","game":"Team Fortress","app_id":440,"player_count":0,"max_players":24,"Bots":0,"server_type":"Dedicated","server_os":"Linux","password":true,"vac":true,"version":"7961495","steam_id":85568392924742826,"keywords":["cp","nocrits","nodmgspread","uncletopia"],"game_id":440,"stv_port":27046,"stv_name":"Uncletopia | San Francisco | 4 | Community | STV","players":null},{"server_id":141,"name":"Uncletopia | Sydney | 1 | All Maps","name_short":"syd-1","host":"syd-1.au.uncletopia.com","port":27015,"enabled":true,"region":"au","cc":"au","latitude":-33.865143,"longitude":151.2099,"reserved":0,"last_update":"0001-01-01T00:00:00Z","name_a2s":"Uncletopia | Sydney | 1 | All Maps","protocol":17,"map":"koth_highpass","folder":"tf","game":"Team Fortress","app_id":440,"player_count":0,"max_players":24,"Bots":0,"server_type":"Dedicated","server_os":"Linux","password":true,"vac":true,"version":"7961495","steam_id":85568392924470001,"keywords":["cp","nocrits","nodmgspread","uncletopia"],"game_id":440,"stv_port":27016,"stv_name":"Uncletopia | Sydney | 1 | All Maps | STV","players":null},{"server_id":123,"name":"Uncletopia | Sydney | 2 | All Maps","name_short":"syd-2","host":"syd-1.au.uncletopia.com","port":27025,"enabled":true,"region":"au","cc":"au","latitude":-33.865143,"longitude":151.2099,"reserved":0,"last_update":"0001-01-01T00:00:00Z","name_a2s":"Uncletopia | Sydney | 2 | All Maps","protocol":17,"map":"cp_mountainlab","folder":"tf","game":"Team Fortress","app_id":440,"player_count":0,"max_players":24,"Bots":0,"server_type":"Dedicated","server_os":"Linux","password":true,"vac":true,"version":"7961495","steam_id":85568392924470002,"keywords":["cp","nocrits","nodmgspread","uncletopia"],"game_id":440,"stv_port":27026,"stv_name":"Uncletopia | Sydney | 2 | All Maps | STV","players":null},{"server_id":395,"name":"Uncletopia | Sydney | 3 | All Maps","name_short":"syd-3","host":"syd-1.au.uncletopia.com","port":27035,"enabled":true,"region":"au","cc":"au","latitude":-33.865143,"longitude":151.2099,"reserved":0,"last_update":"0001-01-01T00:00:00Z","name_a2s":"Uncletopia | Sydney | 3 | All Maps","protocol":17,"map":"cp_snakewater_final1","folder":"tf","game":"Team Fortress","app_id":440,"player_count":0,"max_players":24,"Bots":0,"server_type":"Dedicated","server_os":"Linux","password":true,"vac":true,"version":"7961495","steam_id":85568392925194467,"keywords":["cp","nocrits","nodmgspread","uncletopia"],"game_id":440,"stv_port":27036,"stv_name":"Uncletopia | Sydney | 3 | All Maps | STV","players":null},{"server_id":396,"name":"Uncletopia | Sydney | 4 | All Maps","name_short":"syd-4","host":"syd-1.au.uncletopia.com","port":27045,"enabled":true,"region":"au","cc":"au","latitude":-33.865143,"longitude":151.2099,"reserved":0,"last_update":"0001-01-01T00:00:00Z","name_a2s":"Uncletopia | Sydney | 4 | All Maps","protocol":17,"map":"koth_highpass","folder":"tf","game":"Team Fortress","app_id":440,"player_count":0,"max_players":24,"Bots":0,"server_type":"Dedicated","server_os":"Linux","password":true,"vac":true,"version":"7961495","steam_id":85568392925397958,"keywords":["cp","nocrits","nodmgspread","uncletopia"],"game_id":440,"stv_port":27046,"stv_name":"Uncletopia | Sydney | 4 | All Maps | STV","players":null},{"server_id":58,"name":"Uncletopia | Sydney | 5 | Stopwatch","name_short":"syd-5","host":"syd-1.au.uncletopia.com","port":27055,"enabled":true,"region":"au","cc":"au","latitude":-33.865143,"longitude":151.2099,"reserved":0,"last_update":"0001-01-01T00:00:00Z","name_a2s":"Uncletopia | Sydney | 5 | Stopwatch","protocol":17,"map":"koth_lakeside_final","folder":"tf","game":"Team Fortress","app_id":440,"player_count":0,"max_players":24,"Bots":0,"server_type":"Dedicated","server_os":"Linux","password":true,"vac":true,"version":"7961495","steam_id":85568392925397959,"keywords":["cp","nocrits","nodmgspread","uncletopia"],"game_id":440,"stv_port":27056,"stv_name":"Uncletopia | Sydney | 5 | Stopwatch | STV","players":null},{"server_id":59,"name":"Uncletopia | Sydney | 6 | Community","name_short":"syd-6","host":"syd-1.au.uncletopia.com","port":27065,"enabled":true,"region":"au","cc":"au","latitude":-33.865143,"longitude":151.2099,"reserved":0,"last_update":"0001-01-01T00:00:00Z","name_a2s":"Uncletopia | Sydney | 6 | Community","protocol":17,"map":"workshop/koth_soot_final1.ugc2969540689","folder":"tf","game":"Team Fortress","app_id":440,"player_count":0,"max_players":24,"Bots":0,"server_type":"Dedicated","server_os":"Linux","password":true,"vac":true,"version":"7961495","steam_id":85568392925397960,"keywords":["cp","nocrits","nodmgspread","uncletopia"],"game_id":440,"stv_port":27066,"stv_name":"Uncletopia | Sydney | 6 | Community | STV","players":null},{"server_id":49,"name":"Uncletopia | Warsaw | 1 | One Thousand Uncles","name_short":"waw-1","host":"waw-1.pl.uncletopia.com","port":27015,"enabled":true,"region":"eu","cc":"pl","latitude":52.2297,"longitude":21.017532,"reserved":0,"last_update":"0001-01-01T00:00:00Z","name_a2s":"Uncletopia | Warsaw | 1 | One Thousand Uncles","protocol":17,"map":"cp_egypt_final","folder":"tf","game":"Team Fortress","app_id":440,"player_count":30,"max_players":32,"Bots":20,"server_type":"Dedicated","server_os":"Linux","password":true,"vac":true,"version":"7961495","steam_id":85568392925397850,"keywords":["alltalk","bots","cp","danepve","increased_maxplayers","norespawntime","uncletopia"],"game_id":440,"stv_port":0,"stv_name":"","players":[{"user_id":438,"name":"zoeydotexe","steam_id":76561199019757026,"connected_time":1354000000000,"state":"active","ping":86},{"user_id":447,"name":"lisivi","steam_id":76561198365503306,"connected_time":797000000000,"state":"active","ping":74},{"user_id":450,"name":"Ciwy85","steam_id":76561198018877014,"connected_time":600000000000,"state":"active","ping":86},{"user_id":455,"name":"Luki","steam_id":76561198180609107,"connected_time":517000000000,"state":"active","ping":225},{"user_id":426,"name":"Doods","steam_id":76561199172809660,"connected_time":2819000000000,"state":"active","ping":117},{"user_id":442,"name":"green rain 57","steam_id":76561199404849068,"connected_time":1219000000000,"state":"active","ping":230},{"user_id":443,"name":"PuPuruPuruPumPu","steam_id":76561198391950490,"connected_time":1214000000000,"state":"active","ping":96},{"user_id":453,"name":"antagonist","steam_id":76561198045125796,"connected_time":541000000000,"state":"active","ping":125},{"user_id":454,"name":"Mr E. Lander","steam_id":76561198055411818,"connected_time":536000000000,"state":"active","ping":170},{"user_id":437,"name":"DoG_SAmuRai","steam_id":76561199300622860,"connected_time":1680000000000,"state":"active","ping":88},{"user_id":389,"name":"Dell \"Vermineer\" LaFontant","steam_id":76561198371872022,"connected_time":6020000000000,"state":"active","ping":102}]},{"server_id":50,"name":"Uncletopia | Warsaw | 2 | One Thousand Uncles","name_short":"waw-2","host":"waw-1.pl.uncletopia.com","port":27025,"enabled":true,"region":"eu","cc":"pl","latitude":52.2297,"longitude":21.017532,"reserved":0,"last_update":"0001-01-01T00:00:00Z","name_a2s":"Uncletopia | Warsaw | 2 | One Thousand Uncles","protocol":17,"map":"pl_thundermountain","folder":"tf","game":"Team Fortress","app_id":440,"player_count":22,"max_players":32,"Bots":20,"server_type":"Dedicated","server_os":"Linux","password":true,"vac":true,"version":"7961495","steam_id":85568392925397851,"keywords":["alltalk","bots","danepve","increased_maxplayers","norespawntime","payload","uncletopia"],"game_id":440,"stv_port":0,"stv_name":"","players":[{"user_id":294,"name":"APGE","steam_id":76561198037063136,"connected_time":300000000000,"state":"active","ping":75},{"user_id":315,"name":"Bordt258","steam_id":76561199038280717,"connected_time":113000000000,"state":"active","ping":55}]},{"server_id":51,"name":"Uncletopia | Warsaw | 3 | All Maps","name_short":"waw-3","host":"waw-1.pl.uncletopia.com","port":27035,"enabled":true,"region":"eu","cc":"pl","latitude":52.2297,"longitude":21.017532,"reserved":0,"last_update":"0001-01-01T00:00:00Z","name_a2s":"Uncletopia | Warsaw | 3 | All Maps","protocol":17,"map":"pl_barnblitz","folder":"tf","game":"Team Fortress","app_id":440,"player_count":0,"max_players":24,"Bots":0,"server_type":"Dedicated","server_os":"Linux","password":true,"vac":true,"version":"7961495","steam_id":85568392925397852,"keywords":["nocrits","nodmgspread","payload","uncletopia"],"game_id":440,"stv_port":27036,"stv_name":"Uncletopia | Warsaw | 3 | All Maps | STV","players":null},{"server_id":52,"name":"Uncletopia | Warsaw | 4 | All Maps","name_short":"waw-4","host":"waw-1.pl.uncletopia.com","port":27045,"enabled":true,"region":"eu","cc":"pl","latitude":52.2297,"longitude":21.017532,"reserved":0,"last_update":"0001-01-01T00:00:00Z","name_a2s":"Uncletopia | Warsaw | 4 | All Maps","protocol":17,"map":"koth_viaduct","folder":"tf","game":"Team Fortress","app_id":440,"player_count":0,"max_players":24,"Bots":0,"server_type":"Dedicated","server_os":"Linux","password":true,"vac":true,"version":"7961495","steam_id":85568392925397853,"keywords":["cp","nocrits","nodmgspread","uncletopia"],"game_id":440,"stv_port":27046,"stv_name":"Uncletopia | Warsaw | 4 | All Maps | STV","players":null},{"server_id":53,"name":"Uncletopia | Warsaw | 5 | Stopwatch","name_short":"waw-5","host":"waw-1.pl.uncletopia.com","port":27055,"enabled":true,"region":"eu","cc":"pl","latitude":52.2297,"longitude":21.017532,"reserved":0,"last_update":"0001-01-01T00:00:00Z","name_a2s":"Uncletopia | Warsaw | 5 | Stopwatch","protocol":17,"map":"pl_swiftwater_final1","folder":"tf","game":"Team Fortress","app_id":440,"player_count":8,"max_players":24,"Bots":0,"server_type":"Dedicated","server_os":"Linux","password":true,"vac":true,"version":"7961495","steam_id":85568392925397854,"keywords":["nocrits","nodmgspread","payload","uncletopia"],"game_id":440,"stv_port":27056,"stv_name":"Uncletopia | Warsaw | 5 | Stopwatch | STV","players":[{"user_id":6,"name":"Walter Heartwell White","steam_id":76561199438915375,"connected_time":6138000000000,"state":"active","ping":33},{"user_id":29,"name":"Flying skyhigh","steam_id":76561198372971096,"connected_time":23000000000,"state":"active","ping":70},{"user_id":9,"name":"Gibus","steam_id":76561198822957889,"connected_time":3259000000000,"state":"active","ping":89},{"user_id":15,"name":"Bows","steam_id":76561199246175044,"connected_time":2310000000000,"state":"active","ping":226},{"user_id":18,"name":"ERU9-EGRNJI-AGERNJI","steam_id":76561198153062568,"connected_time":1587000000000,"state":"active","ping":66},{"user_id":20,"name":"Eskimo","steam_id":76561198259807687,"connected_time":1039000000000,"state":"active","ping":45},{"user_id":21,"name":"diajan","steam_id":76561198233799752,"connected_time":1024000000000,"state":"active","ping":70},{"user_id":24,"name":"practicing","steam_id":76561198176202865,"connected_time":801000000000,"state":"active","ping":80}]},{"server_id":54,"name":"Uncletopia | Warsaw | 6 | Community","name_short":"waw-6","host":"waw-1.pl.uncletopia.com","port":27065,"enabled":true,"region":"eu","cc":"pl","latitude":52.2297,"longitude":21.017532,"reserved":0,"last_update":"0001-01-01T00:00:00Z","name_a2s":"Uncletopia | Warsaw | 6 | Community","protocol":17,"map":"workshop/cp_sultry_b8.ugc2775471508","folder":"tf","game":"Team Fortress","app_id":440,"player_count":0,"max_players":24,"Bots":0,"server_type":"Dedicated","server_os":"Linux","password":true,"vac":true,"version":"7961495","steam_id":85568392925397856,"keywords":["cp","nocrits","nodmgspread","uncletopia"],"game_id":440,"stv_port":27066,"stv_name":"Uncletopia | Warsaw | 6 | Community | STV","players":null}]}