{"status":true,"message":"","result":[{"server_id":9,"name":"Uncletopia | Atlanta | 1 | All Maps","name_short":"atl-1","host":"atl-1.us.uncletopia.com","port":27015,"enabled":true,"region":"us-east","cc":"us","latitude":33.753746,"longitude":-84.38633,"reserved":0,"last_update":"0001-01-01T00:00:00Z","name_a2s":"Uncletopia | Atlanta | 1 | All Maps","protocol":17,"map":"cp_process_final","folder":"tf","game":"Team Fortress","app_id":440,"player_count":0,"max_players":24,"Bots":0,"server_type":"Dedicated","server_os":"Linux","password":true,"vac":true,"version":"7961495","steam_id":85568392924469982,"keywords":["cp","nocrits","nodmgspread","uncletopia"],"game_id":440,"stv_port":27016,"stv_name":"Uncletopia | Atlanta | 1 | All Maps | STV","players":null},{"server_id":104,"name":"Uncletopia | Atlanta | 2 | All Maps","name_short":"atl-2","host":"atl-1.us.uncletopia.com","port":27025,"enabled":true,"region":"us-east","cc":"us","latitude":33.753746,"longitude":-84.38633,"reserved":0,"last_update":"0001-01-01T00:00:00Z","name_a2s":"Uncletopia | Atlanta | 2 | All Maps","protocol":17,"map":"koth_viaduct","folder":"tf","game":"Team Fortress","app_id":440,"player_count":0,"max_players":24,"Bots":0,"server_type":"Dedicated","server_os":"Linux","password":true,"vac":true,"version":"7961495","steam_id":85568392924469983,"keywords":["cp","nocrits","nodmgspread","uncletopia"],"game_id":440,"stv_port":27026,"stv_name":"Uncletopia | Atlanta | 2 | All Maps | STV","players":null},{"server_id":400,"name":"Uncletopia | Atlanta | 3 | Stopwatch","name_short":"atl-3","host":"atl-1.us.uncletopia.com","port":27035,"enabled":true,"region":"us-east","cc":"us","latitude":33.753746,"longitude":-84.38633,"reserved":0,"last_update":"0001-01-01T00:00:00Z","name_a2s":"Uncletopia | Atlanta | 3 | Stopwatch","protocol":17,"map":"workshop/koth_jamram_rc1a.ugc2964065613","folder":"tf","game":"Team Fortress","app_id":440,"player_count":0,"max_players":24,"Bots":0,"server_type":"Dedicated","server_os":"Linux","password":true,"vac":true,"version":"7961495","steam_id":85568392924515187,"keywords":["cp","nocrits","nodmgspread","uncletopia"],"game_id":440,"stv_port":27036,"stv_name":"Uncletopia | Atlanta | 3 | Stopwatch | STV","players":null},{"server_id":401,"name":"Uncletopia | Atlanta | 4 | Community","name_short":"atl-4","host":"atl-1.us.uncletopia.com","port":27045,"enabled":true,"region":"us-east","cc":"us","latitude":33.753746,"longitude":-84.38633,"reserved":0,"last_update":"0001-01-01T00:00:00Z","name_a2s":"Uncletopia | Atlanta | 4 | Community","protocol":17,"map":"workshop/cp_reckoner_rc6.ugc674719999","folder":"tf","game":"Team Fortress","app_id":440,"player_count":0,"max_players":24,"Bots":0,"server_type":"Dedicated","server_os":"Linux","password":true,"vac":true,"version":"7961495","steam_id":85568392924515188,"keywords":["cp","nocrits","nodmgspread","uncletopia"],"game_id":440,"stv_port":27046,"stv_name":"Uncletopia | Atlanta | 4 | Community | STV","players":null},{"server_id":2,"name":"Uncletopia | Chicago | 1 | All Maps","name_short":"chi-1","host":"chi-1.us.uncletopia.com","port":27015,"enabled":true,"region":"us-central","cc":"us","latitude":41.881832,"longitude":-87.62318,"reserved":0,"last_update":"0001-01-01T00:00:00Z","name_a2s":"Uncletopia | Chicago | 1 | All Maps","protocol":17,"map":"pl_snowycoast","folder":"tf","game":"Team Fortress","app_id":440,"player_count":2,"max_players":24,"Bots":0,"server_type":"Dedicated","server_os":"Linux","password":true,"vac":true,"version":"7961495","steam_id":85568392924469984,"keywords":["nocrits","nodmgspread","payload","uncletopia"],"game_id":440,"stv_port":27016,"stv_name":"Uncletopia | Chicago | 1 | All Maps | STV","players":[{"user_id":664,"name":"ZombieRaichu","steam_id":76561198173250571,"connected_time":550000000000,"state":"active","ping":65},{"user_id":651,"name":"+","steam_id":76561198262422184,"connected_time":3198000000000,"state":"active","ping":71}]},{"server_id":106,"name":"Uncletopia | Chicago | 2 | All Maps","name_short":"chi-2","host":"chi-1.us.uncletopia.com","port":27025,"enabled":true,"region":"us-central","cc":"us","latitude":41.881832,"longitude":-87.62318,"reserved":0,"last_update":"0001-01-01T00:00:00Z","name_a2s":"Uncletopia | Chicago | 2 | All Maps","protocol":17,"map":"pl_swiftwater_final1","folder":"tf","game":"Team Fortress","app_id":440,"player_count":24,"max_players":24,"Bots":0,"server_type":"Dedicated","server_os":"Linux","password":true,"vac":true,"version":"7961495","steam_id":85568392924469985,"keywords":["nocrits","nodmgspread","payload","uncletopia"],"game_id":440,"stv_port":27026,"stv_name":"Uncletopia | Chicago | 2 | All Maps | STV","players":[{"user_id":980,"name":"PyroTechno","steam_id":76561198060929872,"connected_time":378000000000,"state":"active","ping":55},{"user_id":983,"name":"Panzer4000","steam_id":76561198121308618,"connected_time":197000000000,"state":"active","ping":37},{"user_id":971,"name":"Rango","steam_id":76561198067275912,"connected_time":574000000000,"state":"active","ping":102},{"user_id":981,"name":"BoltCoyote","steam_id":76561197976330264,"connected_time":377000000000,"state":"active","ping":72},{"user_id":977,"name":"9 HOUR WORK DAY","steam_id":76561198292049646,"connected_time":470000000000,"state":"active","ping":45},{"user_id":972,"name":"degenerate","steam_id":76561198849461209,"connected_time":568000000000,"state":"active","ping":61},{"user_id":963,"name":"hcpeful","steam_id":76561198989505188,"connected_time":1838000000000,"state":"active","ping":44},{"user_id":965,"name":"Gene Takovic","steam_id":76561198881039861,"connected_time":1633000000000,"state":"active","ping":50},{"user_id":966,"name":"gallowsCalibrator","steam_id":76561198404707578,"connected_time":903000000000,"state":"active","ping":82},{"user_id":982,"name":"Celestial_Hat","steam_id":76561198390436653,"connected_time":239000000000,"state":"active","ping":105},{"user_id":974,"name":"goopgrabber","steam_id":76561199029951083,"connected_time":558000000000,"state":"active","ping":91},{"user_id":984,"name":"short bus enthusiast","steam_id":76561198069380992,"connected_time":167000000000,"state":"active","ping":81},{"user_id":832,"name":"stuffedidiot","steam_id":76561199181513019,"connected_time":12261000000000,"state":"active","ping":117},{"user_id":976,"name":"Hyggin","steam_id":76561198045388653,"connected_time":508000000000,"state":"active","ping":99},{"user_id":950,"name":"(\u003e人\u003c;)","steam_id":76561198043684960,"connected_time":3142000000000,"state":"active","ping":74},{"user_id":951,"name":"crazyabe111","steam_id":76561198407686352,"connected_time":3039000000000,"state":"active","ping":73},{"user_id":926,"name":"Rat Smacker","steam_id":76561198043629646,"connected_time":5803000000000,"state":"active","ping":67},{"user_id":985,"name":"werecat","steam_id":76561198005091213,"connected_time":164000000000,"state":"active","ping":58},{"user_id":979,"name":"{SK} Little Miss Catastrophe","steam_id":76561198004543822,"connected_time":462000000000,"state":"active","ping":94},{"user_id":986,"name":"DusterDan35","steam_id":76561198309129093,"connected_time":83000000000,"state":"active","ping":113},{"user_id":987,"name":"iryaxu_","steam_id":76561199438597996,"connected_time":77000000000,"state":"spawning","ping":159},{"user_id":964,"name":"erem2k","steam_id":76561198079020059,"connected_time":1750000000000,"state":"active","ping":56},{"user_id":988,"name":"KZN02","steam_id":76561198043802482,"connected_time":20000000000,"state":"spawning","ping":119},{"user_id":969,"name":"0","steam_id":76561198046065237,"connected_time":675000000000,"state":"active","ping":75}]},{"server_id":402,"name":"Uncletopia | Chicago | 3 | All Maps","name_short":"chi-3","host":"chi-1.us.uncletopia.com","port":27035,"enabled":true,"region":"us-central","cc":"us","latitude":41.881832,"longitude":-87.62318,"reserved":0,"last_update":"0001-01-01T00:00:00Z","name_a2s":"Uncletopia | Chicago | 3 | All Maps","protocol":17,"map":"cp_gorge","folder":"tf","game":"Team Fortress","app_id":440,"player_count":3,"max_players":24,"Bots":0,"server_type":"Dedicated","server_os":"Linux","password":true,"vac":true,"version":"7961495","steam_id":85568392924515191,"keywords":["cp","nocrits","nodmgspread","uncletopia"],"game_id":440,"stv_port":27036,"stv_name":"Uncletopia | Chicago | 3 | All Maps | STV","players":[{"user_id":527,"name":"Ushi Oni","steam_id":76561199006318097,"connected_time":1596000000000,"state":"active","ping":48},{"user_id":519,"name":"The Gray Rose","steam_id":76561198249773792,"connected_time":1797000000000,"state":"active","ping":50},{"user_id":536,"name":"Peaches","steam_id":76561198104804424,"connected_time":877000000000,"state":"active","ping":45}]},{"server_id":403,"name":"Uncletopia | Chicago | 4 | All Maps","name_short":"chi-4","host":"chi-1.us.uncletopia.com","port":27045,"enabled":true,"region":"us-central","cc":"us","latitude":41.881832,"longitude":-87.62318,"reserved":0,"last_update":"0001-01-01T00:00:00Z","name_a2s":"Uncletopia | Chicago | 4 | All Maps","protocol":17,"map":"pl_borneo","folder":"tf","game":"Team Fortress","app_id":440,"player_count":0,"max_players":24,"Bots":0,"server_type":"Dedicated","server_os":"Linux","password":true,"vac":true,"version":"7961495","steam_id":85568392924515193,"keywords":["nocrits","nodmgspread","payload","uncletopia"],"game_id":440,"stv_port":27046,"stv_name":"Uncletopia | Chicago | 4 | All Maps | STV","players":null},{"server_id":36,"name":"Uncletopia | Chicago | 5 | All Maps","name_short":"chi-5","host":"chi-2.us.uncletopia.com","port":27015,"enabled":true,"region":"us-central","cc":"us","latitude":41.881832,"longitude":-87.62318,"reserved":0,"last_update":"0001-01-01T00:00:00Z","name_a2s":"Uncletopia | Chicago | 5 | All Maps","protocol":17,"map":"koth_lakeside_final","folder":"tf","game":"Team Fortress","app_id":440,"player_count":0,"max_players":24,"Bots":0,"server_type":"Dedicated","server_os":"Linux","password":true,"vac":true,"version":"7961495","steam_id":85568392924866362,"keywords":["cp","nocrits","nodmgspread","uncletopia"],"game_id":440,"stv_port":27016,"stv_name":"Uncletopia | Chicago | 5 | All Maps | STV","players":null},{"server_id":37,"name":"Uncletopia | Chicago | 6 | All Maps","name_short":"chi-6","host":"chi-2.us.uncletopia.com","port":27025,"enabled":true,"region":"us-central","cc":"us","latitude":41.881832,"longitude":-87.62318,"reserved":0,"last_update":"0001-01-01T00:00:00Z","name_a2s":"Uncletopia | Chicago | 6 | All Maps","protocol":17,"map":"koth_cascade","folder":"tf","game":"Team Fortress","app_id":440,"player_count":0,"max_players":24,"Bots":0,"server_type":"Dedicated","server_os":"Linux","password":true,"vac":true,"version":"7961495","steam_id":85568392924866363,"keywords":["cp","nocrits","nodmgspread","uncletopia"],"game_id":440,"stv_port":27026,"stv_name":"Uncletopia | Chicago | 6 | All Maps | STV","players":null},{"server_id":38,"name":"Uncletopia | Chicago | 7 | Stopwatch","name_short":"chi-7","host":"chi-2.us.uncletopia.com","port":27035,"enabled":true,"region":"us-central","cc":"us","latitude":41.881832,"longitude":-87.62318,"reserved":0,"last_update":"0001-01-01T00:00:00Z","name_a2s":"Uncletopia | Chicago | 7 | Stopwatch","protocol":17,"map":"koth_lakeside_final","folder":"tf","game":"Team Fortress","app_id":440,"player_count":0,"max_players":24,"Bots":0,"server_type":"Dedicated","server_os":"Linux","password":true,"vac":true,"version":"7961495","steam_id":85568392924866364,"keywords":["cp","nocrits","nodmgspread","uncletopia"],"game_id":440,"stv_port":27036,"stv_name":"Uncletopia | Chicago | 7 | Stopwatch | STV","players":null},{"server_id":39,"name":"Uncletopia | Chicago | 8 | Community","name_short":"chi-8","host":"chi-2.us.uncletopia.com","port":27045,"enabled":true,"region":"us-central","cc":"us","latitude":41.881832,"longitude":-87.62318,"reserved":0,"last_update":"0001-01-01T00:00:00Z","name_a2s":"Uncletopia | Chicago | 8 | Community","protocol":17,"map":"workshop/pl_cashworks_final1.ugc2904065412","folder":"tf","game":"Team Fortress","app_id":440,"player_count":0,"max_players":24,"Bots":0,"server_type":"Dedicated","server_os":"Linux","password":true,"vac":true,"version":"7961495","steam_id":85568392924866365,"keywords":["nocrits","nodmgspread","payload","uncletopia"],"game_id":440,"stv_port":27046,"stv_name":"Uncletopia | Chicago | 8 | Community | STV","players":null},{"server_id":8,"name":"Uncletopia | Dallas | 1 | All Maps","name_short":"dal-1","host":"dal-1.us.uncletopia.com","port":27015,"enabled":true,"region":"us-central","cc":"us","latitude":32.779167,"longitude":-96.80889,"reserved":0,"last_update":"0001-01-01T00:00:00Z","name_a2s":"Uncletopia | Dallas | 1 | All Maps","protocol":17,"map":"pl_upward","folder":"tf","game":"Team Fortress","app_id":440,"player_count":24,"max_players":24,"Bots":0,"server_type":"Dedicated","server_os":"Linux","password":true,"vac":true,"version":"7961495","steam_id":85568392924469986,"keywords":["nocrits","nodmgspread","payload","uncletopia"],"game_id":440,"stv_port":27016,"stv_name":"Uncletopia | Dallas | 1 | All Maps | STV","players":[{"user_id":713,"name":"LoneDeb","steam_id":76561199204127461,"connected_time":367000000000,"state":"active","ping":107},{"user_id":677,"name":"Underdonehaircut","steam_id":76561198139902419,"connected_time":3672000000000,"state":"active","ping":84},{"user_id":661,"name":"Bogey","steam_id":76561198096227944,"connected_time":5675000000000,"state":"active","ping":45},{"user_id":701,"name":"Sakio","steam_id":76561198327087049,"connected_time":1819000000000,"state":"active","ping":90},{"user_id":598,"name":"CreateADebate","steam_id":76561198115760035,"connected_time":9474000000000,"state":"active","ping":62},{"user_id":711,"name":"Pescado Juegos","steam_id":76561198798161131,"connected_time":943000000000,"state":"active","ping":92},{"user_id":698,"name":"SilverX","steam_id":76561198172611627,"connected_time":2126000000000,"state":"active","ping":95},{"user_id":718,"name":"PTR","steam_id":76561198237253772,"connected_time":209000000000,"state":"active","ping":46},{"user_id":678,"name":"Kobbert","steam_id":76561198045040833,"connected_time":3599000000000,"state":"active","ping":61},{"user_id":686,"name":"FreshlyBrewed","steam_id":76561198181099881,"connected_time":3219000000000,"state":"active","ping":86},{"user_id":688,"name":"BOGDANOFF","steam_id":76561198026516681,"connected_time":2980000000000,"state":"active","ping":118},{"user_id":719,"name":"Milk T34","steam_id":76561198116115227,"connected_time":67000000000,"state":"active","ping":65},{"user_id":709,"name":"Satan-2","steam_id":76561199231742764,"connected_time":1064000000000,"state":"active","ping":85},{"user_id":676,"name":"just took estrogen ama :3","steam_id":76561198039225492,"connected_time":3736000000000,"state":"active","ping":86},{"user_id":634,"name":"LEFTTRIGGER","steam_id":76561199494382342,"connected_time":8068000000000,"state":"active","ping":53},{"user_id":646,"name":"Giselle","steam_id":76561198162593640,"connected_time":6999000000000,"state":"active","ping":96},{"user_id":715,"name":"Karma's Camera","steam_id":76561198059385185,"connected_time":298000000000,"state":"active","ping":89},{"user_id":716,"name":"dekemori","steam_id":76561198373889573,"connected_time":291000000000,"state":"active","ping":83},{"user_id":710,"name":"Radium","steam_id":76561198195881339,"connected_time":1051000000000,"state":"active","ping":70},{"user_id":669,"name":"errant","steam_id":76561197961758410,"connected_time":4577000000000,"state":"active","ping":44},{"user_id":717,"name":"Maurdakar","steam_id":76561197983420976,"connected_time":260000000000,"state":"active","ping":87},{"user_id":681,"name":"estrogen in my vape juice","steam_id":76561198068387373,"connected_time":3500000000000,"state":"active","ping":89},{"user_id":650,"name":"NexFrost","steam_id":76561197985774837,"connected_time":6860000000000,"state":"active","ping":39},{"user_id":707,"name":"Andrew's Taint","steam_id":76561198131400543,"connected_time":1456000000000,"state":"active","ping":73}]},{"server_id":108,"name":"Uncletopia | Dallas | 2 | All Maps","name_short":"dal-2","host":"dal-1.us.uncletopia.com","port":27025,"enabled":true,"region":"us-central","cc":"us","latitude":32.779167,"longitude":-96.80889,"reserved":0,"last_update":"0001-01-01T00:00:00Z","name_a2s":"Uncletopia | Dallas | 2 | All Maps","protocol":17,"map":"pl_snowycoast","folder":"tf","game":"Team Fortress","app_id":440,"player_count":17,"max_players":24,"Bots":0,"server_type":"Dedicated","server_os":"Linux","password":true,"vac":true,"version":"7961495","steam_id":85568392924469988,"keywords":["nocrits","nodmgspread","payload","uncletopia"],"game_id":440,"stv_port":27026,"stv_name":"Uncletopia | Dallas | 2 | All Maps | STV","players":[{"user_id":679,"name":"harlowng","steam_id":76561198060542928,"connected_time":169000000000,"state":"active","ping":125},{"user_id":665,"name":"Lex","steam_id":76561198069948353,"connected_time":1023000000000,"state":"active","ping":53},{"user_id":680,"name":"ĐïɐȐɹɦɆa","steam_id":76561198981411945,"connected_time":25000000000,"state":"spawning","ping":85},{"user_id":617,"name":"Toastered","steam_id":76561198178459042,"connected_time":4298000000000,"state":"active","ping":72},{"user_id":656,"name":"cris patt (real)","steam_id":76561199362872879,"connected_time":1866000000000,"state":"active","ping":63},{"user_id":671,"name":"King","steam_id":76561198123927752,"connected_time":855000000000,"state":"active","ping":75},{"user_id":667,"name":"Salt Syndrome","steam_id":76561198046584592,"connected_time":961000000000,"state":"active","ping":64},{"user_id":623,"name":"big man","steam_id":76561198155075517,"connected_time":4156000000000,"state":"active","ping":163},{"user_id":668,"name":"Lickity Split","steam_id":76561198132051047,"connected_time":948000000000,"state":"active","ping":120},{"user_id":678,"name":"oh hi im a huge splooging guy","steam_id":76561198074678273,"connected_time":327000000000,"state":"active","ping":74},{"user_id":626,"name":"paypur -rng","steam_id":76561198214370515,"connected_time":3957000000000,"state":"active","ping":87},{"user_id":662,"name":"Cottoneyes","steam_id":76561197994730627,"connected_time":1436000000000,"state":"active","ping":67},{"user_id":634,"name":"the man","steam_id":76561198389268114,"connected_time":3529000000000,"state":"active","ping":102},{"user_id":633,"name":"smoking big doinks in amish","steam_id":76561198044268609,"connected_time":3550000000000,"state":"active","ping":83},{"user_id":663,"name":"Underscorn","steam_id":76561198374209415,"connected_time":1353000000000,"state":"active","ping":60},{"user_id":659,"name":"rugbyralph288","steam_id":76561198161475964,"connected_time":1674000000000,"state":"active","ping":89},{"user_id":674,"name":"HundchenTanque","steam_id":76561198122692754,"connected_time":701000000000,"state":"active","ping":88}]},{"server_id":404,"name":"Uncletopia | Dallas | 3 | All Maps","name_short":"dal-3","host":"dal-1.us.uncletopia.com","port":27035,"enabled":true,"region":"us-central","cc":"us","latitude":32.779167,"longitude":-96.80889,"reserved":0,"last_update":"0001-01-01T00:00:00Z","name_a2s":"Uncletopia | Dallas | 3 | All Maps","protocol":17,"map":"plr_bananabay","folder":"tf","game":"Team Fortress","app_id":440,"player_count":0,"max_players":24,"Bots":0,"server_type":"Dedicated","server_os":"Linux","password":true,"vac":true,"version":"7961495","steam_id":85568392924515219,"keywords":["nocrits","nodmgspread","payload","uncletopia"],"game_id":440,"stv_port":27036,"stv_name":"Uncletopia | Dallas | 3 | All Maps | STV","players":null},{"server_id":405,"name":"Uncletopia | Dallas | 4 | Community","name_short":"dal-4","host":"dal-1.us.uncletopia.com","port":27045,"enabled":true,"region":"us-central","cc":"us","latitude":32.779167,"longitude":-96.80889,"reserved":0,"last_update":"0001-01-01T00:00:00Z","name_a2s":"Uncletopia | Dallas | 4 | Community","protocol":17,"map":"workshop/cp_caldera_rc3.ugc2834196889","folder":"tf","game":"Team Fortress","app_id":440,"player_count":0,"max_players":24,"Bots":0,"server_type":"Dedicated","server_os":"Linux","password":true,"vac":true,"version":"7961495","steam_id":85568392924515220,"keywords":["cp","nocrits","nodmgspread","uncletopia"],"game_id":440,"stv_port":27046,"stv_name":"Uncletopia | Dallas | 4 | Community | STV","players":null},{"server_id":5,"name":"Uncletopia | Frankfurt | 1 | All Maps","name_short":"frk-1","host":"frk-1.de.uncletopia.com","port":27015,"enabled":true,"region":"eu","cc":"de","latitude":50.110924,"longitude":8.682127,"reserved":0,"last_update":"0001-01-01T00:00:00Z","name_a2s":"Uncletopia | Frankfurt | 1 | All Maps","protocol":17,"map":"koth_cascade","folder":"tf","game":"Team Fortress","app_id":440,"player_count":7,"max_players":24,"Bots":0,"server_type":"Dedicated","server_os":"Linux","password":true,"vac":true,"version":"7961495","steam_id":85568392924469989,"keywords":["cp","nocrits","nodmgspread","uncletopia"],"game_id":440,"stv_port":27016,"stv_name":"Uncletopia | Frankfurt | 1 | All Maps | STV","players":[{"user_id":14,"name":"Godjan","steam_id":76561198077554447,"connected_time":657000000000,"state":"active","ping":140},{"user_id":6,"name":"Zulik92","steam_id":76561198152442373,"connected_time":2079000000000,"state":"active","ping":45},{"user_id":7,"name":"antlionguard","steam_id":76561198072747143,"connected_time":2026000000000,"state":"active","ping":105},{"user_id":15,"name":"snek","steam_id":76561198393655249,"connected_time":382000000000,"state":"active","ping":94},{"user_id":12,"name":"asetils","steam_id":76561198897732673,"connected_time":1647000000000,"state":"active","ping":60},{"user_id":16,"name":"Flying skyhigh","steam_id":76561198372971096,"connected_time":181000000000,"state":"active","ping":75},{"user_id":17,"name":"zzz...","steam_id":76561199149307190,"connected_time":0,"state":"connecting","ping":0}]},{"server_id":110,"name":"Uncletopia | Frankfurt | 2 | All Maps","name_short":"frk-2","host":"frk-1.de.uncletopia.com","port":27025,"enabled":true,"region":"eu","cc":"de","latitude":50.110924,"longitude":8.682127,"reserved":0,"last_update":"0001-01-01T00:00:00Z","name_a2s":"Uncletopia | Frankfurt | 2 | All Maps","protocol":17,"map":"plr_hightower","folder":"tf","game":"Team Fortress","app_id":440,"player_count":0,"max_players":24,"Bots":0,"server_type":"Dedicated","server_os":"Linux","password":true,"vac":true,"version":"7961495","steam_id":85568392924469990,"keywords":["nocrits","nodmgspread","payload","uncletopia"],"game_id":440,"stv_port":27026,"stv_name":"Uncletopia | Frankfurt | 2 | All Maps | STV","players":null},{"server_id":308,"name":"Uncletopia | Frankfurt | 3 | All Maps","name_short":"frk-3","host":"frk-1.de.uncletopia.com","port":27035,"enabled":true,"region":"eu","cc":"de","latitude":50.110924,"longitude":8.682127,"reserved":0,"last_update":"0001-01-01T00:00:00Z","name_a2s":"Uncletopia | Frankfurt | 3 | All Maps","protocol":17,"map":"cp_metalworks","folder":"tf","game":"Team Fortress","app_id":440,"player_count":0,"max_players":24,"Bots":0,"server_type":"Dedicated","server_os":"Linux","password":true,"vac":true,"version":"7961495","steam_id":85568392924504274,"keywords":["cp","nocrits","nodmgspread","uncletopia"],"game_id":440,"stv_port":27036,"stv_name":"Uncletopia | Frankfurt | 3 | All Maps | STV","players":null},{"server_id":309,"name":"Uncletopia | Frankfurt | 4 | All Maps","name_short":"frk-4","host":"frk-1.de.uncletopia.com","port":27045,"enabled":true,"region":"eu","cc":"de","latitude":50.110924,"longitude":8.682127,"reserved":0,"last_update":"0001-01-01T00:00:00Z","name_a2s":"Uncletopia | Frankfurt | 4 | All Maps","protocol":17,"map":"cp_gorge","folder":"tf","game":"Team Fortress","app_id":440,"player_count":0,"max_players":24,"Bots":0,"server_type":"Dedicated","server_os":"Linux","password":true,"vac":true,"version":"7961495","steam_id":85568392924504275,"keywords":["cp","nocrits","nodmgspread","uncletopia"],"game_id":440,"stv_port":27046,"stv_name":"Uncletopia | Frankfurt | 4 | All Maps | STV","players":null},{"server_id":310,"name":"Uncletopia | Frankfurt | 5 | All Maps","name_short":"frk-5","host":"frk-1.de.uncletopia.com","port":27055,"enabled":true,"region":"eu","cc":"de","latitude":50.110924,"longitude":8.682127,"reserved":0,"last_update":"0001-01-01T00:00:00Z","name_a2s":"Uncletopia | Frankfurt | 5 | All Maps","protocol":17,"map":"cp_mountainlab","folder":"tf","game":"Team Fortress","app_id":440,"player_count":0,"max_players":24,"Bots":0,"server_type":"Dedicated","server_os":"Linux","password":true,"vac":true,"version":"7961495","steam_id":85568392924504277,"keywords":["cp","nocrits","nodmgspread","uncletopia"],"game_id":440,"stv_port":27056,"stv_name":"Uncletopia | Frankfurt | 5 | All Maps | STV","players":null},{"server_id":311,"name":"Uncletopia | Frankfurt | 6 | All Maps","name_short":"frk-6","host":"frk-1.de.uncletopia.com","port":27065,"enabled":true,"region":"eu","cc":"de","latitude":50.110924,"longitude":8.682127,"reserved":0,"last_update":"0001-01-01T00:00:00Z","name_a2s":"Uncletopia | Frankfurt | 6 | All Maps","protocol":17,"map":"cp_dustbowl","folder":"tf","game":"Team Fortress","app_id":440,"player_count":0,"max_players":24,"Bots":0,"server_type":"Dedicated","server_os":"Linux","password":true,"vac":true,"version":"7961495","steam_id":85568392924504278,"keywords":["cp","nocrits","nodmgspread","uncletopia"],"game_id":440,"stv_port":27066,"stv_name":"Uncletopia | Frankfurt | 6 | All Maps | STV","players":null},{"server_id":23,"name":"Uncletopia | Frankfurt | 7 | Stopwatch","name_short":"frk-7","host":"frk-1.de.uncletopia.com","port":27075,"enabled":true,"region":"eu","cc":"de","latitude":50.110924,"longitude":8.682127,"reserved":0,"last_update":"0001-01-01T00:00:00Z","name_a2s":"Uncletopia | Frankfurt | 7 | Stopwatch","protocol":17,"map":"cp_sunshine","folder":"tf","game":"Team Fortress","app_id":440,"player_count":0,"max_players":24,"Bots":0,"server_type":"Dedicated","server_os":"Linux","password":true,"vac":true,"version":"7961495","steam_id":85568392924742827,"keywords":["cp","nocrits","nodmgspread","uncletopia"],"game_id":440,"stv_port":27076,"stv_name":"Uncletopia | Frankfurt | 7 | Stopwatch | STV","players":null},{"server_id":24,"name":"Uncletopia | Frankfurt | 8 | Community","name_short":"frk-8","host":"frk-1.de.uncletopia.com","port":27085,"enabled":true,"region":"eu","cc":"de","latitude":50.110924,"longitude":8.682127,"reserved":0,"last_update":"0001-01-01T00:00:00Z","name_a2s":"Uncletopia | Frankfurt | 8 | Community","protocol":17,"map":"workshop/cp_propaganda_b18.ugc1603743849","folder":"tf","game":"Team Fortress","app_id":440,"player_count":0,"max_players":24,"Bots":0,"server_type":"Dedicated","server_os":"Linux","password":true,"vac":true,"version":"7961495","steam_id":85568392924742828,"keywords":["cp","nocrits","nodmgspread","uncletopia"],"game_id":440,"stv_port":27086,"stv_name":"Uncletopia | Frankfurt | 8 | Community | STV","players":null},{"server_id":202,"name":"Uncletopia | Hong Kong | 1 | All Maps","name_short":"hgk-1","host":"hgk-1.hk.uncletopia.com","port":27015,"enabled":true,"region":"asia","cc":"hk","latitude":22.302711,"longitude":114.177216,"reserved":0,"last_update":"0001-01-01T00:00:00Z","name_a2s":"Uncletopia | Hong Kong | 1 | All Maps","protocol":17,"map":"pl_thundermountain","folder":"tf","game":"Team Fortress","app_id":440,"player_count":24,"max_players":24,"Bots":0,"server_type":"Dedicated","server_os":"Linux","password":true,"vac":true,"version":"7961495","steam_id":85568392924494504,"keywords":["nocrits","nodmgspread","payload","uncletopia"],"game_id":440,"stv_port":27016,"stv_name":"Uncletopia | Hong Kong | 1 | All Maps | STV","players":[{"user_id":502,"name":"protons","steam_id":76561198008307645,"connected_time":103000000000,"state":"active","ping":125},{"user_id":491,"name":"Drutzhfer","steam_id":76561198299948446,"connected_time":1643000000000,"state":"active","ping":101},{"user_id":485,"name":"Cazurey","steam_id":76561198005403459,"connected_time":3282000000000,"state":"active","ping":73},{"user_id":366,"name":"water tastes good","steam_id":76561199375947670,"connected_time":5744000000000,"state":"active","ping":71},{"user_id":347,"name":"spagsauce","steam_id":76561198999511239,"connected_time":6516000000000,"state":"active","ping":56},{"user_id":484,"name":"Michael Scott","steam_id":76561198023082794,"connected_time":3443000000000,"state":"active","ping":41},{"user_id":496,"name":"screaming sniper","steam_id":76561199085568674,"connected_time":789000000000,"state":"active","ping":86},{"user_id":499,"name":"nyakky","steam_id":76561198927779787,"connected_time":624000000000,"state":"active","ping":93},{"user_id":354,"name":"Kernel","steam_id":76561198402985446,"connected_time":6198000000000,"state":"active","ping":48},{"user_id":478,"name":"calm","steam_id":76561198360026912,"connected_time":4407000000000,"state":"active","ping":88},{"user_id":442,"name":"tiden2000","steam_id":76561198092969425,"connected_time":4908000000000,"state":"active","ping":66},{"user_id":353,"name":"Mac09","steam_id":76561198934873063,"connected_time":6249000000000,"state":"active","ping":76},{"user_id":249,"name":"yveth","steam_id":76561198320532821,"connected_time":10285000000000,"state":"active","ping":71},{"user_id":492,"name":"v1.","steam_id":76561198037571054,"connected_time":1630000000000,"state":"active","ping":44},{"user_id":495,"name":"E","steam_id":76561199173781370,"connected_time":831000000000,"state":"active","ping":103},{"user_id":176,"name":"vintage","steam_id":76561198230213828,"connected_time":11592000000000,"state":"active","ping":61},{"user_id":341,"name":"GM MF!","steam_id":76561198074339034,"connected_time":6784000000000,"state":"active","ping":81},{"user_id":500,"name":"CaptainBozo","steam_id":76561199151959977,"connected_time":325000000000,"state":"active","ping":58},{"user_id":488,"name":"Lady D.","steam_id":76561199225360457,"connected_time":3105000000000,"state":"active","ping":54},{"user_id":369,"name":"krill from happy feet","steam_id":76561199146847474,"connected_time":5711000000000,"state":"active","ping":61},{"user_id":497,"name":"beeoh","steam_id":76561198088242177,"connected_time":696000000000,"state":"active","ping":91},{"user_id":476,"name":"Wx","steam_id":76561199217780897,"connected_time":4487000000000,"state":"active","ping":123},{"user_id":501,"name":"Creaserg","steam_id":76561198827951097,"connected_time":204000000000,"state":"active","ping":90},{"user_id":503,"name":"Mimi Sen","steam_id":76561199034546642,"connected_time":102000000000,"state":"active","ping":112}]},{"server_id":1,"name":"Uncletopia | Los Angeles | 1 | All Maps","name_short":"lax-1","host":"lax-1.us.uncletopia.com","port":27015,"enabled":true,"region":"us-west","cc":"us","latitude":33.94279,"longitude":-118.41004,"reserved":0,"last_update":"0001-01-01T00:00:00Z","name_a2s":"Uncletopia | Los Angeles | 1 | All Maps","protocol":17,"map":"pl_upward","folder":"tf","game":"Team Fortress","app_id":440,"player_count":2,"max_players":24,"Bots":0,"server_type":"Dedicated","server_os":"Linux","password":true,"vac":true,"version":"7961495","steam_id":85568392924469991,"keywords":["nocrits","nodmgspread","payload","uncletopia"],"game_id":440,"stv_port":27016,"stv_name":"Uncletopia | Los Angeles | 1 | All Maps | STV","players":[{"user_id":316,"name":"Cigarette Fish","steam_id":76561199086973797,"connected_time":7672000000000,"state":"active","ping":90},{"user_id":280,"name":"The New Bob","steam_id":76561199122072556,"connected_time":11791000000000,"state":"active","ping":106}]},{"server_id":112,"name":"Uncletopia | Los Angeles | 2 | All Maps","name_short":"lax-2","host":"lax-1.us.uncletopia.com","port":27025,"enabled":true,"region":"us-west","cc":"us","latitude":33.94279,"longitude":-118.41004,"reserved":0,"last_update":"0001-01-01T00:00:00Z","name_a2s":"Uncletopia | Los Angeles | 2 | All Maps","protocol":17,"map":"pl_borneo","folder":"tf","game":"Team Fortress","app_id":440,"player_count":0,"max_players":24,"Bots":0,"server_type":"Dedicated","server_os":"Linux","password":true,"vac":true,"version":"7961495","steam_id":85568392924469992,"keywords":["nocrits","nodmgspread","payload","uncletopia"],"game_id":440,"stv_port":27026,"stv_name":"Uncletopia | Los Angeles | 2 | All Maps | STV","players":null},{"server_id":324,"name":"Uncletopia | Los Angeles | 3 | All Maps","name_short":"lax-3","host":"lax-1.us.uncletopia.com","port":27035,"enabled":true,"region":"us-west","cc":"us","latitude":33.94279,"longitude":-118.41004,"reserved":0,"last_update":"0001-01-01T00:00:00Z","name_a2s":"Uncletopia | Los Angeles | 3 | All Maps","protocol":17,"map":"pl_pier","folder":"tf","game":"Team Fortress","app_id":440,"player_count":24,"max_players":24,"Bots":0,"server_type":"Dedicated","server_os":"Linux","password":true,"vac":true,"version":"7961495","steam_id":85568392924510198,"keywords":["nocrits","nodmgspread","payload","uncletopia"],"game_id":440,"stv_port":27036,"stv_name":"Uncletopia | Los Angeles | 3 | All Maps | STV","players":[{"user_id":259,"name":"Fred","steam_id":76561197983870604,"connected_time":2673000000000,"state":"active","ping":55},{"user_id":287,"name":"ian hecocks","steam_id":76561198168492250,"connected_time":1295000000000,"state":"active","ping":55},{"user_id":282,"name":"Humble Learner","steam_id":76561198066091050,"connected_time":1481000000000,"state":"active","ping":78},{"user_id":250,"name":"Eden","steam_id":76561198081284664,"connected_time":3545000000000,"state":"active","ping":50},{"user_id":260,"name":"roach :3","steam_id":76561198354811369,"connected_time":2533000000000,"state":"active","ping":52},{"user_id":284,"name":"panda","steam_id":76561198025214612,"connected_time":1394000000000,"state":"active","ping":64},{"user_id":298,"name":"Atlas Fugged :DD","steam_id":76561198018753989,"connected_time":622000000000,"state":"active","ping":56},{"user_id":275,"name":"SanitysEdge","steam_id":76561198130732813,"connected_time":1683000000000,"state":"active","ping":47},{"user_id":281,"name":"meph","steam_id":76561198149683030,"connected_time":1516000000000,"state":"active","ping":69},{"user_id":272,"name":"Jerry","steam_id":76561198044717045,"connected_time":1808000000000,"state":"active","ping":38},{"user_id":291,"name":"felis catus megalomaximus","steam_id":76561198014326643,"connected_time":931000000000,"state":"active","ping":109},{"user_id":297,"name":"PROFILE NAME","steam_id":76561199438851854,"connected_time":776000000000,"state":"active","ping":86},{"user_id":230,"name":"rmbl","steam_id":76561198150137369,"connected_time":4898000000000,"state":"active","ping":56},{"user_id":293,"name":"PandaWithHat2313","steam_id":76561199116285411,"connected_time":888000000000,"state":"active","ping":46},{"user_id":280,"name":"lol","steam_id":76561198026491738,"connected_time":1571000000000,"state":"active","ping":70},{"user_id":294,"name":"Dadistic Sentist","steam_id":76561198103189993,"connected_time":880000000000,"state":"active","ping":73},{"user_id":274,"name":"00","steam_id":76561198041700636,"connected_time":1756000000000,"state":"active","ping":59},{"user_id":295,"name":"Mom","steam_id":76561198207936000,"connected_time":880000000000,"state":"active","ping":46},{"user_id":276,"name":"ronald_stackerusa55","steam_id":76561198150406851,"connected_time":1676000000000,"state":"active","ping":56},{"user_id":288,"name":"devamar","steam_id":76561198069115467,"connected_time":1290000000000,"state":"active","ping":45},{"user_id":267,"name":"Biggest Dude In Town 4U","steam_id":76561198070281464,"connected_time":2193000000000,"state":"active","ping":66},{"user_id":278,"name":"vampirebunii","steam_id":76561198091018788,"connected_time":1639000000000,"state":"active","ping":59},{"user_id":268,"name":"R0hban","steam_id":76561198071163718,"connected_time":2171000000000,"state":"active","ping":39},{"user_id":296,"name":"Anon","steam_id":76561198109740776,"connected_time":874000000000,"state":"active","ping":59}]},{"server_id":25,"name":"Uncletopia | Los Angeles | 4 | Stopwatch","name_short":"lax-4","host":"lax-1.us.uncletopia.com","port":27045,"enabled":true,"region":"us-west","cc":"us","latitude":33.94279,"longitude":-118.41004,"reserved":0,"last_update":"0001-01-01T00:00:00Z","name_a2s":"Uncletopia | Los Angeles | 4 | Stopwatch","protocol":17,"map":"cp_sunshine","folder":"tf","game":"Team Fortress","app_id":440,"player_count":3,"max_players":24,"Bots":0,"server_type":"Dedicated","server_os":"Linux","password":true,"vac":true,"version":"7961495","steam_id":85568392924510199,"keywords":["cp","nocrits","nodmgspread","uncletopia"],"game_id":440,"stv_port":27046,"stv_name":"Uncletopia | Los Angeles | 4 | Stopwatch | STV","players":[{"user_id":12,"name":"FlexTape","steam_id":76561198871834867,"connected_time":5737000000000,"state":"active","ping":50},{"user_id":13,"name":"Cowboyfos","steam_id":76561199055740230,"connected_time":5715000000000,"state":"active","ping":42},{"user_id":18,"name":"MirrorsAreScary","steam_id":76561198860505587,"connected_time":2477000000000,"state":"active","ping":102}]},{"server_id":11,"name":"Uncletopia | London | 1 | All Maps","name_short":"lon-1","host":"lon-1.uk.uncletopia.com","port":27015,"enabled":true,"region":"eu","cc":"gb","latitude":51.509865,"longitude":-0.118092,"reserved":0,"last_update":"0001-01-01T00:00:00Z","name_a2s":"Uncletopia | London | 1 | All Maps","protocol":17,"map":"pl_pier","folder":"tf","game":"Team Fortress","app_id":440,"player_count":24,"max_players":24,"Bots":0,"server_type":"Dedicated","server_os":"Linux","password":true,"vac":true,"version":"7961495","steam_id":85568392924367362,"keywords":["nocrits","nodmgspread","payload","uncletopia"],"game_id":440,"stv_port":27016,"stv_name":"Uncletopia | London | 1 | All Maps | STV","players":[{"user_id":129,"name":"Arecibo","steam_id":76561198014359615,"connected_time":944000000000,"state":"active","ping":51},{"user_id":133,"name":"MeDiciN","steam_id":76561199112280586,"connected_time":129000000000,"state":"active","ping":133},{"user_id":88,"name":"ChefTyrant","steam_id":76561198204135432,"connected_time":3942000000000,"state":"active","ping":64},{"user_id":127,"name":"Silverbolt","steam_id":76561198153165763,"connected_time":980000000000,"state":"active","ping":51},{"user_id":118,"name":"Largo","steam_id":76561198844368927,"connected_time":1528000000000,"state":"active","ping":81},{"user_id":87,"name":"Peter.. Limonadee","steam_id":76561198346638308,"connected_time":3971000000000,"state":"active","ping":58},{"user_id":99,"name":"Roadkill","steam_id":76561198267445999,"connected_time":3022000000000,"state":"active","ping":60},{"user_id":56,"name":"Generál Kiwi","steam_id":76561198255946537,"connected_time":6619000000000,"state":"active","ping":45},{"user_id":115,"name":"nojuskojos","steam_id":76561199060478662,"connected_time":1775000000000,"state":"active","ping":75},{"user_id":104,"name":"Syd","steam_id":76561198020515027,"connected_time":2680000000000,"state":"active","ping":98},{"user_id":126,"name":"aphextwinsucks","steam_id":76561198132185926,"connected_time":1008000000000,"state":"active","ping":73},{"user_id":112,"name":"Nipa5000","steam_id":76561199027332005,"connected_time":2035000000000,"state":"active","ping":87},{"user_id":123,"name":"Viv","steam_id":76561198199110998,"connected_time":1270000000000,"state":"active","ping":84},{"user_id":92,"name":"Dr. Quack","steam_id":76561198260753684,"connected_time":3587000000000,"state":"active","ping":125},{"user_id":131,"name":"fallen","steam_id":76561198095560087,"connected_time":545000000000,"state":"active","ping":78},{"user_id":125,"name":"Armand","steam_id":76561198236126774,"connected_time":1124000000000,"state":"active","ping":65},{"user_id":109,"name":"Rin-Nakaret","steam_id":76561197971051188,"connected_time":2228000000000,"state":"active","ping":53},{"user_id":98,"name":"siwnares_","steam_id":76561199148711521,"connected_time":3071000000000,"state":"active","ping":81},{"user_id":132,"name":"++Old_M@N++","steam_id":76561197994792094,"connected_time":430000000000,"state":"active","ping":68},{"user_id":64,"name":"Loona my beloved","steam_id":76561198067182918,"connected_time":5910000000000,"state":"active","ping":99},{"user_id":122,"name":"Rui","steam_id":76561198263735498,"connected_time":1278000000000,"state":"active","ping":96},{"user_id":128,"name":"Der Der","steam_id":76561197989587534,"connected_time":978000000000,"state":"active","ping":66},{"user_id":117,"name":"AuwNina","steam_id":76561198128231464,"connected_time":1663000000000,"state":"active","ping":48}]},{"server_id":114,"name":"Uncletopia | London | 2 | All Maps","name_short":"lon-2","host":"lon-1.uk.uncletopia.com","port":27025,"enabled":true,"region":"eu","cc":"gb","latitude":51.509865,"longitude":-0.118092,"reserved":0,"last_update":"0001-01-01T00:00:00Z","name_a2s":"Uncletopia | London | 2 | All Maps","protocol":17,"map":"pl_swiftwater_final1","folder":"tf","game":"Team Fortress","app_id":440,"player_count":0,"max_players":24,"Bots":0,"server_type":"Dedicated","server_os":"Linux","password":true,"vac":true,"version":"7961495","steam_id":85568392924470941,"keywords":["nocrits","nodmgspread","payload","uncletopia"],"game_id":440,"stv_port":27026,"stv_name":"Uncletopia | London | 2 | All Maps | STV","players":null},{"server_id":320,"name":"Uncletopia | London | 3 | All Maps","name_short":"lon-3","host":"lon-1.uk.uncletopia.com","port":27035,"enabled":true,"region":"eu","cc":"gb","latitude":51.509865,"longitude":-0.118092,"reserved":0,"last_update":"0001-01-01T00:00:00Z","name_a2s":"Uncletopia | London | 3 | All Maps","protocol":17,"map":"koth_lakeside_final","folder":"tf","game":"Team Fortress","app_id":440,"player_count":0,"max_players":24,"Bots":0,"server_type":"Dedicated","server_os":"Linux","password":true,"vac":true,"version":"7961495","steam_id":85568392924510192,"keywords":["cp","nocrits","nodmgspread","uncletopia"],"game_id":440,"stv_port":27036,"stv_name":"Uncletopia | London | 3 | All Maps | STV","players":null},{"server_id":321,"name":"Uncletopia | London | 4 | All Maps","name_short":"lon-4","host":"lon-1.uk.uncletopia.com","port":27045,"enabled":true,"region":"eu","cc":"gb","latitude":51.509865,"longitude":-0.118092,"reserved":0,"last_update":"0001-01-01T00:00:00Z","name_a2s":"Uncletopia | London | 4 | All Maps","protocol":17,"map":"pl_badwater","folder":"tf","game":"Team Fortress","app_id":440,"player_count":0,"max_players":24,"Bots":0,"server_type":"Dedicated","server_os":"Linux","password":true,"vac":true,"version":"7961495","steam_id":85568392924510193,"keywords":["nocrits","nodmgspread","payload","uncletopia"],"game_id":440,"stv_port":27046,"stv_name":"Uncletopia | London | 4 | All Maps | STV","players":null},{"server_id":21,"name":"Uncletopia | London | 5 | All Maps","name_short":"lon-5","host":"lon-1.uk.uncletopia.com","port":27055,"enabled":true,"region":"eu","cc":"gb","latitude":51.509865,"longitude":-0.118092,"reserved":0,"last_update":"0001-01-01T00:00:00Z","name_a2s":"Uncletopia | London | 5 | All Maps","protocol":17,"map":"koth_lazarus","folder":"tf","game":"Team Fortress","app_id":440,"player_count":0,"max_players":24,"Bots":0,"server_type":"Dedicated","server_os":"Linux","password":true,"vac":true,"version":"7961495","steam_id":85568392924742829,"keywords":["cp","nocrits","nodmgspread","uncletopia"],"game_id":440,"stv_port":27056,"stv_name":"Uncletopia | London | 5 | All Maps | STV","players":null},{"server_id":22,"name":"Uncletopia | London | 6 | All Maps","name_short":"lon-6","host":"lon-1.uk.uncletopia.com","port":27065,"enabled":true,"region":"eu","cc":"gb","latitude":51.509865,"longitude":-0.118092,"reserved":0,"last_update":"0001-01-01T00:00:00Z","name_a2s":"Uncletopia | London | 6 | All Maps","protocol":17,"map":"koth_viaduct","folder":"tf","game":"Team Fortress","app_id":440,"player_count":0,"max_players":24,"Bots":0,"server_type":"Dedicated","server_os":"Linux","password":true,"vac":true,"version":"7961495","steam_id":85568392924742830,"keywords":["cp","nocrits","nodmgspread","uncletopia"],"game_id":440,"stv_port":27066,"stv_name":"Uncletopia | London | 6 | All Maps | STV","players":null},{"server_id":40,"name":"Uncletopia | London | 7 | Stopwatch","name_short":"lon-7","host":"lon-1.uk.uncletopia.com","port":27075,"enabled":true,"region":"eu","cc":"gb","latitude":51.509865,"longitude":-0.118092,"reserved":0,"last_update":"0001-01-01T00:00:00Z","name_a2s":"Uncletopia | London | 7 | Stopwatch","protocol":17,"map":"workshop/pl_badwater_pro_v12.ugc2142942074","folder":"tf","game":"Team Fortress","app_id":440,"player_count":0,"max_players":24,"Bots":0,"server_type":"Dedicated","server_os":"Linux","password":true,"vac":true,"version":"7961495","steam_id":85568392924964314,"keywords":["nocrits","nodmgspread","payload","uncletopia"],"game_id":440,"stv_port":27076,"stv_name":"Uncletopia | London | 7 | Stopwatch | STV","players":null},{"server_id":41,"name":"Uncletopia | London | 8 | Community","name_short":"lon-8","host":"lon-1.uk.uncletopia.com","port":27085,"enabled":true,"region":"eu","cc":"gb","latitude":51.509865,"longitude":-0.118092,"reserved":0,"last_update":"0001-01-01T00:00:00Z","name_a2s":"Uncletopia | London | 8 | Community","protocol":17,"map":"workshop/cp_villa_b19.ugc2113052569","folder":"tf","game":"Team Fortress","app_id":440,"player_count":0,"max_players":24,"Bots":0,"server_type":"Dedicated","server_os":"Linux","password":true,"vac":true,"version":"7961495","steam_id":85568392924964315,"keywords":["cp","nocrits","nodmgspread","uncletopia"],"game_id":440,"stv_port":27086,"stv_name":"Uncletopia | London | 8 | Community | STV","players":null},{"server_id":300,"name":"Uncletopia | Montréal | 1 | One Thousand Uncles","name_short":"mtl-1","host":"mtl-1.ca.uncletopia.com","port":27015,"enabled":true,"region":"us-east","cc":"ca","latitude":45.50889,"longitude":-73.56167,"reserved":0,"last_update":"0001-01-01T00:00:00Z","name_a2s":"Uncletopia | Montréal | 1 | One Thousand Uncles","protocol":17,"map":"cp_dustbowl","folder":"tf","game":"Team Fortress","app_id":440,"player_count":0,"max_players":32,"Bots":0,"server_type":"Dedicated","server_os":"Linux","password":true,"vac":true,"version":"7961495","steam_id":85568392924500087,"keywords":["alltalk","cp","danepve","increased_maxplayers","norespawntime","uncletopia"],"game_id":440,"stv_port":0,"stv_name":"","players":null},{"server_id":301,"name":"Uncletopia | Montréal | 2 | One Thousand Uncles","name_short":"mtl-2","host":"mtl-1.ca.uncletopia.com","port":27025,"enabled":true,"region":"us-east","cc":"ca","latitude":45.50889,"longitude":-73.56167,"reserved":0,"last_update":"0001-01-01T00:00:00Z","name_a2s":"Uncletopia | Montréal | 2 | One Thousand Uncles","protocol":17,"map":"pl_upward","folder":"tf","game":"Team Fortress","app_id":440,"player_count":0,"max_players":32,"Bots":0,"server_type":"Dedicated","server_os":"Linux","password":true,"vac":true,"version":"7961495","steam_id":85568392924500088,"keywords":["alltalk","danepve","increased_maxplayers","norespawntime","payload","uncletopia"],"game_id":440,"stv_port":0,"stv_name":"","players":null},{"server_id":302,"name":"Uncletopia | Montréal | 3 | One Thousand Uncles","name_short":"mtl-3","host":"mtl-1.ca.uncletopia.com","port":27035,"enabled":true,"region":"us-east","cc":"ca","latitude":45.50889,"longitude":-73.56167,"reserved":0,"last_update":"0001-01-01T00:00:00Z","name_a2s":"Uncletopia | Montréal | 3 | One Thousand Uncles","protocol":17,"map":"pl_goldrush","folder":"tf","game":"Team Fortress","app_id":440,"player_count":0,"max_players":32,"Bots":0,"server_type":"Dedicated","server_os":"Linux","password":true,"vac":true,"version":"7961495","steam_id":85568392924500089,"keywords":["alltalk","danepve","increased_maxplayers","norespawntime","payload","uncletopia"],"game_id":440,"stv_port":0,"stv_name":"","players":null},{"server_id":13,"name":"Uncletopia | New York City | 1 | All Maps","name_short":"nyc-1","host":"nyc-1.us.uncletopia.com","port":27015,"enabled":true,"region":"us-east","cc":"us","latitude":40.73061,"longitude":-73.93524,"reserved":0,"last_update":"0001-01-01T00:00:00Z","name_a2s":"Uncletopia | New York City | 1 | All Maps","protocol":17,"map":"pl_pier","folder":"tf","game":"Team Fortress","app_id":440,"player_count":2,"max_players":24,"Bots":0,"server_type":"Dedicated","server_os":"Linux","password":true,"vac":true,"version":"7961495","steam_id":85568392924469993,"keywords":["nocrits","nodmgspread","payload","uncletopia"],"game_id":440,"stv_port":27016,"stv_name":"Uncletopia | New York City | 1 | All Maps | STV","players":[{"user_id":490,"name":"f i s h","steam_id":76561198164785761,"connected_time":1656000000000,"state":"active","ping":60},{"user_id":487,"name":"GOLDIE","steam_id":76561199375258674,"connected_time":2521000000000,"state":"active","ping":88}]},{"server_id":14,"name":"Uncletopia | New York City | 2 | All Maps","name_short":"nyc-2","host":"nyc-1.us.uncletopia.com","port":27025,"enabled":true,"region":"us-east","cc":"us","latitude":40.73061,"longitude":-73.93524,"reserved":0,"last_update":"0001-01-01T00:00:00Z","name_a2s":"Uncletopia | New York City | 2 | All Maps","protocol":17,"map":"pl_barnblitz","folder":"tf","game":"Team Fortress","app_id":440,"player_count":0,"max_players":24,"Bots":0,"server_type":"Dedicated","server_os":"Linux","password":true,"vac":true,"version":"7961495","steam_id":85568392924469994,"keywords":["nocrits","nodmgspread","payload","uncletopia"],"game_id":440,"stv_port":27026,"stv_name":"Uncletopia | New York City | 2 | All Maps | STV","players":null},{"server_id":15,"name":"Uncletopia | New York City | 3 | Stopwatch","name_short":"nyc-3","host":"nyc-1.us.uncletopia.com","port":27035,"enabled":true,"region":"us-east","cc":"us","latitude":40.73061,"longitude":-73.93524,"reserved":0,"last_update":"0001-01-01T00:00:00Z","name_a2s":"Uncletopia | New York City | 3 | Stopwatch","protocol":17,"map":"pl_upward","folder":"tf","game":"Team Fortress","app_id":440,"player_count":0,"max_players":24,"Bots":0,"server_type":"Dedicated","server_os":"Linux","password":true,"vac":true,"version":"7961495","steam_id":85568392924742820,"keywords":["nocrits","nodmgspread","payload","uncletopia"],"game_id":440,"stv_port":27036,"stv_name":"Uncletopia | New York City | 3 | Stopwatch | STV","players":null},{"server_id":16,"name":"Uncletopia | New York City | 4 | Community","name_short":"nyc-4","host":"nyc-1.us.uncletopia.com","port":27045,"enabled":true,"region":"us-east","cc":"us","latitude":40.73061,"longitude":-73.93524,"reserved":0,"last_update":"0001-01-01T00:00:00Z","name_a2s":"Uncletopia | New York City | 4 | Community","protocol":17,"map":"workshop/pl_shoreleave_rc2.ugc1238849347","folder":"tf","game":"Team Fortress","app_id":440,"player_count":0,"max_players":24,"Bots":0,"server_type":"Dedicated","server_os":"Linux","password":true,"vac":true,"version":"7961495","steam_id":85568392924742821,"keywords":["nocrits","nodmgspread","payload","uncletopia"],"game_id":440,"stv_port":27046,"stv_name":"Uncletopia | New York City | 4 | Community | STV","players":null},{"server_id":142,"name":"Uncletopia | São Paulo | 1 | All Maps","name_short":"sao-1","host":"sao-1.br.uncletopia.com","port":27015,"enabled":true,"region":"sa","cc":"br","latitude":-23.533773,"longitude":-46.62529,"reserved":0,"last_update":"0001-01-01T00:00:00Z","name_a2s":"Uncletopia | São Paulo | 1 | All Maps","protocol":17,"map":"koth_highpass","folder":"tf","game":"Team Fortress","app_id":440,"player_count":0,"max_players":24,"Bots":0,"server_type":"Dedicated","server_os":"Linux","password":true,"vac":true,"version":"7961495","steam_id":85568392924469996,"keywords":["cp","nocrits","nodmgspread","uncletopia"],"game_id":440,"stv_port":27016,"stv_name":"Uncletopia | São Paulo | 1 | All Maps | STV","players":null},{"server_id":143,"name":"Uncletopia | São Paulo | 2 | Community","name_short":"sao-2","host":"sao-2.br.uncletopia.com","port":27015,"enabled":true,"region":"sa","cc":"br","latitude":-23.533773,"longitude":-46.62529,"reserved":0,"last_update":"0001-01-01T00:00:00Z","name_a2s":"Uncletopia | São Paulo | 2 | Community","protocol":17,"map":"workshop/cp_logjam_rc12.ugc454812035","folder":"tf","game":"Team Fortress","app_id":440,"player_count":0,"max_players":24,"Bots":0,"server_type":"Dedicated","server_os":"Linux","password":true,"vac":true,"version":"7961495","steam_id":85568392924485349,"keywords":["cp","nocrits","nodmgspread","uncletopia"],"game_id":440,"stv_port":27016,"stv_name":"Uncletopia | São Paulo | 2 | Community | STV","players":null},{"server_id":7,"name":"Uncletopia | Seattle | 1 | All Maps","name_short":"sea-1","host":"sea-1.us.uncletopia.com","port":27015,"enabled":true,"region":"us-west","cc":"us","latitude":47.608013,"longitude":-122.33517,"reserved":0,"last_update":"0001-01-01T00:00:00Z","name_a2s":"Uncletopia | Seattle | 1 | All Maps","protocol":17,"map":"koth_sawmill","folder":"tf","game":"Team Fortress","app_id":440,"player_count":24,"max_players":24,"Bots":0,"server_type":"Dedicated","server_os":"Linux","password":true,"vac":true,"version":"7961495","steam_id":85568392924469997,"keywords":["cp","nocrits","nodmgspread","uncletopia"],"game_id":440,"stv_port":27016,"stv_name":"Uncletopia | Seattle | 1 | All Maps | STV","players":[{"user_id":680,"name":"rune simpa","steam_id":76561198046174848,"connected_time":764000000000,"state":"active","ping":54},{"user_id":649,"name":"doopsies","steam_id":76561198083000867,"connected_time":2888000000000,"state":"active","ping":48},{"user_id":657,"name":"Grill Skills","steam_id":76561198053575147,"connected_time":1856000000000,"state":"active","ping":58},{"user_id":638,"name":"you just got dyked on","steam_id":76561198018977723,"connected_time":4830000000000,"state":"active","ping":45},{"user_id":672,"name":"fire","steam_id":76561198044354279,"connected_time":1325000000000,"state":"active","ping":79},{"user_id":674,"name":"Silly Shark","steam_id":76561198130714378,"connected_time":1151000000000,"state":"active","ping":54},{"user_id":686,"name":"Ayayayayayayayayayayayayahuasca","steam_id":76561199002906056,"connected_time":72000000000,"state":"active","ping":48},{"user_id":676,"name":"kill me","steam_id":76561198032625036,"connected_time":970000000000,"state":"active","ping":59},{"user_id":562,"name":"A F2P With Hats","steam_id":76561198171497882,"connected_time":12503000000000,"state":"active","ping":72},{"user_id":685,"name":"gorlab","steam_id":76561198025089694,"connected_time":110000000000,"state":"active","ping":60},{"user_id":655,"name":"Nom Skirrett","steam_id":76561198014600788,"connected_time":2420000000000,"state":"active","ping":60},{"user_id":670,"name":"Be Gay, Do Crimes, Smoke Weed!","steam_id":76561198092419868,"connected_time":1507000000000,"state":"active","ping":84},{"user_id":677,"name":"rat who can kickflip dot com","steam_id":76561198073620027,"connected_time":964000000000,"state":"active","ping":44},{"user_id":602,"name":"Cheezbeargur","steam_id":76561198164702899,"connected_time":9069000000000,"state":"active","ping":67},{"user_id":671,"name":"smeasly","steam_id":76561198028718812,"connected_time":1344000000000,"state":"active","ping":37},{"user_id":660,"name":"HotHead","steam_id":76561198138468982,"connected_time":1733000000000,"state":"active","ping":54},{"user_id":667,"name":"Ace_Bitter","steam_id":76561199446349147,"connected_time":1643000000000,"state":"active","ping":71},{"user_id":684,"name":"Brah","steam_id":76561198265114467,"connected_time":286000000000,"state":"active","ping":91},{"user_id":595,"name":"Daz","steam_id":76561198041431938,"connected_time":10142000000000,"state":"active","ping":54},{"user_id":630,"name":"cowboy","steam_id":76561198266320078,"connected_time":5541000000000,"state":"active","ping":95},{"user_id":592,"name":"november","steam_id":76561198042748172,"connected_time":10960000000000,"state":"active","ping":92},{"user_id":683,"name":"♥ alixei! ♥","steam_id":76561198014557455,"connected_time":374000000000,"state":"active","ping":96},{"user_id":679,"name":"Houdini Cache","steam_id":76561198045506970,"connected_time":903000000000,"state":"active","ping":44},{"user_id":663,"name":"Drone #0432 (they/it)\u0026","steam_id":76561198027321950,"connected_time":1721000000000,"state":"active","ping":48}]},{"server_id":119,"name":"Uncletopia | Seattle | 2 | All Maps","name_short":"sea-2","host":"sea-1.us.uncletopia.com","port":27025,"enabled":true,"region":"us-west","cc":"us","latitude":47.608013,"longitude":-122.33517,"reserved":0,"last_update":"0001-01-01T00:00:00Z","name_a2s":"Uncletopia | Seattle | 2 | All Maps","protocol":17,"map":"koth_highpass","folder":"tf","game":"Team Fortress","app_id":440,"player_count":1,"max_players":24,"Bots":0,"server_type":"Dedicated","server_os":"Linux","password":true,"vac":true,"version":"7961495","steam_id":85568392924469998,"keywords":["cp","nocrits","nodmgspread","uncletopia"],"game_id":440,"stv_port":27026,"stv_name":"Uncletopia | Seattle | 2 | All Maps | STV","players":[{"user_id":220,"name":"quadraspazzed on a lifeglug","steam_id":76561198025514255,"connected_time":7000000000,"state":"spawning","ping":75}]},{"server_id":406,"name":"Uncletopia | Seattle | 3 | Stopwatch","name_short":"sea-3","host":"sea-1.us.uncletopia.com","port":27035,"enabled":true,"region":"us-west","cc":"us","latitude":47.608013,"longitude":-122.33517,"reserved":0,"last_update":"0001-01-01T00:00:00Z","name_a2s":"Uncletopia | Seattle | 3 | Stopwatch","protocol":17,"map":"cp_process_final","folder":"tf","game":"Team Fortress","app_id":440,"player_count":0,"max_players":24,"Bots":0,"server_type":"Dedicated","server_os":"Linux","password":true,"vac":true,"version":"7961495","steam_id":85568392924515217,"keywords":["cp","nocrits","nodmgspread","uncletopia"],"game_id":440,"stv_port":27036,"stv_name":"Uncletopia | Seattle | 3 | Stopwatch | STV","players":null},{"server_id":17,"name":"Uncletopia | San Francisco | 1 | All Maps","name_short":"sfo-1","host":"sfo-1.us.uncletopia.com","port":27015,"enabled":true,"region":"us-west","cc":"us","latitude":37.77397,"longitude":-122.4313,"reserved":0,"last_update":"0001-01-01T00:00:00Z","name_a2s":"Uncletopia | San Francisco | 1 | All Maps","protocol":17,"map":"cp_altitude","folder":"tf","game":"Team Fortress","app_id":440,"player_count":0,"max_players":24,"Bots":0,"server_type":"Dedicated","server_os":"Linux","password":true,"vac":true,"version":"7961495","steam_id":85568392924469999,"keywords":["cp","nocrits","nodmgspread","uncletopia"],"game_id":440,"stv_port":27016,"stv_name":"Uncletopia | San Francisco | 1 | All Maps | STV","players":null},{"server_id":18,"name":"Uncletopia | San Francisco | 2 | All Maps","name_short":"sfo-2","host":"sfo-1.us.uncletopia.com","port":27025,"enabled":true,"region":"us-west","cc":"us","latitude":37.77397,"longitude":-122.4313,"reserved":0,"last_update":"0001-01-01T00:00:00Z","name_a2s":"Uncletopia | San Francisco | 2 | All Maps","protocol":17,"map":"koth_cascade","folder":"tf","game":"Team Fortress","app_id":440,"player_count":0,"max_players":24,"Bots":0,"server_type":"Dedicated","server_os":"Linux","password":true,"vac":true,"version":"7961495","steam_id":85568392924470000,"keywords":["cp","nocrits","nodmgspread","uncletopia"],"game_id":440,"stv_port":27026,"stv_name":"Uncletopia | San Francisco | 2 | All Maps | STV","players":null},{"server_id":19,"name":"Uncletopia | San Francisco | 3 | Stopwatch","name_short":"sfo-3","host":"sfo-1.us.uncletopia.com","port":27035,"enabled":true,"region":"us-west","cc":"us","latitude":37.77397,"longitude":-122.4313,"reserved":0,"last_update":"0001-01-01T00:00:00Z","name_a2s":"Uncletopia | San Francisco | 3 | Stopwatch","protocol":17,"map":"workshop/koth_bagel_rc6.ugc2514036946","folder":"tf","game":"Team Fortress","app_id":440,"player_count":0,"max_players":24,"Bots":0,"server_type":"Dedicated","server_os":"Linux","password":true,"vac":true,"version":"7961495","steam_id":85568392924742824,"keywords":["cp","nocrits","nodmgspread","uncletopia"],"game_id":440,"stv_port":27036,"stv_name":"Uncletopia | San Francisco | 3 | Stopwatch | STV","players":null},{"server_id":20,"name":"Uncletopia | San Francisco | 4 | Community","name_short":"sfo-4","host":"sfo-1.us.uncletopia.com","port":27045,"enabled":true,"region":"us-west","cc":"us","latitude":37.77397,"longitude":-122.4313,"reserved":0,"last_update":"0001-01-01T00:00:00Z","name_a2s":"Uncletopia | San Francisco | 4 | Community","protocol":17,"map":"workshop/pl_shoreleave_rc2.ugc1238849347","folder":"tf","game":"Team Fortress","app_id":440,"player_count":0,"max_players":24,"Bots":0,"server_type":"Dedicated","server_os":"Linux","password":true,"vac":true,"version":"7961495","steam_id":85568392924742826,"keywords":["nocrits","nodmgspread","payload","uncletopia"],"game_id":440,"stv_port":27046,"stv_name":"Uncletopia | San Francisco | 4 | Community | STV","players":null},{"server_id":141,"name":"Uncletopia | Sydney | 1 | All Maps","name_short":"syd-1","host":"syd-1.au.uncletopia.com","port":27015,"enabled":true,"region":"au","cc":"au","latitude":-33.865143,"longitude":151.2099,"reserved":0,"last_update":"0001-01-01T00:00:00Z","name_a2s":"Uncletopia | Sydney | 1 | All Maps","protocol":17,"map":"pl_thundermountain","folder":"tf","game":"Team Fortress","app_id":440,"player_count":22,"max_players":24,"Bots":0,"server_type":"Dedicated","server_os":"Linux","password":true,"vac":true,"version":"7961495","steam_id":85568392924470001,"keywords":["nocrits","nodmgspread","payload","uncletopia"],"game_id":440,"stv_port":27016,"stv_name":"Uncletopia | Sydney | 1 | All Maps | STV","players":[{"user_id":136,"name":"Austin Reaves","steam_id":76561198129577552,"connected_time":1940000000000,"state":"active","ping":54},{"user_id":133,"name":"CoiL","steam_id":76561198053911081,"connected_time":2043000000000,"state":"active","ping":69},{"user_id":149,"name":"precious.","steam_id":76561198054804209,"connected_time":658000000000,"state":"active","ping":88},{"user_id":147,"name":"milk man","steam_id":76561198188101842,"connected_time":677000000000,"state":"active","ping":59},{"user_id":69,"name":"Feksil","steam_id":76561198127379171,"connected_time":8703000000000,"state":"active","ping":56},{"user_id":122,"name":"LegEaterHK","steam_id":76561199357838817,"connected_time":2683000000000,"state":"active","ping":71},{"user_id":144,"name":"tech","steam_id":76561198924157807,"connected_time":1104000000000,"state":"active","ping":75},{"user_id":151,"name":"itsnothenry","steam_id":76561197966455767,"connected_time":515000000000,"state":"active","ping":59},{"user_id":161,"name":"Dr Coomer Clone 146","steam_id":76561199247213153,"connected_time":92000000000,"state":"active","ping":54},{"user_id":162,"name":"wuh oh","steam_id":76561198196703279,"connected_time":86000000000,"state":"active","ping":50},{"user_id":159,"name":"zumblebeansjumbo","steam_id":76561199507669531,"connected_time":216000000000,"state":"active","ping":113},{"user_id":125,"name":"Arn0tt","steam_id":76561198027007279,"connected_time":2291000000000,"state":"active","ping":92},{"user_id":120,"name":"GuyAwesome","steam_id":76561198042805792,"connected_time":2795000000000,"state":"active","ping":78},{"user_id":154,"name":"Mr ._. Phil","steam_id":76561198081187571,"connected_time":423000000000,"state":"active","ping":45},{"user_id":148,"name":"Leaves19","steam_id":76561199262891492,"connected_time":675000000000,"state":"active","ping":418},{"user_id":150,"name":"soup","steam_id":76561198094520079,"connected_time":637000000000,"state":"active","ping":67},{"user_id":131,"name":"LeoJoeD","steam_id":76561198161848749,"connected_time":2130000000000,"state":"active","ping":41},{"user_id":137,"name":"no teles 4 u","steam_id":76561198018478297,"connected_time":1918000000000,"state":"active","ping":59},{"user_id":100,"name":"Toody","steam_id":76561198212656752,"connected_time":4714000000000,"state":"active","ping":45},{"user_id":158,"name":"Marzell","steam_id":76561198151276153,"connected_time":356000000000,"state":"active","ping":84},{"user_id":138,"name":"JP","steam_id":76561198026221737,"connected_time":1835000000000,"state":"active","ping":54},{"user_id":107,"name":"CypressFluff (she/her)","steam_id":76561198174667818,"connected_time":3727000000000,"state":"active","ping":47}]},{"server_id":123,"name":"Uncletopia | Sydney | 2 | All Maps","name_short":"syd-2","host":"syd-1.au.uncletopia.com","port":27025,"enabled":true,"region":"au","cc":"au","latitude":-33.865143,"longitude":151.2099,"reserved":0,"last_update":"0001-01-01T00:00:00Z","name_a2s":"Uncletopia | Sydney | 2 | All Maps","protocol":17,"map":"cp_altitude","folder":"tf","game":"Team Fortress","app_id":440,"player_count":0,"max_players":24,"Bots":0,"server_type":"Dedicated","server_os":"Linux","password":true,"vac":true,"version":"7961495","steam_id":85568392924470002,"keywords":["cp","nocrits","nodmgspread","uncletopia"],"game_id":440,"stv_port":27026,"stv_name":"Uncletopia | Sydney | 2 | All Maps | STV","players":null},{"server_id":395,"name":"Uncletopia | Sydney | 3 | All Maps","name_short":"syd-3","host":"syd-1.au.uncletopia.com","port":27035,"enabled":true,"region":"au","cc":"au","latitude":-33.865143,"longitude":151.2099,"reserved":0,"last_update":"0001-01-01T00:00:00Z","name_a2s":"Uncletopia | Sydney | 3 | All Maps","protocol":17,"map":"koth_lakeside_final","folder":"tf","game":"Team Fortress","app_id":440,"player_count":0,"max_players":24,"Bots":0,"server_type":"Dedicated","server_os":"Linux","password":true,"vac":true,"version":"7961495","steam_id":85568392925194467,"keywords":["cp","nocrits","nodmgspread","uncletopia"],"game_id":440,"stv_port":27036,"stv_name":"Uncletopia | Sydney | 3 | All Maps | STV","players":null},{"server_id":396,"name":"Uncletopia | Sydney | 4 | All Maps","name_short":"syd-4","host":"syd-1.au.uncletopia.com","port":27045,"enabled":true,"region":"au","cc":"au","latitude":-33.865143,"longitude":151.2099,"reserved":0,"last_update":"0001-01-01T00:00:00Z","name_a2s":"Uncletopia | Sydney | 4 | All Maps","protocol":17,"map":"koth_cascade","folder":"tf","game":"Team Fortress","app_id":440,"player_count":0,"max_players":24,"Bots":0,"server_type":"Dedicated","server_os":"Linux","password":true,"vac":true,"version":"7961495","steam_id":85568392925397958,"keywords":["cp","nocrits","nodmgspread","uncletopia"],"game_id":440,"stv_port":27046,"stv_name":"Uncletopia | Sydney | 4 | All Maps | STV","players":null},{"server_id":58,"name":"Uncletopia | Sydney | 5 | Stopwatch","name_short":"syd-5","host":"syd-1.au.uncletopia.com","port":27055,"enabled":true,"region":"au","cc":"au","latitude":-33.865143,"longitude":151.2099,"reserved":0,"last_update":"0001-01-01T00:00:00Z","name_a2s":"Uncletopia | Sydney | 5 | Stopwatch","protocol":17,"map":"pl_swiftwater_final1","folder":"tf","game":"Team Fortress","app_id":440,"player_count":0,"max_players":24,"Bots":0,"server_type":"Dedicated","server_os":"Linux","password":true,"vac":true,"version":"7961495","steam_id":85568392925397959,"keywords":["nocrits","nodmgspread","payload","uncletopia"],"game_id":440,"stv_port":27056,"stv_name":"Uncletopia | Sydney | 5 | Stopwatch | STV","players":null},{"server_id":59,"name":"Uncletopia | Sydney | 6 | Community","name_short":"syd-6","host":"syd-1.au.uncletopia.com","port":27065,"enabled":true,"region":"au","cc":"au","latitude":-33.865143,"longitude":151.2099,"reserved":0,"last_update":"0001-01-01T00:00:00Z","name_a2s":"Uncletopia | Sydney | 6 | Community","protocol":17,"map":"workshop/koth_product_final.ugc454272353","folder":"tf","game":"Team Fortress","app_id":440,"player_count":0,"max_players":24,"Bots":0,"server_type":"Dedicated","server_os":"Linux","password":true,"vac":true,"version":"7961495","steam_id":85568392925397960,"keywords":["cp","nocrits","nodmgspread","uncletopia"],"game_id":440,"stv_port":27066,"stv_name":"Uncletopia | Sydney | 6 | Community | STV","players":null},{"server_id":49,"name":"Uncletopia | Warsaw | 1 | One Thousand Uncles","name_short":"waw-1","host":"waw-1.pl.uncletopia.com","port":27015,"enabled":true,"region":"eu","cc":"pl","latitude":52.2297,"longitude":21.017532,"reserved":0,"last_update":"0001-01-01T00:00:00Z","name_a2s":"Uncletopia | Warsaw | 1 | One Thousand Uncles","protocol":17,"map":"pl_thundermountain","folder":"tf","game":"Team Fortress","app_id":440,"player_count":25,"max_players":32,"Bots":16,"server_type":"Dedicated","server_os":"Linux","password":true,"vac":true,"version":"7961495","steam_id":85568392925397850,"keywords":["alltalk","bots","danepve","increased_maxplayers","norespawntime","payload","uncletopia"],"game_id":440,"stv_port":0,"stv_name":"","players":[{"user_id":72,"name":"Patyczak112","steam_id":76561199207268429,"connected_time":2106000000000,"state":"active","ping":67},{"user_id":89,"name":"pls defend me, u little bi-","steam_id":76561199060439496,"connected_time":1969000000000,"state":"active","ping":49},{"user_id":90,"name":"\u003c blank \u003e","steam_id":76561198355892269,"connected_time":1911000000000,"state":"active","ping":72},{"user_id":92,"name":"enderchat499_YT","steam_id":76561198226611272,"connected_time":1571000000000,"state":"active","ping":118},{"user_id":93,"name":"Arkenstein","steam_id":76561199091543520,"connected_time":867000000000,"state":"active","ping":75},{"user_id":94,"name":"irtaminu","steam_id":76561198388297030,"connected_time":629000000000,"state":"active","ping":74},{"user_id":95,"name":"vic","steam_id":76561199324028844,"connected_time":573000000000,"state":"active","ping":174},{"user_id":97,"name":"MaxCaliber50","steam_id":76561198992659529,"connected_time":286000000000,"state":"active","ping":176},{"user_id":98,"name":"Meat Dragon","steam_id":76561198120319256,"connected_time":155000000000,"state":"active","ping":158},{"user_id":99,"name":"pro_kasparas","steam_id":76561198990668750,"connected_time":98000000000,"state":"connecting","ping":0}]},{"server_id":50,"name":"Uncletopia | Warsaw | 2 | One Thousand Uncles","name_short":"waw-2","host":"waw-1.pl.uncletopia.com","port":27025,"enabled":true,"region":"eu","cc":"pl","latitude":52.2297,"longitude":21.017532,"reserved":0,"last_update":"0001-01-01T00:00:00Z","name_a2s":"Uncletopia | Warsaw | 2 | One Thousand Uncles","protocol":17,"map":"cp_egypt_final","folder":"tf","game":"Team Fortress","app_id":440,"player_count":0,"max_players":32,"Bots":0,"server_type":"Dedicated","server_os":"Linux","password":true,"vac":true,"version":"7961495","steam_id":85568392925397851,"keywords":["alltalk","cp","danepve","increased_maxplayers","norespawntime","uncletopia"],"game_id":440,"stv_port":0,"stv_name":"","players":null},{"server_id":51,"name":"Uncletopia | Warsaw | 3 | All Maps","name_short":"waw-3","host":"waw-1.pl.uncletopia.com","port":27035,"enabled":true,"region":"eu","cc":"pl","latitude":52.2297,"longitude":21.017532,"reserved":0,"last_update":"0001-01-01T00:00:00Z","name_a2s":"Uncletopia | Warsaw | 3 | All Maps","protocol":17,"map":"pl_snowycoast","folder":"tf","game":"Team Fortress","app_id":440,"player_count":2,"max_players":24,"Bots":0,"server_type":"Dedicated","server_os":"Linux","password":true,"vac":true,"version":"7961495","steam_id":85568392925397852,"keywords":["nocrits","nodmgspread","payload","uncletopia"],"game_id":440,"stv_port":27036,"stv_name":"Uncletopia | Warsaw | 3 | All Maps | STV","players":[{"user_id":3,"name":"mokau","steam_id":76561199150622722,"connected_time":488000000000,"state":"active","ping":74},{"user_id":4,"name":"[SQ UA] MartianDill","steam_id":76561198405382822,"connected_time":302000000000,"state":"active","ping":50}]},{"server_id":52,"name":"Uncletopia | Warsaw | 4 | All Maps","name_short":"waw-4","host":"waw-1.pl.uncletopia.com","port":27045,"enabled":true,"region":"eu","cc":"pl","latitude":52.2297,"longitude":21.017532,"reserved":0,"last_update":"0001-01-01T00:00:00Z","name_a2s":"Uncletopia | Warsaw | 4 | All Maps","protocol":17,"map":"cp_fastlane","folder":"tf","game":"Team Fortress","app_id":440,"player_count":0,"max_players":24,"Bots":0,"server_type":"Dedicated","server_os":"Linux","password":true,"vac":true,"version":"7961495","steam_id":85568392925397853,"keywords":["cp","nocrits","nodmgspread","uncletopia"],"game_id":440,"stv_port":27046,"stv_name":"Uncletopia | Warsaw | 4 | All Maps | STV","players":null},{"server_id":53,"name":"Uncletopia | Warsaw | 5 | Stopwatch","name_short":"waw-5","host":"waw-1.pl.uncletopia.com","port":27055,"enabled":true,"region":"eu","cc":"pl","latitude":52.2297,"longitude":21.017532,"reserved":0,"last_update":"0001-01-01T00:00:00Z","name_a2s":"Uncletopia | Warsaw | 5 | Stopwatch","protocol":17,"map":"cp_gullywash_final1","folder":"tf","game":"Team Fortress","app_id":440,"player_count":0,"max_players":24,"Bots":0,"server_type":"Dedicated","server_os":"Linux","password":true,"vac":true,"version":"7961495","steam_id":85568392925397854,"keywords":["cp","nocrits","nodmgspread","uncletopia"],"game_id":440,"stv_port":27056,"stv_name":"Uncletopia | Warsaw | 5 | Stopwatch | STV","players":null},{"server_id":54,"name":"Uncletopia | Warsaw | 6 | Community","name_short":"waw-6","host":"waw-1.pl.uncletopia.com","port":27065,"enabled":true,"region":"eu","cc":"pl","latitude":52.2297,"longitude":21.017532,"reserved":0,"last_update":"0001-01-01T00:00:00Z","name_a2s":"Uncletopia | Warsaw | 6 | Community","protocol":17,"map":"workshop/cp_fulgur_rc2a.ugc2068252300","folder":"tf","game":"Team Fortress","app_id":440,"player_count":0,"max_players":24,"Bots":0,"server_type":"Dedicated","server_os":"Linux","password":true,"vac":true,"version":"7961495","steam_id":85568392925397856,"keywords":["cp","nocrits","nodmgspread","uncletopia"],"game_id":440,"stv_port":27066,"stv_name":"Uncletopia | Warsaw | 6 | Community | STV","players":null}]}