{"status":true,"message":"","result":[{"server_id":9,"name":"Uncletopia | Atlanta | 1 | All Maps","name_short":"atl-1","host":"atl-1.us.uncletopia.com","port":27015,"enabled":true,"region":"us-east","cc":"us","latitude":33.753746,"longitude":-84.38633,"reserved":0,"last_update":"0001-01-01T00:00:00Z","name_a2s":"Uncletopia | Atlanta | 1 | All Maps","protocol":17,"map":"pl_upward","folder":"tf","game":"Team Fortress","app_id":440,"player_count":22,"max_players":24,"Bots":0,"server_type":"Dedicated","server_os":"Linux","password":true,"vac":true,"version":"7757534","steam_id":85568392924469982,"keywords":["nocrits","nodmgspread","payload","uncletopia"],"game_id":440,"stv_port":27016,"stv_name":"Uncletopia | Atlanta | 1 | All Maps | STV","players":[{"user_id":931,"name":"DJ Professor Test","steam_id":76561198194620386,"connected_time":2205000000000,"state":"active","ping":100},{"user_id":923,"name":"...","steam_id":76561198312298321,"connected_time":2696000000000,"state":"active","ping":75},{"user_id":961,"name":"CheeseCake488","steam_id":76561199407617942,"connected_time":40000000000,"state":"active","ping":130},{"user_id":925,"name":"Toasty","steam_id":76561198274170167,"connected_time":2499000000000,"state":"active","ping":52},{"user_id":942,"name":"Syndrex","steam_id":76561198253152612,"connected_time":1429000000000,"state":"active","ping":164},{"user_id":902,"name":"brock","steam_id":76561199015537819,"connected_time":4570000000000,"state":"active","ping":40},{"user_id":933,"name":"[RЯ] ShibesGoneWow","steam_id":76561198036090516,"connected_time":2060000000000,"state":"active","ping":64},{"user_id":954,"name":"bill","steam_id":76561199142779872,"connected_time":732000000000,"state":"active","ping":80},{"user_id":874,"name":"creepycrawler","steam_id":76561198352016831,"connected_time":9972000000000,"state":"active","ping":75},{"user_id":949,"name":"Eden Hazard","steam_id":76561198089241053,"connected_time":923000000000,"state":"active","ping":57},{"user_id":955,"name":"Deki","steam_id":76561198031914490,"connected_time":663000000000,"state":"active","ping":148},{"user_id":948,"name":"Dattallguy","steam_id":76561198873155093,"connected_time":1189000000000,"state":"active","ping":56},{"user_id":952,"name":"ElChrisTrejo","steam_id":76561199112274182,"connected_time":760000000000,"state":"active","ping":83},{"user_id":957,"name":"BIG HOG","steam_id":76561198079923652,"connected_time":513000000000,"state":"active","ping":61},{"user_id":943,"name":"cl","steam_id":76561199436640904,"connected_time":1383000000000,"state":"active","ping":164},{"user_id":926,"name":"GuyGoom","steam_id":76561198254522178,"connected_time":2456000000000,"state":"active","ping":71},{"user_id":944,"name":"rice white","steam_id":76561198320732910,"connected_time":1334000000000,"state":"active","ping":79},{"user_id":945,"name":"Hozeb","steam_id":76561199079099654,"connected_time":1334000000000,"state":"active","ping":159},{"user_id":959,"name":"XBOX Sturux","steam_id":76561198277644122,"connected_time":210000000000,"state":"active","ping":164},{"user_id":927,"name":"THEY LET YOU PUT ANYTHING HERE","steam_id":76561198056214875,"connected_time":2389000000000,"state":"active","ping":70},{"user_id":960,"name":"Phoenix","steam_id":76561198042171266,"connected_time":199000000000,"state":"active","ping":93},{"user_id":928,"name":"insomniac gaming","steam_id":76561198995705248,"connected_time":2388000000000,"state":"active","ping":73}]},{"server_id":104,"name":"Uncletopia | Atlanta | 2 | All Maps","name_short":"atl-2","host":"atl-1.us.uncletopia.com","port":27025,"enabled":true,"region":"us-east","cc":"us","latitude":33.753746,"longitude":-84.38633,"reserved":0,"last_update":"0001-01-01T00:00:00Z","name_a2s":"Uncletopia | Atlanta | 2 | All Maps","protocol":17,"map":"cp_dustbowl","folder":"tf","game":"Team Fortress","app_id":440,"player_count":5,"max_players":24,"Bots":0,"server_type":"Dedicated","server_os":"Linux","password":true,"vac":true,"version":"7757534","steam_id":85568392924469983,"keywords":["cp","nocrits","nodmgspread","uncletopia"],"game_id":440,"stv_port":27026,"stv_name":"Uncletopia | Atlanta | 2 | All Maps | STV","players":[{"user_id":657,"name":"DRAG","steam_id":76561198091788521,"connected_time":12026000000000,"state":"active","ping":84},{"user_id":755,"name":"googy doogy","steam_id":76561199025852100,"connected_time":1500000000000,"state":"active","ping":79},{"user_id":734,"name":"Slushy_17","steam_id":76561199082874436,"connected_time":4706000000000,"state":"active","ping":109},{"user_id":722,"name":"The sad vanilla","steam_id":76561198268621447,"connected_time":5496000000000,"state":"active","ping":81},{"user_id":704,"name":"LudicrousFrog","steam_id":76561199027571076,"connected_time":8377000000000,"state":"active","ping":95}]},{"server_id":400,"name":"Uncletopia | Atlanta | 3 | Community","name_short":"atl-3","host":"atl-1.us.uncletopia.com","port":27035,"enabled":true,"region":"us-east","cc":"us","latitude":33.753746,"longitude":-84.38633,"reserved":0,"last_update":"0001-01-01T00:00:00Z","name_a2s":"Uncletopia | Atlanta | 3 | Community","protocol":17,"map":"cp_snakewater_final1","folder":"tf","game":"Team Fortress","app_id":440,"player_count":0,"max_players":24,"Bots":0,"server_type":"Dedicated","server_os":"Linux","password":true,"vac":true,"version":"7757534","steam_id":85568392924515187,"keywords":["cp","nocrits","nodmgspread","uncletopia"],"game_id":440,"stv_port":27036,"stv_name":"Uncletopia | Atlanta | 3 | Community | STV","players":null},{"server_id":401,"name":"Uncletopia | Atlanta | 4 | No Payload","name_short":"atl-4","host":"atl-1.us.uncletopia.com","port":27045,"enabled":true,"region":"us-east","cc":"us","latitude":33.753746,"longitude":-84.38633,"reserved":0,"last_update":"0001-01-01T00:00:00Z","name_a2s":"","protocol":0,"map":"","folder":"","game":"","app_id":0,"player_count":0,"max_players":0,"Bots":0,"server_type":"","server_os":"","password":false,"vac":false,"version":"","steam_id":0,"keywords":null,"game_id":0,"stv_port":0,"stv_name":"","players":null},{"server_id":2,"name":"Uncletopia | Chicago | 1 | All Maps","name_short":"chi-1","host":"chi-1.us.uncletopia.com","port":27015,"enabled":true,"region":"us-central","cc":"us","latitude":41.881832,"longitude":-87.62318,"reserved":0,"last_update":"0001-01-01T00:00:00Z","name_a2s":"Uncletopia | Chicago | 1 | All Maps","protocol":17,"map":"pl_swiftwater_final1","folder":"tf","game":"Team Fortress","app_id":440,"player_count":0,"max_players":24,"Bots":0,"server_type":"Dedicated","server_os":"Linux","password":true,"vac":true,"version":"7757534","steam_id":85568392924469984,"keywords":["nocrits","nodmgspread","payload","uncletopia"],"game_id":440,"stv_port":27016,"stv_name":"Uncletopia | Chicago | 1 | All Maps | STV","players":null},{"server_id":106,"name":"Uncletopia | Chicago | 2 | All Maps","name_short":"chi-2","host":"chi-1.us.uncletopia.com","port":27025,"enabled":true,"region":"us-central","cc":"us","latitude":41.881832,"longitude":-87.62318,"reserved":0,"last_update":"0001-01-01T00:00:00Z","name_a2s":"Uncletopia | Chicago | 2 | All Maps","protocol":17,"map":"pl_barnblitz","folder":"tf","game":"Team Fortress","app_id":440,"player_count":0,"max_players":24,"Bots":0,"server_type":"Dedicated","server_os":"Linux","password":true,"vac":true,"version":"7757534","steam_id":85568392924469985,"keywords":["nocrits","nodmgspread","payload","uncletopia"],"game_id":440,"stv_port":27026,"stv_name":"Uncletopia | Chicago | 2 | All Maps | STV","players":null},{"server_id":402,"name":"Uncletopia | Chicago | 3 | All Maps","name_short":"chi-3","host":"chi-1.us.uncletopia.com","port":27035,"enabled":true,"region":"us-central","cc":"us","latitude":41.881832,"longitude":-87.62318,"reserved":0,"last_update":"0001-01-01T00:00:00Z","name_a2s":"Uncletopia | Chicago | 3 | All Maps","protocol":17,"map":"cp_process_final","folder":"tf","game":"Team Fortress","app_id":440,"player_count":23,"max_players":24,"Bots":0,"server_type":"Dedicated","server_os":"Linux","password":true,"vac":true,"version":"7757534","steam_id":85568392924515191,"keywords":["cp","nocrits","nodmgspread","uncletopia"],"game_id":440,"stv_port":27036,"stv_name":"Uncletopia | Chicago | 3 | All Maps | STV","players":[{"user_id":869,"name":"Sire Salty","steam_id":76561198079639072,"connected_time":6223000000000,"state":"active","ping":61},{"user_id":935,"name":"如願","steam_id":76561198038486613,"connected_time":983000000000,"state":"active","ping":61},{"user_id":931,"name":"[DEEP]able","steam_id":76561198292552182,"connected_time":1228000000000,"state":"active","ping":53},{"user_id":846,"name":"Ludcmorais","steam_id":76561198359217809,"connected_time":7733000000000,"state":"active","ping":189},{"user_id":946,"name":"RED","steam_id":76561198030282308,"connected_time":167000000000,"state":"active","ping":95},{"user_id":938,"name":"Lucksman","steam_id":76561198306997894,"connected_time":631000000000,"state":"active","ping":81},{"user_id":941,"name":"GardenOfStone","steam_id":76561199069870534,"connected_time":517000000000,"state":"active","ping":78},{"user_id":933,"name":"no.","steam_id":76561198988350454,"connected_time":1160000000000,"state":"active","ping":162},{"user_id":902,"name":"bad","steam_id":76561198090531755,"connected_time":3281000000000,"state":"active","ping":75},{"user_id":939,"name":"Fr3eD0m","steam_id":76561198014592811,"connected_time":606000000000,"state":"active","ping":67},{"user_id":921,"name":"mc","steam_id":76561198059335436,"connected_time":2244000000000,"state":"active","ping":75},{"user_id":945,"name":"Flembrane","steam_id":76561197995328898,"connected_time":286000000000,"state":"active","ping":90},{"user_id":942,"name":"Kedata","steam_id":76561198047750050,"connected_time":373000000000,"state":"active","ping":45},{"user_id":881,"name":"Fred","steam_id":76561197983870604,"connected_time":5572000000000,"state":"active","ping":88},{"user_id":900,"name":"dmdr1969","steam_id":76561198080469611,"connected_time":3395000000000,"state":"active","ping":73},{"user_id":943,"name":"ttl","steam_id":76561198142878296,"connected_time":357000000000,"state":"active","ping":73},{"user_id":944,"name":"Mitsubishi Materials","steam_id":76561198151871198,"connected_time":335000000000,"state":"active","ping":58},{"user_id":925,"name":"kermitcreeper(ZAZA)","steam_id":76561199222829972,"connected_time":2097000000000,"state":"active","ping":58},{"user_id":947,"name":"mitical uknown","steam_id":76561198844852761,"connected_time":143000000000,"state":"active","ping":144},{"user_id":948,"name":"girl smell","steam_id":76561198118962168,"connected_time":113000000000,"state":"active","ping":87},{"user_id":928,"name":"Whimsical Gnome","steam_id":76561198413125750,"connected_time":1763000000000,"state":"active","ping":66},{"user_id":949,"name":"ELevated Kinetic Energy","steam_id":76561199197088917,"connected_time":0,"state":"spawning","ping":25},{"user_id":929,"name":"Mr.Frundles","steam_id":76561198134559026,"connected_time":1746000000000,"state":"active","ping":73}]},{"server_id":403,"name":"Uncletopia | Chicago | 4 | All Maps","name_short":"chi-4","host":"chi-1.us.uncletopia.com","port":27045,"enabled":true,"region":"us-central","cc":"us","latitude":41.881832,"longitude":-87.62318,"reserved":0,"last_update":"0001-01-01T00:00:00Z","name_a2s":"Uncletopia | Chicago | 4 | All Maps","protocol":17,"map":"koth_highpass","folder":"tf","game":"Team Fortress","app_id":440,"player_count":0,"max_players":24,"Bots":0,"server_type":"Dedicated","server_os":"Linux","password":true,"vac":true,"version":"7757534","steam_id":85568392924515193,"keywords":["cp","nocrits","nodmgspread","uncletopia"],"game_id":440,"stv_port":27046,"stv_name":"Uncletopia | Chicago | 4 | All Maps | STV","players":null},{"server_id":36,"name":"Uncletopia | Chicago | 5 | All Maps","name_short":"chi-5","host":"chi-2.us.uncletopia.com","port":27015,"enabled":true,"region":"us-central","cc":"us","latitude":41.881832,"longitude":-87.62318,"reserved":0,"last_update":"0001-01-01T00:00:00Z","name_a2s":"Uncletopia | Chicago | 5 | All Maps","protocol":17,"map":"pl_borneo","folder":"tf","game":"Team Fortress","app_id":440,"player_count":0,"max_players":24,"Bots":0,"server_type":"Dedicated","server_os":"Linux","password":true,"vac":true,"version":"7757534","steam_id":85568392924866362,"keywords":["nocrits","nodmgspread","payload","uncletopia"],"game_id":440,"stv_port":27016,"stv_name":"Uncletopia | Chicago | 5 | All Maps | STV","players":null},{"server_id":37,"name":"Uncletopia | Chicago | 6 | All Maps","name_short":"chi-6","host":"chi-2.us.uncletopia.com","port":27025,"enabled":true,"region":"us-central","cc":"us","latitude":41.881832,"longitude":-87.62318,"reserved":0,"last_update":"0001-01-01T00:00:00Z","name_a2s":"Uncletopia | Chicago | 6 | All Maps","protocol":17,"map":"koth_lakeside_final","folder":"tf","game":"Team Fortress","app_id":440,"player_count":0,"max_players":24,"Bots":0,"server_type":"Dedicated","server_os":"Linux","password":true,"vac":true,"version":"7757534","steam_id":85568392924866363,"keywords":["cp","nocrits","nodmgspread","uncletopia"],"game_id":440,"stv_port":27026,"stv_name":"Uncletopia | Chicago | 6 | All Maps | STV","players":null},{"server_id":38,"name":"Uncletopia | Chicago | 7 | Stopwatch Beta","name_short":"chi-7","host":"chi-2.us.uncletopia.com","port":27035,"enabled":true,"region":"us-central","cc":"us","latitude":41.881832,"longitude":-87.62318,"reserved":0,"last_update":"0001-01-01T00:00:00Z","name_a2s":"Uncletopia | Chicago | 7 | Stopwatch Beta","protocol":17,"map":"pl_barnblitz","folder":"tf","game":"Team Fortress","app_id":440,"player_count":0,"max_players":24,"Bots":0,"server_type":"Dedicated","server_os":"Linux","password":true,"vac":true,"version":"7757534","steam_id":85568392924866364,"keywords":["nocrits","nodmgspread","payload","uncletopia"],"game_id":440,"stv_port":27036,"stv_name":"Uncletopia | Chicago | 7 | Stopwatch Beta | STV","players":null},{"server_id":39,"name":"Uncletopia | Chicago | 8 | Community","name_short":"chi-8","host":"chi-2.us.uncletopia.com","port":27045,"enabled":true,"region":"us-central","cc":"us","latitude":41.881832,"longitude":-87.62318,"reserved":0,"last_update":"0001-01-01T00:00:00Z","name_a2s":"Uncletopia | Chicago | 8 | Community","protocol":17,"map":"workshop/pl_corrode_rc2.ugc546577989","folder":"tf","game":"Team Fortress","app_id":440,"player_count":0,"max_players":24,"Bots":0,"server_type":"Dedicated","server_os":"Linux","password":true,"vac":true,"version":"7757534","steam_id":85568392924866365,"keywords":["nocrits","nodmgspread","payload","uncletopia"],"game_id":440,"stv_port":27046,"stv_name":"Uncletopia | Chicago | 8 | Community | STV","players":null},{"server_id":8,"name":"Uncletopia | Dallas | 1 | All Maps","name_short":"dal-1","host":"dal-1.us.uncletopia.com","port":27015,"enabled":true,"region":"us-central","cc":"us","latitude":32.779167,"longitude":-96.80889,"reserved":0,"last_update":"0001-01-01T00:00:00Z","name_a2s":"Uncletopia | Dallas | 1 | All Maps","protocol":17,"map":"pl_upward","folder":"tf","game":"Team Fortress","app_id":440,"player_count":23,"max_players":24,"Bots":0,"server_type":"Dedicated","server_os":"Linux","password":true,"vac":true,"version":"7757534","steam_id":85568392924469986,"keywords":["nocrits","nodmgspread","payload","uncletopia"],"game_id":440,"stv_port":27016,"stv_name":"Uncletopia | Dallas | 1 | All Maps | STV","players":[{"user_id":1042,"name":"connie kins","steam_id":76561198074701151,"connected_time":949000000000,"state":"active","ping":75},{"user_id":1003,"name":"Keroro","steam_id":76561198075106705,"connected_time":5462000000000,"state":"active","ping":90},{"user_id":1004,"name":"Joe Swanson","steam_id":76561199089907740,"connected_time":5453000000000,"state":"active","ping":92},{"user_id":1043,"name":"Dairy Queen","steam_id":76561198285298576,"connected_time":944000000000,"state":"active","ping":93},{"user_id":1013,"name":"Gelliterate","steam_id":76561198107233070,"connected_time":4227000000000,"state":"active","ping":57},{"user_id":1046,"name":"sharkbyt3","steam_id":76561197985793803,"connected_time":860000000000,"state":"active","ping":91},{"user_id":1035,"name":"Yume","steam_id":76561198018060136,"connected_time":1722000000000,"state":"active","ping":71},{"user_id":1036,"name":"Doctor Bear ʕ •ᴥ•ʔ","steam_id":76561197968103161,"connected_time":1681000000000,"state":"active","ping":78},{"user_id":1032,"name":"Luna She/Her","steam_id":76561198991791655,"connected_time":1875000000000,"state":"active","ping":95},{"user_id":1053,"name":"wile","steam_id":76561198125261443,"connected_time":31000000000,"state":"spawning","ping":110},{"user_id":1033,"name":"minty","steam_id":76561198062821894,"connected_time":1874000000000,"state":"active","ping":50},{"user_id":1048,"name":"Spuntino","steam_id":76561199057107767,"connected_time":817000000000,"state":"active","ping":85},{"user_id":1051,"name":"Genghis Khan","steam_id":76561198218558897,"connected_time":467000000000,"state":"active","ping":137},{"user_id":1038,"name":"Ichibanprofen","steam_id":76561199192132061,"connected_time":1601000000000,"state":"active","ping":75},{"user_id":980,"name":"Yosh","steam_id":76561198027078899,"connected_time":6954000000000,"state":"active","ping":75},{"user_id":1047,"name":"Chambersite","steam_id":76561198197022399,"connected_time":834000000000,"state":"active","ping":181},{"user_id":1025,"name":"Hashbrowncow","steam_id":76561198272021902,"connected_time":3042000000000,"state":"active","ping":85},{"user_id":1049,"name":"Jabroni Kris","steam_id":76561198048736247,"connected_time":807000000000,"state":"active","ping":114},{"user_id":1041,"name":"ebic","steam_id":76561198882446769,"connected_time":1169000000000,"state":"active","ping":65},{"user_id":1039,"name":"pocketpc_","steam_id":76561198123199942,"connected_time":1599000000000,"state":"active","ping":86},{"user_id":938,"name":"Bread Makes you Fat","steam_id":76561198985126532,"connected_time":9571000000000,"state":"active","ping":48},{"user_id":1030,"name":"beyonder","steam_id":76561198045844070,"connected_time":2322000000000,"state":"active","ping":57},{"user_id":1016,"name":"wally","steam_id":76561198027450079,"connected_time":4219000000000,"state":"active","ping":83}]},{"server_id":108,"name":"Uncletopia | Dallas | 2 | All Maps","name_short":"dal-2","host":"dal-1.us.uncletopia.com","port":27025,"enabled":true,"region":"us-central","cc":"us","latitude":32.779167,"longitude":-96.80889,"reserved":0,"last_update":"0001-01-01T00:00:00Z","name_a2s":"Uncletopia | Dallas | 2 | All Maps","protocol":17,"map":"cp_process_final","folder":"tf","game":"Team Fortress","app_id":440,"player_count":0,"max_players":24,"Bots":0,"server_type":"Dedicated","server_os":"Linux","password":true,"vac":true,"version":"7757534","steam_id":85568392924469988,"keywords":["cp","nocrits","nodmgspread","uncletopia"],"game_id":440,"stv_port":27026,"stv_name":"Uncletopia | Dallas | 2 | All Maps | STV","players":null},{"server_id":5,"name":"Uncletopia | Frankfurt | 1 | All Maps","name_short":"frk-1","host":"frk-1.de.uncletopia.com","port":27015,"enabled":true,"region":"eu","cc":"de","latitude":50.110924,"longitude":8.682127,"reserved":0,"last_update":"0001-01-01T00:00:00Z","name_a2s":"Uncletopia | Frankfurt | 1 | All Maps","protocol":17,"map":"cp_dustbowl","folder":"tf","game":"Team Fortress","app_id":440,"player_count":24,"max_players":24,"Bots":0,"server_type":"Dedicated","server_os":"Linux","password":true,"vac":true,"version":"7757534","steam_id":85568392924469989,"keywords":["cp","nocrits","nodmgspread","uncletopia"],"game_id":440,"stv_port":27016,"stv_name":"Uncletopia | Frankfurt | 1 | All Maps | STV","players":[{"user_id":161,"name":"Doohickey mechanic","steam_id":76561198146180114,"connected_time":594000000000,"state":"active","ping":82},{"user_id":148,"name":"Bred Sheeran","steam_id":76561198045692016,"connected_time":1276000000000,"state":"active","ping":48},{"user_id":150,"name":"hud_saytext_time 0","steam_id":76561198010327228,"connected_time":1203000000000,"state":"active","ping":65},{"user_id":134,"name":"Greg","steam_id":76561198014131702,"connected_time":2852000000000,"state":"active","ping":110},{"user_id":129,"name":"Lyncurion","steam_id":76561199260022725,"connected_time":3558000000000,"state":"active","ping":77},{"user_id":135,"name":"SCRAMMMBLED","steam_id":76561197998307746,"connected_time":2750000000000,"state":"active","ping":61},{"user_id":140,"name":"HelwiiHill","steam_id":76561198066730552,"connected_time":2101000000000,"state":"active","ping":89},{"user_id":152,"name":"phonebooth","steam_id":76561198216835323,"connected_time":865000000000,"state":"active","ping":75},{"user_id":165,"name":"Rizziologist","steam_id":76561198089003514,"connected_time":454000000000,"state":"active","ping":45},{"user_id":146,"name":"auls","steam_id":76561198111229919,"connected_time":1478000000000,"state":"active","ping":59},{"user_id":163,"name":"purplecan","steam_id":76561199208283508,"connected_time":547000000000,"state":"active","ping":56},{"user_id":117,"name":"vontex","steam_id":76561198211564973,"connected_time":4639000000000,"state":"active","ping":75},{"user_id":162,"name":"Chopperson_","steam_id":76561198873728497,"connected_time":584000000000,"state":"active","ping":107},{"user_id":45,"name":"ugly","steam_id":76561199050412617,"connected_time":10174000000000,"state":"active","ping":108},{"user_id":138,"name":"Mac Bean","steam_id":76561198133782205,"connected_time":2349000000000,"state":"active","ping":134},{"user_id":128,"name":"Dakeyras","steam_id":76561198057069564,"connected_time":3609000000000,"state":"active","ping":120},{"user_id":167,"name":"Ravioli","steam_id":76561198831900441,"connected_time":161000000000,"state":"active","ping":77},{"user_id":151,"name":"AddyD","steam_id":76561198201834415,"connected_time":1194000000000,"state":"active","ping":60},{"user_id":155,"name":"Mandy Muse","steam_id":76561199001105496,"connected_time":793000000000,"state":"active","ping":67},{"user_id":157,"name":"Krefa12","steam_id":76561198268375393,"connected_time":710000000000,"state":"active","ping":90},{"user_id":158,"name":"Dope","steam_id":76561198318858892,"connected_time":704000000000,"state":"active","ping":77},{"user_id":142,"name":"Tank","steam_id":76561199059174576,"connected_time":2095000000000,"state":"active","ping":162},{"user_id":96,"name":"Rin-Nakaret","steam_id":76561197971051188,"connected_time":6675000000000,"state":"active","ping":74},{"user_id":164,"name":"marco / s /","steam_id":76561198300120382,"connected_time":516000000000,"state":"active","ping":71}]},{"server_id":110,"name":"Uncletopia | Frankfurt | 2 | All Maps","name_short":"frk-2","host":"frk-1.de.uncletopia.com","port":27025,"enabled":true,"region":"eu","cc":"de","latitude":50.110924,"longitude":8.682127,"reserved":0,"last_update":"0001-01-01T00:00:00Z","name_a2s":"Uncletopia | Frankfurt | 2 | All Maps","protocol":17,"map":"cp_snakewater_final1","folder":"tf","game":"Team Fortress","app_id":440,"player_count":0,"max_players":24,"Bots":0,"server_type":"Dedicated","server_os":"Linux","password":true,"vac":true,"version":"7757534","steam_id":85568392924469990,"keywords":["cp","nocrits","nodmgspread","uncletopia"],"game_id":440,"stv_port":27026,"stv_name":"Uncletopia | Frankfurt | 2 | All Maps | STV","players":null},{"server_id":308,"name":"Uncletopia | Frankfurt | 3 | All Maps","name_short":"frk-3","host":"frk-1.de.uncletopia.com","port":27035,"enabled":true,"region":"eu","cc":"de","latitude":50.110924,"longitude":8.682127,"reserved":0,"last_update":"0001-01-01T00:00:00Z","name_a2s":"Uncletopia | Frankfurt | 3 | All Maps","protocol":17,"map":"pl_swiftwater_final1","folder":"tf","game":"Team Fortress","app_id":440,"player_count":2,"max_players":24,"Bots":0,"server_type":"Dedicated","server_os":"Linux","password":true,"vac":true,"version":"7757534","steam_id":85568392924504274,"keywords":["nocrits","nodmgspread","payload","uncletopia"],"game_id":440,"stv_port":27036,"stv_name":"Uncletopia | Frankfurt | 3 | All Maps | STV","players":[{"user_id":4,"name":"Yarub","steam_id":76561199108317566,"connected_time":229000000000,"state":"active","ping":93},{"user_id":5,"name":"Đesmond","steam_id":76561198097676225,"connected_time":202000000000,"state":"active","ping":55}]},{"server_id":309,"name":"Uncletopia | Frankfurt | 4 | All Maps","name_short":"frk-4","host":"frk-1.de.uncletopia.com","port":27045,"enabled":true,"region":"eu","cc":"de","latitude":50.110924,"longitude":8.682127,"reserved":0,"last_update":"0001-01-01T00:00:00Z","name_a2s":"Uncletopia | Frankfurt | 4 | All Maps","protocol":17,"map":"koth_viaduct","folder":"tf","game":"Team Fortress","app_id":440,"player_count":0,"max_players":24,"Bots":0,"server_type":"Dedicated","server_os":"Linux","password":true,"vac":true,"version":"7757534","steam_id":85568392924504275,"keywords":["cp","nocrits","nodmgspread","uncletopia"],"game_id":440,"stv_port":27046,"stv_name":"Uncletopia | Frankfurt | 4 | All Maps | STV","players":null},{"server_id":310,"name":"Uncletopia | Frankfurt | 5 | All Maps","name_short":"frk-5","host":"frk-1.de.uncletopia.com","port":27055,"enabled":true,"region":"eu","cc":"de","latitude":50.110924,"longitude":8.682127,"reserved":0,"last_update":"0001-01-01T00:00:00Z","name_a2s":"Uncletopia | Frankfurt | 5 | All Maps","protocol":17,"map":"koth_lakeside_final","folder":"tf","game":"Team Fortress","app_id":440,"player_count":16,"max_players":24,"Bots":0,"server_type":"Dedicated","server_os":"Linux","password":true,"vac":true,"version":"7757534","steam_id":85568392924504277,"keywords":["cp","nocrits","nodmgspread","uncletopia"],"game_id":440,"stv_port":27056,"stv_name":"Uncletopia | Frankfurt | 5 | All Maps | STV","players":[{"user_id":3,"name":"толя","steam_id":76561199098518615,"connected_time":851000000000,"state":"active","ping":74},{"user_id":4,"name":"Fluhfie","steam_id":76561199061232100,"connected_time":773000000000,"state":"active","ping":69},{"user_id":12,"name":"strideΔ","steam_id":76561199007826093,"connected_time":230000000000,"state":"active","ping":79},{"user_id":6,"name":"Dawu","steam_id":76561198060418376,"connected_time":640000000000,"state":"active","ping":91},{"user_id":8,"name":"Pan Pan","steam_id":76561199074670515,"connected_time":307000000000,"state":"active","ping":92},{"user_id":9,"name":"Loop_Cat","steam_id":76561199045902145,"connected_time":284000000000,"state":"active","ping":122},{"user_id":10,"name":"Guru","steam_id":76561198093853069,"connected_time":250000000000,"state":"active","ping":59},{"user_id":11,"name":"Mr. Crumpet","steam_id":76561198802117294,"connected_time":238000000000,"state":"active","ping":75},{"user_id":13,"name":"Goon","steam_id":76561198927527338,"connected_time":205000000000,"state":"active","ping":95},{"user_id":14,"name":"sex havin'","steam_id":76561198169857427,"connected_time":133000000000,"state":"active","ping":75},{"user_id":15,"name":"Nobody","steam_id":76561199113947978,"connected_time":107000000000,"state":"active","ping":76},{"user_id":16,"name":"WE NEED 5 BILLION ROCKETS","steam_id":76561199004923871,"connected_time":83000000000,"state":"active","ping":92},{"user_id":17,"name":"johncenx","steam_id":76561198366703672,"connected_time":67000000000,"state":"active","ping":74},{"user_id":18,"name":"slowdown heavy","steam_id":76561198025916703,"connected_time":52000000000,"state":"active","ping":88},{"user_id":19,"name":"dokkan battle enjoyer","steam_id":76561199088284199,"connected_time":38000000000,"state":"active","ping":58},{"user_id":20,"name":"Five Finger Discount","steam_id":76561197994556857,"connected_time":8000000000,"state":"spawning","ping":59}]},{"server_id":311,"name":"Uncletopia | Frankfurt | 6 | All Maps","name_short":"frk-6","host":"frk-1.de.uncletopia.com","port":27065,"enabled":true,"region":"eu","cc":"de","latitude":50.110924,"longitude":8.682127,"reserved":0,"last_update":"0001-01-01T00:00:00Z","name_a2s":"Uncletopia | Frankfurt | 6 | All Maps","protocol":17,"map":"pl_barnblitz","folder":"tf","game":"Team Fortress","app_id":440,"player_count":24,"max_players":24,"Bots":0,"server_type":"Dedicated","server_os":"Linux","password":true,"vac":true,"version":"7757534","steam_id":85568392924504278,"keywords":["nocrits","nodmgspread","payload","uncletopia"],"game_id":440,"stv_port":27066,"stv_name":"Uncletopia | Frankfurt | 6 | All Maps | STV","players":[{"user_id":95,"name":"Droy","steam_id":76561198065854668,"connected_time":2094000000000,"state":"active","ping":59},{"user_id":105,"name":"TimmiBlade","steam_id":76561199241852786,"connected_time":1070000000000,"state":"active","ping":73},{"user_id":117,"name":"on1on (fried)","steam_id":76561197995304137,"connected_time":274000000000,"state":"active","ping":65},{"user_id":115,"name":"Oxitocin","steam_id":76561198119542899,"connected_time":332000000000,"state":"active","ping":75},{"user_id":108,"name":"Flint","steam_id":76561197995920776,"connected_time":994000000000,"state":"active","ping":42},{"user_id":109,"name":"Spinyapickle","steam_id":76561198086653667,"connected_time":944000000000,"state":"active","ping":71},{"user_id":104,"name":"Turk Scout","steam_id":76561198975267711,"connected_time":1081000000000,"state":"active","ping":108},{"user_id":111,"name":"Evelgrand","steam_id":76561199480523816,"connected_time":907000000000,"state":"active","ping":95},{"user_id":75,"name":"b4s__","steam_id":76561198956558290,"connected_time":5278000000000,"state":"active","ping":60},{"user_id":87,"name":"leonardini.w","steam_id":76561199097963071,"connected_time":2913000000000,"state":"active","ping":84},{"user_id":49,"name":"El Gato Volador","steam_id":76561198021296882,"connected_time":6769000000000,"state":"active","ping":77},{"user_id":107,"name":"CerealKiller154","steam_id":76561198831177630,"connected_time":1062000000000,"state":"active","ping":94},{"user_id":103,"name":"Helon","steam_id":76561198050761682,"connected_time":1259000000000,"state":"active","ping":52},{"user_id":99,"name":"Sex Man TF2","steam_id":76561198798657045,"connected_time":1566000000000,"state":"active","ping":74},{"user_id":58,"name":"Treep","steam_id":76561198038711185,"connected_time":6052000000000,"state":"active","ping":71},{"user_id":83,"name":"TonTon","steam_id":76561198145468895,"connected_time":3122000000000,"state":"active","ping":41},{"user_id":88,"name":"Chief Executive Officer of Sex","steam_id":76561198385989487,"connected_time":2906000000000,"state":"active","ping":106},{"user_id":97,"name":"'Poli","steam_id":76561198058710244,"connected_time":1698000000000,"state":"active","ping":97},{"user_id":113,"name":"Small Mouse","steam_id":76561198286085100,"connected_time":686000000000,"state":"active","ping":86},{"user_id":96,"name":"HwK!","steam_id":76561198287835588,"connected_time":1804000000000,"state":"active","ping":88},{"user_id":114,"name":"panakid","steam_id":76561198364121077,"connected_time":403000000000,"state":"active","ping":113},{"user_id":110,"name":"why rum gone","steam_id":76561198158484784,"connected_time":917000000000,"state":"active","ping":60},{"user_id":106,"name":"Rodia","steam_id":76561197968293161,"connected_time":1067000000000,"state":"active","ping":73},{"user_id":112,"name":"悪","steam_id":76561198095879087,"connected_time":895000000000,"state":"active","ping":63}]},{"server_id":23,"name":"Uncletopia | Frankfurt | 7 | Stopwatch Beta","name_short":"frk-7","host":"frk-1.de.uncletopia.com","port":27075,"enabled":true,"region":"eu","cc":"de","latitude":50.110924,"longitude":8.682127,"reserved":0,"last_update":"0001-01-01T00:00:00Z","name_a2s":"Uncletopia | Frankfurt | 7 | Stopwatch Beta","protocol":17,"map":"cp_sunshine","folder":"tf","game":"Team Fortress","app_id":440,"player_count":0,"max_players":24,"Bots":0,"server_type":"Dedicated","server_os":"Linux","password":true,"vac":true,"version":"7757534","steam_id":85568392924742827,"keywords":["cp","nocrits","nodmgspread","uncletopia"],"game_id":440,"stv_port":27076,"stv_name":"Uncletopia | Frankfurt | 7 | Stopwatch Beta | STV","players":null},{"server_id":24,"name":"Uncletopia | Frankfurt | 8 | Community","name_short":"frk-8","host":"frk-1.de.uncletopia.com","port":27085,"enabled":true,"region":"eu","cc":"de","latitude":50.110924,"longitude":8.682127,"reserved":0,"last_update":"0001-01-01T00:00:00Z","name_a2s":"Uncletopia | Frankfurt | 8 | Community","protocol":17,"map":"workshop/cp_fulgur_rc2a.ugc2068252300","folder":"tf","game":"Team Fortress","app_id":440,"player_count":0,"max_players":24,"Bots":0,"server_type":"Dedicated","server_os":"Linux","password":true,"vac":true,"version":"7757534","steam_id":85568392924742828,"keywords":["cp","nocrits","nodmgspread","uncletopia"],"game_id":440,"stv_port":27086,"stv_name":"Uncletopia | Frankfurt | 8 | Community | STV","players":null},{"server_id":202,"name":"Uncletopia | Hong Kong | 1 | All Maps","name_short":"hgk-1","host":"hgk-1.hk.uncletopia.com","port":27015,"enabled":true,"region":"asia","cc":"hk","latitude":22.302711,"longitude":114.177216,"reserved":0,"last_update":"0001-01-01T00:00:00Z","name_a2s":"Uncletopia | Hong Kong | 1 | All Maps","protocol":17,"map":"pl_pier","folder":"tf","game":"Team Fortress","app_id":440,"player_count":24,"max_players":24,"Bots":0,"server_type":"Dedicated","server_os":"Linux","password":true,"vac":true,"version":"7757534","steam_id":85568392924494504,"keywords":["nocrits","nodmgspread","payload","uncletopia"],"game_id":440,"stv_port":27016,"stv_name":"Uncletopia | Hong Kong | 1 | All Maps | STV","players":[{"user_id":371,"name":"JDSFE","steam_id":76561198975490851,"connected_time":2394000000000,"state":"active","ping":108},{"user_id":386,"name":"bathtub","steam_id":76561198967804087,"connected_time":857000000000,"state":"active","ping":104},{"user_id":369,"name":"hasty","steam_id":76561198439382132,"connected_time":2415000000000,"state":"active","ping":113},{"user_id":335,"name":"Noyour","steam_id":76561198323259830,"connected_time":6166000000000,"state":"active","ping":115},{"user_id":376,"name":"Stupid B","steam_id":76561198131423270,"connected_time":2095000000000,"state":"active","ping":116},{"user_id":381,"name":"Battle Engineer","steam_id":76561198129588214,"connected_time":1563000000000,"state":"active","ping":180},{"user_id":370,"name":"Dropoutクマ","steam_id":76561199092455646,"connected_time":2414000000000,"state":"active","ping":82},{"user_id":320,"name":"Asüra","steam_id":76561198320939701,"connected_time":7607000000000,"state":"active","ping":61},{"user_id":358,"name":"Hay","steam_id":76561199438952901,"connected_time":3618000000000,"state":"active","ping":51},{"user_id":359,"name":"water tastes good","steam_id":76561199375947670,"connected_time":3139000000000,"state":"active","ping":65},{"user_id":360,"name":"Puddin","steam_id":76561198140052918,"connected_time":2863000000000,"state":"active","ping":97},{"user_id":349,"name":"Wx","steam_id":76561199217780897,"connected_time":3934000000000,"state":"active","ping":117},{"user_id":329,"name":"ase","steam_id":76561198152588681,"connected_time":6597000000000,"state":"active","ping":82},{"user_id":380,"name":"Up and Coming Crackhead","steam_id":76561199174449723,"connected_time":1707000000000,"state":"active","ping":109},{"user_id":227,"name":"帕","steam_id":76561198439343999,"connected_time":11947000000000,"state":"active","ping":133},{"user_id":217,"name":"Samoyed","steam_id":76561198299150410,"connected_time":13205000000000,"state":"active","ping":135},{"user_id":324,"name":"U・♀・U kitty","steam_id":76561198149684436,"connected_time":6648000000000,"state":"active","ping":43},{"user_id":385,"name":"NootNoot","steam_id":76561199122109977,"connected_time":1041000000000,"state":"active","ping":110},{"user_id":384,"name":"eeeeeee","steam_id":76561199205561410,"connected_time":1066000000000,"state":"active","ping":113},{"user_id":328,"name":"쿠키","steam_id":76561197997220367,"connected_time":6606000000000,"state":"active","ping":53},{"user_id":363,"name":"Crippling Depression","steam_id":76561199198723894,"connected_time":2776000000000,"state":"active","ping":92},{"user_id":377,"name":"3wfFbdrjEze5d2G","steam_id":76561198435900451,"connected_time":2090000000000,"state":"active","ping":121},{"user_id":343,"name":"urotsuki with da doobie","steam_id":76561198074339034,"connected_time":5500000000000,"state":"active","ping":75},{"user_id":388,"name":"killman47","steam_id":76561198348487408,"connected_time":743000000000,"state":"active","ping":44}]},{"server_id":1,"name":"Uncletopia | Los Angeles | 1 | All Maps","name_short":"lax-1","host":"lax-1.us.uncletopia.com","port":27015,"enabled":true,"region":"us-west","cc":"us","latitude":33.94279,"longitude":-118.41004,"reserved":0,"last_update":"0001-01-01T00:00:00Z","name_a2s":"Uncletopia | Los Angeles | 1 | All Maps","protocol":17,"map":"koth_viaduct","folder":"tf","game":"Team Fortress","app_id":440,"player_count":0,"max_players":24,"Bots":0,"server_type":"Dedicated","server_os":"Linux","password":true,"vac":true,"version":"7757534","steam_id":85568392924469991,"keywords":["cp","nocrits","nodmgspread","uncletopia"],"game_id":440,"stv_port":27016,"stv_name":"Uncletopia | Los Angeles | 1 | All Maps | STV","players":null},{"server_id":112,"name":"Uncletopia | Los Angeles | 2 | All Maps","name_short":"lax-2","host":"lax-1.us.uncletopia.com","port":27025,"enabled":true,"region":"us-west","cc":"us","latitude":33.94279,"longitude":-118.41004,"reserved":0,"last_update":"0001-01-01T00:00:00Z","name_a2s":"Uncletopia | Los Angeles | 2 | All Maps","protocol":17,"map":"koth_lakeside_final","folder":"tf","game":"Team Fortress","app_id":440,"player_count":5,"max_players":24,"Bots":0,"server_type":"Dedicated","server_os":"Linux","password":true,"vac":true,"version":"7757534","steam_id":85568392924469992,"keywords":["cp","nocrits","nodmgspread","uncletopia"],"game_id":440,"stv_port":27026,"stv_name":"Uncletopia | Los Angeles | 2 | All Maps | STV","players":[{"user_id":431,"name":"yuuko","steam_id":76561198097711389,"connected_time":3042000000000,"state":"active","ping":62},{"user_id":445,"name":"[Colorbomb]","steam_id":76561198006316527,"connected_time":387000000000,"state":"active","ping":53},{"user_id":442,"name":"Handsome Pete","steam_id":76561198003224229,"connected_time":1027000000000,"state":"active","ping":61},{"user_id":407,"name":"sans","steam_id":76561198859444420,"connected_time":5094000000000,"state":"active","ping":61},{"user_id":434,"name":"monkey squirts","steam_id":76561197983101644,"connected_time":2703000000000,"state":"active","ping":33}]},{"server_id":324,"name":"Uncletopia | Los Angeles | 3 | All Maps","name_short":"lax-3","host":"lax-1.us.uncletopia.com","port":27035,"enabled":true,"region":"us-west","cc":"us","latitude":33.94279,"longitude":-118.41004,"reserved":0,"last_update":"0001-01-01T00:00:00Z","name_a2s":"Uncletopia | Los Angeles | 3 | All Maps","protocol":17,"map":"koth_viaduct","folder":"tf","game":"Team Fortress","app_id":440,"player_count":0,"max_players":24,"Bots":0,"server_type":"Dedicated","server_os":"Linux","password":true,"vac":true,"version":"7757534","steam_id":85568392924510198,"keywords":["cp","nocrits","nodmgspread","uncletopia"],"game_id":440,"stv_port":27036,"stv_name":"Uncletopia | Los Angeles | 3 | All Maps | STV","players":null},{"server_id":25,"name":"Uncletopia | Los Angeles | 4 | Stopwatch Beta","name_short":"lax-4","host":"lax-1.us.uncletopia.com","port":27045,"enabled":true,"region":"us-west","cc":"us","latitude":33.94279,"longitude":-118.41004,"reserved":0,"last_update":"0001-01-01T00:00:00Z","name_a2s":"Uncletopia | Los Angeles | 4 | Stopwatch Beta","protocol":17,"map":"pl_borneo","folder":"tf","game":"Team Fortress","app_id":440,"player_count":0,"max_players":24,"Bots":0,"server_type":"Dedicated","server_os":"Linux","password":true,"vac":true,"version":"7757534","steam_id":85568392924510199,"keywords":["nocrits","nodmgspread","payload","uncletopia"],"game_id":440,"stv_port":27046,"stv_name":"Uncletopia | Los Angeles | 4 | Stopwatch Beta | STV","players":null},{"server_id":11,"name":"Uncletopia | London | 1 | All Maps","name_short":"lon-1","host":"lon-1.uk.uncletopia.com","port":27015,"enabled":true,"region":"eu","cc":"gb","latitude":51.509865,"longitude":-0.118092,"reserved":0,"last_update":"0001-01-01T00:00:00Z","name_a2s":"Uncletopia | London | 1 | All Maps","protocol":17,"map":"pl_badwater","folder":"tf","game":"Team Fortress","app_id":440,"player_count":24,"max_players":24,"Bots":0,"server_type":"Dedicated","server_os":"Linux","password":true,"vac":true,"version":"7757534","steam_id":85568392924367362,"keywords":["nocrits","nodmgspread","payload","uncletopia"],"game_id":440,"stv_port":27016,"stv_name":"Uncletopia | London | 1 | All Maps | STV","players":[{"user_id":152,"name":"Topia","steam_id":76561198163571788,"connected_time":73000000000,"state":"active","ping":88},{"user_id":104,"name":"KingPotatoChips","steam_id":76561198035156465,"connected_time":2941000000000,"state":"active","ping":67},{"user_id":128,"name":"✪ GentleMann","steam_id":76561198075332603,"connected_time":1841000000000,"state":"active","ping":116},{"user_id":133,"name":"Clitorina","steam_id":76561198077570815,"connected_time":1363000000000,"state":"active","ping":42},{"user_id":140,"name":"BeanyBen","steam_id":76561198150585233,"connected_time":828000000000,"state":"active","ping":53},{"user_id":92,"name":"Ash","steam_id":76561198148738525,"connected_time":3931000000000,"state":"active","ping":98},{"user_id":151,"name":"Flump","steam_id":76561198106352373,"connected_time":276000000000,"state":"active","ping":44},{"user_id":130,"name":"Lucoa Enjoyer","steam_id":76561198842622419,"connected_time":1796000000000,"state":"active","ping":99},{"user_id":106,"name":"Reomk","steam_id":76561198309314129,"connected_time":2722000000000,"state":"active","ping":66},{"user_id":146,"name":"I AM DOT","steam_id":76561198354118090,"connected_time":446000000000,"state":"active","ping":81},{"user_id":134,"name":"Koby","steam_id":76561198118554071,"connected_time":1091000000000,"state":"active","ping":80},{"user_id":149,"name":"owo","steam_id":76561198158209651,"connected_time":419000000000,"state":"active","ping":57},{"user_id":136,"name":"Lord z Párnie","steam_id":76561198070815677,"connected_time":1084000000000,"state":"active","ping":69},{"user_id":138,"name":"Hadmund Gaming","steam_id":76561198119454822,"connected_time":1057000000000,"state":"active","ping":66},{"user_id":137,"name":"Lessoz","steam_id":76561199211572036,"connected_time":1069000000000,"state":"active","ping":90},{"user_id":114,"name":"Chad Slav","steam_id":76561198160103841,"connected_time":2466000000000,"state":"active","ping":67},{"user_id":135,"name":"PashaVerti","steam_id":76561199013963024,"connected_time":1085000000000,"state":"active","ping":86},{"user_id":122,"name":"Xx_EpicGaymer_xX","steam_id":76561198846784757,"connected_time":2029000000000,"state":"active","ping":76},{"user_id":103,"name":"Estyle","steam_id":76561198157804700,"connected_time":2948000000000,"state":"active","ping":103},{"user_id":143,"name":"COFFEE","steam_id":76561198869355986,"connected_time":497000000000,"state":"active","ping":75},{"user_id":139,"name":"no1-","steam_id":76561198067524060,"connected_time":999000000000,"state":"active","ping":88},{"user_id":78,"name":"2","steam_id":76561198377533237,"connected_time":4731000000000,"state":"active","ping":93},{"user_id":127,"name":"Znoz","steam_id":76561198012093928,"connected_time":1864000000000,"state":"active","ping":100},{"user_id":132,"name":"Kretur","steam_id":76561198161086266,"connected_time":1406000000000,"state":"active","ping":104}]},{"server_id":114,"name":"Uncletopia | London | 2 | All Maps","name_short":"lon-2","host":"lon-1.uk.uncletopia.com","port":27025,"enabled":true,"region":"eu","cc":"gb","latitude":51.509865,"longitude":-0.118092,"reserved":0,"last_update":"0001-01-01T00:00:00Z","name_a2s":"Uncletopia | London | 2 | All Maps","protocol":17,"map":"koth_viaduct","folder":"tf","game":"Team Fortress","app_id":440,"player_count":0,"max_players":24,"Bots":0,"server_type":"Dedicated","server_os":"Linux","password":true,"vac":true,"version":"7757534","steam_id":85568392924470941,"keywords":["cp","nocrits","nodmgspread","uncletopia"],"game_id":440,"stv_port":27026,"stv_name":"Uncletopia | London | 2 | All Maps | STV","players":null},{"server_id":320,"name":"Uncletopia | London | 3 | All Maps","name_short":"lon-3","host":"lon-1.uk.uncletopia.com","port":27035,"enabled":true,"region":"eu","cc":"gb","latitude":51.509865,"longitude":-0.118092,"reserved":0,"last_update":"0001-01-01T00:00:00Z","name_a2s":"Uncletopia | London | 3 | All Maps","protocol":17,"map":"pl_snowycoast","folder":"tf","game":"Team Fortress","app_id":440,"player_count":24,"max_players":24,"Bots":0,"server_type":"Dedicated","server_os":"Linux","password":true,"vac":true,"version":"7757534","steam_id":85568392924510192,"keywords":["nocrits","nodmgspread","payload","uncletopia"],"game_id":440,"stv_port":27036,"stv_name":"Uncletopia | London | 3 | All Maps | STV","players":[{"user_id":109,"name":"sethlington14","steam_id":76561199438357690,"connected_time":951000000000,"state":"active","ping":60},{"user_id":90,"name":"ファッカブル・ドラゴ","steam_id":76561198016649655,"connected_time":2403000000000,"state":"active","ping":94},{"user_id":113,"name":"Virgil","steam_id":76561198248786778,"connected_time":425000000000,"state":"active","ping":106},{"user_id":93,"name":"Saint","steam_id":76561198003296382,"connected_time":2351000000000,"state":"active","ping":75},{"user_id":77,"name":"Труп Володя","steam_id":76561198035718457,"connected_time":2953000000000,"state":"active","ping":88},{"user_id":105,"name":"ok","steam_id":76561198052575567,"connected_time":1324000000000,"state":"active","ping":82},{"user_id":89,"name":"Avedist","steam_id":76561198037236130,"connected_time":2410000000000,"state":"active","ping":76},{"user_id":95,"name":"Muppburg","steam_id":76561198031070682,"connected_time":2136000000000,"state":"active","ping":60},{"user_id":68,"name":".::[SerafeTTiN]::.","steam_id":76561198009471724,"connected_time":3704000000000,"state":"active","ping":90},{"user_id":115,"name":"ultralow B\u003ekeys1.8$ppal","steam_id":76561197982127154,"connected_time":302000000000,"state":"active","ping":60},{"user_id":103,"name":"Spycrab101","steam_id":76561198141836805,"connected_time":1536000000000,"state":"active","ping":47},{"user_id":102,"name":"Soerlssoelssöen","steam_id":76561197993060585,"connected_time":1588000000000,"state":"active","ping":83},{"user_id":74,"name":"Rat head","steam_id":76561198184360615,"connected_time":3178000000000,"state":"active","ping":90},{"user_id":50,"name":"m0ney","steam_id":76561199403752637,"connected_time":4439000000000,"state":"active","ping":54},{"user_id":51,"name":"tony wick","steam_id":76561198279595210,"connected_time":4397000000000,"state":"active","ping":87},{"user_id":96,"name":"Tobleroney","steam_id":76561198154402655,"connected_time":2129000000000,"state":"active","ping":35},{"user_id":110,"name":"grandpa's post-mortem photo","steam_id":76561198130116078,"connected_time":822000000000,"state":"active","ping":104},{"user_id":111,"name":"Cotton Eye Joe","steam_id":76561198080594207,"connected_time":651000000000,"state":"active","ping":52},{"user_id":88,"name":"Jan.","steam_id":76561197974066329,"connected_time":2626000000000,"state":"active","ping":60},{"user_id":107,"name":"hora","steam_id":76561198404470526,"connected_time":965000000000,"state":"active","ping":95},{"user_id":112,"name":"cw446","steam_id":76561198056983371,"connected_time":563000000000,"state":"active","ping":56},{"user_id":114,"name":"Sylvanas","steam_id":76561198154904165,"connected_time":368000000000,"state":"active","ping":115},{"user_id":92,"name":"andria","steam_id":76561198930247131,"connected_time":2396000000000,"state":"active","ping":117},{"user_id":65,"name":"sAmasam","steam_id":76561198114953928,"connected_time":3895000000000,"state":"active","ping":72}]},{"server_id":321,"name":"Uncletopia | London | 4 | All Maps","name_short":"lon-4","host":"lon-1.uk.uncletopia.com","port":27045,"enabled":true,"region":"eu","cc":"gb","latitude":51.509865,"longitude":-0.118092,"reserved":0,"last_update":"0001-01-01T00:00:00Z","name_a2s":"Uncletopia | London | 4 | All Maps","protocol":17,"map":"koth_viaduct","folder":"tf","game":"Team Fortress","app_id":440,"player_count":0,"max_players":24,"Bots":0,"server_type":"Dedicated","server_os":"Linux","password":true,"vac":true,"version":"7757534","steam_id":85568392924510193,"keywords":["cp","nocrits","nodmgspread","uncletopia"],"game_id":440,"stv_port":27046,"stv_name":"Uncletopia | London | 4 | All Maps | STV","players":null},{"server_id":21,"name":"Uncletopia | London | 5 | All Maps","name_short":"lon-5","host":"lon-1.uk.uncletopia.com","port":27055,"enabled":true,"region":"eu","cc":"gb","latitude":51.509865,"longitude":-0.118092,"reserved":0,"last_update":"0001-01-01T00:00:00Z","name_a2s":"Uncletopia | London | 5 | All Maps","protocol":17,"map":"koth_highpass","folder":"tf","game":"Team Fortress","app_id":440,"player_count":0,"max_players":24,"Bots":0,"server_type":"Dedicated","server_os":"Linux","password":true,"vac":true,"version":"7757534","steam_id":85568392924742829,"keywords":["cp","nocrits","nodmgspread","uncletopia"],"game_id":440,"stv_port":27056,"stv_name":"Uncletopia | London | 5 | All Maps | STV","players":null},{"server_id":22,"name":"Uncletopia | London | 6 | All Maps","name_short":"lon-6","host":"lon-1.uk.uncletopia.com","port":27065,"enabled":true,"region":"eu","cc":"gb","latitude":51.509865,"longitude":-0.118092,"reserved":0,"last_update":"0001-01-01T00:00:00Z","name_a2s":"Uncletopia | London | 6 | All Maps","protocol":17,"map":"pl_pier","folder":"tf","game":"Team Fortress","app_id":440,"player_count":0,"max_players":24,"Bots":0,"server_type":"Dedicated","server_os":"Linux","password":true,"vac":true,"version":"7757534","steam_id":85568392924742830,"keywords":["nocrits","nodmgspread","payload","uncletopia"],"game_id":440,"stv_port":27066,"stv_name":"Uncletopia | London | 6 | All Maps | STV","players":null},{"server_id":40,"name":"Uncletopia | London | 7 | No Payload","name_short":"lon-7","host":"lon-1.uk.uncletopia.com","port":27075,"enabled":true,"region":"eu","cc":"gb","latitude":51.509865,"longitude":-0.118092,"reserved":0,"last_update":"0001-01-01T00:00:00Z","name_a2s":"Uncletopia | London | 7 | No Payload","protocol":17,"map":"cp_gullywash_final1","folder":"tf","game":"Team Fortress","app_id":440,"player_count":0,"max_players":24,"Bots":0,"server_type":"Dedicated","server_os":"Linux","password":true,"vac":true,"version":"7757534","steam_id":85568392924964314,"keywords":["cp","nocrits","nodmgspread","uncletopia"],"game_id":440,"stv_port":27076,"stv_name":"Uncletopia | London | 7 | No Payload | STV","players":null},{"server_id":41,"name":"Uncletopia | London | 8 | Community","name_short":"lon-8","host":"lon-1.uk.uncletopia.com","port":27085,"enabled":true,"region":"eu","cc":"gb","latitude":51.509865,"longitude":-0.118092,"reserved":0,"last_update":"0001-01-01T00:00:00Z","name_a2s":"Uncletopia | London | 8 | Community","protocol":17,"map":"pl_barnblitz","folder":"tf","game":"Team Fortress","app_id":440,"player_count":0,"max_players":24,"Bots":0,"server_type":"Dedicated","server_os":"Linux","password":true,"vac":true,"version":"7757534","steam_id":85568392924964315,"keywords":["nocrits","nodmgspread","payload","uncletopia"],"game_id":440,"stv_port":27086,"stv_name":"Uncletopia | London | 8 | Community | STV","players":null},{"server_id":300,"name":"Uncletopia | Montréal | 1 | All Maps","name_short":"mtl-1","host":"mtl-1.ca.uncletopia.com","port":27015,"enabled":true,"region":"us-east","cc":"ca","latitude":45.50889,"longitude":-73.56167,"reserved":0,"last_update":"0001-01-01T00:00:00Z","name_a2s":"Uncletopia | Montréal | 1 | All Maps","protocol":17,"map":"koth_viaduct","folder":"tf","game":"Team Fortress","app_id":440,"player_count":0,"max_players":24,"Bots":0,"server_type":"Dedicated","server_os":"Linux","password":true,"vac":true,"version":"7757534","steam_id":85568392924500087,"keywords":["cp","nocrits","nodmgspread","uncletopia"],"game_id":440,"stv_port":27016,"stv_name":"Uncletopia | Montréal | 1 | All Maps | STV","players":null},{"server_id":301,"name":"Uncletopia | Montréal | 2 | All Maps","name_short":"mtl-2","host":"mtl-1.ca.uncletopia.com","port":27025,"enabled":true,"region":"us-east","cc":"ca","latitude":45.50889,"longitude":-73.56167,"reserved":0,"last_update":"0001-01-01T00:00:00Z","name_a2s":"Uncletopia | Montréal | 2 | All Maps","protocol":17,"map":"koth_viaduct","folder":"tf","game":"Team Fortress","app_id":440,"player_count":0,"max_players":24,"Bots":0,"server_type":"Dedicated","server_os":"Linux","password":true,"vac":true,"version":"7757534","steam_id":85568392924500088,"keywords":["cp","nocrits","nodmgspread","uncletopia"],"game_id":440,"stv_port":27026,"stv_name":"Uncletopia | Montréal | 2 | All Maps | STV","players":null},{"server_id":302,"name":"Uncletopia | Montréal | 3 | All Maps","name_short":"mtl-3","host":"mtl-1.ca.uncletopia.com","port":27035,"enabled":true,"region":"us-east","cc":"ca","latitude":45.50889,"longitude":-73.56167,"reserved":0,"last_update":"0001-01-01T00:00:00Z","name_a2s":"Uncletopia | Montréal | 3 | All Maps","protocol":17,"map":"pl_barnblitz","folder":"tf","game":"Team Fortress","app_id":440,"player_count":0,"max_players":24,"Bots":0,"server_type":"Dedicated","server_os":"Linux","password":true,"vac":true,"version":"7757534","steam_id":85568392924500089,"keywords":["nocrits","nodmgspread","payload","uncletopia"],"game_id":440,"stv_port":27036,"stv_name":"Uncletopia | Montréal | 3 | All Maps | STV","players":null},{"server_id":303,"name":"Uncletopia | Montréal | 4 | No Payload","name_short":"mtl-4","host":"mtl-1.ca.uncletopia.com","port":27045,"enabled":true,"region":"us-east","cc":"ca","latitude":45.50889,"longitude":-73.56167,"reserved":0,"last_update":"0001-01-01T00:00:00Z","name_a2s":"Uncletopia | Montréal | 4 | No Payload","protocol":17,"map":"plr_pipeline","folder":"tf","game":"Team Fortress","app_id":440,"player_count":0,"max_players":24,"Bots":0,"server_type":"Dedicated","server_os":"Linux","password":true,"vac":true,"version":"7757534","steam_id":85568392924500090,"keywords":["nocrits","nodmgspread","payload","uncletopia"],"game_id":440,"stv_port":27046,"stv_name":"Uncletopia | Montréal | 4 | No Payload | STV","players":null},{"server_id":13,"name":"Uncletopia | New York City | 1 | All Maps","name_short":"nyc-1","host":"nyc-1.us.uncletopia.com","port":27015,"enabled":true,"region":"us-east","cc":"us","latitude":40.73061,"longitude":-73.93524,"reserved":0,"last_update":"0001-01-01T00:00:00Z","name_a2s":"Uncletopia | New York City | 1 | All Maps","protocol":17,"map":"cp_sunshine","folder":"tf","game":"Team Fortress","app_id":440,"player_count":0,"max_players":24,"Bots":0,"server_type":"Dedicated","server_os":"Linux","password":true,"vac":true,"version":"7757534","steam_id":85568392924469993,"keywords":["cp","nocrits","nodmgspread","uncletopia"],"game_id":440,"stv_port":27016,"stv_name":"Uncletopia | New York City | 1 | All Maps | STV","players":null},{"server_id":14,"name":"Uncletopia | New York City | 2 | All Maps","name_short":"nyc-2","host":"nyc-1.us.uncletopia.com","port":27025,"enabled":true,"region":"us-east","cc":"us","latitude":40.73061,"longitude":-73.93524,"reserved":0,"last_update":"0001-01-01T00:00:00Z","name_a2s":"Uncletopia | New York City | 2 | All Maps","protocol":17,"map":"koth_viaduct","folder":"tf","game":"Team Fortress","app_id":440,"player_count":0,"max_players":24,"Bots":0,"server_type":"Dedicated","server_os":"Linux","password":true,"vac":true,"version":"7757534","steam_id":85568392924469994,"keywords":["cp","nocrits","nodmgspread","uncletopia"],"game_id":440,"stv_port":27026,"stv_name":"Uncletopia | New York City | 2 | All Maps | STV","players":null},{"server_id":15,"name":"Uncletopia | New York City | 3 | Stopwatch Beta","name_short":"nyc-3","host":"nyc-1.us.uncletopia.com","port":27035,"enabled":true,"region":"us-east","cc":"us","latitude":40.73061,"longitude":-73.93524,"reserved":0,"last_update":"0001-01-01T00:00:00Z","name_a2s":"Uncletopia | New York City | 3 | Stopwatch Beta","protocol":17,"map":"workshop/pl_summercoast_rc8e.ugc1761528829","folder":"tf","game":"Team Fortress","app_id":440,"player_count":0,"max_players":24,"Bots":0,"server_type":"Dedicated","server_os":"Linux","password":true,"vac":true,"version":"7757534","steam_id":85568392924742820,"keywords":["nocrits","nodmgspread","payload","uncletopia"],"game_id":440,"stv_port":27036,"stv_name":"Uncletopia | New York City | 3 | Stopwatch Beta | STV","players":null},{"server_id":16,"name":"Uncletopia | New York City | 4 | Community","name_short":"nyc-4","host":"nyc-1.us.uncletopia.com","port":27045,"enabled":true,"region":"us-east","cc":"us","latitude":40.73061,"longitude":-73.93524,"reserved":0,"last_update":"0001-01-01T00:00:00Z","name_a2s":"Uncletopia | New York City | 4 | Community","protocol":17,"map":"workshop/pl_cactuscanyon_redux_final2.ugc2579644293","folder":"tf","game":"Team Fortress","app_id":440,"player_count":0,"max_players":24,"Bots":0,"server_type":"Dedicated","server_os":"Linux","password":true,"vac":true,"version":"7757534","steam_id":85568392924742821,"keywords":["nocrits","nodmgspread","payload","uncletopia"],"game_id":440,"stv_port":27046,"stv_name":"Uncletopia | New York City | 4 | Community | STV","players":null},{"server_id":142,"name":"Uncletopia | São Paulo | 1 | All Maps","name_short":"sao-1","host":"sao-1.br.uncletopia.com","port":27015,"enabled":true,"region":"sa","cc":"br","latitude":-23.533773,"longitude":-46.62529,"reserved":0,"last_update":"0001-01-01T00:00:00Z","name_a2s":"Uncletopia | São Paulo | 1 | All Maps","protocol":17,"map":"koth_lakeside_final","folder":"tf","game":"Team Fortress","app_id":440,"player_count":0,"max_players":24,"Bots":0,"server_type":"Dedicated","server_os":"Linux","password":true,"vac":true,"version":"7757534","steam_id":85568392924469996,"keywords":["cp","nocrits","nodmgspread","uncletopia"],"game_id":440,"stv_port":27016,"stv_name":"Uncletopia | São Paulo | 1 | All Maps | STV","players":null},{"server_id":143,"name":"Uncletopia | São Paulo | 2 | All Maps","name_short":"sao-2","host":"sao-2.br.uncletopia.com","port":27015,"enabled":true,"region":"sa","cc":"br","latitude":-23.533773,"longitude":-46.62529,"reserved":0,"last_update":"0001-01-01T00:00:00Z","name_a2s":"Uncletopia | São Paulo | 2 | All Maps","protocol":17,"map":"cp_process_final","folder":"tf","game":"Team Fortress","app_id":440,"player_count":0,"max_players":24,"Bots":0,"server_type":"Dedicated","server_os":"Linux","password":true,"vac":true,"version":"7757534","steam_id":85568392924485349,"keywords":["cp","nocrits","nodmgspread","uncletopia"],"game_id":440,"stv_port":27016,"stv_name":"Uncletopia | São Paulo | 2 | All Maps | STV","players":null},{"server_id":7,"name":"Uncletopia | Seattle | 1 | All Maps","name_short":"sea-1","host":"sea-1.us.uncletopia.com","port":27015,"enabled":true,"region":"us-west","cc":"us","latitude":47.608013,"longitude":-122.33517,"reserved":0,"last_update":"0001-01-01T00:00:00Z","name_a2s":"Uncletopia | Seattle | 1 | All Maps","protocol":17,"map":"pl_pier","folder":"tf","game":"Team Fortress","app_id":440,"player_count":24,"max_players":24,"Bots":0,"server_type":"Dedicated","server_os":"Linux","password":true,"vac":true,"version":"7757534","steam_id":85568392924469997,"keywords":["nocrits","nodmgspread","payload","uncletopia"],"game_id":440,"stv_port":27016,"stv_name":"Uncletopia | Seattle | 1 | All Maps | STV","players":[{"user_id":774,"name":"Level 99 Mudcrab","steam_id":76561198077452771,"connected_time":9845000000000,"state":"active","ping":58},{"user_id":863,"name":"lad","steam_id":76561198062949867,"connected_time":1292000000000,"state":"active","ping":48},{"user_id":859,"name":"Cam","steam_id":76561198285054047,"connected_time":1790000000000,"state":"active","ping":74},{"user_id":860,"name":"pt","steam_id":76561198143023330,"connected_time":1729000000000,"state":"active","ping":74},{"user_id":871,"name":"ֆɨƈӄօʍօɖɛ","steam_id":76561198064668286,"connected_time":914000000000,"state":"active","ping":118},{"user_id":865,"name":"Oniko","steam_id":76561198087703138,"connected_time":1043000000000,"state":"active","ping":73},{"user_id":851,"name":"thealphabetsoup","steam_id":76561198028148682,"connected_time":2669000000000,"state":"active","ping":51},{"user_id":843,"name":"DanCawthon","steam_id":76561199105022863,"connected_time":2810000000000,"state":"active","ping":119},{"user_id":861,"name":"MegumiTame","steam_id":76561198450280686,"connected_time":1316000000000,"state":"active","ping":51},{"user_id":874,"name":"Malmart_Employee","steam_id":76561198320388704,"connected_time":737000000000,"state":"active","ping":64},{"user_id":862,"name":"blizz","steam_id":76561199139715539,"connected_time":1314000000000,"state":"active","ping":68},{"user_id":844,"name":"Aqua Tofana","steam_id":76561198351183381,"connected_time":2760000000000,"state":"active","ping":57},{"user_id":873,"name":"CoolGuy","steam_id":76561198864528445,"connected_time":760000000000,"state":"active","ping":64},{"user_id":867,"name":"MotherlyMistress","steam_id":76561199049881551,"connected_time":958000000000,"state":"active","ping":110},{"user_id":877,"name":"cobalt","steam_id":76561198126982318,"connected_time":518000000000,"state":"active","ping":92},{"user_id":771,"name":"Flesh Eating Turtle","steam_id":76561198116742139,"connected_time":10096000000000,"state":"active","ping":58},{"user_id":868,"name":"I AM GOING TO EAT YOUR FACE","steam_id":76561198277449857,"connected_time":954000000000,"state":"active","ping":78},{"user_id":846,"name":"NotThatGuyPal","steam_id":76561199127607812,"connected_time":2723000000000,"state":"active","ping":80},{"user_id":879,"name":"sweaterfan","steam_id":76561199389567214,"connected_time":51000000000,"state":"active","ping":120},{"user_id":858,"name":"Lazy-assed Prophet","steam_id":76561198214400452,"connected_time":1904000000000,"state":"active","ping":68},{"user_id":876,"name":"Yeethies","steam_id":76561198019090908,"connected_time":571000000000,"state":"active","ping":73},{"user_id":794,"name":"☠Death Himself☠","steam_id":76561199118070947,"connected_time":6483000000000,"state":"active","ping":79},{"user_id":839,"name":"souljaboytellem.com","steam_id":76561198095824426,"connected_time":3255000000000,"state":"active","ping":81},{"user_id":870,"name":"murph","steam_id":76561197973805634,"connected_time":922000000000,"state":"active","ping":99}]},{"server_id":119,"name":"Uncletopia | Seattle | 2 | All Maps","name_short":"sea-2","host":"sea-1.us.uncletopia.com","port":27025,"enabled":true,"region":"us-west","cc":"us","latitude":47.608013,"longitude":-122.33517,"reserved":0,"last_update":"0001-01-01T00:00:00Z","name_a2s":"Uncletopia | Seattle | 2 | All Maps","protocol":17,"map":"pl_borneo","folder":"tf","game":"Team Fortress","app_id":440,"player_count":24,"max_players":24,"Bots":0,"server_type":"Dedicated","server_os":"Linux","password":true,"vac":true,"version":"7757534","steam_id":85568392924469998,"keywords":["nocrits","nodmgspread","payload","uncletopia"],"game_id":440,"stv_port":27026,"stv_name":"Uncletopia | Seattle | 2 | All Maps | STV","players":[{"user_id":904,"name":"Akira (they/them)","steam_id":76561198294601519,"connected_time":1085000000000,"state":"active","ping":40},{"user_id":758,"name":"Drainbow","steam_id":76561198421913648,"connected_time":12170000000000,"state":"active","ping":48},{"user_id":905,"name":"Potatofamine Carbomb","steam_id":76561198424248616,"connected_time":915000000000,"state":"active","ping":81},{"user_id":842,"name":"DMAFGreatoverlordSchikonmaster","steam_id":76561198123510618,"connected_time":5768000000000,"state":"active","ping":62},{"user_id":879,"name":"Ruben","steam_id":76561198048508642,"connected_time":2850000000000,"state":"active","ping":55},{"user_id":899,"name":"Rain","steam_id":76561198065612273,"connected_time":1490000000000,"state":"active","ping":49},{"user_id":907,"name":"shaw","steam_id":76561198874120857,"connected_time":291000000000,"state":"active","ping":105},{"user_id":848,"name":"cracky","steam_id":76561197971365444,"connected_time":4873000000000,"state":"active","ping":52},{"user_id":893,"name":"Mr. Pine","steam_id":76561198112203861,"connected_time":1894000000000,"state":"active","ping":58},{"user_id":876,"name":"Smellbow McArmpit","steam_id":76561198109445099,"connected_time":3217000000000,"state":"active","ping":46},{"user_id":883,"name":"JPEG Image","steam_id":76561199126026126,"connected_time":2780000000000,"state":"active","ping":86},{"user_id":888,"name":"SpongeBucket","steam_id":76561198393553085,"connected_time":2329000000000,"state":"active","ping":88},{"user_id":901,"name":"76561198017336274","steam_id":76561198017336274,"connected_time":1364000000000,"state":"active","ping":91},{"user_id":902,"name":"lights","steam_id":76561198049192689,"connected_time":1333000000000,"state":"active","ping":71},{"user_id":895,"name":"Knooper","steam_id":76561198096149824,"connected_time":1817000000000,"state":"active","ping":58},{"user_id":903,"name":"yungevilbruh","steam_id":76561198127631900,"connected_time":1282000000000,"state":"active","ping":70},{"user_id":859,"name":"RiverMoot","steam_id":76561198081530179,"connected_time":4256000000000,"state":"active","ping":144},{"user_id":886,"name":"Casual Vore","steam_id":76561197999045683,"connected_time":2597000000000,"state":"active","ping":30},{"user_id":861,"name":"Mokaaaa","steam_id":76561198043659301,"connected_time":4233000000000,"state":"active","ping":94},{"user_id":874,"name":"NETRO","steam_id":76561198238207170,"connected_time":3253000000000,"state":"active","ping":72},{"user_id":892,"name":"you've been deuced on!","steam_id":76561198236028020,"connected_time":1934000000000,"state":"active","ping":157},{"user_id":906,"name":"Smells","steam_id":76561197985297402,"connected_time":853000000000,"state":"active","ping":96},{"user_id":897,"name":"Moychel","steam_id":76561198135551500,"connected_time":1653000000000,"state":"active","ping":98},{"user_id":866,"name":"mimikyufan21","steam_id":76561199074381585,"connected_time":3912000000000,"state":"active","ping":107}]},{"server_id":406,"name":"Uncletopia | Seattle | 3 | Stopwatch Beta","name_short":"sea-3","host":"sea-1.us.uncletopia.com","port":27035,"enabled":true,"region":"us-west","cc":"us","latitude":47.608013,"longitude":-122.33517,"reserved":0,"last_update":"0001-01-01T00:00:00Z","name_a2s":"Uncletopia | Seattle | 3 | Stopwatch Beta","protocol":17,"map":"workshop/koth_clearcut_b15.ugc2107050255","folder":"tf","game":"Team Fortress","app_id":440,"player_count":0,"max_players":24,"Bots":0,"server_type":"Dedicated","server_os":"Linux","password":true,"vac":true,"version":"7757534","steam_id":85568392924515217,"keywords":["cp","nocrits","nodmgspread","uncletopia"],"game_id":440,"stv_port":27036,"stv_name":"Uncletopia | Seattle | 3 | Stopwatch Beta | STV","players":null},{"server_id":17,"name":"Uncletopia | San Francisco | 1 | All Maps","name_short":"sfo-1","host":"sfo-1.us.uncletopia.com","port":27015,"enabled":true,"region":"us-west","cc":"us","latitude":37.77397,"longitude":-122.4313,"reserved":0,"last_update":"0001-01-01T00:00:00Z","name_a2s":"Uncletopia | San Francisco | 1 | All Maps","protocol":17,"map":"pl_barnblitz","folder":"tf","game":"Team Fortress","app_id":440,"player_count":15,"max_players":24,"Bots":0,"server_type":"Dedicated","server_os":"Linux","password":true,"vac":true,"version":"7757534","steam_id":85568392924469999,"keywords":["nocrits","nodmgspread","payload","uncletopia"],"game_id":440,"stv_port":27016,"stv_name":"Uncletopia | San Francisco | 1 | All Maps | STV","players":[{"user_id":691,"name":"Fargo","steam_id":76561198044703931,"connected_time":365000000000,"state":"active","ping":71},{"user_id":692,"name":"yes, i am on controller","steam_id":76561198977523626,"connected_time":292000000000,"state":"active","ping":63},{"user_id":693,"name":"Racc","steam_id":76561199438923416,"connected_time":173000000000,"state":"active","ping":210},{"user_id":694,"name":"themartians","steam_id":76561197970434054,"connected_time":8000000000,"state":"spawning","ping":44},{"user_id":670,"name":"Dentist","steam_id":76561198103189993,"connected_time":2850000000000,"state":"active","ping":65},{"user_id":595,"name":"Arinaco","steam_id":76561198346783136,"connected_time":8587000000000,"state":"active","ping":75},{"user_id":653,"name":"toes","steam_id":76561198221151676,"connected_time":4607000000000,"state":"active","ping":75},{"user_id":684,"name":"Robrago-san","steam_id":76561197963638042,"connected_time":1261000000000,"state":"active","ping":46},{"user_id":686,"name":"sunflowerofwar","steam_id":76561198940058271,"connected_time":1063000000000,"state":"active","ping":73},{"user_id":685,"name":"Akustin","steam_id":76561198110015463,"connected_time":1162000000000,"state":"active","ping":63},{"user_id":690,"name":"xEdoardo","steam_id":76561198082811625,"connected_time":397000000000,"state":"active","ping":224},{"user_id":682,"name":"Ian","steam_id":76561198159334435,"connected_time":1511000000000,"state":"active","ping":169},{"user_id":677,"name":"Miro","steam_id":76561198936412406,"connected_time":2378000000000,"state":"active","ping":127},{"user_id":689,"name":"ttv/whiteboyst0ner1997","steam_id":76561198064558316,"connected_time":626000000000,"state":"active","ping":66},{"user_id":662,"name":"Panckakebro","steam_id":76561198106419992,"connected_time":3931000000000,"state":"active","ping":93}]},{"server_id":18,"name":"Uncletopia | San Francisco | 2 | All Maps","name_short":"sfo-2","host":"sfo-1.us.uncletopia.com","port":27025,"enabled":true,"region":"us-west","cc":"us","latitude":37.77397,"longitude":-122.4313,"reserved":0,"last_update":"0001-01-01T00:00:00Z","name_a2s":"Uncletopia | San Francisco | 2 | All Maps","protocol":17,"map":"plr_hightower","folder":"tf","game":"Team Fortress","app_id":440,"player_count":0,"max_players":24,"Bots":0,"server_type":"Dedicated","server_os":"Linux","password":true,"vac":true,"version":"7757534","steam_id":85568392924470000,"keywords":["nocrits","nodmgspread","payload","uncletopia"],"game_id":440,"stv_port":27026,"stv_name":"Uncletopia | San Francisco | 2 | All Maps | STV","players":null},{"server_id":19,"name":"Uncletopia | San Francisco | 3 | Stopwatch Beta","name_short":"sfo-3","host":"sfo-1.us.uncletopia.com","port":27035,"enabled":true,"region":"us-west","cc":"us","latitude":37.77397,"longitude":-122.4313,"reserved":0,"last_update":"0001-01-01T00:00:00Z","name_a2s":"Uncletopia | San Francisco | 3 | Stopwatch Beta","protocol":17,"map":"koth_highpass","folder":"tf","game":"Team Fortress","app_id":440,"player_count":0,"max_players":24,"Bots":0,"server_type":"Dedicated","server_os":"Linux","password":true,"vac":true,"version":"7757534","steam_id":85568392924742824,"keywords":["cp","nocrits","nodmgspread","uncletopia"],"game_id":440,"stv_port":27036,"stv_name":"Uncletopia | San Francisco | 3 | Stopwatch Beta | STV","players":null},{"server_id":20,"name":"Uncletopia | San Francisco | 4 | Community","name_short":"sfo-4","host":"sfo-1.us.uncletopia.com","port":27045,"enabled":true,"region":"us-west","cc":"us","latitude":37.77397,"longitude":-122.4313,"reserved":0,"last_update":"0001-01-01T00:00:00Z","name_a2s":"Uncletopia | San Francisco | 4 | Community","protocol":17,"map":"workshop/koth_trenchfoot_b1a.ugc731436616","folder":"tf","game":"Team Fortress","app_id":440,"player_count":0,"max_players":24,"Bots":0,"server_type":"Dedicated","server_os":"Linux","password":true,"vac":true,"version":"7757534","steam_id":85568392924742826,"keywords":["cp","nocrits","nodmgspread","uncletopia"],"game_id":440,"stv_port":27046,"stv_name":"Uncletopia | San Francisco | 4 | Community | STV","players":null},{"server_id":141,"name":"Uncletopia | Sydney | 1 | All Maps","name_short":"syd-1","host":"syd-1.au.uncletopia.com","port":27015,"enabled":true,"region":"au","cc":"au","latitude":-33.865143,"longitude":151.2099,"reserved":0,"last_update":"0001-01-01T00:00:00Z","name_a2s":"Uncletopia | Sydney | 1 | All Maps","protocol":17,"map":"cp_sunshine","folder":"tf","game":"Team Fortress","app_id":440,"player_count":0,"max_players":24,"Bots":0,"server_type":"Dedicated","server_os":"Linux","password":true,"vac":true,"version":"7757534","steam_id":85568392924470001,"keywords":["cp","nocrits","nodmgspread","uncletopia"],"game_id":440,"stv_port":27016,"stv_name":"Uncletopia | Sydney | 1 | All Maps | STV","players":null},{"server_id":123,"name":"Uncletopia | Sydney | 2 | All Maps","name_short":"syd-2","host":"syd-1.au.uncletopia.com","port":27025,"enabled":true,"region":"au","cc":"au","latitude":-33.865143,"longitude":151.2099,"reserved":0,"last_update":"0001-01-01T00:00:00Z","name_a2s":"Uncletopia | Sydney | 2 | All Maps","protocol":17,"map":"pl_borneo","folder":"tf","game":"Team Fortress","app_id":440,"player_count":24,"max_players":24,"Bots":0,"server_type":"Dedicated","server_os":"Linux","password":true,"vac":true,"version":"7757534","steam_id":85568392924470002,"keywords":["nocrits","nodmgspread","payload","uncletopia"],"game_id":440,"stv_port":27026,"stv_name":"Uncletopia | Sydney | 2 | All Maps | STV","players":[{"user_id":594,"name":"MR AWESOME","steam_id":76561198085498212,"connected_time":1264000000000,"state":"active","ping":59},{"user_id":533,"name":"mushroom","steam_id":76561197992336470,"connected_time":4514000000000,"state":"active","ping":90},{"user_id":598,"name":"Natebox","steam_id":76561198027457443,"connected_time":1142000000000,"state":"active","ping":88},{"user_id":571,"name":"Phibs","steam_id":76561199323730865,"connected_time":2411000000000,"state":"active","ping":38},{"user_id":601,"name":"this is ULTRA LORD","steam_id":76561198017486010,"connected_time":1045000000000,"state":"active","ping":72},{"user_id":537,"name":"dumbvent","steam_id":76561198190062810,"connected_time":4267000000000,"state":"active","ping":66},{"user_id":590,"name":"Rashid Of The Dank Memes","steam_id":76561198281398078,"connected_time":1462000000000,"state":"active","ping":73},{"user_id":572,"name":"korn","steam_id":76561198022563294,"connected_time":2395000000000,"state":"active","ping":101},{"user_id":454,"name":"Jellyfish_kurage","steam_id":76561198425670698,"connected_time":11315000000000,"state":"active","ping":56},{"user_id":610,"name":"payn.","steam_id":76561199277321828,"connected_time":179000000000,"state":"active","ping":60},{"user_id":608,"name":"-------------bickster","steam_id":76561198205033844,"connected_time":406000000000,"state":"active","ping":59},{"user_id":612,"name":"punchtoy","steam_id":76561198118772528,"connected_time":101000000000,"state":"active","ping":57},{"user_id":614,"name":"yakuza_enjoyer","steam_id":76561198444685551,"connected_time":44000000000,"state":"active","ping":166},{"user_id":593,"name":"Jodelkönig Franzl Lang","steam_id":76561198007667830,"connected_time":1366000000000,"state":"active","ping":45},{"user_id":587,"name":"Queen Burenyu","steam_id":76561199016592990,"connected_time":1591000000000,"state":"active","ping":73},{"user_id":607,"name":"Pile of Sneed","steam_id":76561198143537391,"connected_time":468000000000,"state":"active","ping":68},{"user_id":573,"name":"Maquire's Constipation","steam_id":76561198096130103,"connected_time":2369000000000,"state":"active","ping":54},{"user_id":564,"name":"Ratbagus","steam_id":76561197993827486,"connected_time":2730000000000,"state":"active","ping":74},{"user_id":616,"name":"Fuzz","steam_id":76561198063077180,"connected_time":14000000000,"state":"active","ping":60},{"user_id":596,"name":"bread","steam_id":76561199405764106,"connected_time":1209000000000,"state":"active","ping":44},{"user_id":606,"name":"fig","steam_id":76561198097964297,"connected_time":644000000000,"state":"active","ping":59},{"user_id":617,"name":"Frexinet","steam_id":76561198071230826,"connected_time":12000000000,"state":"active","ping":63},{"user_id":578,"name":"mc.sleek","steam_id":76561198057602720,"connected_time":2017000000000,"state":"active","ping":72},{"user_id":597,"name":"[TÐK] KeRpaL","steam_id":76561197974427061,"connected_time":1192000000000,"state":"active","ping":58}]},{"server_id":395,"name":"Uncletopia | Sydney | 3 | All Maps","name_short":"syd-3","host":"syd-1.au.uncletopia.com","port":27035,"enabled":true,"region":"au","cc":"au","latitude":-33.865143,"longitude":151.2099,"reserved":0,"last_update":"0001-01-01T00:00:00Z","name_a2s":"Uncletopia | Sydney | 3 | All Maps","protocol":17,"map":"pl_snowycoast","folder":"tf","game":"Team Fortress","app_id":440,"player_count":22,"max_players":24,"Bots":0,"server_type":"Dedicated","server_os":"Linux","password":true,"vac":true,"version":"7757534","steam_id":85568392925194467,"keywords":["nocrits","nodmgspread","payload","uncletopia"],"game_id":440,"stv_port":27036,"stv_name":"Uncletopia | Sydney | 3 | All Maps | STV","players":[{"user_id":71,"name":"Cicerofrypan","steam_id":76561198317860338,"connected_time":984000000000,"state":"active","ping":49},{"user_id":29,"name":"Passance","steam_id":76561198156058724,"connected_time":7863000000000,"state":"active","ping":72},{"user_id":30,"name":"K41","steam_id":76561198146207192,"connected_time":7825000000000,"state":"active","ping":45},{"user_id":31,"name":"All 5 Spice Girls","steam_id":76561198155935234,"connected_time":7754000000000,"state":"active","ping":72},{"user_id":59,"name":"TheTophatterOfTophats","steam_id":76561199142504761,"connected_time":2609000000000,"state":"active","ping":42},{"user_id":70,"name":"R","steam_id":76561197996963023,"connected_time":1094000000000,"state":"active","ping":69},{"user_id":82,"name":"Johngamer2418","steam_id":76561198377832282,"connected_time":562000000000,"state":"active","ping":53},{"user_id":83,"name":"Frog Friend","steam_id":76561198054505772,"connected_time":529000000000,"state":"active","ping":59},{"user_id":92,"name":"FrotLord","steam_id":76561198808858006,"connected_time":271000000000,"state":"active","ping":57},{"user_id":66,"name":"Turret","steam_id":76561198054728921,"connected_time":1603000000000,"state":"active","ping":43},{"user_id":84,"name":"fuschu","steam_id":76561198125648728,"connected_time":515000000000,"state":"active","ping":45},{"user_id":69,"name":"Rocky","steam_id":76561199195385481,"connected_time":1476000000000,"state":"active","ping":75},{"user_id":77,"name":"SubHam","steam_id":76561198071578622,"connected_time":736000000000,"state":"active","ping":71},{"user_id":78,"name":"bluebonkbloop","steam_id":76561198998430585,"connected_time":727000000000,"state":"active","ping":93},{"user_id":80,"name":"Bin","steam_id":76561199117653318,"connected_time":696000000000,"state":"active","ping":66},{"user_id":81,"name":"KiwiJiwi","steam_id":76561198262081410,"connected_time":634000000000,"state":"active","ping":72},{"user_id":94,"name":"Chicken7934","steam_id":76561199030560226,"connected_time":173000000000,"state":"active","ping":66},{"user_id":86,"name":"Batering","steam_id":76561198039849442,"connected_time":467000000000,"state":"active","ping":53},{"user_id":87,"name":"saudi ambassador messi","steam_id":76561198031293430,"connected_time":447000000000,"state":"active","ping":87},{"user_id":95,"name":"SkoKiE","steam_id":76561198283542986,"connected_time":9000000000,"state":"spawning","ping":59},{"user_id":89,"name":"demoKe","steam_id":76561199081848498,"connected_time":388000000000,"state":"active","ping":56},{"user_id":90,"name":"Wytchie","steam_id":76561198115314839,"connected_time":386000000000,"state":"active","ping":47}]},{"server_id":396,"name":"Uncletopia | Sydney | 4 | All Maps","name_short":"syd-4","host":"syd-1.au.uncletopia.com","port":27045,"enabled":true,"region":"au","cc":"au","latitude":-33.865143,"longitude":151.2099,"reserved":0,"last_update":"0001-01-01T00:00:00Z","name_a2s":"Uncletopia | Sydney | 4 | All Maps","protocol":17,"map":"pl_barnblitz","folder":"tf","game":"Team Fortress","app_id":440,"player_count":0,"max_players":24,"Bots":0,"server_type":"Dedicated","server_os":"Linux","password":true,"vac":true,"version":"7757534","steam_id":85568392925397958,"keywords":["nocrits","nodmgspread","payload","uncletopia"],"game_id":440,"stv_port":27046,"stv_name":"Uncletopia | Sydney | 4 | All Maps | STV","players":null},{"server_id":58,"name":"Uncletopia | Sydney | 5 | Stopwatch Beta","name_short":"syd-5","host":"syd-1.au.uncletopia.com","port":27055,"enabled":true,"region":"au","cc":"au","latitude":-33.865143,"longitude":151.2099,"reserved":0,"last_update":"0001-01-01T00:00:00Z","name_a2s":"Uncletopia | Sydney | 5 | Stopwatch Beta","protocol":17,"map":"workshop/pl_summercoast_rc8e.ugc1761528829","folder":"tf","game":"Team Fortress","app_id":440,"player_count":0,"max_players":24,"Bots":0,"server_type":"Dedicated","server_os":"Linux","password":true,"vac":true,"version":"7757534","steam_id":85568392925397959,"keywords":["nocrits","nodmgspread","payload","uncletopia"],"game_id":440,"stv_port":27056,"stv_name":"Uncletopia | Sydney | 5 | Stopwatch Beta | STV","players":null},{"server_id":59,"name":"Uncletopia | Sydney | 6 | Community","name_short":"syd-6","host":"syd-1.au.uncletopia.com","port":27065,"enabled":true,"region":"au","cc":"au","latitude":-33.865143,"longitude":151.2099,"reserved":0,"last_update":"0001-01-01T00:00:00Z","name_a2s":"Uncletopia | Sydney | 6 | Community","protocol":17,"map":"workshop/cp_snowbase_b18.ugc2081770490","folder":"tf","game":"Team Fortress","app_id":440,"player_count":0,"max_players":24,"Bots":0,"server_type":"Dedicated","server_os":"Linux","password":true,"vac":true,"version":"7757534","steam_id":85568392925397960,"keywords":["cp","nocrits","nodmgspread","uncletopia"],"game_id":440,"stv_port":27066,"stv_name":"Uncletopia | Sydney | 6 | Community | STV","players":null},{"server_id":49,"name":"Uncletopia | Warsaw | 1 | All Maps","name_short":"waw-1","host":"waw-1.pl.uncletopia.com","port":27015,"enabled":true,"region":"eu","cc":"pl","latitude":52.2297,"longitude":21.017532,"reserved":0,"last_update":"0001-01-01T00:00:00Z","name_a2s":"","protocol":0,"map":"","folder":"","game":"","app_id":0,"player_count":0,"max_players":0,"Bots":0,"server_type":"","server_os":"","password":false,"vac":false,"version":"","steam_id":0,"keywords":null,"game_id":0,"stv_port":0,"stv_name":"","players":null},{"server_id":50,"name":"Uncletopia | Warsaw | 2 | All Maps","name_short":"waw-2","host":"waw-1.pl.uncletopia.com","port":27025,"enabled":true,"region":"eu","cc":"pl","latitude":52.2297,"longitude":21.017532,"reserved":0,"last_update":"0001-01-01T00:00:00Z","name_a2s":"Uncletopia | Warsaw | 2 | All Maps","protocol":17,"map":"koth_viaduct","folder":"tf","game":"Team Fortress","app_id":440,"player_count":0,"max_players":24,"Bots":0,"server_type":"Dedicated","server_os":"Linux","password":true,"vac":true,"version":"7757534","steam_id":85568392925397851,"keywords":["cp","nocrits","nodmgspread","uncletopia"],"game_id":440,"stv_port":27026,"stv_name":"Uncletopia | Warsaw | 2 | All Maps | STV","players":null},{"server_id":51,"name":"Uncletopia | Warsaw | 3 | All Maps","name_short":"waw-3","host":"waw-1.pl.uncletopia.com","port":27035,"enabled":true,"region":"eu","cc":"pl","latitude":52.2297,"longitude":21.017532,"reserved":0,"last_update":"0001-01-01T00:00:00Z","name_a2s":"Uncletopia | Warsaw | 3 | All Maps","protocol":17,"map":"pl_badwater","folder":"tf","game":"Team Fortress","app_id":440,"player_count":0,"max_players":24,"Bots":0,"server_type":"Dedicated","server_os":"Linux","password":true,"vac":true,"version":"7757534","steam_id":85568392925397852,"keywords":["nocrits","nodmgspread","payload","uncletopia"],"game_id":440,"stv_port":27036,"stv_name":"Uncletopia | Warsaw | 3 | All Maps | STV","players":null},{"server_id":52,"name":"Uncletopia | Warsaw | 4 | All Maps","name_short":"waw-4","host":"waw-1.pl.uncletopia.com","port":27045,"enabled":true,"region":"eu","cc":"pl","latitude":52.2297,"longitude":21.017532,"reserved":0,"last_update":"0001-01-01T00:00:00Z","name_a2s":"Uncletopia | Warsaw | 4 | All Maps","protocol":17,"map":"koth_lakeside_final","folder":"tf","game":"Team Fortress","app_id":440,"player_count":0,"max_players":24,"Bots":0,"server_type":"Dedicated","server_os":"Linux","password":true,"vac":true,"version":"7757534","steam_id":85568392925397853,"keywords":["cp","nocrits","nodmgspread","uncletopia"],"game_id":440,"stv_port":27046,"stv_name":"Uncletopia | Warsaw | 4 | All Maps | STV","players":null},{"server_id":53,"name":"Uncletopia | Warsaw | 5 | Stopwatch Beta","name_short":"waw-5","host":"waw-1.pl.uncletopia.com","port":27055,"enabled":true,"region":"eu","cc":"pl","latitude":52.2297,"longitude":21.017532,"reserved":0,"last_update":"0001-01-01T00:00:00Z","name_a2s":"Uncletopia | Warsaw | 5 | Stopwatch Beta","protocol":17,"map":"pl_borneo","folder":"tf","game":"Team Fortress","app_id":440,"player_count":0,"max_players":24,"Bots":0,"server_type":"Dedicated","server_os":"Linux","password":true,"vac":true,"version":"7757534","steam_id":85568392925397854,"keywords":["nocrits","nodmgspread","payload","uncletopia"],"game_id":440,"stv_port":27056,"stv_name":"Uncletopia | Warsaw | 5 | Stopwatch Beta | STV","players":null},{"server_id":54,"name":"Uncletopia | Warsaw | 6 | Community","name_short":"waw-6","host":"waw-1.pl.uncletopia.com","port":27065,"enabled":true,"region":"eu","cc":"pl","latitude":52.2297,"longitude":21.017532,"reserved":0,"last_update":"0001-01-01T00:00:00Z","name_a2s":"Uncletopia | Warsaw | 6 | Community","protocol":17,"map":"koth_lakeside_final","folder":"tf","game":"Team Fortress","app_id":440,"player_count":0,"max_players":24,"Bots":0,"server_type":"Dedicated","server_os":"Linux","password":true,"vac":true,"version":"7757534","steam_id":85568392925397856,"keywords":["cp","nocrits","nodmgspread","uncletopia"],"game_id":440,"stv_port":27066,"stv_name":"Uncletopia | Warsaw | 6 | Community | STV","players":null}]}