{"status":true,"message":"","result":[{"server_id":0,"name_short":"","name":"Uncletopia | New York City | 1 | All Maps","host":"","port":0,"enabled":false,"region":"","cc":"","latitude":0,"longitude":0,"reserved":0,"last_update":"0001-01-01T00:00:00Z","protocol":17,"map":"pl_pier","folder":"tf","game":"Team Fortress","app_id":440,"player_count":0,"max_players":24,"Bots":0,"server_type":"Dedicated","server_os":"Linux","password":true,"vac":true,"version":"7961495","steam_id":85568392924469993,"keywords":["nocrits","nodmgspread","payload","uncletopia"],"edicts":[963,2048],"game_id":440,"stv_port":27016,"stv_name":"Uncletopia | New York City | 1 | All Maps | STV","players":null},{"server_id":0,"name_short":"","name":"Uncletopia | Atlanta | 3 | Stopwatch","host":"","port":0,"enabled":false,"region":"","cc":"","latitude":0,"longitude":0,"reserved":0,"last_update":"0001-01-01T00:00:00Z","protocol":17,"map":"cp_snakewater_final1","folder":"tf","game":"Team Fortress","app_id":440,"player_count":0,"max_players":24,"Bots":0,"server_type":"Dedicated","server_os":"Linux","password":true,"vac":true,"version":"7961495","steam_id":85568392924515187,"keywords":["cp","nocrits","nodmgspread","uncletopia"],"edicts":[634,2048],"game_id":440,"stv_port":27036,"stv_name":"Uncletopia | Atlanta | 3 | Stopwatch | STV","players":null},{"server_id":0,"name_short":"","name":"Uncletopia | Frankfurt | 3 | All Maps","host":"","port":0,"enabled":false,"region":"","cc":"","latitude":0,"longitude":0,"reserved":0,"last_update":"0001-01-01T00:00:00Z","protocol":17,"map":"cp_snakewater_final1","folder":"tf","game":"Team Fortress","app_id":440,"player_count":9,"max_players":24,"Bots":0,"server_type":"Dedicated","server_os":"Linux","password":true,"vac":true,"version":"7961495","steam_id":85568392924504274,"keywords":["cp","nocrits","nodmgspread","uncletopia"],"edicts":[741,2048],"game_id":440,"stv_port":27036,"stv_name":"Uncletopia | Frankfurt | 3 | All Maps | STV","players":[{"user_id":25,"name":"bucketman_void","steam_id":76561199062719102,"connected_time":2675000000000,"state":"active","ping":85},{"user_id":16,"name":"Tiq9r","steam_id":76561198997501172,"connected_time":4171000000000,"state":"active","ping":91},{"user_id":36,"name":"Air Penguin","steam_id":76561198993265531,"connected_time":851000000000,"state":"active","ping":93},{"user_id":34,"name":"63756d","steam_id":76561198808699024,"connected_time":1267000000000,"state":"active","ping":54},{"user_id":29,"name":"Tomato","steam_id":76561199124472513,"connected_time":2402000000000,"state":"active","ping":109},{"user_id":41,"name":"sewer goblin","steam_id":76561199135835032,"connected_time":122000000000,"state":"active","ping":73},{"user_id":37,"name":"G O R E F R I E N D","steam_id":76561197989403556,"connected_time":605000000000,"state":"active","ping":74},{"user_id":38,"name":"Goddess of Decadence","steam_id":76561198041161991,"connected_time":538000000000,"state":"active","ping":70},{"user_id":39,"name":"Fus in Boots","steam_id":76561198053897722,"connected_time":407000000000,"state":"active","ping":52}]},{"server_id":0,"name_short":"","name":"Uncletopia | New York City | 3 | Stopwatch","host":"","port":0,"enabled":false,"region":"","cc":"","latitude":0,"longitude":0,"reserved":0,"last_update":"0001-01-01T00:00:00Z","protocol":17,"map":"cp_reckoner_rc6","folder":"tf","game":"Team Fortress","app_id":440,"player_count":0,"max_players":24,"Bots":0,"server_type":"Dedicated","server_os":"Linux","password":true,"vac":true,"version":"7961495","steam_id":85568392924742820,"keywords":["cp","nocrits","nodmgspread","uncletopia"],"edicts":[657,2048],"game_id":440,"stv_port":27036,"stv_name":"Uncletopia | New York City | 3 | Stopwatch | STV","players":null},{"server_id":0,"name_short":"","name":"Uncletopia | London | 3 | All Maps","host":"","port":0,"enabled":false,"region":"","cc":"","latitude":0,"longitude":0,"reserved":0,"last_update":"0001-01-01T00:00:00Z","protocol":17,"map":"cp_mountainlab","folder":"tf","game":"Team Fortress","app_id":440,"player_count":0,"max_players":24,"Bots":0,"server_type":"Dedicated","server_os":"Linux","password":true,"vac":true,"version":"7961495","steam_id":85568392924510192,"keywords":["cp","nocrits","nodmgspread","uncletopia"],"edicts":[533,2048],"game_id":440,"stv_port":27036,"stv_name":"Uncletopia | London | 3 | All Maps | STV","players":null},{"server_id":0,"name_short":"","name":"Uncletopia | Frankfurt | 1 | All Maps","host":"","port":0,"enabled":false,"region":"","cc":"","latitude":0,"longitude":0,"reserved":0,"last_update":"0001-01-01T00:00:00Z","protocol":17,"map":"pl_barnblitz","folder":"tf","game":"Team Fortress","app_id":440,"player_count":24,"max_players":24,"Bots":0,"server_type":"Dedicated","server_os":"Linux","password":true,"vac":true,"version":"7961495","steam_id":85568392924469989,"keywords":["nocrits","nodmgspread","payload","uncletopia"],"edicts":[1078,2048],"game_id":440,"stv_port":27016,"stv_name":"Uncletopia | Frankfurt | 1 | All Maps | STV","players":[{"user_id":339,"name":"Nugget","steam_id":76561198338916407,"connected_time":1239000000000,"state":"active","ping":66},{"user_id":329,"name":"Kamikrazy","steam_id":76561198044254918,"connected_time":1888000000000,"state":"active","ping":69},{"user_id":345,"name":"Your drunk pilot","steam_id":76561198452963141,"connected_time":1069000000000,"state":"active","ping":75},{"user_id":298,"name":"Elix","steam_id":76561199072306920,"connected_time":3762000000000,"state":"active","ping":100},{"user_id":348,"name":"heavy sings (real)","steam_id":76561199023804405,"connected_time":1038000000000,"state":"active","ping":68},{"user_id":343,"name":"AHHH","steam_id":76561198879773477,"connected_time":1099000000000,"state":"active","ping":107},{"user_id":346,"name":"pyromaniac","steam_id":76561198292781255,"connected_time":1055000000000,"state":"active","ping":81},{"user_id":356,"name":"tempLimit","steam_id":76561199158363470,"connected_time":745000000000,"state":"active","ping":75},{"user_id":281,"name":"dirty deeds done dirt cheap","steam_id":76561199000468538,"connected_time":4704000000000,"state":"active","ping":61},{"user_id":288,"name":"..","steam_id":76561198380752444,"connected_time":4312000000000,"state":"active","ping":60},{"user_id":349,"name":"heddwch","steam_id":76561198076097983,"connected_time":1030000000000,"state":"active","ping":81},{"user_id":289,"name":"The Boss","steam_id":76561198426522902,"connected_time":4302000000000,"state":"active","ping":65},{"user_id":351,"name":"Belly itcher","steam_id":76561198188744894,"connected_time":997000000000,"state":"active","ping":62},{"user_id":306,"name":"skippy","steam_id":76561198171958773,"connected_time":3354000000000,"state":"active","ping":65},{"user_id":352,"name":"Swiss_Nostalgia","steam_id":76561199159896259,"connected_time":997000000000,"state":"active","ping":65},{"user_id":358,"name":"Denialman (Muted)","steam_id":76561198309182092,"connected_time":557000000000,"state":"active","ping":49},{"user_id":313,"name":"Nomakh","steam_id":76561198096414653,"connected_time":3036000000000,"state":"active","ping":76},{"user_id":340,"name":"kinimon","steam_id":76561198178453270,"connected_time":1190000000000,"state":"active","ping":49},{"user_id":354,"name":"chiyonii.","steam_id":76561198021854431,"connected_time":972000000000,"state":"active","ping":70},{"user_id":357,"name":"Cencut","steam_id":76561198989449047,"connected_time":567000000000,"state":"active","ping":119},{"user_id":359,"name":"kvlt","steam_id":76561198119420945,"connected_time":468000000000,"state":"active","ping":94},{"user_id":342,"name":"Meatsleep","steam_id":76561198048314729,"connected_time":1148000000000,"state":"active","ping":77},{"user_id":341,"name":"Billy Herrington","steam_id":76561198205193503,"connected_time":1167000000000,"state":"active","ping":77},{"user_id":360,"name":"Dolcelatte","steam_id":76561198038501770,"connected_time":18000000000,"state":"active","ping":55}]},{"server_id":0,"name_short":"","name":"Uncletopia | Frankfurt | 4 | All Maps","host":"","port":0,"enabled":false,"region":"","cc":"","latitude":0,"longitude":0,"reserved":0,"last_update":"0001-01-01T00:00:00Z","protocol":17,"map":"pl_hoodoo_final","folder":"tf","game":"Team Fortress","app_id":440,"player_count":24,"max_players":24,"Bots":0,"server_type":"Dedicated","server_os":"Linux","password":true,"vac":true,"version":"7961495","steam_id":85568392924504275,"keywords":["nocrits","nodmgspread","payload","uncletopia"],"edicts":[1418,2048],"game_id":440,"stv_port":27046,"stv_name":"Uncletopia | Frankfurt | 4 | All Maps | STV","players":[{"user_id":84,"name":"purpul bastard","steam_id":76561198214429607,"connected_time":6302000000000,"state":"active","ping":90},{"user_id":40,"name":"Zorutan","steam_id":76561198166758127,"connected_time":9593000000000,"state":"active","ping":88},{"user_id":162,"name":"froglids","steam_id":76561198045466919,"connected_time":1207000000000,"state":"active","ping":60},{"user_id":120,"name":"PlasticVoid","steam_id":76561197997870306,"connected_time":3544000000000,"state":"active","ping":47},{"user_id":165,"name":"348","steam_id":76561198372993027,"connected_time":890000000000,"state":"active","ping":56},{"user_id":134,"name":"meirfa","steam_id":76561198157193506,"connected_time":2167000000000,"state":"active","ping":122},{"user_id":140,"name":"Hoff","steam_id":76561198138540938,"connected_time":1878000000000,"state":"active","ping":76},{"user_id":177,"name":"Aeinzalot","steam_id":76561198195288449,"connected_time":91000000000,"state":"active","ping":52},{"user_id":168,"name":"goblin","steam_id":76561198170334258,"connected_time":540000000000,"state":"active","ping":70},{"user_id":138,"name":"Bungus","steam_id":76561197984426574,"connected_time":2020000000000,"state":"active","ping":154},{"user_id":132,"name":"Shancey","steam_id":76561198166283718,"connected_time":2340000000000,"state":"active","ping":50},{"user_id":174,"name":"Rofls","steam_id":76561198020462900,"connected_time":229000000000,"state":"active","ping":126},{"user_id":139,"name":"Vinnidict","steam_id":76561198037087000,"connected_time":1971000000000,"state":"active","ping":68},{"user_id":59,"name":"Warrior555MainsGanon","steam_id":76561198388627786,"connected_time":8541000000000,"state":"active","ping":67},{"user_id":145,"name":"Tyren","steam_id":76561198993747516,"connected_time":1793000000000,"state":"active","ping":66},{"user_id":157,"name":"Dan86130","steam_id":76561199187190436,"connected_time":1440000000000,"state":"active","ping":58},{"user_id":170,"name":"HutchMansell","steam_id":76561199091330455,"connected_time":412000000000,"state":"active","ping":157},{"user_id":173,"name":"ko","steam_id":76561198010098129,"connected_time":346000000000,"state":"active","ping":104},{"user_id":164,"name":"Javier dorsaless","steam_id":76561198179324075,"connected_time":1082000000000,"state":"active","ping":70},{"user_id":176,"name":"DrSquat","steam_id":76561199510928398,"connected_time":186000000000,"state":"active","ping":79},{"user_id":160,"name":"HANoi","steam_id":76561198144300192,"connected_time":1298000000000,"state":"active","ping":73},{"user_id":152,"name":"ifre3","steam_id":76561198052545817,"connected_time":1629000000000,"state":"active","ping":93},{"user_id":158,"name":"GregerUlander","steam_id":76561198152375055,"connected_time":1440000000000,"state":"active","ping":70},{"user_id":179,"name":"Ween :0","steam_id":76561198073607799,"connected_time":7000000000,"state":"spawning","ping":61}]},{"server_id":0,"name_short":"","name":"Uncletopia | Warsaw | 3 | All Maps","host":"","port":0,"enabled":false,"region":"","cc":"","latitude":0,"longitude":0,"reserved":0,"last_update":"0001-01-01T00:00:00Z","protocol":17,"map":"pl_swiftwater_final1","folder":"tf","game":"Team Fortress","app_id":440,"player_count":0,"max_players":24,"Bots":0,"server_type":"Dedicated","server_os":"Linux","password":true,"vac":true,"version":"7961495","steam_id":85568392925397852,"keywords":["nocrits","nodmgspread","payload","uncletopia"],"edicts":[902,2048],"game_id":440,"stv_port":27036,"stv_name":"Uncletopia | Warsaw | 3 | All Maps | STV","players":null},{"server_id":0,"name_short":"","name":"Uncletopia | Hong Kong | 1 | All Maps","host":"","port":0,"enabled":false,"region":"","cc":"","latitude":0,"longitude":0,"reserved":0,"last_update":"0001-01-01T00:00:00Z","protocol":17,"map":"cp_sunshine","folder":"tf","game":"Team Fortress","app_id":440,"player_count":24,"max_players":24,"Bots":0,"server_type":"Dedicated","server_os":"Linux","password":true,"vac":true,"version":"7961495","steam_id":85568392924494504,"keywords":["cp","nocrits","nodmgspread","uncletopia"],"edicts":[891,2048],"game_id":440,"stv_port":27016,"stv_name":"Uncletopia | Hong Kong | 1 | All Maps | STV","players":[{"user_id":372,"name":"SilverWave","steam_id":76561198878404337,"connected_time":259000000000,"state":"active","ping":99},{"user_id":335,"name":"le goon","steam_id":76561198797699056,"connected_time":4237000000000,"state":"active","ping":96},{"user_id":354,"name":"StewBツ","steam_id":76561198131423270,"connected_time":2223000000000,"state":"active","ping":71},{"user_id":365,"name":"toad♡","steam_id":76561198082199290,"connected_time":747000000000,"state":"active","ping":45},{"user_id":192,"name":"Red Mist Suicide","steam_id":76561198213031155,"connected_time":15560000000000,"state":"active","ping":94},{"user_id":366,"name":"sett.","steam_id":76561199010718657,"connected_time":697000000000,"state":"active","ping":76},{"user_id":340,"name":"쿠키","steam_id":76561197997220367,"connected_time":4024000000000,"state":"active","ping":47},{"user_id":320,"name":"Morolian","steam_id":76561198015568343,"connected_time":6284000000000,"state":"active","ping":105},{"user_id":330,"name":"Koromedy","steam_id":76561198297980591,"connected_time":5397000000000,"state":"active","ping":104},{"user_id":351,"name":"Law","steam_id":76561198136685157,"connected_time":3370000000000,"state":"active","ping":62},{"user_id":342,"name":"母の肉団子@hao123.com","steam_id":76561198069561896,"connected_time":3724000000000,"state":"active","ping":41},{"user_id":367,"name":"i just ate a shawarma","steam_id":76561199227541378,"connected_time":518000000000,"state":"active","ping":155},{"user_id":369,"name":"PhantomReaper","steam_id":76561199058312643,"connected_time":386000000000,"state":"active","ping":124},{"user_id":360,"name":"[HK] 小虎","steam_id":76561197960302377,"connected_time":2100000000000,"state":"active","ping":54},{"user_id":328,"name":"TomCat","steam_id":76561198133744053,"connected_time":5409000000000,"state":"active","ping":108},{"user_id":361,"name":"coakDeLera","steam_id":76561199262817512,"connected_time":1810000000000,"state":"active","ping":68},{"user_id":356,"name":"net broken","steam_id":76561199017344476,"connected_time":2213000000000,"state":"active","ping":97},{"user_id":374,"name":"nyakky","steam_id":76561198927779787,"connected_time":56000000000,"state":"active","ping":103},{"user_id":358,"name":"Talkk More","steam_id":76561198305424433,"connected_time":2199000000000,"state":"active","ping":76},{"user_id":370,"name":"The Smoker's Body","steam_id":76561198316512789,"connected_time":363000000000,"state":"active","ping":76},{"user_id":359,"name":"elite anarchest","steam_id":76561198411982822,"connected_time":2198000000000,"state":"active","ping":78},{"user_id":375,"name":"Waltuh (Real)","steam_id":76561199257300024,"connected_time":33000000000,"state":"active","ping":72},{"user_id":362,"name":"tiden2000","steam_id":76561198092969425,"connected_time":1539000000000,"state":"active","ping":90},{"user_id":339,"name":"GAMA","steam_id":76561198049755630,"connected_time":4038000000000,"state":"active","ping":88}]},{"server_id":0,"name_short":"","name":"Uncletopia | Montréal | 3 | One Thousand Uncles","host":"","port":0,"enabled":false,"region":"","cc":"","latitude":0,"longitude":0,"reserved":0,"last_update":"0001-01-01T00:00:00Z","protocol":17,"map":"pl_pier","folder":"tf","game":"Team Fortress","app_id":440,"player_count":0,"max_players":32,"Bots":0,"server_type":"Dedicated","server_os":"Linux","password":true,"vac":true,"version":"7961495","steam_id":85568392924500089,"keywords":["alltalk","danepve","increased_maxplayers","norespawntime","payload","uncletopia"],"edicts":[962,2048],"game_id":440,"stv_port":0,"stv_name":"","players":null},{"server_id":0,"name_short":"","name":"Uncletopia | Chicago | 6 | All Maps","host":"","port":0,"enabled":false,"region":"","cc":"","latitude":0,"longitude":0,"reserved":0,"last_update":"0001-01-01T00:00:00Z","protocol":17,"map":"koth_king","folder":"tf","game":"Team Fortress","app_id":440,"player_count":4,"max_players":24,"Bots":0,"server_type":"Dedicated","server_os":"Linux","password":true,"vac":true,"version":"7961495","steam_id":85568392924866363,"keywords":["cp","nocrits","nodmgspread","uncletopia"],"edicts":[512,2048],"game_id":440,"stv_port":27026,"stv_name":"Uncletopia | Chicago | 6 | All Maps | STV","players":[{"user_id":3,"name":"That Girl With a K","steam_id":76561198317602350,"connected_time":2847000000000,"state":"active","ping":84},{"user_id":9,"name":"ChickenFriar","steam_id":76561199119888114,"connected_time":121000000000,"state":"active","ping":151},{"user_id":6,"name":"Congcrab","steam_id":76561198078687685,"connected_time":1545000000000,"state":"active","ping":76},{"user_id":10,"name":"Dillpickle28741","steam_id":76561199286446086,"connected_time":105000000000,"state":"active","ping":99}]},{"server_id":0,"name_short":"","name":"Uncletopia | Atlanta | 2 | All Maps","host":"","port":0,"enabled":false,"region":"","cc":"","latitude":0,"longitude":0,"reserved":0,"last_update":"0001-01-01T00:00:00Z","protocol":17,"map":"koth_suijin","folder":"tf","game":"Team Fortress","app_id":440,"player_count":0,"max_players":24,"Bots":0,"server_type":"Dedicated","server_os":"Linux","password":true,"vac":true,"version":"7961495","steam_id":85568392924469983,"keywords":["cp","nocrits","nodmgspread","uncletopia"],"edicts":[419,2048],"game_id":440,"stv_port":27026,"stv_name":"Uncletopia | Atlanta | 2 | All Maps | STV","players":null},{"server_id":0,"name_short":"","name":"Uncletopia | San Francisco | 4 | Community","host":"","port":0,"enabled":false,"region":"","cc":"","latitude":0,"longitude":0,"reserved":0,"last_update":"0001-01-01T00:00:00Z","protocol":17,"map":"cp_reckoner_rc6","folder":"tf","game":"Team Fortress","app_id":440,"player_count":0,"max_players":24,"Bots":0,"server_type":"Dedicated","server_os":"Linux","password":true,"vac":true,"version":"7961495","steam_id":85568392924742826,"keywords":["cp","nocrits","nodmgspread","uncletopia"],"edicts":[657,2048],"game_id":440,"stv_port":27046,"stv_name":"Uncletopia | San Francisco | 4 | Community | STV","players":null},{"server_id":0,"name_short":"","name":"Uncletopia | Los Angeles | 3 | All Maps","host":"","port":0,"enabled":false,"region":"","cc":"","latitude":0,"longitude":0,"reserved":0,"last_update":"0001-01-01T00:00:00Z","protocol":17,"map":"pl_frontier_final","folder":"tf","game":"Team Fortress","app_id":440,"player_count":0,"max_players":24,"Bots":0,"server_type":"Dedicated","server_os":"Linux","password":true,"vac":true,"version":"7961495","steam_id":85568392924510198,"keywords":["nocrits","nodmgspread","payload","uncletopia"],"edicts":[744,2048],"game_id":440,"stv_port":27036,"stv_name":"Uncletopia | Los Angeles | 3 | All Maps | STV","players":null},{"server_id":0,"name_short":"","name":"Uncletopia | Seattle | 1 | All Maps","host":"","port":0,"enabled":false,"region":"","cc":"","latitude":0,"longitude":0,"reserved":0,"last_update":"0001-01-01T00:00:00Z","protocol":17,"map":"pl_swiftwater_final1","folder":"tf","game":"Team Fortress","app_id":440,"player_count":17,"max_players":24,"Bots":0,"server_type":"Dedicated","server_os":"Linux","password":true,"vac":true,"version":"7961495","steam_id":85568392924469997,"keywords":["nocrits","nodmgspread","payload","uncletopia"],"edicts":[1098,2048],"game_id":440,"stv_port":27016,"stv_name":"Uncletopia | Seattle | 1 | All Maps | STV","players":[{"user_id":26,"name":"Gaio","steam_id":76561198136293406,"connected_time":240000000000,"state":"active","ping":80},{"user_id":4,"name":"[TrC] Dackstrus","steam_id":76561197973518509,"connected_time":4218000000000,"state":"active","ping":56},{"user_id":8,"name":"mdgunn","steam_id":76561197970402728,"connected_time":3128000000000,"state":"active","ping":205},{"user_id":27,"name":"Milkmur","steam_id":76561198210043821,"connected_time":222000000000,"state":"active","ping":107},{"user_id":11,"name":"resonablegamer313","steam_id":76561199468451052,"connected_time":1717000000000,"state":"active","ping":98},{"user_id":28,"name":"orinkai177","steam_id":76561199191553388,"connected_time":130000000000,"state":"active","ping":125},{"user_id":29,"name":"Username-Password","steam_id":76561198311844788,"connected_time":74000000000,"state":"active","ping":106},{"user_id":14,"name":"AsrielPlaysTF2","steam_id":76561198856895816,"connected_time":1172000000000,"state":"active","ping":39},{"user_id":15,"name":"Smuck","steam_id":76561198342427583,"connected_time":1051000000000,"state":"active","ping":63},{"user_id":19,"name":"Open Mailbox","steam_id":76561198051933580,"connected_time":726000000000,"state":"active","ping":127},{"user_id":30,"name":"roo the observer","steam_id":76561198120684348,"connected_time":24000000000,"state":"spawning","ping":136},{"user_id":18,"name":"*‧˚kitsu ʚ♥ɞ","steam_id":76561198091741658,"connected_time":817000000000,"state":"active","ping":75},{"user_id":20,"name":"bill fart the farting guy","steam_id":76561198170928310,"connected_time":664000000000,"state":"active","ping":113},{"user_id":21,"name":"Homosexual Underground","steam_id":76561198413125750,"connected_time":647000000000,"state":"active","ping":115},{"user_id":22,"name":"scoutgaming","steam_id":76561199469231697,"connected_time":614000000000,"state":"active","ping":65},{"user_id":24,"name":":3","steam_id":76561199194702127,"connected_time":483000000000,"state":"active","ping":102},{"user_id":25,"name":"MR_KRABS_SOCCER","steam_id":76561199364746412,"connected_time":428000000000,"state":"active","ping":71}]},{"server_id":0,"name_short":"","name":"Uncletopia | Frankfurt | 8 | Community","host":"","port":0,"enabled":false,"region":"","cc":"","latitude":0,"longitude":0,"reserved":0,"last_update":"0001-01-01T00:00:00Z","protocol":17,"map":"pl_stallberg_rc3","folder":"tf","game":"Team Fortress","app_id":440,"player_count":0,"max_players":24,"Bots":0,"server_type":"Dedicated","server_os":"Linux","password":true,"vac":true,"version":"7961495","steam_id":85568392924742828,"keywords":["nocrits","nodmgspread","payload","uncletopia"],"edicts":[603,2048],"game_id":440,"stv_port":27086,"stv_name":"Uncletopia | Frankfurt | 8 | Community | STV","players":null},{"server_id":0,"name_short":"","name":"Uncletopia | Warsaw | 4 | All Maps","host":"","port":0,"enabled":false,"region":"","cc":"","latitude":0,"longitude":0,"reserved":0,"last_update":"0001-01-01T00:00:00Z","protocol":17,"map":"cp_altitude","folder":"tf","game":"Team Fortress","app_id":440,"player_count":2,"max_players":24,"Bots":0,"server_type":"Dedicated","server_os":"Linux","password":true,"vac":true,"version":"7961495","steam_id":85568392925397853,"keywords":["cp","nocrits","nodmgspread","uncletopia"],"edicts":[514,2048],"game_id":440,"stv_port":27046,"stv_name":"Uncletopia | Warsaw | 4 | All Maps | STV","players":[{"user_id":10,"name":"добрячок","steam_id":76561199058410040,"connected_time":622000000000,"state":"active","ping":57},{"user_id":11,"name":"ppqeres","steam_id":76561199435631863,"connected_time":553000000000,"state":"active","ping":60}]},{"server_id":0,"name_short":"","name":"Uncletopia | Sydney | 3 | All Maps","host":"","port":0,"enabled":false,"region":"","cc":"","latitude":0,"longitude":0,"reserved":0,"last_update":"0001-01-01T00:00:00Z","protocol":17,"map":"koth_cascade","folder":"tf","game":"Team Fortress","app_id":440,"player_count":0,"max_players":24,"Bots":0,"server_type":"Dedicated","server_os":"Linux","password":true,"vac":true,"version":"7961495","steam_id":85568392925194467,"keywords":["cp","nocrits","nodmgspread","uncletopia"],"edicts":[546,2048],"game_id":440,"stv_port":27036,"stv_name":"Uncletopia | Sydney | 3 | All Maps | STV","players":null},{"server_id":0,"name_short":"","name":"Uncletopia | Chicago | 8 | Community","host":"","port":0,"enabled":false,"region":"","cc":"","latitude":0,"longitude":0,"reserved":0,"last_update":"0001-01-01T00:00:00Z","protocol":17,"map":"cp_caldera_rc3","folder":"tf","game":"Team Fortress","app_id":440,"player_count":0,"max_players":24,"Bots":0,"server_type":"Dedicated","server_os":"Linux","password":true,"vac":true,"version":"7961495","steam_id":85568392924866365,"keywords":["cp","nocrits","nodmgspread","uncletopia"],"edicts":[716,2048],"game_id":440,"stv_port":27046,"stv_name":"Uncletopia | Chicago | 8 | Community | STV","players":null},{"server_id":0,"name_short":"","name":"Uncletopia | Dallas | 2 | All Maps","host":"","port":0,"enabled":false,"region":"","cc":"","latitude":0,"longitude":0,"reserved":0,"last_update":"0001-01-01T00:00:00Z","protocol":17,"map":"pl_pier","folder":"tf","game":"Team Fortress","app_id":440,"player_count":24,"max_players":24,"Bots":0,"server_type":"Dedicated","server_os":"Linux","password":true,"vac":true,"version":"7961495","steam_id":85568392924469988,"keywords":["nocrits","nodmgspread","payload","uncletopia"],"edicts":[1238,2048],"game_id":440,"stv_port":27026,"stv_name":"Uncletopia | Dallas | 2 | All Maps | STV","players":[{"user_id":67,"name":"Fortune","steam_id":76561198346118738,"connected_time":7996000000000,"state":"active","ping":53},{"user_id":130,"name":"Wooperisboss","steam_id":76561199386100211,"connected_time":503000000000,"state":"active","ping":95},{"user_id":117,"name":"Laundry","steam_id":76561198106170346,"connected_time":1465000000000,"state":"active","ping":44},{"user_id":111,"name":"Trigger","steam_id":76561198220120368,"connected_time":2378000000000,"state":"active","ping":43},{"user_id":114,"name":"BLOCKHEAD","steam_id":76561198808224331,"connected_time":2164000000000,"state":"active","ping":101},{"user_id":9,"name":"BLØRG","steam_id":76561198036126673,"connected_time":13293000000000,"state":"active","ping":71},{"user_id":88,"name":"kermitcreeper(ZAZA)","steam_id":76561199222829972,"connected_time":4990000000000,"state":"active","ping":61},{"user_id":131,"name":"OneTrueCorvid","steam_id":76561199012953221,"connected_time":498000000000,"state":"active","ping":106},{"user_id":118,"name":"IM@S! Kael","steam_id":76561197971968764,"connected_time":1358000000000,"state":"active","ping":84},{"user_id":119,"name":"Espresso_Depresso","steam_id":76561198396290407,"connected_time":1354000000000,"state":"active","ping":87},{"user_id":128,"name":"ClayTougher (Spring Version)","steam_id":76561199135235387,"connected_time":707000000000,"state":"active","ping":69},{"user_id":110,"name":"S5lty","steam_id":76561199077992604,"connected_time":2450000000000,"state":"active","ping":82},{"user_id":132,"name":"Walmart Employee","steam_id":76561198840373909,"connected_time":438000000000,"state":"active","ping":101},{"user_id":123,"name":"Drinkable Milk","steam_id":76561199418706430,"connected_time":1016000000000,"state":"active","ping":51},{"user_id":133,"name":"ultimo polla comedor","steam_id":76561199510785800,"connected_time":394000000000,"state":"active","ping":73},{"user_id":127,"name":"Goat","steam_id":76561198068447650,"connected_time":719000000000,"state":"active","ping":66},{"user_id":125,"name":"MrHappyMAg","steam_id":76561198060359133,"connected_time":942000000000,"state":"active","ping":57},{"user_id":134,"name":"hunnid boners","steam_id":76561198120917731,"connected_time":377000000000,"state":"active","ping":96},{"user_id":109,"name":"Window Licker #pride","steam_id":76561198386717007,"connected_time":2464000000000,"state":"active","ping":75},{"user_id":27,"name":"slip'n jimbo","steam_id":76561198094524656,"connected_time":13093000000000,"state":"active","ping":127},{"user_id":92,"name":"who ate the cheese","steam_id":76561198275408467,"connected_time":4566000000000,"state":"active","ping":56},{"user_id":64,"name":"pilk drinker","steam_id":76561198181153199,"connected_time":8735000000000,"state":"active","ping":105},{"user_id":97,"name":"monkeymuncher1989","steam_id":76561199076837870,"connected_time":4416000000000,"state":"active","ping":83},{"user_id":31,"name":"RollingCow","steam_id":76561198067114237,"connected_time":12915000000000,"state":"active","ping":95}]},{"server_id":0,"name_short":"","name":"Uncletopia | London | 7 | Stopwatch","host":"","port":0,"enabled":false,"region":"","cc":"","latitude":0,"longitude":0,"reserved":0,"last_update":"0001-01-01T00:00:00Z","protocol":17,"map":"pl_swiftwater_final1","folder":"tf","game":"Team Fortress","app_id":440,"player_count":0,"max_players":24,"Bots":0,"server_type":"Dedicated","server_os":"Linux","password":true,"vac":true,"version":"7961495","steam_id":85568392924964314,"keywords":["nocrits","nodmgspread","payload","uncletopia"],"edicts":[902,2048],"game_id":440,"stv_port":27076,"stv_name":"Uncletopia | London | 7 | Stopwatch | STV","players":null},{"server_id":0,"name_short":"","name":"Uncletopia | Sydney | 4 | All Maps","host":"","port":0,"enabled":false,"region":"","cc":"","latitude":0,"longitude":0,"reserved":0,"last_update":"0001-01-01T00:00:00Z","protocol":17,"map":"koth_lakeside_final","folder":"tf","game":"Team Fortress","app_id":440,"player_count":0,"max_players":24,"Bots":0,"server_type":"Dedicated","server_os":"Linux","password":true,"vac":true,"version":"7961495","steam_id":85568392925397958,"keywords":["cp","nocrits","nodmgspread","uncletopia"],"edicts":[303,2048],"game_id":440,"stv_port":27046,"stv_name":"Uncletopia | Sydney | 4 | All Maps | STV","players":null},{"server_id":0,"name_short":"","name":"Uncletopia | Sydney | 5 | Stopwatch","host":"","port":0,"enabled":false,"region":"","cc":"","latitude":0,"longitude":0,"reserved":0,"last_update":"0001-01-01T00:00:00Z","protocol":17,"map":"pl_swiftwater_final1","folder":"tf","game":"Team Fortress","app_id":440,"player_count":0,"max_players":24,"Bots":0,"server_type":"Dedicated","server_os":"Linux","password":true,"vac":true,"version":"7961495","steam_id":85568392925397959,"keywords":["nocrits","nodmgspread","payload","uncletopia"],"edicts":[902,2048],"game_id":440,"stv_port":27056,"stv_name":"Uncletopia | Sydney | 5 | Stopwatch | STV","players":null},{"server_id":0,"name_short":"","name":"Uncletopia | Chicago | 5 | All Maps","host":"","port":0,"enabled":false,"region":"","cc":"","latitude":0,"longitude":0,"reserved":0,"last_update":"0001-01-01T00:00:00Z","protocol":17,"map":"cp_mercenarypark","folder":"tf","game":"Team Fortress","app_id":440,"player_count":0,"max_players":24,"Bots":0,"server_type":"Dedicated","server_os":"Linux","password":true,"vac":true,"version":"7961495","steam_id":85568392924866362,"keywords":["cp","nocrits","nodmgspread","uncletopia"],"edicts":[554,2048],"game_id":440,"stv_port":27016,"stv_name":"Uncletopia | Chicago | 5 | All Maps | STV","players":null},{"server_id":0,"name_short":"","name":"Uncletopia | Frankfurt | 6 | All Maps","host":"","port":0,"enabled":false,"region":"","cc":"","latitude":0,"longitude":0,"reserved":0,"last_update":"0001-01-01T00:00:00Z","protocol":17,"map":"pl_pier","folder":"tf","game":"Team Fortress","app_id":440,"player_count":0,"max_players":24,"Bots":0,"server_type":"Dedicated","server_os":"Linux","password":true,"vac":true,"version":"7961495","steam_id":85568392924504278,"keywords":["nocrits","nodmgspread","payload","uncletopia"],"edicts":[963,2048],"game_id":440,"stv_port":27066,"stv_name":"Uncletopia | Frankfurt | 6 | All Maps | STV","players":null},{"server_id":0,"name_short":"","name":"Uncletopia | Warsaw | 2 | One Thousand Uncles","host":"","port":0,"enabled":false,"region":"","cc":"","latitude":0,"longitude":0,"reserved":0,"last_update":"0001-01-01T00:00:00Z","protocol":17,"map":"koth_highpass","folder":"tf","game":"Team Fortress","app_id":440,"player_count":0,"max_players":32,"Bots":0,"server_type":"Dedicated","server_os":"Linux","password":true,"vac":true,"version":"7961495","steam_id":85568392925397851,"keywords":["alltalk","cp","danepve","increased_maxplayers","norespawntime","uncletopia"],"edicts":[415,2048],"game_id":440,"stv_port":0,"stv_name":"","players":null},{"server_id":0,"name_short":"","name":"Uncletopia | Sydney | 1 | All Maps","host":"","port":0,"enabled":false,"region":"","cc":"","latitude":0,"longitude":0,"reserved":0,"last_update":"0001-01-01T00:00:00Z","protocol":17,"map":"koth_viaduct","folder":"tf","game":"Team Fortress","app_id":440,"player_count":0,"max_players":24,"Bots":0,"server_type":"Dedicated","server_os":"Linux","password":true,"vac":true,"version":"7961495","steam_id":85568392924470001,"keywords":["cp","nocrits","nodmgspread","uncletopia"],"edicts":[218,2048],"game_id":440,"stv_port":27016,"stv_name":"Uncletopia | Sydney | 1 | All Maps | STV","players":null},{"server_id":0,"name_short":"","name":"Uncletopia | São Paulo | 1 | All Maps","host":"","port":0,"enabled":false,"region":"","cc":"","latitude":0,"longitude":0,"reserved":0,"last_update":"0001-01-01T00:00:00Z","protocol":17,"map":"pl_upward","folder":"tf","game":"Team Fortress","app_id":440,"player_count":0,"max_players":24,"Bots":0,"server_type":"Dedicated","server_os":"Linux","password":true,"vac":true,"version":"7961495","steam_id":85568392924469996,"keywords":["nocrits","nodmgspread","payload","uncletopia"],"edicts":[659,2048],"game_id":440,"stv_port":27016,"stv_name":"Uncletopia | São Paulo | 1 | All Maps | STV","players":null},{"server_id":0,"name_short":"","name":"Uncletopia | London | 5 | All Maps","host":"","port":0,"enabled":false,"region":"","cc":"","latitude":0,"longitude":0,"reserved":0,"last_update":"0001-01-01T00:00:00Z","protocol":17,"map":"koth_suijin","folder":"tf","game":"Team Fortress","app_id":440,"player_count":0,"max_players":24,"Bots":0,"server_type":"Dedicated","server_os":"Linux","password":true,"vac":true,"version":"7961495","steam_id":85568392924742829,"keywords":["cp","nocrits","nodmgspread","uncletopia"],"edicts":[421,2048],"game_id":440,"stv_port":27056,"stv_name":"Uncletopia | London | 5 | All Maps | STV","players":null},{"server_id":0,"name_short":"","name":"Uncletopia | London | 2 | All Maps","host":"","port":0,"enabled":false,"region":"","cc":"","latitude":0,"longitude":0,"reserved":0,"last_update":"0001-01-01T00:00:00Z","protocol":17,"map":"koth_cascade","folder":"tf","game":"Team Fortress","app_id":440,"player_count":0,"max_players":24,"Bots":0,"server_type":"Dedicated","server_os":"Linux","password":true,"vac":true,"version":"7961495","steam_id":85568392924470941,"keywords":["cp","nocrits","nodmgspread","uncletopia"],"edicts":[546,2048],"game_id":440,"stv_port":27026,"stv_name":"Uncletopia | London | 2 | All Maps | STV","players":null},{"server_id":0,"name_short":"","name":"Uncletopia | Chicago | 7 | Stopwatch","host":"","port":0,"enabled":false,"region":"","cc":"","latitude":0,"longitude":0,"reserved":0,"last_update":"0001-01-01T00:00:00Z","protocol":17,"map":"pl_summercoast_rc8e","folder":"tf","game":"Team Fortress","app_id":440,"player_count":0,"max_players":24,"Bots":0,"server_type":"Dedicated","server_os":"Linux","password":true,"vac":true,"version":"7961495","steam_id":85568392924866364,"keywords":["nocrits","nodmgspread","payload","uncletopia"],"edicts":[667,2048],"game_id":440,"stv_port":27036,"stv_name":"Uncletopia | Chicago | 7 | Stopwatch | STV","players":null},{"server_id":0,"name_short":"","name":"Uncletopia | Seattle | 2 | All Maps","host":"","port":0,"enabled":false,"region":"","cc":"","latitude":0,"longitude":0,"reserved":0,"last_update":"0001-01-01T00:00:00Z","protocol":17,"map":"cp_mountainlab","folder":"tf","game":"Team Fortress","app_id":440,"player_count":0,"max_players":24,"Bots":0,"server_type":"Dedicated","server_os":"Linux","password":true,"vac":true,"version":"7961495","steam_id":85568392924469998,"keywords":["cp","nocrits","nodmgspread","uncletopia"],"edicts":[533,2048],"game_id":440,"stv_port":27026,"stv_name":"Uncletopia | Seattle | 2 | All Maps | STV","players":null},{"server_id":0,"name_short":"","name":"Uncletopia | Los Angeles | 4 | Stopwatch","host":"","port":0,"enabled":false,"region":"","cc":"","latitude":0,"longitude":0,"reserved":0,"last_update":"0001-01-01T00:00:00Z","protocol":17,"map":"pl_upward","folder":"tf","game":"Team Fortress","app_id":440,"player_count":0,"max_players":24,"Bots":0,"server_type":"Dedicated","server_os":"Linux","password":true,"vac":true,"version":"7961495","steam_id":85568392924510199,"keywords":["nocrits","nodmgspread","payload","uncletopia"],"edicts":[659,2048],"game_id":440,"stv_port":27046,"stv_name":"Uncletopia | Los Angeles | 4 | Stopwatch | STV","players":null},{"server_id":0,"name_short":"","name":"Uncletopia | San Francisco | 3 | Stopwatch","host":"","port":0,"enabled":false,"region":"","cc":"","latitude":0,"longitude":0,"reserved":0,"last_update":"0001-01-01T00:00:00Z","protocol":17,"map":"koth_clearcut_b15","folder":"tf","game":"Team Fortress","app_id":440,"player_count":0,"max_players":24,"Bots":0,"server_type":"Dedicated","server_os":"Linux","password":true,"vac":true,"version":"7961495","steam_id":85568392924742824,"keywords":["cp","nocrits","nodmgspread","uncletopia"],"edicts":[445,2048],"game_id":440,"stv_port":27036,"stv_name":"Uncletopia | San Francisco | 3 | Stopwatch | STV","players":null},{"server_id":0,"name_short":"","name":"Uncletopia | San Francisco | 2 | All Maps","host":"","port":0,"enabled":false,"region":"","cc":"","latitude":0,"longitude":0,"reserved":0,"last_update":"0001-01-01T00:00:00Z","protocol":17,"map":"pl_hoodoo_final","folder":"tf","game":"Team Fortress","app_id":440,"player_count":0,"max_players":24,"Bots":0,"server_type":"Dedicated","server_os":"Linux","password":true,"vac":true,"version":"7961495","steam_id":85568392924470000,"keywords":["nocrits","nodmgspread","payload","uncletopia"],"edicts":[1123,2048],"game_id":440,"stv_port":27026,"stv_name":"Uncletopia | San Francisco | 2 | All Maps | STV","players":null},{"server_id":0,"name_short":"","name":"Uncletopia | Frankfurt | 7 | Stopwatch","host":"","port":0,"enabled":false,"region":"","cc":"","latitude":0,"longitude":0,"reserved":0,"last_update":"0001-01-01T00:00:00Z","protocol":17,"map":"koth_lakeside_final","folder":"tf","game":"Team Fortress","app_id":440,"player_count":0,"max_players":24,"Bots":0,"server_type":"Dedicated","server_os":"Linux","password":true,"vac":true,"version":"7961495","steam_id":85568392924742827,"keywords":["cp","nocrits","nodmgspread","uncletopia"],"edicts":[303,2048],"game_id":440,"stv_port":27076,"stv_name":"Uncletopia | Frankfurt | 7 | Stopwatch | STV","players":null},{"server_id":0,"name_short":"","name":"Uncletopia | São Paulo | 2 | Community","host":"","port":0,"enabled":false,"region":"","cc":"","latitude":0,"longitude":0,"reserved":0,"last_update":"0001-01-01T00:00:00Z","protocol":17,"map":"koth_slaughter_rc1","folder":"tf","game":"Team Fortress","app_id":440,"player_count":0,"max_players":24,"Bots":0,"server_type":"Dedicated","server_os":"Linux","password":true,"vac":true,"version":"7961495","steam_id":85568392924485349,"keywords":["cp","nocrits","nodmgspread","uncletopia"],"edicts":[963,2048],"game_id":440,"stv_port":27016,"stv_name":"Uncletopia | São Paulo | 2 | Community | STV","players":null},{"server_id":0,"name_short":"","name":"Uncletopia | Chicago | 4 | All Maps","host":"","port":0,"enabled":false,"region":"","cc":"","latitude":0,"longitude":0,"reserved":0,"last_update":"0001-01-01T00:00:00Z","protocol":17,"map":"koth_viaduct","folder":"tf","game":"Team Fortress","app_id":440,"player_count":0,"max_players":24,"Bots":0,"server_type":"Dedicated","server_os":"Linux","password":true,"vac":true,"version":"7961495","steam_id":85568392924515193,"keywords":["cp","nocrits","nodmgspread","uncletopia"],"edicts":[215,2048],"game_id":440,"stv_port":27046,"stv_name":"Uncletopia | Chicago | 4 | All Maps | STV","players":null},{"server_id":0,"name_short":"","name":"Uncletopia | Dallas | 3 | All Maps","host":"","port":0,"enabled":false,"region":"","cc":"","latitude":0,"longitude":0,"reserved":0,"last_update":"0001-01-01T00:00:00Z","protocol":17,"map":"cp_yukon_final","folder":"tf","game":"Team Fortress","app_id":440,"player_count":0,"max_players":24,"Bots":0,"server_type":"Dedicated","server_os":"Linux","password":true,"vac":true,"version":"7961495","steam_id":85568392924515219,"keywords":["cp","nocrits","nodmgspread","uncletopia"],"edicts":[402,2048],"game_id":440,"stv_port":27036,"stv_name":"Uncletopia | Dallas | 3 | All Maps | STV","players":null},{"server_id":0,"name_short":"","name":"Uncletopia | Seattle | 3 | Stopwatch","host":"","port":0,"enabled":false,"region":"","cc":"","latitude":0,"longitude":0,"reserved":0,"last_update":"0001-01-01T00:00:00Z","protocol":17,"map":"cp_gullywash_final1","folder":"tf","game":"Team Fortress","app_id":440,"player_count":0,"max_players":24,"Bots":0,"server_type":"Dedicated","server_os":"Linux","password":true,"vac":true,"version":"7961495","steam_id":85568392924515217,"keywords":["cp","nocrits","nodmgspread","uncletopia"],"edicts":[544,2048],"game_id":440,"stv_port":27036,"stv_name":"Uncletopia | Seattle | 3 | Stopwatch | STV","players":null},{"server_id":0,"name_short":"","name":"Uncletopia | Los Angeles | 1 | All Maps","host":"","port":0,"enabled":false,"region":"","cc":"","latitude":0,"longitude":0,"reserved":0,"last_update":"0001-01-01T00:00:00Z","protocol":17,"map":"koth_lakeside_final","folder":"tf","game":"Team Fortress","app_id":440,"player_count":0,"max_players":24,"Bots":0,"server_type":"Dedicated","server_os":"Linux","password":true,"vac":true,"version":"7961495","steam_id":85568392924469991,"keywords":["cp","nocrits","nodmgspread","uncletopia"],"edicts":[301,2048],"game_id":440,"stv_port":27016,"stv_name":"Uncletopia | Los Angeles | 1 | All Maps | STV","players":null},{"server_id":0,"name_short":"","name":"Uncletopia | London | 8 | Community","host":"","port":0,"enabled":false,"region":"","cc":"","latitude":0,"longitude":0,"reserved":0,"last_update":"0001-01-01T00:00:00Z","protocol":17,"map":"cp_propaganda_b18","folder":"tf","game":"Team Fortress","app_id":440,"player_count":0,"max_players":24,"Bots":0,"server_type":"Dedicated","server_os":"Linux","password":true,"vac":true,"version":"7961495","steam_id":85568392924964315,"keywords":["cp","nocrits","nodmgspread","uncletopia"],"edicts":[412,2048],"game_id":440,"stv_port":27086,"stv_name":"Uncletopia | London | 8 | Community | STV","players":null},{"server_id":0,"name_short":"","name":"Uncletopia | Los Angeles | 2 | All Maps","host":"","port":0,"enabled":false,"region":"","cc":"","latitude":0,"longitude":0,"reserved":0,"last_update":"0001-01-01T00:00:00Z","protocol":17,"map":"koth_lazarus","folder":"tf","game":"Team Fortress","app_id":440,"player_count":0,"max_players":24,"Bots":0,"server_type":"Dedicated","server_os":"Linux","password":true,"vac":true,"version":"7961495","steam_id":85568392924469992,"keywords":["cp","nocrits","nodmgspread","uncletopia"],"edicts":[861,2048],"game_id":440,"stv_port":27026,"stv_name":"Uncletopia | Los Angeles | 2 | All Maps | STV","players":null},{"server_id":0,"name_short":"","name":"Uncletopia | London | 1 | All Maps","host":"","port":0,"enabled":false,"region":"","cc":"","latitude":0,"longitude":0,"reserved":0,"last_update":"0001-01-01T00:00:00Z","protocol":17,"map":"pl_goldrush","folder":"tf","game":"Team Fortress","app_id":440,"player_count":24,"max_players":24,"Bots":0,"server_type":"Dedicated","server_os":"Linux","password":true,"vac":true,"version":"7961495","steam_id":85568392924367362,"keywords":["nocrits","nodmgspread","payload","uncletopia"],"edicts":[1401,2048],"game_id":440,"stv_port":27016,"stv_name":"Uncletopia | London | 1 | All Maps | STV","players":[{"user_id":208,"name":"nudjura","steam_id":76561198281986139,"connected_time":6887000000000,"state":"active","ping":32},{"user_id":265,"name":"Pain in a Box","steam_id":76561197990777173,"connected_time":3116000000000,"state":"active","ping":102},{"user_id":247,"name":"Slifer Embodiment of Chaos","steam_id":76561198062255803,"connected_time":3623000000000,"state":"active","ping":75},{"user_id":251,"name":"African Animosity","steam_id":76561198094483253,"connected_time":3604000000000,"state":"active","ping":34},{"user_id":292,"name":"pakku","steam_id":76561198121260981,"connected_time":195000000000,"state":"active","ping":45},{"user_id":287,"name":"finn","steam_id":76561198366652456,"connected_time":894000000000,"state":"active","ping":70},{"user_id":295,"name":"Spycrab Gaming","steam_id":76561199128973607,"connected_time":120000000000,"state":"active","ping":63},{"user_id":170,"name":"Pride moth","steam_id":76561198799133372,"connected_time":8718000000000,"state":"active","ping":93},{"user_id":289,"name":"Salad Bar's medic","steam_id":76561199006455750,"connected_time":867000000000,"state":"active","ping":39},{"user_id":297,"name":"joosssh","steam_id":76561198072130805,"connected_time":89000000000,"state":"active","ping":50},{"user_id":283,"name":"Mini Chappers","steam_id":76561198117606282,"connected_time":1320000000000,"state":"active","ping":48},{"user_id":291,"name":"laraduarte17","steam_id":76561198079254320,"connected_time":236000000000,"state":"active","ping":74},{"user_id":288,"name":"Boil em mash em","steam_id":76561198026508026,"connected_time":880000000000,"state":"active","ping":72},{"user_id":301,"name":"Teo","steam_id":76561198030853412,"connected_time":15000000000,"state":"spawning","ping":63},{"user_id":273,"name":"Lammet","steam_id":76561198149409729,"connected_time":2479000000000,"state":"active","ping":60},{"user_id":252,"name":"Justx","steam_id":76561197992655696,"connected_time":3603000000000,"state":"active","ping":55},{"user_id":286,"name":"Femboy Butt","steam_id":76561198115496457,"connected_time":919000000000,"state":"active","ping":42},{"user_id":147,"name":"Bunnytt","steam_id":76561198340246275,"connected_time":9399000000000,"state":"active","ping":109},{"user_id":293,"name":"popeyes manager","steam_id":76561198076219289,"connected_time":142000000000,"state":"active","ping":46},{"user_id":232,"name":"CarBombEnthusiast","steam_id":76561199448185434,"connected_time":5168000000000,"state":"active","ping":68},{"user_id":275,"name":"Lia_Rein","steam_id":76561198151569597,"connected_time":2253000000000,"state":"active","ping":47},{"user_id":296,"name":"cow child","steam_id":76561199431003443,"connected_time":120000000000,"state":"active","ping":60},{"user_id":299,"name":"rimj0b","steam_id":76561198067678158,"connected_time":88000000000,"state":"active","ping":45}]},{"server_id":0,"name_short":"","name":"Uncletopia | Sydney | 2 | All Maps","host":"","port":0,"enabled":false,"region":"","cc":"","latitude":0,"longitude":0,"reserved":0,"last_update":"0001-01-01T00:00:00Z","protocol":17,"map":"pl_frontier_final","folder":"tf","game":"Team Fortress","app_id":440,"player_count":24,"max_players":24,"Bots":0,"server_type":"Dedicated","server_os":"Linux","password":true,"vac":true,"version":"7961495","steam_id":85568392924470002,"keywords":["nocrits","nodmgspread","payload","uncletopia"],"edicts":[1004,2048],"game_id":440,"stv_port":27026,"stv_name":"Uncletopia | Sydney | 2 | All Maps | STV","players":[{"user_id":377,"name":"L. Presidente","steam_id":76561198857147659,"connected_time":5120000000000,"state":"active","ping":103},{"user_id":409,"name":"name that makes me topscore","steam_id":76561198111882477,"connected_time":2420000000000,"state":"active","ping":54},{"user_id":388,"name":"Bass4K","steam_id":76561198078398515,"connected_time":3913000000000,"state":"active","ping":66},{"user_id":424,"name":"Doctor!","steam_id":76561198041851238,"connected_time":1791000000000,"state":"active","ping":92},{"user_id":415,"name":"Seal Sultan","steam_id":76561198154214426,"connected_time":2196000000000,"state":"active","ping":50},{"user_id":378,"name":"cones2nite","steam_id":76561198101111240,"connected_time":5112000000000,"state":"active","ping":100},{"user_id":416,"name":"obama?","steam_id":76561198367756332,"connected_time":2188000000000,"state":"active","ping":41},{"user_id":430,"name":"Jack","steam_id":76561198051250263,"connected_time":1152000000000,"state":"active","ping":43},{"user_id":322,"name":"Matocake","steam_id":76561198068564316,"connected_time":8091000000000,"state":"active","ping":48},{"user_id":404,"name":"GrannySmiths","steam_id":76561198130227020,"connected_time":2871000000000,"state":"active","ping":86},{"user_id":431,"name":"Clowne P. McGinty","steam_id":76561198065759998,"connected_time":1123000000000,"state":"active","ping":46},{"user_id":421,"name":"artisque","steam_id":76561198096251579,"connected_time":2070000000000,"state":"active","ping":45},{"user_id":432,"name":"KiwiJiwi","steam_id":76561198262081410,"connected_time":909000000000,"state":"active","ping":73},{"user_id":422,"name":"yons","steam_id":76561198083920784,"connected_time":1980000000000,"state":"active","ping":69},{"user_id":428,"name":"shark69","steam_id":76561198088192753,"connected_time":1320000000000,"state":"active","ping":33},{"user_id":401,"name":"Icewall","steam_id":76561198128068727,"connected_time":3131000000000,"state":"active","ping":55},{"user_id":381,"name":"adammagee","steam_id":76561197972653972,"connected_time":4942000000000,"state":"active","ping":51},{"user_id":429,"name":"RAHRAHRAHsputin","steam_id":76561198063068157,"connected_time":1250000000000,"state":"active","ping":65},{"user_id":425,"name":"Jex","steam_id":76561198296071105,"connected_time":1701000000000,"state":"active","ping":46},{"user_id":436,"name":"@spect","steam_id":76561198802168309,"connected_time":370000000000,"state":"active","ping":48},{"user_id":403,"name":"monkey_jones","steam_id":76561198136218040,"connected_time":2898000000000,"state":"active","ping":50},{"user_id":406,"name":"LilCringe","steam_id":76561198171135461,"connected_time":2780000000000,"state":"active","ping":53},{"user_id":413,"name":"t.tv/calskiau","steam_id":76561198058375270,"connected_time":2348000000000,"state":"active","ping":39},{"user_id":426,"name":"LightningBlock","steam_id":76561198289997742,"connected_time":1671000000000,"state":"active","ping":31}]},{"server_id":0,"name_short":"","name":"Uncletopia | New York City | 2 | All Maps","host":"","port":0,"enabled":false,"region":"","cc":"","latitude":0,"longitude":0,"reserved":0,"last_update":"0001-01-01T00:00:00Z","protocol":17,"map":"koth_suijin","folder":"tf","game":"Team Fortress","app_id":440,"player_count":0,"max_players":24,"Bots":0,"server_type":"Dedicated","server_os":"Linux","password":true,"vac":true,"version":"7961495","steam_id":85568392924469994,"keywords":["cp","nocrits","nodmgspread","uncletopia"],"edicts":[421,2048],"game_id":440,"stv_port":27026,"stv_name":"Uncletopia | New York City | 2 | All Maps | STV","players":null},{"server_id":0,"name_short":"","name":"Uncletopia | New York City | 4 | Community","host":"","port":0,"enabled":false,"region":"","cc":"","latitude":0,"longitude":0,"reserved":0,"last_update":"0001-01-01T00:00:00Z","protocol":17,"map":"pl_cactuscanyon_redux_final2","folder":"tf","game":"Team Fortress","app_id":440,"player_count":0,"max_players":24,"Bots":0,"server_type":"Dedicated","server_os":"Linux","password":true,"vac":true,"version":"7961495","steam_id":85568392924742821,"keywords":["nocrits","nodmgspread","payload","uncletopia"],"edicts":[978,2048],"game_id":440,"stv_port":27046,"stv_name":"Uncletopia | New York City | 4 | Community | STV","players":null},{"server_id":0,"name_short":"","name":"Uncletopia | Chicago | 3 | All Maps","host":"","port":0,"enabled":false,"region":"","cc":"","latitude":0,"longitude":0,"reserved":0,"last_update":"0001-01-01T00:00:00Z","protocol":17,"map":"cp_steel","folder":"tf","game":"Team Fortress","app_id":440,"player_count":0,"max_players":24,"Bots":0,"server_type":"Dedicated","server_os":"Linux","password":true,"vac":true,"version":"7961495","steam_id":85568392924515191,"keywords":["cp","nocrits","nodmgspread","uncletopia"],"edicts":[837,2048],"game_id":440,"stv_port":27036,"stv_name":"Uncletopia | Chicago | 3 | All Maps | STV","players":null},{"server_id":0,"name_short":"","name":"Uncletopia | Chicago | 2 | All Maps","host":"","port":0,"enabled":false,"region":"","cc":"","latitude":0,"longitude":0,"reserved":0,"last_update":"0001-01-01T00:00:00Z","protocol":17,"map":"koth_harvest_final","folder":"tf","game":"Team Fortress","app_id":440,"player_count":0,"max_players":24,"Bots":0,"server_type":"Dedicated","server_os":"Linux","password":true,"vac":true,"version":"7961495","steam_id":85568392924469985,"keywords":["cp","nocrits","nodmgspread","uncletopia"],"edicts":[269,2048],"game_id":440,"stv_port":27026,"stv_name":"Uncletopia | Chicago | 2 | All Maps | STV","players":null},{"server_id":0,"name_short":"","name":"Uncletopia | Warsaw | 6 | Community","host":"","port":0,"enabled":false,"region":"","cc":"","latitude":0,"longitude":0,"reserved":0,"last_update":"0001-01-01T00:00:00Z","protocol":17,"map":"cp_glacier_rc6","folder":"tf","game":"Team Fortress","app_id":440,"player_count":0,"max_players":24,"Bots":0,"server_type":"Dedicated","server_os":"Linux","password":true,"vac":true,"version":"7961495","steam_id":85568392925397856,"keywords":["cp","nocrits","nodmgspread","uncletopia"],"edicts":[719,2048],"game_id":440,"stv_port":27066,"stv_name":"Uncletopia | Warsaw | 6 | Community | STV","players":null},{"server_id":0,"name_short":"","name":"Uncletopia | Dallas | 4 | Community","host":"","port":0,"enabled":false,"region":"","cc":"","latitude":0,"longitude":0,"reserved":0,"last_update":"0001-01-01T00:00:00Z","protocol":17,"map":"cp_croissant_final","folder":"tf","game":"Team Fortress","app_id":440,"player_count":0,"max_players":24,"Bots":0,"server_type":"Dedicated","server_os":"Linux","password":true,"vac":true,"version":"7961495","steam_id":85568392924515220,"keywords":["cp","nocrits","nodmgspread","uncletopia"],"edicts":[544,2048],"game_id":440,"stv_port":27046,"stv_name":"Uncletopia | Dallas | 4 | Community | STV","players":null},{"server_id":0,"name_short":"","name":"Uncletopia | Montréal | 2 | One Thousand Uncles","host":"","port":0,"enabled":false,"region":"","cc":"","latitude":0,"longitude":0,"reserved":0,"last_update":"0001-01-01T00:00:00Z","protocol":17,"map":"cp_mossrock","folder":"tf","game":"Team Fortress","app_id":440,"player_count":0,"max_players":32,"Bots":0,"server_type":"Dedicated","server_os":"Linux","password":true,"vac":true,"version":"7961495","steam_id":85568392924500088,"keywords":["alltalk","cp","danepve","increased_maxplayers","norespawntime","uncletopia"],"edicts":[444,2048],"game_id":440,"stv_port":0,"stv_name":"","players":null},{"server_id":0,"name_short":"","name":"Uncletopia | London | 6 | All Maps","host":"","port":0,"enabled":false,"region":"","cc":"","latitude":0,"longitude":0,"reserved":0,"last_update":"0001-01-01T00:00:00Z","protocol":17,"map":"pl_snowycoast","folder":"tf","game":"Team Fortress","app_id":440,"player_count":0,"max_players":24,"Bots":0,"server_type":"Dedicated","server_os":"Linux","password":true,"vac":true,"version":"7961495","steam_id":85568392924742830,"keywords":["nocrits","nodmgspread","payload","uncletopia"],"edicts":[881,2048],"game_id":440,"stv_port":27066,"stv_name":"Uncletopia | London | 6 | All Maps | STV","players":null},{"server_id":0,"name_short":"","name":"Uncletopia | London | 4 | All Maps","host":"","port":0,"enabled":false,"region":"","cc":"","latitude":0,"longitude":0,"reserved":0,"last_update":"0001-01-01T00:00:00Z","protocol":17,"map":"koth_harvest_final","folder":"tf","game":"Team Fortress","app_id":440,"player_count":24,"max_players":24,"Bots":0,"server_type":"Dedicated","server_os":"Linux","password":true,"vac":true,"version":"7961495","steam_id":85568392924510193,"keywords":["cp","nocrits","nodmgspread","uncletopia"],"edicts":[532,2048],"game_id":440,"stv_port":27046,"stv_name":"Uncletopia | London | 4 | All Maps | STV","players":[{"user_id":74,"name":"TiredOcean","steam_id":76561198177747195,"connected_time":950000000000,"state":"active","ping":44},{"user_id":14,"name":"Chubbo","steam_id":76561198859439313,"connected_time":4032000000000,"state":"active","ping":88},{"user_id":76,"name":"Jokerz","steam_id":76561199453766677,"connected_time":883000000000,"state":"active","ping":139},{"user_id":77,"name":"CheeseyWombat67","steam_id":76561198249631866,"connected_time":733000000000,"state":"active","ping":55},{"user_id":18,"name":"Gorgeous George","steam_id":76561198144256544,"connected_time":3971000000000,"state":"active","ping":46},{"user_id":92,"name":"Landan","steam_id":76561198102048004,"connected_time":367000000000,"state":"active","ping":62},{"user_id":88,"name":"Dishhhh","steam_id":76561197992816831,"connected_time":565000000000,"state":"active","ping":73},{"user_id":81,"name":"warforge3","steam_id":76561199276024310,"connected_time":655000000000,"state":"active","ping":96},{"user_id":99,"name":"xavier","steam_id":76561198076494034,"connected_time":102000000000,"state":"active","ping":48},{"user_id":65,"name":"PROFILE NAME","steam_id":76561198180056982,"connected_time":2104000000000,"state":"active","ping":55},{"user_id":48,"name":"Doruk Küçükduman","steam_id":76561198399815628,"connected_time":2969000000000,"state":"active","ping":100},{"user_id":72,"name":"pulsar","steam_id":76561198842123868,"connected_time":1064000000000,"state":"active","ping":106},{"user_id":80,"name":"Anon User","steam_id":76561199490573064,"connected_time":681000000000,"state":"active","ping":83},{"user_id":100,"name":"Packet","steam_id":76561199173195875,"connected_time":16000000000,"state":"spawning","ping":76},{"user_id":83,"name":"Syd","steam_id":76561198020515027,"connected_time":629000000000,"state":"active","ping":88},{"user_id":96,"name":"NALA","steam_id":76561198039806469,"connected_time":196000000000,"state":"active","ping":74},{"user_id":36,"name":"Laru","steam_id":76561197998838438,"connected_time":3149000000000,"state":"active","ping":77},{"user_id":51,"name":"Kyzentas","steam_id":76561198250724536,"connected_time":2938000000000,"state":"active","ping":55},{"user_id":85,"name":"K'aax Itzam","steam_id":76561198044024509,"connected_time":617000000000,"state":"active","ping":73},{"user_id":98,"name":"Mitrixie","steam_id":76561198842023498,"connected_time":152000000000,"state":"active","ping":94},{"user_id":87,"name":"Dan Dan the Furious","steam_id":76561198091032527,"connected_time":579000000000,"state":"active","ping":44},{"user_id":59,"name":"japjao","steam_id":76561199230386527,"connected_time":2805000000000,"state":"active","ping":45},{"user_id":89,"name":"Siegmeyer","steam_id":76561198328543549,"connected_time":561000000000,"state":"active","ping":105},{"user_id":97,"name":".::[SerafeTTiN]::.","steam_id":76561198009471724,"connected_time":190000000000,"state":"active","ping":94}]},{"server_id":0,"name_short":"","name":"Uncletopia | San Francisco | 1 | All Maps","host":"","port":0,"enabled":false,"region":"","cc":"","latitude":0,"longitude":0,"reserved":0,"last_update":"0001-01-01T00:00:00Z","protocol":17,"map":"cp_gullywash_final1","folder":"tf","game":"Team Fortress","app_id":440,"player_count":0,"max_players":24,"Bots":0,"server_type":"Dedicated","server_os":"Linux","password":true,"vac":true,"version":"7961495","steam_id":85568392924469999,"keywords":["cp","nocrits","nodmgspread","uncletopia"],"edicts":[544,2048],"game_id":440,"stv_port":27016,"stv_name":"Uncletopia | San Francisco | 1 | All Maps | STV","players":null},{"server_id":0,"name_short":"","name":"Uncletopia | Frankfurt | 5 | All Maps","host":"","port":0,"enabled":false,"region":"","cc":"","latitude":0,"longitude":0,"reserved":0,"last_update":"0001-01-01T00:00:00Z","protocol":17,"map":"cp_altitude","folder":"tf","game":"Team Fortress","app_id":440,"player_count":24,"max_players":24,"Bots":0,"server_type":"Dedicated","server_os":"Linux","password":true,"vac":true,"version":"7961495","steam_id":85568392924504277,"keywords":["cp","nocrits","nodmgspread","uncletopia"],"edicts":[748,2048],"game_id":440,"stv_port":27056,"stv_name":"Uncletopia | Frankfurt | 5 | All Maps | STV","players":[{"user_id":394,"name":"Kekka","steam_id":76561198068667960,"connected_time":875000000000,"state":"active","ping":56},{"user_id":408,"name":"Market caber","steam_id":76561199407941086,"connected_time":125000000000,"state":"active","ping":58},{"user_id":409,"name":"SocialistBacon","steam_id":76561198055872267,"connected_time":111000000000,"state":"active","ping":94},{"user_id":414,"name":"FIRST TF2 GAME","steam_id":76561198112587264,"connected_time":48000000000,"state":"active","ping":54},{"user_id":396,"name":"pKaskar","steam_id":76561198046248945,"connected_time":846000000000,"state":"active","ping":113},{"user_id":405,"name":"AverageArchie","steam_id":76561198163246758,"connected_time":175000000000,"state":"active","ping":59},{"user_id":286,"name":"Nuggets","steam_id":76561198007515365,"connected_time":8262000000000,"state":"active","ping":74},{"user_id":411,"name":"Mr. Fear","steam_id":76561198017160820,"connected_time":86000000000,"state":"active","ping":75},{"user_id":400,"name":"Rex Z'Beq","steam_id":76561199300590000,"connected_time":467000000000,"state":"active","ping":81},{"user_id":401,"name":"MP2K","steam_id":76561199094657435,"connected_time":428000000000,"state":"active","ping":80},{"user_id":334,"name":"FLAKEZ4REAL","steam_id":76561197978361391,"connected_time":3843000000000,"state":"active","ping":89},{"user_id":374,"name":"Mr. Mundy","steam_id":76561198132008918,"connected_time":1976000000000,"state":"active","ping":70},{"user_id":399,"name":"Karol_K","steam_id":76561198101038624,"connected_time":559000000000,"state":"active","ping":64},{"user_id":412,"name":"cisgender clown","steam_id":76561199469909295,"connected_time":82000000000,"state":"active","ping":82},{"user_id":385,"name":"llancelott2nd","steam_id":76561199220510748,"connected_time":1116000000000,"state":"active","ping":70},{"user_id":413,"name":"Mr.killer","steam_id":76561198290584189,"connected_time":78000000000,"state":"active","ping":96},{"user_id":415,"name":"my mom","steam_id":76561199225201569,"connected_time":40000000000,"state":"active","ping":131},{"user_id":387,"name":"ХАН ЗАМАЙ","steam_id":76561198992528373,"connected_time":1070000000000,"state":"active","ping":74},{"user_id":416,"name":"Michael","steam_id":76561198003146906,"connected_time":18000000000,"state":"active","ping":51},{"user_id":391,"name":"Shoe Gayser","steam_id":76561198063127464,"connected_time":975000000000,"state":"active","ping":67},{"user_id":389,"name":"jovi_","steam_id":76561198449280552,"connected_time":1065000000000,"state":"active","ping":60},{"user_id":417,"name":"Potato_gun","steam_id":76561198113462156,"connected_time":12000000000,"state":"spawning","ping":95},{"user_id":343,"name":"im getting me mallet","steam_id":76561198389556655,"connected_time":3050000000000,"state":"active","ping":69},{"user_id":344,"name":"Nick","steam_id":76561198036109469,"connected_time":3049000000000,"state":"active","ping":82}]},{"server_id":0,"name_short":"","name":"Uncletopia | Atlanta | 1 | All Maps","host":"","port":0,"enabled":false,"region":"","cc":"","latitude":0,"longitude":0,"reserved":0,"last_update":"0001-01-01T00:00:00Z","protocol":17,"map":"pl_barnblitz","folder":"tf","game":"Team Fortress","app_id":440,"player_count":24,"max_players":24,"Bots":0,"server_type":"Dedicated","server_os":"Linux","password":true,"vac":true,"version":"7961495","steam_id":85568392924469982,"keywords":["nocrits","nodmgspread","payload","uncletopia"],"edicts":[1084,2048],"game_id":440,"stv_port":27016,"stv_name":"Uncletopia | Atlanta | 1 | All Maps | STV","players":[{"user_id":40,"name":"Opal","steam_id":76561198066642710,"connected_time":4259000000000,"state":"active","ping":76},{"user_id":67,"name":"piss lord of shit mountain","steam_id":76561198163238434,"connected_time":1240000000000,"state":"active","ping":75},{"user_id":51,"name":"HarryjusttHarry","steam_id":76561198982810452,"connected_time":2846000000000,"state":"active","ping":80},{"user_id":73,"name":"Gargathor the Entity Catcher","steam_id":76561198189429665,"connected_time":611000000000,"state":"active","ping":57},{"user_id":52,"name":"Zozbieta","steam_id":76561198010336265,"connected_time":2745000000000,"state":"active","ping":78},{"user_id":63,"name":"southeast of glarmingdale","steam_id":76561198026664629,"connected_time":1310000000000,"state":"active","ping":59},{"user_id":75,"name":"Peptidyl Transferase","steam_id":76561198353432576,"connected_time":225000000000,"state":"active","ping":61},{"user_id":22,"name":"metalfan666","steam_id":76561198386344068,"connected_time":5229000000000,"state":"active","ping":75},{"user_id":23,"name":"Jesus Burgess","steam_id":76561199343316814,"connected_time":5228000000000,"state":"active","ping":46},{"user_id":74,"name":"Lee Wiz","steam_id":76561198412377343,"connected_time":510000000000,"state":"active","ping":94},{"user_id":53,"name":"Draco6257","steam_id":76561199147322448,"connected_time":2730000000000,"state":"active","ping":51},{"user_id":42,"name":"icm2008 #SaveTF2","steam_id":76561199277408836,"connected_time":4248000000000,"state":"active","ping":72},{"user_id":50,"name":"grim reaper","steam_id":76561199389114520,"connected_time":3100000000000,"state":"active","ping":92},{"user_id":69,"name":"McGriddle336","steam_id":76561198026293870,"connected_time":1215000000000,"state":"active","ping":92},{"user_id":70,"name":"awakelist","steam_id":76561199129744011,"connected_time":1190000000000,"state":"active","ping":117},{"user_id":64,"name":"[iO] kickr0","steam_id":76561197996865131,"connected_time":1252000000000,"state":"active","ping":45},{"user_id":57,"name":"Fredrick","steam_id":76561197981419964,"connected_time":1625000000000,"state":"active","ping":68},{"user_id":71,"name":"Zero","steam_id":76561198033384990,"connected_time":955000000000,"state":"active","ping":52},{"user_id":48,"name":"Fiendish Frog","steam_id":76561198029478821,"connected_time":3292000000000,"state":"active","ping":76},{"user_id":65,"name":"Ok-Par","steam_id":76561199221067945,"connected_time":1251000000000,"state":"active","ping":77},{"user_id":61,"name":"Mr. Zaro Nama","steam_id":76561198266025511,"connected_time":1584000000000,"state":"active","ping":186},{"user_id":72,"name":"Lex","steam_id":76561198069948353,"connected_time":756000000000,"state":"active","ping":88},{"user_id":66,"name":"oh thats a pager","steam_id":76561198047868396,"connected_time":1251000000000,"state":"active","ping":71},{"user_id":62,"name":"ekuD","steam_id":76561198068113849,"connected_time":1580000000000,"state":"active","ping":76}]},{"server_id":0,"name_short":"","name":"Uncletopia | Atlanta | 4 | Community","host":"","port":0,"enabled":false,"region":"","cc":"","latitude":0,"longitude":0,"reserved":0,"last_update":"0001-01-01T00:00:00Z","protocol":17,"map":"pl_cactuscanyon_redux_final2","folder":"tf","game":"Team Fortress","app_id":440,"player_count":0,"max_players":24,"Bots":0,"server_type":"Dedicated","server_os":"Linux","password":true,"vac":true,"version":"7961495","steam_id":85568392924515188,"keywords":["nocrits","nodmgspread","payload","uncletopia"],"edicts":[978,2048],"game_id":440,"stv_port":27046,"stv_name":"Uncletopia | Atlanta | 4 | Community | STV","players":null},{"server_id":0,"name_short":"","name":"Uncletopia | Frankfurt | 2 | All Maps","host":"","port":0,"enabled":false,"region":"","cc":"","latitude":0,"longitude":0,"reserved":0,"last_update":"0001-01-01T00:00:00Z","protocol":17,"map":"pl_snowycoast","folder":"tf","game":"Team Fortress","app_id":440,"player_count":0,"max_players":24,"Bots":0,"server_type":"Dedicated","server_os":"Linux","password":true,"vac":true,"version":"7961495","steam_id":85568392924469990,"keywords":["nocrits","nodmgspread","payload","uncletopia"],"edicts":[877,2048],"game_id":440,"stv_port":27026,"stv_name":"Uncletopia | Frankfurt | 2 | All Maps | STV","players":null},{"server_id":0,"name_short":"","name":"Uncletopia | Warsaw | 1 | One Thousand Uncles","host":"","port":0,"enabled":false,"region":"","cc":"","latitude":0,"longitude":0,"reserved":0,"last_update":"0001-01-01T00:00:00Z","protocol":17,"map":"cp_mercenarypark","folder":"tf","game":"Team Fortress","app_id":440,"player_count":30,"max_players":32,"Bots":20,"server_type":"Dedicated","server_os":"Linux","password":true,"vac":true,"version":"7961495","steam_id":85568392925397850,"keywords":["alltalk","bots","cp","danepve","increased_maxplayers","norespawntime","uncletopia"],"edicts":[1047,2048],"game_id":440,"stv_port":0,"stv_name":"","players":[{"user_id":359,"name":"The Deputy_Rook [HCSD]","steam_id":76561198831109346,"connected_time":500000000000,"state":"active","ping":49},{"user_id":304,"name":"RestingImmortal","steam_id":76561198254240564,"connected_time":3127000000000,"state":"active","ping":200},{"user_id":274,"name":"PuPuruPuruPumPu","steam_id":76561198391950490,"connected_time":4875000000000,"state":"active","ping":106},{"user_id":273,"name":"Hungeryan","steam_id":76561198887299930,"connected_time":5163000000000,"state":"active","ping":80},{"user_id":299,"name":"puffy","steam_id":76561198411347037,"connected_time":3714000000000,"state":"active","ping":157},{"user_id":360,"name":"Spxndrej","steam_id":76561199426583978,"connected_time":462000000000,"state":"active","ping":57},{"user_id":301,"name":"pan boczekg4Skins","steam_id":76561199134695300,"connected_time":3282000000000,"state":"active","ping":46},{"user_id":361,"name":"sarcasmincluded","steam_id":76561199023094210,"connected_time":309000000000,"state":"active","ping":57},{"user_id":338,"name":"hhw06","steam_id":76561199236561531,"connected_time":1467000000000,"state":"active","ping":192},{"user_id":363,"name":"sokoltd31","steam_id":76561199481892547,"connected_time":275000000000,"state":"active","ping":92}]},{"server_id":0,"name_short":"","name":"Uncletopia | Sydney | 6 | Community","host":"","port":0,"enabled":false,"region":"","cc":"","latitude":0,"longitude":0,"reserved":0,"last_update":"0001-01-01T00:00:00Z","protocol":17,"map":"koth_soot_final1","folder":"tf","game":"Team Fortress","app_id":440,"player_count":0,"max_players":24,"Bots":0,"server_type":"Dedicated","server_os":"Linux","password":true,"vac":true,"version":"7961495","steam_id":85568392925397960,"keywords":["cp","nocrits","nodmgspread","uncletopia"],"edicts":[242,2048],"game_id":440,"stv_port":27066,"stv_name":"Uncletopia | Sydney | 6 | Community | STV","players":null},{"server_id":0,"name_short":"","name":"Uncletopia | Montréal | 1 | One Thousand Uncles","host":"","port":0,"enabled":false,"region":"","cc":"","latitude":0,"longitude":0,"reserved":0,"last_update":"0001-01-01T00:00:00Z","protocol":17,"map":"pl_barnblitz","folder":"tf","game":"Team Fortress","app_id":440,"player_count":0,"max_players":32,"Bots":0,"server_type":"Dedicated","server_os":"Linux","password":true,"vac":true,"version":"7961495","steam_id":85568392924500087,"keywords":["alltalk","danepve","increased_maxplayers","norespawntime","payload","uncletopia"],"edicts":[804,2048],"game_id":440,"stv_port":0,"stv_name":"","players":null},{"server_id":0,"name_short":"","name":"Uncletopia | Chicago | 1 | All Maps","host":"","port":0,"enabled":false,"region":"","cc":"","latitude":0,"longitude":0,"reserved":0,"last_update":"0001-01-01T00:00:00Z","protocol":17,"map":"koth_harvest_final","folder":"tf","game":"Team Fortress","app_id":440,"player_count":0,"max_players":24,"Bots":0,"server_type":"Dedicated","server_os":"Linux","password":true,"vac":true,"version":"7961495","steam_id":85568392924469984,"keywords":["cp","nocrits","nodmgspread","uncletopia"],"edicts":[271,2048],"game_id":440,"stv_port":27016,"stv_name":"Uncletopia | Chicago | 1 | All Maps | STV","players":null},{"server_id":0,"name_short":"","name":"Uncletopia | Dallas | 1 | All Maps","host":"","port":0,"enabled":false,"region":"","cc":"","latitude":0,"longitude":0,"reserved":0,"last_update":"0001-01-01T00:00:00Z","protocol":17,"map":"pl_pier","folder":"tf","game":"Team Fortress","app_id":440,"player_count":0,"max_players":24,"Bots":0,"server_type":"Dedicated","server_os":"Linux","password":true,"vac":true,"version":"7961495","steam_id":85568392924469986,"keywords":["nocrits","nodmgspread","payload","uncletopia"],"edicts":[963,2048],"game_id":440,"stv_port":27016,"stv_name":"Uncletopia | Dallas | 1 | All Maps | STV","players":null},{"server_id":0,"name_short":"","name":"Uncletopia | Warsaw | 5 | Stopwatch","host":"","port":0,"enabled":false,"region":"","cc":"","latitude":0,"longitude":0,"reserved":0,"last_update":"0001-01-01T00:00:00Z","protocol":17,"map":"cp_process_f12","folder":"tf","game":"Team Fortress","app_id":440,"player_count":0,"max_players":24,"Bots":0,"server_type":"Dedicated","server_os":"Linux","password":true,"vac":true,"version":"7961495","steam_id":85568392925397854,"keywords":["cp","nocrits","nodmgspread","uncletopia"],"edicts":[589,2048],"game_id":440,"stv_port":27056,"stv_name":"Uncletopia | Warsaw | 5 | Stopwatch | STV","players":null}]}