{"status":true,"message":"","result":[{"server_id":9,"name":"Uncletopia | Atlanta | 1 | All Maps","name_short":"atl-1","host":"atl-1.us.uncletopia.com","port":27015,"enabled":true,"region":"us-east","cc":"us","latitude":33.753746,"longitude":-84.38633,"reserved":0,"last_update":"0001-01-01T00:00:00Z","name_a2s":"Uncletopia | Atlanta | 1 | All Maps","protocol":17,"map":"pl_badwater","folder":"tf","game":"Team Fortress","app_id":440,"player_count":24,"max_players":24,"Bots":0,"server_type":"Dedicated","server_os":"Linux","password":true,"vac":true,"version":"7708610","steam_id":85568392924469982,"keywords":["nocrits","nodmgspread","payload","uncletopia"],"game_id":440,"stv_port":27016,"stv_name":"Uncletopia | Atlanta | 1 | All Maps | STV","players":[{"user_id":273,"name":"Fattened Dessert","steam_id":76561198351008375,"connected_time":7122000000000,"state":"active","ping":46},{"user_id":312,"name":"Shmoopy","steam_id":76561198030459152,"connected_time":3531000000000,"state":"active","ping":63},{"user_id":372,"name":"lulu","steam_id":76561199147764133,"connected_time":221000000000,"state":"active","ping":161},{"user_id":314,"name":"XDKJHom","steam_id":76561199116963922,"connected_time":3344000000000,"state":"active","ping":82},{"user_id":362,"name":"ChickenManPhil","steam_id":76561199139508332,"connected_time":636000000000,"state":"active","ping":107},{"user_id":297,"name":"TheAilingSword","steam_id":76561198250350844,"connected_time":4635000000000,"state":"active","ping":64},{"user_id":363,"name":"PootisLife","steam_id":76561198074400568,"connected_time":533000000000,"state":"active","ping":104},{"user_id":371,"name":"Spike","steam_id":76561198141356571,"connected_time":264000000000,"state":"active","ping":60},{"user_id":349,"name":"DREW PEACOCK","steam_id":76561198065057392,"connected_time":1649000000000,"state":"active","ping":63},{"user_id":374,"name":"Gifted Hater","steam_id":76561198056971063,"connected_time":148000000000,"state":"active","ping":45},{"user_id":242,"name":"Lunchboxx","steam_id":76561198079735916,"connected_time":10161000000000,"state":"active","ping":73},{"user_id":359,"name":"yesterday once more","steam_id":76561198038486613,"connected_time":923000000000,"state":"active","ping":67},{"user_id":328,"name":"BigJugHugger","steam_id":76561198142108739,"connected_time":2879000000000,"state":"active","ping":95},{"user_id":361,"name":"jerma but crying and lesbian","steam_id":76561198110661425,"connected_time":726000000000,"state":"active","ping":73},{"user_id":350,"name":"Wap Assassin","steam_id":76561198093432863,"connected_time":1649000000000,"state":"active","ping":68},{"user_id":278,"name":"toastman","steam_id":76561198207073088,"connected_time":6943000000000,"state":"active","ping":89},{"user_id":364,"name":"rose","steam_id":76561198048882285,"connected_time":492000000000,"state":"active","ping":60},{"user_id":375,"name":"sara","steam_id":76561198283462369,"connected_time":119000000000,"state":"active","ping":107},{"user_id":256,"name":"FemboyNate","steam_id":76561198146636410,"connected_time":8956000000000,"state":"active","ping":60},{"user_id":294,"name":"PaintMyMeow","steam_id":76561198056860387,"connected_time":4673000000000,"state":"active","ping":81},{"user_id":370,"name":"Just_Red05","steam_id":76561198400296405,"connected_time":335000000000,"state":"active","ping":118},{"user_id":334,"name":"harmless","steam_id":76561197990799645,"connected_time":2724000000000,"state":"active","ping":75},{"user_id":366,"name":"snoops","steam_id":76561197986760351,"connected_time":485000000000,"state":"active","ping":76},{"user_id":369,"name":"gromit","steam_id":76561198037746805,"connected_time":354000000000,"state":"active","ping":76}]},{"server_id":400,"name":"Uncletopia | Atlanta | 3 | All Maps","name_short":"atl-3","host":"atl-1.us.uncletopia.com","port":27035,"enabled":true,"region":"us-east","cc":"us","latitude":33.753746,"longitude":-84.38633,"reserved":0,"last_update":"0001-01-01T00:00:00Z","name_a2s":"Uncletopia | Atlanta | 3 | All Maps","protocol":17,"map":"koth_cascade","folder":"tf","game":"Team Fortress","app_id":440,"player_count":0,"max_players":24,"Bots":0,"server_type":"Dedicated","server_os":"Linux","password":true,"vac":true,"version":"7708610","steam_id":85568392924515187,"keywords":["cp","nocrits","nodmgspread","uncletopia"],"game_id":440,"stv_port":27036,"stv_name":"Uncletopia | Atlanta | 3 | All Maps | STV","players":null},{"server_id":401,"name":"Uncletopia | Atlanta | 4 | No Payload","name_short":"atl-4","host":"atl-1.us.uncletopia.com","port":27045,"enabled":true,"region":"us-east","cc":"us","latitude":33.753746,"longitude":-84.38633,"reserved":0,"last_update":"0001-01-01T00:00:00Z","name_a2s":"Uncletopia | Atlanta | 4 | No Payload","protocol":17,"map":"koth_harvest_final","folder":"tf","game":"Team Fortress","app_id":440,"player_count":21,"max_players":24,"Bots":0,"server_type":"Dedicated","server_os":"Linux","password":true,"vac":true,"version":"7708610","steam_id":85568392924515188,"keywords":["cp","nocrits","nodmgspread","uncletopia"],"game_id":440,"stv_port":27046,"stv_name":"Uncletopia | Atlanta | 4 | No Payload | STV","players":[{"user_id":181,"name":"autumnal.messenger","steam_id":76561199345816635,"connected_time":6483000000000,"state":"active","ping":114},{"user_id":235,"name":"A Bic Lighter","steam_id":76561198070606068,"connected_time":3195000000000,"state":"active","ping":67},{"user_id":278,"name":"Klip","steam_id":76561198316254429,"connected_time":384000000000,"state":"active","ping":71},{"user_id":257,"name":"☯Fabled-Farfetch'd☯","steam_id":76561198353260539,"connected_time":1623000000000,"state":"active","ping":73},{"user_id":276,"name":"i love nature","steam_id":76561198248636560,"connected_time":657000000000,"state":"active","ping":72},{"user_id":268,"name":"bikerkid207","steam_id":76561198390782783,"connected_time":1270000000000,"state":"active","ping":46},{"user_id":269,"name":"im bladee! drain gang!","steam_id":76561198042600523,"connected_time":1186000000000,"state":"active","ping":69},{"user_id":261,"name":"poopluvr112","steam_id":76561198082081354,"connected_time":1397000000000,"state":"active","ping":59},{"user_id":262,"name":"fool","steam_id":76561198172049831,"connected_time":1395000000000,"state":"active","ping":81},{"user_id":228,"name":"chexo4","steam_id":76561198150532531,"connected_time":3512000000000,"state":"active","ping":53},{"user_id":263,"name":"BigKafka420","steam_id":76561198150265040,"connected_time":1393000000000,"state":"active","ping":70},{"user_id":277,"name":"MIKESAVAGE","steam_id":76561198996777622,"connected_time":632000000000,"state":"active","ping":75},{"user_id":266,"name":"A Puppy","steam_id":76561198828184456,"connected_time":1334000000000,"state":"active","ping":54},{"user_id":249,"name":"♥","steam_id":76561198401455467,"connected_time":2258000000000,"state":"active","ping":105},{"user_id":253,"name":"spy","steam_id":76561198240706148,"connected_time":2073000000000,"state":"active","ping":76},{"user_id":267,"name":"The Muffin Man","steam_id":76561199088286427,"connected_time":1300000000000,"state":"active","ping":114},{"user_id":271,"name":"Monkey","steam_id":76561198031015186,"connected_time":1108000000000,"state":"active","ping":68},{"user_id":224,"name":"AlexLovesYou","steam_id":76561199163263543,"connected_time":4199000000000,"state":"active","ping":69},{"user_id":281,"name":"Mr. Soupman","steam_id":76561198021649598,"connected_time":354000000000,"state":"active","ping":47},{"user_id":273,"name":"The Notorious T.A.F.T.","steam_id":76561198073012352,"connected_time":1041000000000,"state":"active","ping":80},{"user_id":275,"name":"beats","steam_id":76561199245717718,"connected_time":1008000000000,"state":"active","ping":72}]},{"server_id":2,"name":"Uncletopia | Chicago | 1 | All Maps","name_short":"chi-1","host":"chi-1.us.uncletopia.com","port":27015,"enabled":true,"region":"us-central","cc":"us","latitude":41.881832,"longitude":-87.62318,"reserved":0,"last_update":"0001-01-01T00:00:00Z","name_a2s":"Uncletopia | Chicago | 1 | All Maps","protocol":17,"map":"koth_highpass","folder":"tf","game":"Team Fortress","app_id":440,"player_count":0,"max_players":24,"Bots":0,"server_type":"Dedicated","server_os":"Linux","password":true,"vac":true,"version":"7708610","steam_id":85568392924469984,"keywords":["cp","nocrits","nodmgspread","uncletopia"],"game_id":440,"stv_port":27016,"stv_name":"Uncletopia | Chicago | 1 | All Maps | STV","players":null},{"server_id":106,"name":"Uncletopia | Chicago | 2 | All Maps","name_short":"chi-2","host":"chi-1.us.uncletopia.com","port":27025,"enabled":true,"region":"us-central","cc":"us","latitude":41.881832,"longitude":-87.62318,"reserved":0,"last_update":"0001-01-01T00:00:00Z","name_a2s":"Uncletopia | Chicago | 2 | All Maps","protocol":17,"map":"cp_sunshine","folder":"tf","game":"Team Fortress","app_id":440,"player_count":0,"max_players":24,"Bots":0,"server_type":"Dedicated","server_os":"Linux","password":true,"vac":true,"version":"7708610","steam_id":85568392924469985,"keywords":["cp","nocrits","nodmgspread","uncletopia"],"game_id":440,"stv_port":27026,"stv_name":"Uncletopia | Chicago | 2 | All Maps | STV","players":null},{"server_id":402,"name":"Uncletopia | Chicago | 3 | All Maps","name_short":"chi-3","host":"chi-1.us.uncletopia.com","port":27035,"enabled":true,"region":"us-central","cc":"us","latitude":41.881832,"longitude":-87.62318,"reserved":0,"last_update":"0001-01-01T00:00:00Z","name_a2s":"Uncletopia | Chicago | 3 | All Maps","protocol":17,"map":"pl_swiftwater_final1","folder":"tf","game":"Team Fortress","app_id":440,"player_count":24,"max_players":24,"Bots":0,"server_type":"Dedicated","server_os":"Linux","password":true,"vac":true,"version":"7708610","steam_id":85568392924515191,"keywords":["nocrits","nodmgspread","payload","uncletopia"],"game_id":440,"stv_port":27036,"stv_name":"Uncletopia | Chicago | 3 | All Maps | STV","players":[{"user_id":297,"name":"GreekGoat_Coffee","steam_id":76561198129331088,"connected_time":3497000000000,"state":"active","ping":38},{"user_id":298,"name":"Vivi","steam_id":76561198141001353,"connected_time":3417000000000,"state":"active","ping":41},{"user_id":292,"name":"Funky Buttlovin","steam_id":76561198002807702,"connected_time":3869000000000,"state":"active","ping":56},{"user_id":377,"name":"josh","steam_id":76561198111565081,"connected_time":71000000000,"state":"active","ping":106},{"user_id":335,"name":"careuwuy","steam_id":76561198077321435,"connected_time":1798000000000,"state":"active","ping":78},{"user_id":367,"name":"Lone Dancer","steam_id":76561199096241116,"connected_time":711000000000,"state":"active","ping":62},{"user_id":369,"name":"pinglefingle","steam_id":76561198216580197,"connected_time":631000000000,"state":"active","ping":79},{"user_id":324,"name":"Croxodile","steam_id":76561198215822949,"connected_time":2835000000000,"state":"active","ping":52},{"user_id":328,"name":"Stanv","steam_id":76561198259530604,"connected_time":2461000000000,"state":"active","ping":48},{"user_id":300,"name":"uluna","steam_id":76561198284102821,"connected_time":3227000000000,"state":"active","ping":62},{"user_id":374,"name":"majorbobfunction","steam_id":76561198042464632,"connected_time":241000000000,"state":"active","ping":59},{"user_id":365,"name":"motorized bar of soap","steam_id":76561198882404753,"connected_time":764000000000,"state":"active","ping":70},{"user_id":320,"name":"weeb_whacker #Jenius","steam_id":76561198187098041,"connected_time":2944000000000,"state":"active","ping":52},{"user_id":366,"name":"Devoid","steam_id":76561198254039012,"connected_time":720000000000,"state":"active","ping":52},{"user_id":375,"name":"jt","steam_id":76561198059575962,"connected_time":199000000000,"state":"active","ping":49},{"user_id":370,"name":"Evolution","steam_id":76561198144767370,"connected_time":612000000000,"state":"active","ping":49},{"user_id":309,"name":"AJZombieSlayr","steam_id":76561198157802310,"connected_time":3123000000000,"state":"active","ping":76},{"user_id":378,"name":"averted","steam_id":76561198067784310,"connected_time":68000000000,"state":"active","ping":60},{"user_id":372,"name":"❤ Ashley ❤","steam_id":76561198056428303,"connected_time":521000000000,"state":"active","ping":95},{"user_id":333,"name":"hierodule","steam_id":76561198023229665,"connected_time":1813000000000,"state":"active","ping":74},{"user_id":317,"name":"Liquid Oxycodone","steam_id":76561198154162664,"connected_time":3002000000000,"state":"active","ping":72},{"user_id":337,"name":"tkbeast","steam_id":76561198129003004,"connected_time":1783000000000,"state":"active","ping":92},{"user_id":331,"name":"Shystie","steam_id":76561198025371440,"connected_time":2261000000000,"state":"active","ping":67},{"user_id":342,"name":"gigacat","steam_id":76561198055638231,"connected_time":1624000000000,"state":"active","ping":65}]},{"server_id":403,"name":"Uncletopia | Chicago | 4 | All Maps","name_short":"chi-4","host":"chi-1.us.uncletopia.com","port":27045,"enabled":true,"region":"us-central","cc":"us","latitude":41.881832,"longitude":-87.62318,"reserved":0,"last_update":"0001-01-01T00:00:00Z","name_a2s":"Uncletopia | Chicago | 4 | All Maps","protocol":17,"map":"cp_snakewater_final1","folder":"tf","game":"Team Fortress","app_id":440,"player_count":0,"max_players":24,"Bots":0,"server_type":"Dedicated","server_os":"Linux","password":true,"vac":true,"version":"7708610","steam_id":85568392924515193,"keywords":["cp","nocrits","nodmgspread","uncletopia"],"game_id":440,"stv_port":27046,"stv_name":"Uncletopia | Chicago | 4 | All Maps | STV","players":null},{"server_id":36,"name":"Uncletopia | Chicago | 5 | All Maps","name_short":"chi-5","host":"chi-2.us.uncletopia.com","port":27015,"enabled":true,"region":"us-central","cc":"us","latitude":41.881832,"longitude":-87.62318,"reserved":0,"last_update":"0001-01-01T00:00:00Z","name_a2s":"Uncletopia | Chicago | 5 | All Maps","protocol":17,"map":"pl_swiftwater_final1","folder":"tf","game":"Team Fortress","app_id":440,"player_count":24,"max_players":24,"Bots":0,"server_type":"Dedicated","server_os":"Linux","password":true,"vac":true,"version":"7708610","steam_id":85568392924866362,"keywords":["nocrits","nodmgspread","payload","uncletopia"],"game_id":440,"stv_port":27016,"stv_name":"Uncletopia | Chicago | 5 | All Maps | STV","players":[{"user_id":254,"name":"skizzy","steam_id":76561199229318347,"connected_time":2328000000000,"state":"active","ping":46},{"user_id":284,"name":"a soul must somehow strive","steam_id":76561198096806703,"connected_time":796000000000,"state":"active","ping":74},{"user_id":283,"name":"snow worm","steam_id":76561198328256922,"connected_time":914000000000,"state":"active","ping":54},{"user_id":268,"name":"Inevitable","steam_id":76561198210050169,"connected_time":1716000000000,"state":"active","ping":75},{"user_id":289,"name":"Money Collector","steam_id":76561198046249467,"connected_time":244000000000,"state":"active","ping":52},{"user_id":252,"name":"Tommy Pickles (Very Cool)","steam_id":76561198391261463,"connected_time":2708000000000,"state":"active","ping":68},{"user_id":291,"name":"I.C.","steam_id":76561198049256017,"connected_time":52000000000,"state":"active","ping":76},{"user_id":231,"name":"Ohhh noo","steam_id":76561198092046536,"connected_time":5020000000000,"state":"active","ping":45},{"user_id":247,"name":"Nate","steam_id":76561198068225765,"connected_time":3667000000000,"state":"active","ping":65},{"user_id":278,"name":"PyroPat","steam_id":76561198042235556,"connected_time":1364000000000,"state":"active","ping":111},{"user_id":265,"name":"lamadre07","steam_id":76561198067337453,"connected_time":1816000000000,"state":"active","ping":101},{"user_id":256,"name":"pk","steam_id":76561198012945016,"connected_time":2307000000000,"state":"active","ping":57},{"user_id":271,"name":"AugustSkies","steam_id":76561198119544213,"connected_time":1584000000000,"state":"active","ping":136},{"user_id":233,"name":"Lady Duckland","steam_id":76561198077092840,"connected_time":4509000000000,"state":"active","ping":58},{"user_id":281,"name":"beans","steam_id":76561198967794028,"connected_time":1013000000000,"state":"active","ping":83},{"user_id":228,"name":"SleepyJackdaw","steam_id":76561198053520098,"connected_time":5243000000000,"state":"active","ping":36},{"user_id":257,"name":"turnip","steam_id":76561197999375941,"connected_time":2301000000000,"state":"active","ping":78},{"user_id":253,"name":"Mr. Tickle","steam_id":76561198126684647,"connected_time":2340000000000,"state":"active","ping":60},{"user_id":272,"name":"OmniXVII","steam_id":76561198027183394,"connected_time":1568000000000,"state":"active","ping":86},{"user_id":232,"name":"Happy Yaoi Sunday","steam_id":76561198111290441,"connected_time":4732000000000,"state":"active","ping":52},{"user_id":267,"name":"Tay1Qr","steam_id":76561198082809935,"connected_time":1763000000000,"state":"active","ping":74},{"user_id":273,"name":"NateTheGrate2","steam_id":76561198139174784,"connected_time":1567000000000,"state":"active","ping":108},{"user_id":274,"name":"Scoot Pilgrim","steam_id":76561198065720462,"connected_time":1566000000000,"state":"active","ping":111},{"user_id":288,"name":"Hydroxianchaos","steam_id":76561198043786828,"connected_time":590000000000,"state":"active","ping":63}]},{"server_id":37,"name":"Uncletopia | Chicago | 6 | All Maps","name_short":"chi-6","host":"chi-2.us.uncletopia.com","port":27025,"enabled":true,"region":"us-central","cc":"us","latitude":41.881832,"longitude":-87.62318,"reserved":0,"last_update":"0001-01-01T00:00:00Z","name_a2s":"Uncletopia | Chicago | 6 | All Maps","protocol":17,"map":"cp_altitude","folder":"tf","game":"Team Fortress","app_id":440,"player_count":0,"max_players":24,"Bots":0,"server_type":"Dedicated","server_os":"Linux","password":true,"vac":true,"version":"7708610","steam_id":85568392924866363,"keywords":["cp","nocrits","nodmgspread","uncletopia"],"game_id":440,"stv_port":27026,"stv_name":"Uncletopia | Chicago | 6 | All Maps | STV","players":null},{"server_id":38,"name":"Uncletopia | Chicago | 7 | No Payload","name_short":"chi-7","host":"chi-2.us.uncletopia.com","port":27035,"enabled":true,"region":"us-central","cc":"us","latitude":41.881832,"longitude":-87.62318,"reserved":0,"last_update":"0001-01-01T00:00:00Z","name_a2s":"Uncletopia | Chicago | 7 | No Payload","protocol":17,"map":"koth_harvest_final","folder":"tf","game":"Team Fortress","app_id":440,"player_count":0,"max_players":24,"Bots":0,"server_type":"Dedicated","server_os":"Linux","password":true,"vac":true,"version":"7708610","steam_id":85568392924866364,"keywords":["cp","nocrits","nodmgspread","uncletopia"],"game_id":440,"stv_port":27036,"stv_name":"Uncletopia | Chicago | 7 | No Payload | STV","players":null},{"server_id":39,"name":"Uncletopia | Chicago | 8 | Community","name_short":"chi-8","host":"chi-2.us.uncletopia.com","port":27045,"enabled":true,"region":"us-central","cc":"us","latitude":41.881832,"longitude":-87.62318,"reserved":0,"last_update":"0001-01-01T00:00:00Z","name_a2s":"Uncletopia | Chicago | 8 | Community","protocol":17,"map":"workshop/koth_product_final.ugc454272353","folder":"tf","game":"Team Fortress","app_id":440,"player_count":5,"max_players":24,"Bots":0,"server_type":"Dedicated","server_os":"Linux","password":true,"vac":true,"version":"7708610","steam_id":85568392924866365,"keywords":["cp","nocrits","nodmgspread","uncletopia"],"game_id":440,"stv_port":27046,"stv_name":"Uncletopia | Chicago | 8 | Community | STV","players":[{"user_id":223,"name":"CrackedSanity","steam_id":76561198279841251,"connected_time":1511000000000,"state":"active","ping":86},{"user_id":227,"name":"Piss fetish connoisseur","steam_id":76561199387907037,"connected_time":488000000000,"state":"active","ping":336},{"user_id":228,"name":"The Bee's Knees","steam_id":76561198042153923,"connected_time":411000000000,"state":"active","ping":62},{"user_id":182,"name":"skaska4","steam_id":76561198080606141,"connected_time":5834000000000,"state":"active","ping":53},{"user_id":167,"name":"Doug Dimmadamndimmadimmadougdim","steam_id":76561198136169355,"connected_time":7679000000000,"state":"active","ping":55}]},{"server_id":8,"name":"Uncletopia | Dallas | 1 | All Maps","name_short":"dal-1","host":"dal-1.us.uncletopia.com","port":27015,"enabled":true,"region":"us-central","cc":"us","latitude":32.779167,"longitude":-96.80889,"reserved":0,"last_update":"0001-01-01T00:00:00Z","name_a2s":"Uncletopia | Dallas | 1 | All Maps","protocol":17,"map":"pl_frontier_final","folder":"tf","game":"Team Fortress","app_id":440,"player_count":24,"max_players":24,"Bots":0,"server_type":"Dedicated","server_os":"Linux","password":true,"vac":true,"version":"7708610","steam_id":85568392924469986,"keywords":["nocrits","nodmgspread","payload","uncletopia"],"game_id":440,"stv_port":27016,"stv_name":"Uncletopia | Dallas | 1 | All Maps | STV","players":[{"user_id":281,"name":"Harold","steam_id":76561198057317770,"connected_time":4010000000000,"state":"active","ping":75},{"user_id":317,"name":"Katzenwerfer","steam_id":76561198345464748,"connected_time":1170000000000,"state":"active","ping":83},{"user_id":315,"name":"Gugomo","steam_id":76561198121428316,"connected_time":1299000000000,"state":"active","ping":62},{"user_id":308,"name":"Loashes","steam_id":76561198119608299,"connected_time":1794000000000,"state":"active","ping":69},{"user_id":307,"name":"I'm Only 4 Inches","steam_id":76561198055542546,"connected_time":1994000000000,"state":"active","ping":68},{"user_id":296,"name":"Artistic","steam_id":76561198118159566,"connected_time":2864000000000,"state":"active","ping":73},{"user_id":219,"name":"Berry Festive Vlad","steam_id":76561198149616270,"connected_time":8022000000000,"state":"active","ping":77},{"user_id":293,"name":"BrendenMad","steam_id":76561198031250581,"connected_time":2961000000000,"state":"active","ping":65},{"user_id":267,"name":"Marzbee115","steam_id":76561198095821025,"connected_time":4740000000000,"state":"active","ping":70},{"user_id":280,"name":"Sh3ba Spaniel","steam_id":76561198047412394,"connected_time":4020000000000,"state":"active","ping":80},{"user_id":282,"name":"Lord Vile the Impaler","steam_id":76561198040425096,"connected_time":3939000000000,"state":"active","ping":63},{"user_id":316,"name":"sparkle on!","steam_id":76561198984612489,"connected_time":1298000000000,"state":"active","ping":84},{"user_id":256,"name":"XX_gamer2001_XxX","steam_id":76561198105405869,"connected_time":5505000000000,"state":"active","ping":61},{"user_id":294,"name":"mr ploobmeister","steam_id":76561198128908529,"connected_time":2910000000000,"state":"active","ping":56},{"user_id":289,"name":"Dr. Bonair","steam_id":76561198129237487,"connected_time":3658000000000,"state":"active","ping":61},{"user_id":312,"name":"Blink","steam_id":76561197986181277,"connected_time":1383000000000,"state":"active","ping":59},{"user_id":305,"name":"MistakesWereMade","steam_id":76561199059220481,"connected_time":2115000000000,"state":"active","ping":89},{"user_id":318,"name":"Ace","steam_id":76561199202306398,"connected_time":455000000000,"state":"active","ping":39},{"user_id":286,"name":"_Lusty_","steam_id":76561198876948142,"connected_time":3861000000000,"state":"active","ping":63},{"user_id":302,"name":"Moonadoo","steam_id":76561198133377546,"connected_time":2177000000000,"state":"active","ping":86},{"user_id":314,"name":"Σολαρ","steam_id":76561198046964942,"connected_time":1311000000000,"state":"active","ping":65},{"user_id":320,"name":"Joker Joestar","steam_id":76561198115696839,"connected_time":198000000000,"state":"active","ping":79},{"user_id":288,"name":"ChefMike","steam_id":76561198414034069,"connected_time":3809000000000,"state":"active","ping":79}]},{"server_id":108,"name":"Uncletopia | Dallas | 2 | All Maps","name_short":"dal-2","host":"dal-1.us.uncletopia.com","port":27025,"enabled":true,"region":"us-central","cc":"us","latitude":32.779167,"longitude":-96.80889,"reserved":0,"last_update":"0001-01-01T00:00:00Z","name_a2s":"Uncletopia | Dallas | 2 | All Maps","protocol":17,"map":"cp_mossrock","folder":"tf","game":"Team Fortress","app_id":440,"player_count":20,"max_players":24,"Bots":0,"server_type":"Dedicated","server_os":"Linux","password":true,"vac":true,"version":"7708610","steam_id":85568392924469988,"keywords":["cp","nocrits","nodmgspread","uncletopia"],"game_id":440,"stv_port":27026,"stv_name":"Uncletopia | Dallas | 2 | All Maps | STV","players":[{"user_id":296,"name":"hazes","steam_id":76561199349543654,"connected_time":106000000000,"state":"active","ping":83},{"user_id":290,"name":"SGT Disoriented","steam_id":76561198058177958,"connected_time":172000000000,"state":"active","ping":53},{"user_id":292,"name":"Elizabeth truss","steam_id":76561198058250979,"connected_time":138000000000,"state":"active","ping":73},{"user_id":280,"name":"ArnoldGaming","steam_id":76561198040140247,"connected_time":1248000000000,"state":"active","ping":105},{"user_id":291,"name":"Ratchems","steam_id":76561198109231969,"connected_time":157000000000,"state":"active","ping":87},{"user_id":293,"name":"skaj","steam_id":76561198082278586,"connected_time":124000000000,"state":"active","ping":73},{"user_id":228,"name":"paypur -rng","steam_id":76561198214370515,"connected_time":5055000000000,"state":"active","ping":70},{"user_id":294,"name":"GabetIV femboy","steam_id":76561198145700338,"connected_time":118000000000,"state":"active","ping":45},{"user_id":295,"name":"Shmish","steam_id":76561198107565578,"connected_time":115000000000,"state":"active","ping":51},{"user_id":289,"name":"autumn","steam_id":76561198036901822,"connected_time":408000000000,"state":"active","ping":48},{"user_id":284,"name":"tim E","steam_id":76561198401800919,"connected_time":740000000000,"state":"active","ping":128},{"user_id":235,"name":"Yukon Cornelius","steam_id":76561198261512781,"connected_time":4227000000000,"state":"active","ping":60},{"user_id":297,"name":"セイバー","steam_id":76561198169223408,"connected_time":89000000000,"state":"active","ping":63},{"user_id":268,"name":"Grandpa 1MinecraftEmpire","steam_id":76561198069046338,"connected_time":1602000000000,"state":"active","ping":112},{"user_id":298,"name":"Dad 2","steam_id":76561198138546187,"connected_time":64000000000,"state":"active","ping":79},{"user_id":299,"name":"Auto","steam_id":76561198086430895,"connected_time":61000000000,"state":"active","ping":45},{"user_id":300,"name":"porz","steam_id":76561198195711453,"connected_time":14000000000,"state":"spawning","ping":59},{"user_id":277,"name":"Master Of Whales","steam_id":76561198349104889,"connected_time":1338000000000,"state":"active","ping":77},{"user_id":265,"name":"Quietsharp","steam_id":76561198277968438,"connected_time":1795000000000,"state":"active","ping":79},{"user_id":216,"name":"Goofy Goober","steam_id":76561198128299594,"connected_time":5933000000000,"state":"active","ping":98}]},{"server_id":5,"name":"Uncletopia | Frankfurt | 1 | All Maps","name_short":"frk-1","host":"frk-1.de.uncletopia.com","port":27015,"enabled":true,"region":"eu","cc":"de","latitude":50.110924,"longitude":8.682127,"reserved":0,"last_update":"0001-01-01T00:00:00Z","name_a2s":"Uncletopia | Frankfurt | 1 | All Maps","protocol":17,"map":"koth_cascade","folder":"tf","game":"Team Fortress","app_id":440,"player_count":0,"max_players":24,"Bots":0,"server_type":"Dedicated","server_os":"Linux","password":true,"vac":true,"version":"7708610","steam_id":85568392924469989,"keywords":["cp","nocrits","nodmgspread","uncletopia"],"game_id":440,"stv_port":27016,"stv_name":"Uncletopia | Frankfurt | 1 | All Maps | STV","players":null},{"server_id":110,"name":"Uncletopia | Frankfurt | 2 | All Maps","name_short":"frk-2","host":"frk-1.de.uncletopia.com","port":27025,"enabled":true,"region":"eu","cc":"de","latitude":50.110924,"longitude":8.682127,"reserved":0,"last_update":"0001-01-01T00:00:00Z","name_a2s":"Uncletopia | Frankfurt | 2 | All Maps","protocol":17,"map":"pl_frontier_final","folder":"tf","game":"Team Fortress","app_id":440,"player_count":0,"max_players":24,"Bots":0,"server_type":"Dedicated","server_os":"Linux","password":true,"vac":true,"version":"7708610","steam_id":85568392924469990,"keywords":["nocrits","nodmgspread","payload","uncletopia"],"game_id":440,"stv_port":27026,"stv_name":"Uncletopia | Frankfurt | 2 | All Maps | STV","players":null},{"server_id":308,"name":"Uncletopia | Frankfurt | 3 | All Maps","name_short":"frk-3","host":"frk-1.de.uncletopia.com","port":27035,"enabled":true,"region":"eu","cc":"de","latitude":50.110924,"longitude":8.682127,"reserved":0,"last_update":"0001-01-01T00:00:00Z","name_a2s":"Uncletopia | Frankfurt | 3 | All Maps","protocol":17,"map":"cp_process_final","folder":"tf","game":"Team Fortress","app_id":440,"player_count":0,"max_players":24,"Bots":0,"server_type":"Dedicated","server_os":"Linux","password":true,"vac":true,"version":"7708610","steam_id":85568392924504274,"keywords":["cp","nocrits","nodmgspread","uncletopia"],"game_id":440,"stv_port":27036,"stv_name":"Uncletopia | Frankfurt | 3 | All Maps | STV","players":null},{"server_id":309,"name":"Uncletopia | Frankfurt | 4 | All Maps","name_short":"frk-4","host":"frk-1.de.uncletopia.com","port":27045,"enabled":true,"region":"eu","cc":"de","latitude":50.110924,"longitude":8.682127,"reserved":0,"last_update":"0001-01-01T00:00:00Z","name_a2s":"Uncletopia | Frankfurt | 4 | All Maps","protocol":17,"map":"pl_upward","folder":"tf","game":"Team Fortress","app_id":440,"player_count":0,"max_players":24,"Bots":0,"server_type":"Dedicated","server_os":"Linux","password":true,"vac":true,"version":"7708610","steam_id":85568392924504275,"keywords":["nocrits","nodmgspread","payload","uncletopia"],"game_id":440,"stv_port":27046,"stv_name":"Uncletopia | Frankfurt | 4 | All Maps | STV","players":null},{"server_id":310,"name":"Uncletopia | Frankfurt | 5 | All Maps","name_short":"frk-5","host":"frk-1.de.uncletopia.com","port":27055,"enabled":true,"region":"eu","cc":"de","latitude":50.110924,"longitude":8.682127,"reserved":0,"last_update":"0001-01-01T00:00:00Z","name_a2s":"Uncletopia | Frankfurt | 5 | All Maps","protocol":17,"map":"cp_sunshine","folder":"tf","game":"Team Fortress","app_id":440,"player_count":0,"max_players":24,"Bots":0,"server_type":"Dedicated","server_os":"Linux","password":true,"vac":true,"version":"7708610","steam_id":85568392924504277,"keywords":["cp","nocrits","nodmgspread","uncletopia"],"game_id":440,"stv_port":27056,"stv_name":"Uncletopia | Frankfurt | 5 | All Maps | STV","players":null},{"server_id":311,"name":"Uncletopia | Frankfurt | 6 | All Maps","name_short":"frk-6","host":"frk-1.de.uncletopia.com","port":27065,"enabled":true,"region":"eu","cc":"de","latitude":50.110924,"longitude":8.682127,"reserved":0,"last_update":"0001-01-01T00:00:00Z","name_a2s":"Uncletopia | Frankfurt | 6 | All Maps","protocol":17,"map":"pl_frontier_final","folder":"tf","game":"Team Fortress","app_id":440,"player_count":0,"max_players":24,"Bots":0,"server_type":"Dedicated","server_os":"Linux","password":true,"vac":true,"version":"7708610","steam_id":85568392924504278,"keywords":["nocrits","nodmgspread","payload","uncletopia"],"game_id":440,"stv_port":27066,"stv_name":"Uncletopia | Frankfurt | 6 | All Maps | STV","players":null},{"server_id":23,"name":"Uncletopia | Frankfurt | 7 | No Payload","name_short":"frk-7","host":"frk-1.de.uncletopia.com","port":27075,"enabled":true,"region":"eu","cc":"de","latitude":50.110924,"longitude":8.682127,"reserved":0,"last_update":"0001-01-01T00:00:00Z","name_a2s":"Uncletopia | Frankfurt | 7 | No Payload","protocol":17,"map":"koth_viaduct","folder":"tf","game":"Team Fortress","app_id":440,"player_count":0,"max_players":24,"Bots":0,"server_type":"Dedicated","server_os":"Linux","password":true,"vac":true,"version":"7708610","steam_id":85568392924742827,"keywords":["cp","nocrits","nodmgspread","uncletopia"],"game_id":440,"stv_port":27076,"stv_name":"Uncletopia | Frankfurt | 7 | No Payload | STV","players":null},{"server_id":24,"name":"Uncletopia | Frankfurt | 8 | Community","name_short":"frk-8","host":"frk-1.de.uncletopia.com","port":27085,"enabled":true,"region":"eu","cc":"de","latitude":50.110924,"longitude":8.682127,"reserved":0,"last_update":"0001-01-01T00:00:00Z","name_a2s":"Uncletopia | Frankfurt | 8 | Community","protocol":17,"map":"pl_borneo","folder":"tf","game":"Team Fortress","app_id":440,"player_count":0,"max_players":24,"Bots":0,"server_type":"Dedicated","server_os":"Linux","password":true,"vac":true,"version":"7708610","steam_id":85568392924742828,"keywords":["nocrits","nodmgspread","payload","uncletopia"],"game_id":440,"stv_port":27086,"stv_name":"Uncletopia | Frankfurt | 8 | Community | STV","players":null},{"server_id":202,"name":"Uncletopia | Hong Kong | 1 | All Maps","name_short":"hgk-1","host":"hgk-1.hk.uncletopia.com","port":27015,"enabled":true,"region":"asia","cc":"hk","latitude":22.302711,"longitude":114.177216,"reserved":0,"last_update":"0001-01-01T00:00:00Z","name_a2s":"Uncletopia | Hong Kong | 1 | All Maps","protocol":17,"map":"pl_swiftwater_final1","folder":"tf","game":"Team Fortress","app_id":440,"player_count":18,"max_players":24,"Bots":0,"server_type":"Dedicated","server_os":"Linux","password":true,"vac":true,"version":"7708610","steam_id":85568392924494504,"keywords":["nocrits","nodmgspread","payload","uncletopia"],"game_id":440,"stv_port":27016,"stv_name":"Uncletopia | Hong Kong | 1 | All Maps | STV","players":[{"user_id":134,"name":"Nevergonnagiveyouup","steam_id":76561199366985069,"connected_time":398000000000,"state":"active","ping":56},{"user_id":128,"name":"Lu","steam_id":76561198320532821,"connected_time":916000000000,"state":"active","ping":70},{"user_id":135,"name":"the big guy","steam_id":76561198412329672,"connected_time":382000000000,"state":"active","ping":83},{"user_id":142,"name":"juiceword999","steam_id":76561199010058387,"connected_time":50000000000,"state":"active","ping":77},{"user_id":129,"name":"tiden2000","steam_id":76561198092969425,"connected_time":870000000000,"state":"active","ping":72},{"user_id":94,"name":"Lir","steam_id":76561198980563251,"connected_time":3540000000000,"state":"active","ping":81},{"user_id":98,"name":"Dane (but sad)","steam_id":76561199158060229,"connected_time":3264000000000,"state":"active","ping":57},{"user_id":136,"name":"calander","steam_id":76561199147054833,"connected_time":311000000000,"state":"active","ping":99},{"user_id":137,"name":"monkeyman536","steam_id":76561197997717737,"connected_time":247000000000,"state":"active","ping":120},{"user_id":122,"name":"17","steam_id":76561198241530712,"connected_time":1422000000000,"state":"active","ping":53},{"user_id":121,"name":"NeutralSkeptic","steam_id":76561199277426176,"connected_time":1490000000000,"state":"active","ping":97},{"user_id":143,"name":"killman47","steam_id":76561198348487408,"connected_time":0,"state":"spawning","ping":21},{"user_id":139,"name":"User#80085","steam_id":76561198831043368,"connected_time":224000000000,"state":"active","ping":69},{"user_id":113,"name":"fuck it we balls","steam_id":76561199086487373,"connected_time":1747000000000,"state":"active","ping":69},{"user_id":111,"name":"Windmill","steam_id":76561199230997986,"connected_time":1865000000000,"state":"active","ping":76},{"user_id":110,"name":"RandomGuy1085","steam_id":76561199053910995,"connected_time":1905000000000,"state":"active","ping":88},{"user_id":124,"name":"Crippling Depression","steam_id":76561199198723894,"connected_time":1352000000000,"state":"active","ping":91},{"user_id":133,"name":"ZeniaPY (Playing on Wacom)","steam_id":76561198404352831,"connected_time":591000000000,"state":"active","ping":75}]},{"server_id":1,"name":"Uncletopia | Los Angeles | 1 | All Maps","name_short":"lax-1","host":"lax-1.us.uncletopia.com","port":27015,"enabled":true,"region":"us-west","cc":"us","latitude":33.94279,"longitude":-118.41004,"reserved":0,"last_update":"0001-01-01T00:00:00Z","name_a2s":"Uncletopia | Los Angeles | 1 | All Maps","protocol":17,"map":"pl_borneo","folder":"tf","game":"Team Fortress","app_id":440,"player_count":0,"max_players":24,"Bots":0,"server_type":"Dedicated","server_os":"Linux","password":true,"vac":true,"version":"7708610","steam_id":85568392924469991,"keywords":["nocrits","nodmgspread","payload","uncletopia"],"game_id":440,"stv_port":27016,"stv_name":"Uncletopia | Los Angeles | 1 | All Maps | STV","players":null},{"server_id":112,"name":"Uncletopia | Los Angeles | 2 | All Maps","name_short":"lax-2","host":"lax-1.us.uncletopia.com","port":27025,"enabled":true,"region":"us-west","cc":"us","latitude":33.94279,"longitude":-118.41004,"reserved":0,"last_update":"0001-01-01T00:00:00Z","name_a2s":"Uncletopia | Los Angeles | 2 | All Maps","protocol":17,"map":"koth_viaduct","folder":"tf","game":"Team Fortress","app_id":440,"player_count":0,"max_players":24,"Bots":0,"server_type":"Dedicated","server_os":"Linux","password":true,"vac":true,"version":"7708610","steam_id":85568392924469992,"keywords":["cp","nocrits","nodmgspread","uncletopia"],"game_id":440,"stv_port":27026,"stv_name":"Uncletopia | Los Angeles | 2 | All Maps | STV","players":null},{"server_id":324,"name":"Uncletopia | Los Angeles | 3 | All Maps","name_short":"lax-3","host":"lax-1.us.uncletopia.com","port":27035,"enabled":true,"region":"us-west","cc":"us","latitude":33.94279,"longitude":-118.41004,"reserved":0,"last_update":"0001-01-01T00:00:00Z","name_a2s":"Uncletopia | Los Angeles | 3 | All Maps","protocol":17,"map":"pl_swiftwater_final1","folder":"tf","game":"Team Fortress","app_id":440,"player_count":24,"max_players":24,"Bots":0,"server_type":"Dedicated","server_os":"Linux","password":true,"vac":true,"version":"7708610","steam_id":85568392924510198,"keywords":["nocrits","nodmgspread","payload","uncletopia"],"game_id":440,"stv_port":27036,"stv_name":"Uncletopia | Los Angeles | 3 | All Maps | STV","players":[{"user_id":352,"name":"TeriyakiDynamite","steam_id":76561198050049346,"connected_time":1017000000000,"state":"active","ping":62},{"user_id":350,"name":"Shank","steam_id":76561198061274150,"connected_time":1045000000000,"state":"active","ping":54},{"user_id":306,"name":"A Can of Arizona Green Tea","steam_id":76561198062481133,"connected_time":4509000000000,"state":"active","ping":77},{"user_id":331,"name":"Rx Auntie","steam_id":76561198051618393,"connected_time":2651000000000,"state":"active","ping":58},{"user_id":316,"name":"Jacasola","steam_id":76561198055460402,"connected_time":3322000000000,"state":"active","ping":58},{"user_id":339,"name":"uskthedwarf","steam_id":76561199076096095,"connected_time":2486000000000,"state":"active","ping":88},{"user_id":334,"name":"c0wmanglr","steam_id":76561198025342064,"connected_time":2594000000000,"state":"active","ping":50},{"user_id":289,"name":"[K.Y.L.L.]Lyka","steam_id":76561198027321950,"connected_time":5740000000000,"state":"active","ping":72},{"user_id":347,"name":"gateron red","steam_id":76561198178228075,"connected_time":1498000000000,"state":"active","ping":46},{"user_id":335,"name":"For Whom The Taco Bell Tolls","steam_id":76561198418288939,"connected_time":2593000000000,"state":"active","ping":59},{"user_id":317,"name":"whale","steam_id":76561198094043919,"connected_time":3316000000000,"state":"active","ping":95},{"user_id":310,"name":"Ace Chromatica","steam_id":76561198042211131,"connected_time":4266000000000,"state":"active","ping":109},{"user_id":318,"name":"Spicy","steam_id":76561198811513755,"connected_time":3308000000000,"state":"active","ping":88},{"user_id":357,"name":"Altruisticailuridae","steam_id":76561198335295596,"connected_time":368000000000,"state":"active","ping":53},{"user_id":312,"name":"Be Gay, Do Crimes, Smoke Weed!","steam_id":76561198092419868,"connected_time":3580000000000,"state":"active","ping":70},{"user_id":324,"name":"The Foolish Samurai","steam_id":76561198094494945,"connected_time":2923000000000,"state":"active","ping":73},{"user_id":355,"name":"ninja forniye","steam_id":76561199107756170,"connected_time":692000000000,"state":"active","ping":54},{"user_id":345,"name":"FatCuddlyBear","steam_id":76561198133613253,"connected_time":2040000000000,"state":"active","ping":105},{"user_id":353,"name":"oph","steam_id":76561198342480009,"connected_time":867000000000,"state":"active","ping":48},{"user_id":351,"name":"Mr. Yoshida","steam_id":76561198263829831,"connected_time":1044000000000,"state":"active","ping":68},{"user_id":325,"name":"Cactus™ ♥","steam_id":76561198036441270,"connected_time":2921000000000,"state":"active","ping":84},{"user_id":359,"name":"Phlogging Solly","steam_id":76561198020580071,"connected_time":262000000000,"state":"active","ping":39},{"user_id":354,"name":"bitmappu","steam_id":76561199000786530,"connected_time":809000000000,"state":"active","ping":83},{"user_id":275,"name":"Super Mighty G","steam_id":76561198020932806,"connected_time":7418000000000,"state":"active","ping":49}]},{"server_id":25,"name":"Uncletopia | Los Angeles | 4 | No Payload","name_short":"lax-4","host":"lax-1.us.uncletopia.com","port":27045,"enabled":true,"region":"us-west","cc":"us","latitude":33.94279,"longitude":-118.41004,"reserved":0,"last_update":"0001-01-01T00:00:00Z","name_a2s":"Uncletopia | Los Angeles | 4 | No Payload","protocol":17,"map":"cp_coldfront","folder":"tf","game":"Team Fortress","app_id":440,"player_count":0,"max_players":24,"Bots":0,"server_type":"Dedicated","server_os":"Linux","password":true,"vac":true,"version":"7708610","steam_id":85568392924510199,"keywords":["cp","nocrits","nodmgspread","uncletopia"],"game_id":440,"stv_port":27046,"stv_name":"Uncletopia | Los Angeles | 4 | No Payload | STV","players":null},{"server_id":11,"name":"Uncletopia | London | 1 | All Maps","name_short":"lon-1","host":"lon-1.uk.uncletopia.com","port":27015,"enabled":true,"region":"eu","cc":"gb","latitude":51.509865,"longitude":-0.118092,"reserved":0,"last_update":"0001-01-01T00:00:00Z","name_a2s":"Uncletopia | London | 1 | All Maps","protocol":17,"map":"koth_viaduct","folder":"tf","game":"Team Fortress","app_id":440,"player_count":0,"max_players":24,"Bots":0,"server_type":"Dedicated","server_os":"Linux","password":true,"vac":true,"version":"7708610","steam_id":85568392924367362,"keywords":["cp","nocrits","nodmgspread","uncletopia"],"game_id":440,"stv_port":27016,"stv_name":"Uncletopia | London | 1 | All Maps | STV","players":null},{"server_id":114,"name":"Uncletopia | London | 2 | All Maps","name_short":"lon-2","host":"lon-1.uk.uncletopia.com","port":27025,"enabled":true,"region":"eu","cc":"gb","latitude":51.509865,"longitude":-0.118092,"reserved":0,"last_update":"0001-01-01T00:00:00Z","name_a2s":"Uncletopia | London | 2 | All Maps","protocol":17,"map":"cp_process_final","folder":"tf","game":"Team Fortress","app_id":440,"player_count":0,"max_players":24,"Bots":0,"server_type":"Dedicated","server_os":"Linux","password":true,"vac":true,"version":"7708610","steam_id":85568392924470941,"keywords":["cp","nocrits","nodmgspread","uncletopia"],"game_id":440,"stv_port":27026,"stv_name":"Uncletopia | London | 2 | All Maps | STV","players":null},{"server_id":320,"name":"Uncletopia | London | 3 | All Maps","name_short":"lon-3","host":"lon-1.uk.uncletopia.com","port":27035,"enabled":true,"region":"eu","cc":"gb","latitude":51.509865,"longitude":-0.118092,"reserved":0,"last_update":"0001-01-01T00:00:00Z","name_a2s":"Uncletopia | London | 3 | All Maps","protocol":17,"map":"koth_cascade","folder":"tf","game":"Team Fortress","app_id":440,"player_count":0,"max_players":24,"Bots":0,"server_type":"Dedicated","server_os":"Linux","password":true,"vac":true,"version":"7708610","steam_id":85568392924510192,"keywords":["cp","nocrits","nodmgspread","uncletopia"],"game_id":440,"stv_port":27036,"stv_name":"Uncletopia | London | 3 | All Maps | STV","players":null},{"server_id":321,"name":"Uncletopia | London | 4 | All Maps","name_short":"lon-4","host":"lon-1.uk.uncletopia.com","port":27045,"enabled":true,"region":"eu","cc":"gb","latitude":51.509865,"longitude":-0.118092,"reserved":0,"last_update":"0001-01-01T00:00:00Z","name_a2s":"Uncletopia | London | 4 | All Maps","protocol":17,"map":"pl_upward","folder":"tf","game":"Team Fortress","app_id":440,"player_count":0,"max_players":24,"Bots":0,"server_type":"Dedicated","server_os":"Linux","password":true,"vac":true,"version":"7708610","steam_id":85568392924510193,"keywords":["nocrits","nodmgspread","payload","uncletopia"],"game_id":440,"stv_port":27046,"stv_name":"Uncletopia | London | 4 | All Maps | STV","players":null},{"server_id":21,"name":"Uncletopia | London | 5 | All Maps","name_short":"lon-5","host":"lon-1.uk.uncletopia.com","port":27055,"enabled":true,"region":"eu","cc":"gb","latitude":51.509865,"longitude":-0.118092,"reserved":0,"last_update":"0001-01-01T00:00:00Z","name_a2s":"Uncletopia | London | 5 | All Maps","protocol":17,"map":"cp_sunshine","folder":"tf","game":"Team Fortress","app_id":440,"player_count":0,"max_players":24,"Bots":0,"server_type":"Dedicated","server_os":"Linux","password":true,"vac":true,"version":"7708610","steam_id":85568392924742829,"keywords":["cp","nocrits","nodmgspread","uncletopia"],"game_id":440,"stv_port":27056,"stv_name":"Uncletopia | London | 5 | All Maps | STV","players":null},{"server_id":22,"name":"Uncletopia | London | 6 | All Maps","name_short":"lon-6","host":"lon-1.uk.uncletopia.com","port":27065,"enabled":true,"region":"eu","cc":"gb","latitude":51.509865,"longitude":-0.118092,"reserved":0,"last_update":"0001-01-01T00:00:00Z","name_a2s":"Uncletopia | London | 6 | All Maps","protocol":17,"map":"pl_pier","folder":"tf","game":"Team Fortress","app_id":440,"player_count":0,"max_players":24,"Bots":0,"server_type":"Dedicated","server_os":"Linux","password":true,"vac":true,"version":"7708610","steam_id":85568392924742830,"keywords":["nocrits","nodmgspread","payload","uncletopia"],"game_id":440,"stv_port":27066,"stv_name":"Uncletopia | London | 6 | All Maps | STV","players":null},{"server_id":40,"name":"Uncletopia | London | 7 | No Payload","name_short":"lon-7","host":"lon-1.uk.uncletopia.com","port":27075,"enabled":true,"region":"eu","cc":"gb","latitude":51.509865,"longitude":-0.118092,"reserved":0,"last_update":"0001-01-01T00:00:00Z","name_a2s":"Uncletopia | London | 7 | No Payload","protocol":17,"map":"pl_barnblitz","folder":"tf","game":"Team Fortress","app_id":440,"player_count":0,"max_players":24,"Bots":0,"server_type":"Dedicated","server_os":"Linux","password":true,"vac":true,"version":"7708610","steam_id":85568392924964314,"keywords":["nocrits","nodmgspread","payload","uncletopia"],"game_id":440,"stv_port":27076,"stv_name":"Uncletopia | London | 7 | No Payload | STV","players":null},{"server_id":41,"name":"Uncletopia | London | 8 | Community","name_short":"lon-8","host":"lon-1.uk.uncletopia.com","port":27085,"enabled":true,"region":"eu","cc":"gb","latitude":51.509865,"longitude":-0.118092,"reserved":0,"last_update":"0001-01-01T00:00:00Z","name_a2s":"Uncletopia | London | 8 | Community","protocol":17,"map":"pl_pier","folder":"tf","game":"Team Fortress","app_id":440,"player_count":0,"max_players":24,"Bots":0,"server_type":"Dedicated","server_os":"Linux","password":true,"vac":true,"version":"7708610","steam_id":85568392924964315,"keywords":["nocrits","nodmgspread","payload","uncletopia"],"game_id":440,"stv_port":27086,"stv_name":"Uncletopia | London | 8 | Community | STV","players":null},{"server_id":300,"name":"Uncletopia | Montréal | 1 | All Maps","name_short":"mtl-1","host":"mtl-1.ca.uncletopia.com","port":27015,"enabled":true,"region":"us-east","cc":"ca","latitude":45.50889,"longitude":-73.56167,"reserved":0,"last_update":"0001-01-01T00:00:00Z","name_a2s":"Uncletopia | Montréal | 1 | All Maps","protocol":17,"map":"cp_dustbowl","folder":"tf","game":"Team Fortress","app_id":440,"player_count":0,"max_players":24,"Bots":0,"server_type":"Dedicated","server_os":"Linux","password":true,"vac":true,"version":"7708610","steam_id":85568392924500087,"keywords":["cp","nocrits","nodmgspread","uncletopia"],"game_id":440,"stv_port":27016,"stv_name":"Uncletopia | Montréal | 1 | All Maps | STV","players":null},{"server_id":301,"name":"Uncletopia | Montréal | 2 | All Maps","name_short":"mtl-2","host":"mtl-1.ca.uncletopia.com","port":27025,"enabled":true,"region":"us-east","cc":"ca","latitude":45.50889,"longitude":-73.56167,"reserved":0,"last_update":"0001-01-01T00:00:00Z","name_a2s":"Uncletopia | Montréal | 2 | All Maps","protocol":17,"map":"pl_swiftwater_final1","folder":"tf","game":"Team Fortress","app_id":440,"player_count":0,"max_players":24,"Bots":0,"server_type":"Dedicated","server_os":"Linux","password":true,"vac":true,"version":"7708610","steam_id":85568392924500088,"keywords":["nocrits","nodmgspread","payload","uncletopia"],"game_id":440,"stv_port":27026,"stv_name":"Uncletopia | Montréal | 2 | All Maps | STV","players":null},{"server_id":302,"name":"Uncletopia | Montréal | 3 | All Maps","name_short":"mtl-3","host":"mtl-1.ca.uncletopia.com","port":27035,"enabled":true,"region":"us-east","cc":"ca","latitude":45.50889,"longitude":-73.56167,"reserved":0,"last_update":"0001-01-01T00:00:00Z","name_a2s":"Uncletopia | Montréal | 3 | All Maps","protocol":17,"map":"cp_snakewater_final1","folder":"tf","game":"Team Fortress","app_id":440,"player_count":0,"max_players":24,"Bots":0,"server_type":"Dedicated","server_os":"Linux","password":true,"vac":true,"version":"7708610","steam_id":85568392924500089,"keywords":["cp","nocrits","nodmgspread","uncletopia"],"game_id":440,"stv_port":27036,"stv_name":"Uncletopia | Montréal | 3 | All Maps | STV","players":null},{"server_id":303,"name":"Uncletopia | Montréal | 4 | No Payload","name_short":"mtl-4","host":"mtl-1.ca.uncletopia.com","port":27045,"enabled":true,"region":"us-east","cc":"ca","latitude":45.50889,"longitude":-73.56167,"reserved":0,"last_update":"0001-01-01T00:00:00Z","name_a2s":"Uncletopia | Montréal | 4 | No Payload","protocol":17,"map":"cp_process_final","folder":"tf","game":"Team Fortress","app_id":440,"player_count":0,"max_players":24,"Bots":0,"server_type":"Dedicated","server_os":"Linux","password":true,"vac":true,"version":"7708610","steam_id":85568392924500090,"keywords":["cp","nocrits","nodmgspread","uncletopia"],"game_id":440,"stv_port":27046,"stv_name":"Uncletopia | Montréal | 4 | No Payload | STV","players":null},{"server_id":13,"name":"Uncletopia | New York City | 1 | All Maps","name_short":"nyc-1","host":"nyc-1.us.uncletopia.com","port":27015,"enabled":true,"region":"us-east","cc":"us","latitude":40.73061,"longitude":-73.93524,"reserved":0,"last_update":"0001-01-01T00:00:00Z","name_a2s":"Uncletopia | New York City | 1 | All Maps","protocol":17,"map":"cp_process_final","folder":"tf","game":"Team Fortress","app_id":440,"player_count":0,"max_players":24,"Bots":0,"server_type":"Dedicated","server_os":"Linux","password":true,"vac":true,"version":"7708610","steam_id":85568392924469993,"keywords":["cp","nocrits","nodmgspread","uncletopia"],"game_id":440,"stv_port":27016,"stv_name":"Uncletopia | New York City | 1 | All Maps | STV","players":null},{"server_id":14,"name":"Uncletopia | New York City | 2 | All Maps","name_short":"nyc-2","host":"nyc-1.us.uncletopia.com","port":27025,"enabled":true,"region":"us-east","cc":"us","latitude":40.73061,"longitude":-73.93524,"reserved":0,"last_update":"0001-01-01T00:00:00Z","name_a2s":"Uncletopia | New York City | 2 | All Maps","protocol":17,"map":"pl_snowycoast","folder":"tf","game":"Team Fortress","app_id":440,"player_count":24,"max_players":24,"Bots":0,"server_type":"Dedicated","server_os":"Linux","password":true,"vac":true,"version":"7708610","steam_id":85568392924469994,"keywords":["nocrits","nodmgspread","payload","uncletopia"],"game_id":440,"stv_port":27026,"stv_name":"Uncletopia | New York City | 2 | All Maps | STV","players":[{"user_id":106,"name":"Aristotle Voulton","steam_id":76561198100174923,"connected_time":886000000000,"state":"active","ping":77},{"user_id":105,"name":"monkey","steam_id":76561198099481645,"connected_time":896000000000,"state":"active","ping":30},{"user_id":107,"name":"Flicky","steam_id":76561198012811546,"connected_time":874000000000,"state":"active","ping":61},{"user_id":113,"name":"Quansen","steam_id":76561198151594550,"connected_time":661000000000,"state":"active","ping":66},{"user_id":114,"name":"Andrew","steam_id":76561198070615190,"connected_time":597000000000,"state":"active","ping":77},{"user_id":101,"name":"Somebody","steam_id":76561198146535845,"connected_time":1427000000000,"state":"active","ping":136},{"user_id":87,"name":"Croissant Guy","steam_id":76561198077719901,"connected_time":2391000000000,"state":"active","ping":54},{"user_id":36,"name":"Anyar","steam_id":76561198160174097,"connected_time":6760000000000,"state":"active","ping":80},{"user_id":37,"name":"MiddleC","steam_id":76561198170332855,"connected_time":6717000000000,"state":"active","ping":81},{"user_id":104,"name":"the biggest bird","steam_id":76561198026393621,"connected_time":919000000000,"state":"active","ping":71},{"user_id":77,"name":"tac","steam_id":76561198155113345,"connected_time":2966000000000,"state":"active","ping":75},{"user_id":111,"name":"Testimony","steam_id":76561198151363063,"connected_time":767000000000,"state":"active","ping":83},{"user_id":41,"name":"the real babytron","steam_id":76561197989627918,"connected_time":6566000000000,"state":"active","ping":74},{"user_id":67,"name":"Piyono","steam_id":76561197962188504,"connected_time":3714000000000,"state":"active","ping":68},{"user_id":93,"name":"DankCatMemes","steam_id":76561198067385830,"connected_time":1757000000000,"state":"active","ping":67},{"user_id":100,"name":"alec","steam_id":76561198106522197,"connected_time":1491000000000,"state":"active","ping":78},{"user_id":112,"name":"UNFOLDABLE","steam_id":76561198129364607,"connected_time":756000000000,"state":"active","ping":80},{"user_id":66,"name":"Fudge_Cake","steam_id":76561198059218167,"connected_time":3722000000000,"state":"active","ping":78},{"user_id":102,"name":"The Rambler","steam_id":76561198109648603,"connected_time":1303000000000,"state":"active","ping":94},{"user_id":97,"name":"Lucretiel","steam_id":76561197983490423,"connected_time":1612000000000,"state":"active","ping":53},{"user_id":84,"name":"Greg | trade.tf","steam_id":76561198111875038,"connected_time":2571000000000,"state":"active","ping":110},{"user_id":99,"name":"Nassu","steam_id":76561198147367577,"connected_time":1520000000000,"state":"active","ping":85},{"user_id":115,"name":"post traumatic swag disorder","steam_id":76561198093105234,"connected_time":583000000000,"state":"active","ping":126},{"user_id":90,"name":"Gigabars","steam_id":76561198119267479,"connected_time":1920000000000,"state":"active","ping":81}]},{"server_id":15,"name":"Uncletopia | New York City | 3 | All Maps","name_short":"nyc-3","host":"nyc-1.us.uncletopia.com","port":27035,"enabled":true,"region":"us-east","cc":"us","latitude":40.73061,"longitude":-73.93524,"reserved":0,"last_update":"0001-01-01T00:00:00Z","name_a2s":"Uncletopia | New York City | 3 | All Maps","protocol":17,"map":"pl_barnblitz","folder":"tf","game":"Team Fortress","app_id":440,"player_count":24,"max_players":24,"Bots":0,"server_type":"Dedicated","server_os":"Linux","password":true,"vac":true,"version":"7708610","steam_id":85568392924742820,"keywords":["nocrits","nodmgspread","payload","uncletopia"],"game_id":440,"stv_port":27036,"stv_name":"Uncletopia | New York City | 3 | All Maps | STV","players":[{"user_id":252,"name":"Bee_Pirate","steam_id":76561199000599111,"connected_time":5898000000000,"state":"active","ping":62},{"user_id":311,"name":"McNamJam","steam_id":76561198028128686,"connected_time":1151000000000,"state":"active","ping":117},{"user_id":321,"name":"Koloco","steam_id":76561199022194660,"connected_time":290000000000,"state":"active","ping":108},{"user_id":292,"name":"TommySalami69","steam_id":76561198180275926,"connected_time":3048000000000,"state":"active","ping":94},{"user_id":228,"name":"LalitoTV","steam_id":76561198334302951,"connected_time":7608000000000,"state":"active","ping":148},{"user_id":323,"name":"MontellWilliams","steam_id":76561198172143015,"connected_time":217000000000,"state":"active","ping":64},{"user_id":294,"name":"stenev","steam_id":76561198877081179,"connected_time":3013000000000,"state":"active","ping":70},{"user_id":312,"name":"ZenkoZSprite","steam_id":76561198190132250,"connected_time":1109000000000,"state":"active","ping":68},{"user_id":305,"name":"The Engie","steam_id":76561198049418537,"connected_time":1232000000000,"state":"active","ping":88},{"user_id":326,"name":"Wildmoo","steam_id":76561198074478554,"connected_time":22000000000,"state":"active","ping":63},{"user_id":297,"name":"Minion Bob","steam_id":76561198023938170,"connected_time":2853000000000,"state":"active","ping":111},{"user_id":313,"name":"Fish Fisherman","steam_id":76561198018656022,"connected_time":1092000000000,"state":"active","ping":59},{"user_id":277,"name":"AceDeuce","steam_id":76561198049904924,"connected_time":3888000000000,"state":"active","ping":71},{"user_id":308,"name":"Sableye","steam_id":76561198061247147,"connected_time":1193000000000,"state":"active","ping":77},{"user_id":324,"name":"xenolith","steam_id":76561198041496496,"connected_time":165000000000,"state":"active","ping":60},{"user_id":318,"name":"Allotrope","steam_id":76561197998450103,"connected_time":868000000000,"state":"active","ping":75},{"user_id":244,"name":"Wique","steam_id":76561198071217597,"connected_time":6918000000000,"state":"active","ping":63},{"user_id":319,"name":"elder lich joe biden","steam_id":76561198257134732,"connected_time":839000000000,"state":"active","ping":124},{"user_id":270,"name":"Zeemii","steam_id":76561198809299581,"connected_time":4745000000000,"state":"active","ping":48},{"user_id":320,"name":"-W3E- grim10465","steam_id":76561198045698581,"connected_time":838000000000,"state":"active","ping":45},{"user_id":303,"name":"_BOBE","steam_id":76561198004578255,"connected_time":2343000000000,"state":"active","ping":115},{"user_id":316,"name":"The Christmas Cretin","steam_id":76561198153295874,"connected_time":1027000000000,"state":"active","ping":125},{"user_id":310,"name":":]","steam_id":76561198018947778,"connected_time":1185000000000,"state":"active","ping":122}]},{"server_id":16,"name":"Uncletopia | New York City | 4 | Community","name_short":"nyc-4","host":"nyc-1.us.uncletopia.com","port":27045,"enabled":true,"region":"us-east","cc":"us","latitude":40.73061,"longitude":-73.93524,"reserved":0,"last_update":"0001-01-01T00:00:00Z","name_a2s":"Uncletopia | New York City | 4 | Community","protocol":17,"map":"workshop/koth_slaughter_rc1.ugc1712845210","folder":"tf","game":"Team Fortress","app_id":440,"player_count":0,"max_players":24,"Bots":0,"server_type":"Dedicated","server_os":"Linux","password":true,"vac":true,"version":"7708610","steam_id":85568392924742821,"keywords":["cp","nocrits","nodmgspread","uncletopia"],"game_id":440,"stv_port":27046,"stv_name":"Uncletopia | New York City | 4 | Community | STV","players":null},{"server_id":142,"name":"Uncletopia | São Paulo | 1 | All Maps","name_short":"sao-1","host":"sao-1.br.uncletopia.com","port":27015,"enabled":true,"region":"sa","cc":"br","latitude":-23.533773,"longitude":-46.62529,"reserved":0,"last_update":"0001-01-01T00:00:00Z","name_a2s":"Uncletopia | São Paulo | 1 | All Maps","protocol":17,"map":"koth_viaduct","folder":"tf","game":"Team Fortress","app_id":440,"player_count":0,"max_players":24,"Bots":0,"server_type":"Dedicated","server_os":"Linux","password":true,"vac":true,"version":"7708610","steam_id":85568392924469996,"keywords":["cp","nocrits","nodmgspread","uncletopia"],"game_id":440,"stv_port":27016,"stv_name":"Uncletopia | São Paulo | 1 | All Maps | STV","players":null},{"server_id":143,"name":"Uncletopia | São Paulo | 2 | All Maps","name_short":"sao-2","host":"sao-2.br.uncletopia.com","port":27015,"enabled":true,"region":"sa","cc":"br","latitude":-23.533773,"longitude":-46.62529,"reserved":0,"last_update":"0001-01-01T00:00:00Z","name_a2s":"Uncletopia | São Paulo | 2 | All Maps","protocol":17,"map":"koth_viaduct","folder":"tf","game":"Team Fortress","app_id":440,"player_count":0,"max_players":24,"Bots":0,"server_type":"Dedicated","server_os":"Linux","password":true,"vac":true,"version":"7708610","steam_id":85568392924485349,"keywords":["cp","nocrits","nodmgspread","uncletopia"],"game_id":440,"stv_port":27016,"stv_name":"Uncletopia | São Paulo | 2 | All Maps | STV","players":null},{"server_id":7,"name":"Uncletopia | Seattle | 1 | All Maps","name_short":"sea-1","host":"sea-1.us.uncletopia.com","port":27015,"enabled":true,"region":"us-west","cc":"us","latitude":47.608013,"longitude":-122.33517,"reserved":0,"last_update":"0001-01-01T00:00:00Z","name_a2s":"Uncletopia | Seattle | 1 | All Maps","protocol":17,"map":"koth_lakeside_final","folder":"tf","game":"Team Fortress","app_id":440,"player_count":24,"max_players":24,"Bots":0,"server_type":"Dedicated","server_os":"Linux","password":true,"vac":true,"version":"7708610","steam_id":85568392924469997,"keywords":["cp","nocrits","nodmgspread","uncletopia"],"game_id":440,"stv_port":27016,"stv_name":"Uncletopia | Seattle | 1 | All Maps | STV","players":[{"user_id":294,"name":"boxy443","steam_id":76561199386363103,"connected_time":2113000000000,"state":"active","ping":54},{"user_id":311,"name":"Level 99 Mudcrab","steam_id":76561198077452771,"connected_time":131000000000,"state":"active","ping":53},{"user_id":314,"name":"Noatok-","steam_id":76561198409476607,"connected_time":31000000000,"state":"active","ping":48},{"user_id":267,"name":"Jei","steam_id":76561198151596927,"connected_time":3869000000000,"state":"active","ping":106},{"user_id":315,"name":"Zechi","steam_id":76561199107303894,"connected_time":23000000000,"state":"active","ping":107},{"user_id":269,"name":"doomshroom","steam_id":76561198092827250,"connected_time":3862000000000,"state":"active","ping":53},{"user_id":312,"name":"Spare(8)Ball","steam_id":76561197982432995,"connected_time":98000000000,"state":"active","ping":67},{"user_id":304,"name":"TTV/That_Guy_Ky","steam_id":76561198825504559,"connected_time":387000000000,"state":"active","ping":57},{"user_id":305,"name":"help","steam_id":76561198171840525,"connected_time":381000000000,"state":"active","ping":60},{"user_id":299,"name":"mub","steam_id":76561197961943948,"connected_time":1374000000000,"state":"active","ping":42},{"user_id":283,"name":"Arsonist Goose","steam_id":76561198147441830,"connected_time":2927000000000,"state":"active","ping":73},{"user_id":286,"name":"CassandraRC7 (She/her)","steam_id":76561198094123940,"connected_time":2677000000000,"state":"active","ping":119},{"user_id":302,"name":"hoots","steam_id":76561198015609525,"connected_time":523000000000,"state":"active","ping":115},{"user_id":316,"name":"Brick4","steam_id":76561198122248795,"connected_time":2000000000,"state":"spawning","ping":55},{"user_id":301,"name":"squashbone","steam_id":76561197999466442,"connected_time":636000000000,"state":"active","ping":50},{"user_id":291,"name":"CodeZero","steam_id":76561198135272294,"connected_time":2584000000000,"state":"active","ping":106},{"user_id":216,"name":"Ayayahuasca","steam_id":76561199002906056,"connected_time":9367000000000,"state":"active","ping":57},{"user_id":289,"name":"Sharmat","steam_id":76561198103492042,"connected_time":2614000000000,"state":"active","ping":111},{"user_id":308,"name":"holymoly1645 TWITCH","steam_id":76561198079009899,"connected_time":346000000000,"state":"active","ping":73},{"user_id":309,"name":"Medic","steam_id":76561198067869016,"connected_time":343000000000,"state":"active","ping":75},{"user_id":199,"name":"rat gets the cheese","steam_id":76561198031234032,"connected_time":10736000000000,"state":"active","ping":102},{"user_id":300,"name":"Evanb","steam_id":76561198042057792,"connected_time":991000000000,"state":"active","ping":48},{"user_id":310,"name":"Phoenix","steam_id":76561197971265992,"connected_time":157000000000,"state":"active","ping":57},{"user_id":160,"name":"Korey","steam_id":76561198210734407,"connected_time":14899000000000,"state":"active","ping":110}]},{"server_id":119,"name":"Uncletopia | Seattle | 2 | All Maps","name_short":"sea-2","host":"sea-1.us.uncletopia.com","port":27025,"enabled":true,"region":"us-west","cc":"us","latitude":47.608013,"longitude":-122.33517,"reserved":0,"last_update":"0001-01-01T00:00:00Z","name_a2s":"Uncletopia | Seattle | 2 | All Maps","protocol":17,"map":"cp_steel","folder":"tf","game":"Team Fortress","app_id":440,"player_count":23,"max_players":24,"Bots":0,"server_type":"Dedicated","server_os":"Linux","password":true,"vac":true,"version":"7708610","steam_id":85568392924469998,"keywords":["cp","nocrits","nodmgspread","uncletopia"],"game_id":440,"stv_port":27026,"stv_name":"Uncletopia | Seattle | 2 | All Maps | STV","players":[{"user_id":315,"name":"Howoriginal","steam_id":76561197993701184,"connected_time":15000000000,"state":"active","ping":110},{"user_id":277,"name":"User Interface","steam_id":76561198049238840,"connected_time":2777000000000,"state":"active","ping":76},{"user_id":316,"name":"Birdhorse Of Course","steam_id":76561198038997485,"connected_time":4000000000,"state":"spawning","ping":105},{"user_id":301,"name":"jak123456777","steam_id":76561198967082529,"connected_time":378000000000,"state":"active","ping":67},{"user_id":282,"name":"jbggs","steam_id":76561198011204750,"connected_time":2309000000000,"state":"active","ping":82},{"user_id":300,"name":"Greskrendtregk","steam_id":76561197969553142,"connected_time":493000000000,"state":"active","ping":54},{"user_id":295,"name":"Tom Skirrett","steam_id":76561198014600788,"connected_time":579000000000,"state":"active","ping":73},{"user_id":239,"name":"Lambchop","steam_id":76561198043900363,"connected_time":6144000000000,"state":"active","ping":75},{"user_id":312,"name":"sweaterfan","steam_id":76561199389567214,"connected_time":113000000000,"state":"active","ping":137},{"user_id":284,"name":"cofferhead","steam_id":76561199191108449,"connected_time":2282000000000,"state":"active","ping":92},{"user_id":314,"name":"El Gato Paranoico","steam_id":76561198116567116,"connected_time":82000000000,"state":"active","ping":116},{"user_id":309,"name":"afeel5004","steam_id":76561199273696662,"connected_time":241000000000,"state":"active","ping":62},{"user_id":310,"name":"ויהי אור","steam_id":76561198212421513,"connected_time":218000000000,"state":"active","ping":74},{"user_id":286,"name":"____hamter","steam_id":76561198062763756,"connected_time":2149000000000,"state":"active","ping":100},{"user_id":280,"name":"Stev the Prurient Oxymoron","steam_id":76561197999442625,"connected_time":2451000000000,"state":"active","ping":54},{"user_id":305,"name":"Ozzimo","steam_id":76561197961632819,"connected_time":283000000000,"state":"active","ping":50},{"user_id":313,"name":"Seriously Bruh","steam_id":76561198070408485,"connected_time":88000000000,"state":"active","ping":65},{"user_id":307,"name":"Cheese","steam_id":76561199435683727,"connected_time":246000000000,"state":"active","ping":134},{"user_id":251,"name":"gerg","steam_id":76561197997127387,"connected_time":5198000000000,"state":"active","ping":64},{"user_id":252,"name":"Chiaki Nanami","steam_id":76561198164782653,"connected_time":5144000000000,"state":"active","ping":131},{"user_id":308,"name":"Lika","steam_id":76561199443353001,"connected_time":246000000000,"state":"active","ping":107},{"user_id":289,"name":"yup","steam_id":76561199190800520,"connected_time":1363000000000,"state":"active","ping":43},{"user_id":255,"name":"social distance warrior","steam_id":76561198128992994,"connected_time":5120000000000,"state":"active","ping":46}]},{"server_id":17,"name":"Uncletopia | San Francisco | 1 | All Maps","name_short":"sfo-1","host":"sfo-1.us.uncletopia.com","port":27015,"enabled":true,"region":"us-west","cc":"us","latitude":37.77397,"longitude":-122.4313,"reserved":0,"last_update":"0001-01-01T00:00:00Z","name_a2s":"Uncletopia | San Francisco | 1 | All Maps","protocol":17,"map":"koth_viaduct","folder":"tf","game":"Team Fortress","app_id":440,"player_count":0,"max_players":24,"Bots":0,"server_type":"Dedicated","server_os":"Linux","password":true,"vac":true,"version":"7708610","steam_id":85568392924469999,"keywords":["cp","nocrits","nodmgspread","uncletopia"],"game_id":440,"stv_port":27016,"stv_name":"Uncletopia | San Francisco | 1 | All Maps | STV","players":null},{"server_id":18,"name":"Uncletopia | San Francisco | 2 | All Maps","name_short":"sfo-2","host":"sfo-1.us.uncletopia.com","port":27025,"enabled":true,"region":"us-west","cc":"us","latitude":37.77397,"longitude":-122.4313,"reserved":0,"last_update":"0001-01-01T00:00:00Z","name_a2s":"Uncletopia | San Francisco | 2 | All Maps","protocol":17,"map":"pl_swiftwater_final1","folder":"tf","game":"Team Fortress","app_id":440,"player_count":24,"max_players":24,"Bots":0,"server_type":"Dedicated","server_os":"Linux","password":true,"vac":true,"version":"7708610","steam_id":85568392924470000,"keywords":["nocrits","nodmgspread","payload","uncletopia"],"game_id":440,"stv_port":27026,"stv_name":"Uncletopia | San Francisco | 2 | All Maps | STV","players":[{"user_id":190,"name":"JJP","steam_id":76561198032914094,"connected_time":1161000000000,"state":"active","ping":47},{"user_id":189,"name":"NotAWeeb","steam_id":76561198165530739,"connected_time":1264000000000,"state":"active","ping":48},{"user_id":151,"name":"K-2","steam_id":76561198322606535,"connected_time":4404000000000,"state":"active","ping":93},{"user_id":158,"name":"bunkers","steam_id":76561199047144019,"connected_time":3938000000000,"state":"active","ping":50},{"user_id":139,"name":"lol","steam_id":76561198026491738,"connected_time":5616000000000,"state":"active","ping":65},{"user_id":174,"name":"Livin' Like Larry","steam_id":76561198313360974,"connected_time":2187000000000,"state":"active","ping":42},{"user_id":159,"name":"maniacalcoast0","steam_id":76561198982540746,"connected_time":3912000000000,"state":"active","ping":88},{"user_id":93,"name":"Mom","steam_id":76561198207936000,"connected_time":8944000000000,"state":"active","ping":55},{"user_id":194,"name":"TROY","steam_id":76561197983852176,"connected_time":637000000000,"state":"active","ping":53},{"user_id":197,"name":"Jax O'Gaytor","steam_id":76561198288922168,"connected_time":575000000000,"state":"active","ping":65},{"user_id":142,"name":"Computron","steam_id":76561198066091050,"connected_time":5203000000000,"state":"active","ping":76},{"user_id":150,"name":"mommy grinch","steam_id":76561199230929836,"connected_time":4454000000000,"state":"active","ping":109},{"user_id":172,"name":"goldhed","steam_id":76561198051751133,"connected_time":2238000000000,"state":"active","ping":75},{"user_id":154,"name":"MASSIVE HOG","steam_id":76561198079923652,"connected_time":4197000000000,"state":"active","ping":92},{"user_id":184,"name":"Haunted","steam_id":76561199049154642,"connected_time":1620000000000,"state":"active","ping":125},{"user_id":186,"name":"ヒュイスター","steam_id":76561198146408444,"connected_time":1535000000000,"state":"active","ping":70},{"user_id":193,"name":"plutonium isotope","steam_id":76561198319442494,"connected_time":720000000000,"state":"active","ping":65},{"user_id":198,"name":"lmao","steam_id":76561197979056451,"connected_time":559000000000,"state":"active","ping":71},{"user_id":195,"name":"Damo","steam_id":76561197979442728,"connected_time":630000000000,"state":"active","ping":59},{"user_id":166,"name":"Pneumo.","steam_id":76561197987911883,"connected_time":3539000000000,"state":"active","ping":91},{"user_id":188,"name":"GameGuru the Green Gryphon","steam_id":76561198118495354,"connected_time":1330000000000,"state":"active","ping":67},{"user_id":125,"name":"Sivinus","steam_id":76561198025589541,"connected_time":7439000000000,"state":"active","ping":71},{"user_id":162,"name":"Nintendo DSi XL","steam_id":76561198280682611,"connected_time":3862000000000,"state":"active","ping":54},{"user_id":192,"name":"Avem","steam_id":76561198058763710,"connected_time":885000000000,"state":"active","ping":59}]},{"server_id":19,"name":"Uncletopia | San Francisco | 3 | No Payload","name_short":"sfo-3","host":"sfo-1.us.uncletopia.com","port":27035,"enabled":true,"region":"us-west","cc":"us","latitude":37.77397,"longitude":-122.4313,"reserved":0,"last_update":"0001-01-01T00:00:00Z","name_a2s":"Uncletopia | San Francisco | 3 | No Payload","protocol":17,"map":"koth_nucleus","folder":"tf","game":"Team Fortress","app_id":440,"player_count":20,"max_players":24,"Bots":0,"server_type":"Dedicated","server_os":"Linux","password":true,"vac":true,"version":"7708610","steam_id":85568392924742824,"keywords":["cp","nocrits","nodmgspread","uncletopia"],"game_id":440,"stv_port":27036,"stv_name":"Uncletopia | San Francisco | 3 | No Payload | STV","players":[{"user_id":188,"name":"gamer in rehab","steam_id":76561198858328080,"connected_time":11159000000000,"state":"active","ping":58},{"user_id":218,"name":"Schnitz","steam_id":76561198265484253,"connected_time":8419000000000,"state":"active","ping":57},{"user_id":300,"name":"Ziggy Q","steam_id":76561197995360978,"connected_time":5027000000000,"state":"active","ping":107},{"user_id":339,"name":"Is Mauii","steam_id":76561198153786501,"connected_time":2688000000000,"state":"active","ping":60},{"user_id":374,"name":"DeratedDesign","steam_id":76561199078779967,"connected_time":431000000000,"state":"active","ping":67},{"user_id":381,"name":"gangstalker","steam_id":76561198363267009,"connected_time":187000000000,"state":"active","ping":77},{"user_id":375,"name":"Gh0stlight","steam_id":76561199138042008,"connected_time":430000000000,"state":"active","ping":57},{"user_id":363,"name":"Smiling","steam_id":76561198293407075,"connected_time":1027000000000,"state":"active","ping":88},{"user_id":351,"name":"Crazy Hungarian","steam_id":76561198025498172,"connected_time":1398000000000,"state":"active","ping":63},{"user_id":376,"name":"Kzjytsugn","steam_id":76561198130241974,"connected_time":393000000000,"state":"active","ping":59},{"user_id":383,"name":"Spycrab101","steam_id":76561198141836805,"connected_time":27000000000,"state":"active","ping":202},{"user_id":334,"name":"PunishedCrab","steam_id":76561198079650017,"connected_time":2896000000000,"state":"active","ping":67},{"user_id":369,"name":"Swift","steam_id":76561198143805924,"connected_time":677000000000,"state":"active","ping":122},{"user_id":378,"name":"sora","steam_id":76561198094256973,"connected_time":381000000000,"state":"active","ping":57},{"user_id":325,"name":"GW4D","steam_id":76561198268791283,"connected_time":3525000000000,"state":"active","ping":63},{"user_id":356,"name":"Brison","steam_id":76561197993377761,"connected_time":1331000000000,"state":"active","ping":43},{"user_id":380,"name":"Egoleo","steam_id":76561198079107785,"connected_time":356000000000,"state":"active","ping":123},{"user_id":341,"name":"Bob the Builder","steam_id":76561199069029812,"connected_time":2422000000000,"state":"active","ping":58},{"user_id":361,"name":"cozmo","steam_id":76561198043167542,"connected_time":1204000000000,"state":"active","ping":60},{"user_id":326,"name":"Perididdle","steam_id":76561198056864606,"connected_time":3455000000000,"state":"active","ping":96}]},{"server_id":20,"name":"Uncletopia | San Francisco | 4 | Community","name_short":"sfo-4","host":"sfo-1.us.uncletopia.com","port":27045,"enabled":true,"region":"us-west","cc":"us","latitude":37.77397,"longitude":-122.4313,"reserved":0,"last_update":"0001-01-01T00:00:00Z","name_a2s":"Uncletopia | San Francisco | 4 | Community","protocol":17,"map":"workshop/rd_asteroid_redux_rc9.ugc2154902912","folder":"tf","game":"Team Fortress","app_id":440,"player_count":0,"max_players":24,"Bots":0,"server_type":"Dedicated","server_os":"Linux","password":true,"vac":true,"version":"7708610","steam_id":85568392924742826,"keywords":["beta","nocrits","nodmgspread","rd","uncletopia"],"game_id":440,"stv_port":27046,"stv_name":"Uncletopia | San Francisco | 4 | Community | STV","players":null},{"server_id":141,"name":"Uncletopia | Sydney | 1 | All Maps","name_short":"syd-1","host":"syd-1.au.uncletopia.com","port":27015,"enabled":true,"region":"au","cc":"au","latitude":-33.865143,"longitude":151.2099,"reserved":0,"last_update":"0001-01-01T00:00:00Z","name_a2s":"Uncletopia | Sydney | 1 | All Maps","protocol":17,"map":"pl_barnblitz","folder":"tf","game":"Team Fortress","app_id":440,"player_count":24,"max_players":24,"Bots":0,"server_type":"Dedicated","server_os":"Linux","password":true,"vac":true,"version":"7708610","steam_id":85568392924470001,"keywords":["nocrits","nodmgspread","payload","uncletopia"],"game_id":440,"stv_port":27016,"stv_name":"Uncletopia | Sydney | 1 | All Maps | STV","players":[{"user_id":174,"name":"Pseudoman","steam_id":76561198131158447,"connected_time":2727000000000,"state":"active","ping":80},{"user_id":198,"name":"Marzell","steam_id":76561198151276153,"connected_time":1142000000000,"state":"active","ping":81},{"user_id":212,"name":"XLR08","steam_id":76561198352441383,"connected_time":387000000000,"state":"active","ping":59},{"user_id":165,"name":"HyperDelic","steam_id":76561198296916652,"connected_time":3079000000000,"state":"active","ping":55},{"user_id":175,"name":"krandlez` (Any/All)","steam_id":76561198044839726,"connected_time":2459000000000,"state":"active","ping":44},{"user_id":173,"name":"Sherpa","steam_id":76561198018913829,"connected_time":2815000000000,"state":"active","ping":54},{"user_id":216,"name":"FrontlineNinja","steam_id":76561198046731954,"connected_time":171000000000,"state":"active","ping":51},{"user_id":206,"name":"RedEyes","steam_id":76561197973698135,"connected_time":853000000000,"state":"active","ping":65},{"user_id":217,"name":"Fluxx","steam_id":76561198247026040,"connected_time":72000000000,"state":"active","ping":43},{"user_id":200,"name":"rajjyboi","steam_id":76561198250874216,"connected_time":1127000000000,"state":"active","ping":72},{"user_id":218,"name":"Flak","steam_id":76561198205833232,"connected_time":54000000000,"state":"active","ping":44},{"user_id":191,"name":"Autumn ❤","steam_id":76561198085812423,"connected_time":1681000000000,"state":"active","ping":70},{"user_id":211,"name":"+TP (coronavirus reference)","steam_id":76561198093828661,"connected_time":576000000000,"state":"active","ping":78},{"user_id":178,"name":"clout","steam_id":76561198073310502,"connected_time":2331000000000,"state":"active","ping":62},{"user_id":209,"name":"SoyBoy","steam_id":76561197992447102,"connected_time":767000000000,"state":"active","ping":35},{"user_id":159,"name":"highschool audio monster","steam_id":76561198836003115,"connected_time":3294000000000,"state":"active","ping":59},{"user_id":169,"name":"hawk","steam_id":76561198135164277,"connected_time":2966000000000,"state":"active","ping":58},{"user_id":204,"name":"hobo","steam_id":76561199046481213,"connected_time":1011000000000,"state":"active","ping":64},{"user_id":219,"name":"Saxk876","steam_id":76561198386450213,"connected_time":39000000000,"state":"active","ping":57},{"user_id":167,"name":"man ahhh","steam_id":76561198129577552,"connected_time":3038000000000,"state":"active","ping":77},{"user_id":205,"name":"The Goodnight Kiwi","steam_id":76561198866433807,"connected_time":923000000000,"state":"active","ping":60},{"user_id":215,"name":"Parachuting_Parakeet","steam_id":76561198049986399,"connected_time":257000000000,"state":"active","ping":49},{"user_id":172,"name":"blackmanblack","steam_id":76561198309279405,"connected_time":2876000000000,"state":"active","ping":52},{"user_id":184,"name":"Hot Yoga Instructor","steam_id":76561199163801558,"connected_time":1999000000000,"state":"active","ping":39}]},{"server_id":123,"name":"Uncletopia | Sydney | 2 | All Maps","name_short":"syd-2","host":"syd-1.au.uncletopia.com","port":27025,"enabled":true,"region":"au","cc":"au","latitude":-33.865143,"longitude":151.2099,"reserved":0,"last_update":"0001-01-01T00:00:00Z","name_a2s":"Uncletopia | Sydney | 2 | All Maps","protocol":17,"map":"koth_cascade","folder":"tf","game":"Team Fortress","app_id":440,"player_count":0,"max_players":24,"Bots":0,"server_type":"Dedicated","server_os":"Linux","password":true,"vac":true,"version":"7708610","steam_id":85568392924470002,"keywords":["cp","nocrits","nodmgspread","uncletopia"],"game_id":440,"stv_port":27026,"stv_name":"Uncletopia | Sydney | 2 | All Maps | STV","players":null},{"server_id":395,"name":"Uncletopia | Sydney | 3 | All Maps","name_short":"syd-3","host":"syd-1.au.uncletopia.com","port":27035,"enabled":true,"region":"au","cc":"au","latitude":-33.865143,"longitude":151.2099,"reserved":0,"last_update":"0001-01-01T00:00:00Z","name_a2s":"Uncletopia | Sydney | 3 | All Maps","protocol":17,"map":"koth_viaduct","folder":"tf","game":"Team Fortress","app_id":440,"player_count":0,"max_players":24,"Bots":0,"server_type":"Dedicated","server_os":"Linux","password":true,"vac":true,"version":"7708610","steam_id":85568392925194467,"keywords":["cp","nocrits","nodmgspread","uncletopia"],"game_id":440,"stv_port":27036,"stv_name":"Uncletopia | Sydney | 3 | All Maps | STV","players":null},{"server_id":396,"name":"Uncletopia | Sydney | 4 | All Maps","name_short":"syd-4","host":"syd-1.au.uncletopia.com","port":27045,"enabled":true,"region":"au","cc":"au","latitude":-33.865143,"longitude":151.2099,"reserved":0,"last_update":"0001-01-01T00:00:00Z","name_a2s":"Uncletopia | Sydney | 4 | All Maps","protocol":17,"map":"pl_frontier_final","folder":"tf","game":"Team Fortress","app_id":440,"player_count":0,"max_players":24,"Bots":0,"server_type":"Dedicated","server_os":"Linux","password":true,"vac":true,"version":"7708610","steam_id":85568392925397958,"keywords":["nocrits","nodmgspread","payload","uncletopia"],"game_id":440,"stv_port":27046,"stv_name":"Uncletopia | Sydney | 4 | All Maps | STV","players":null},{"server_id":58,"name":"Uncletopia | Sydney | 5 | No Payload","name_short":"syd-5","host":"syd-1.au.uncletopia.com","port":27055,"enabled":true,"region":"au","cc":"au","latitude":-33.865143,"longitude":151.2099,"reserved":0,"last_update":"0001-01-01T00:00:00Z","name_a2s":"Uncletopia | Sydney | 5 | No Payload","protocol":17,"map":"pl_pier","folder":"tf","game":"Team Fortress","app_id":440,"player_count":0,"max_players":24,"Bots":0,"server_type":"Dedicated","server_os":"Linux","password":true,"vac":true,"version":"7708610","steam_id":85568392925397959,"keywords":["nocrits","nodmgspread","payload","uncletopia"],"game_id":440,"stv_port":27056,"stv_name":"Uncletopia | Sydney | 5 | No Payload | STV","players":null},{"server_id":59,"name":"Uncletopia | Sydney | 6 | Community","name_short":"syd-6","host":"syd-1.au.uncletopia.com","port":27065,"enabled":true,"region":"au","cc":"au","latitude":-33.865143,"longitude":151.2099,"reserved":0,"last_update":"0001-01-01T00:00:00Z","name_a2s":"Uncletopia | Sydney | 6 | Community","protocol":17,"map":"workshop/koth_ashville_final.ugc2130459942","folder":"tf","game":"Team Fortress","app_id":440,"player_count":0,"max_players":24,"Bots":0,"server_type":"Dedicated","server_os":"Linux","password":true,"vac":true,"version":"7708610","steam_id":85568392925397960,"keywords":["cp","nocrits","nodmgspread","uncletopia"],"game_id":440,"stv_port":27066,"stv_name":"Uncletopia | Sydney | 6 | Community | STV","players":null},{"server_id":49,"name":"Uncletopia | Warsaw | 1 | All Maps","name_short":"waw-1","host":"waw-1.pl.uncletopia.com","port":27015,"enabled":true,"region":"eu","cc":"pl","latitude":52.2297,"longitude":21.017532,"reserved":0,"last_update":"0001-01-01T00:00:00Z","name_a2s":"Uncletopia | Warsaw | 1 | All Maps","protocol":17,"map":"pl_snowycoast","folder":"tf","game":"Team Fortress","app_id":440,"player_count":0,"max_players":24,"Bots":0,"server_type":"Dedicated","server_os":"Linux","password":true,"vac":true,"version":"7708610","steam_id":85568392925397850,"keywords":["nocrits","nodmgspread","payload","uncletopia"],"game_id":440,"stv_port":27016,"stv_name":"Uncletopia | Warsaw | 1 | All Maps | STV","players":null},{"server_id":50,"name":"Uncletopia | Warsaw | 2 | All Maps","name_short":"waw-2","host":"waw-1.pl.uncletopia.com","port":27025,"enabled":true,"region":"eu","cc":"pl","latitude":52.2297,"longitude":21.017532,"reserved":0,"last_update":"0001-01-01T00:00:00Z","name_a2s":"Uncletopia | Warsaw | 2 | All Maps","protocol":17,"map":"pl_barnblitz","folder":"tf","game":"Team Fortress","app_id":440,"player_count":0,"max_players":24,"Bots":0,"server_type":"Dedicated","server_os":"Linux","password":true,"vac":true,"version":"7708610","steam_id":85568392925397851,"keywords":["nocrits","nodmgspread","payload","uncletopia"],"game_id":440,"stv_port":27026,"stv_name":"Uncletopia | Warsaw | 2 | All Maps | STV","players":null},{"server_id":51,"name":"Uncletopia | Warsaw | 3 | All Maps","name_short":"waw-3","host":"waw-1.pl.uncletopia.com","port":27035,"enabled":true,"region":"eu","cc":"pl","latitude":52.2297,"longitude":21.017532,"reserved":0,"last_update":"0001-01-01T00:00:00Z","name_a2s":"Uncletopia | Warsaw | 3 | All Maps","protocol":17,"map":"pl_badwater","folder":"tf","game":"Team Fortress","app_id":440,"player_count":0,"max_players":24,"Bots":0,"server_type":"Dedicated","server_os":"Linux","password":true,"vac":true,"version":"7708610","steam_id":85568392925397852,"keywords":["nocrits","nodmgspread","payload","uncletopia"],"game_id":440,"stv_port":27036,"stv_name":"Uncletopia | Warsaw | 3 | All Maps | STV","players":null},{"server_id":52,"name":"Uncletopia | Warsaw | 4 | All Maps","name_short":"waw-4","host":"waw-1.pl.uncletopia.com","port":27045,"enabled":true,"region":"eu","cc":"pl","latitude":52.2297,"longitude":21.017532,"reserved":0,"last_update":"0001-01-01T00:00:00Z","name_a2s":"Uncletopia | Warsaw | 4 | All Maps","protocol":17,"map":"pl_pier","folder":"tf","game":"Team Fortress","app_id":440,"player_count":0,"max_players":24,"Bots":0,"server_type":"Dedicated","server_os":"Linux","password":true,"vac":true,"version":"7708610","steam_id":85568392925397853,"keywords":["nocrits","nodmgspread","payload","uncletopia"],"game_id":440,"stv_port":27046,"stv_name":"Uncletopia | Warsaw | 4 | All Maps | STV","players":null},{"server_id":53,"name":"Uncletopia | Warsaw | 5 | No Payload","name_short":"waw-5","host":"waw-1.pl.uncletopia.com","port":27055,"enabled":true,"region":"eu","cc":"pl","latitude":52.2297,"longitude":21.017532,"reserved":0,"last_update":"0001-01-01T00:00:00Z","name_a2s":"Uncletopia | Warsaw | 5 | No Payload","protocol":17,"map":"pl_borneo","folder":"tf","game":"Team Fortress","app_id":440,"player_count":0,"max_players":24,"Bots":0,"server_type":"Dedicated","server_os":"Linux","password":true,"vac":true,"version":"7708610","steam_id":85568392925397854,"keywords":["nocrits","nodmgspread","payload","uncletopia"],"game_id":440,"stv_port":27056,"stv_name":"Uncletopia | Warsaw | 5 | No Payload | STV","players":null},{"server_id":54,"name":"Uncletopia | Warsaw | 6 | Community","name_short":"waw-6","host":"waw-1.pl.uncletopia.com","port":27065,"enabled":true,"region":"eu","cc":"pl","latitude":52.2297,"longitude":21.017532,"reserved":0,"last_update":"0001-01-01T00:00:00Z","name_a2s":"Uncletopia | Warsaw | 6 | Community","protocol":17,"map":"pl_swiftwater_final1","folder":"tf","game":"Team Fortress","app_id":440,"player_count":0,"max_players":24,"Bots":0,"server_type":"Dedicated","server_os":"Linux","password":true,"vac":true,"version":"7708610","steam_id":85568392925397856,"keywords":["nocrits","nodmgspread","payload","uncletopia"],"game_id":440,"stv_port":27066,"stv_name":"Uncletopia | Warsaw | 6 | Community | STV","players":null}]}