{"status":true,"message":"","result":[{"server_id":9,"name":"Uncletopia | Atlanta | 1 | All Maps","name_short":"atl-1","host":"atl-1.us.uncletopia.com","port":27015,"enabled":true,"region":"us-east","cc":"us","latitude":33.753746,"longitude":-84.38633,"reserved":0,"last_update":"0001-01-01T00:00:00Z","name_a2s":"Uncletopia | Atlanta | 1 | All Maps","protocol":17,"map":"pl_frontier_final","folder":"tf","game":"Team Fortress","app_id":440,"player_count":0,"max_players":24,"Bots":0,"server_type":"Dedicated","server_os":"Linux","password":true,"vac":true,"version":"7961495","steam_id":85568392924469982,"keywords":["nocrits","nodmgspread","payload","uncletopia"],"game_id":440,"stv_port":27016,"stv_name":"Uncletopia | Atlanta | 1 | All Maps | STV","players":null},{"server_id":104,"name":"Uncletopia | Atlanta | 2 | All Maps","name_short":"atl-2","host":"atl-1.us.uncletopia.com","port":27025,"enabled":true,"region":"us-east","cc":"us","latitude":33.753746,"longitude":-84.38633,"reserved":0,"last_update":"0001-01-01T00:00:00Z","name_a2s":"Uncletopia | Atlanta | 2 | All Maps","protocol":17,"map":"koth_viaduct","folder":"tf","game":"Team Fortress","app_id":440,"player_count":0,"max_players":24,"Bots":0,"server_type":"Dedicated","server_os":"Linux","password":true,"vac":true,"version":"7961495","steam_id":85568392924469983,"keywords":["cp","nocrits","nodmgspread","uncletopia"],"game_id":440,"stv_port":27026,"stv_name":"Uncletopia | Atlanta | 2 | All Maps | STV","players":null},{"server_id":400,"name":"Uncletopia | Atlanta | 3 | Stopwatch","name_short":"atl-3","host":"atl-1.us.uncletopia.com","port":27035,"enabled":true,"region":"us-east","cc":"us","latitude":33.753746,"longitude":-84.38633,"reserved":0,"last_update":"0001-01-01T00:00:00Z","name_a2s":"Uncletopia | Atlanta | 3 | Stopwatch","protocol":17,"map":"workshop/pl_badwater_pro_v12.ugc2142942074","folder":"tf","game":"Team Fortress","app_id":440,"player_count":0,"max_players":24,"Bots":0,"server_type":"Dedicated","server_os":"Linux","password":true,"vac":true,"version":"7961495","steam_id":85568392924515187,"keywords":["nocrits","nodmgspread","payload","uncletopia"],"game_id":440,"stv_port":27036,"stv_name":"Uncletopia | Atlanta | 3 | Stopwatch | STV","players":null},{"server_id":401,"name":"Uncletopia | Atlanta | 4 | Community","name_short":"atl-4","host":"atl-1.us.uncletopia.com","port":27045,"enabled":true,"region":"us-east","cc":"us","latitude":33.753746,"longitude":-84.38633,"reserved":0,"last_update":"0001-01-01T00:00:00Z","name_a2s":"Uncletopia | Atlanta | 4 | Community","protocol":17,"map":"workshop/cp_indulge.ugc528106646","folder":"tf","game":"Team Fortress","app_id":440,"player_count":0,"max_players":24,"Bots":0,"server_type":"Dedicated","server_os":"Linux","password":true,"vac":true,"version":"7961495","steam_id":85568392924515188,"keywords":["cp","nocrits","nodmgspread","uncletopia"],"game_id":440,"stv_port":27046,"stv_name":"Uncletopia | Atlanta | 4 | Community | STV","players":null},{"server_id":2,"name":"Uncletopia | Chicago | 1 | All Maps","name_short":"chi-1","host":"chi-1.us.uncletopia.com","port":27015,"enabled":true,"region":"us-central","cc":"us","latitude":41.881832,"longitude":-87.62318,"reserved":0,"last_update":"0001-01-01T00:00:00Z","name_a2s":"Uncletopia | Chicago | 1 | All Maps","protocol":17,"map":"cp_sunshine","folder":"tf","game":"Team Fortress","app_id":440,"player_count":24,"max_players":24,"Bots":0,"server_type":"Dedicated","server_os":"Linux","password":true,"vac":true,"version":"7961495","steam_id":85568392924469984,"keywords":["cp","nocrits","nodmgspread","uncletopia"],"game_id":440,"stv_port":27016,"stv_name":"Uncletopia | Chicago | 1 | All Maps | STV","players":[{"user_id":863,"name":"Rex","steam_id":76561199202314441,"connected_time":744000000000,"state":"active","ping":89},{"user_id":842,"name":"Ms Twig","steam_id":76561198144111736,"connected_time":3815000000000,"state":"active","ping":52},{"user_id":849,"name":"squish","steam_id":76561198186417941,"connected_time":2311000000000,"state":"active","ping":91},{"user_id":825,"name":"'mungus","steam_id":76561198022358379,"connected_time":4788000000000,"state":"active","ping":73},{"user_id":871,"name":"Captain anus fiddle","steam_id":76561198100777371,"connected_time":346000000000,"state":"active","ping":72},{"user_id":856,"name":"Shmoopy","steam_id":76561198030459152,"connected_time":1167000000000,"state":"active","ping":79},{"user_id":807,"name":"SEGNO","steam_id":76561198102780113,"connected_time":5363000000000,"state":"active","ping":75},{"user_id":828,"name":"Kantamoe","steam_id":76561198046661611,"connected_time":4763000000000,"state":"active","ping":83},{"user_id":852,"name":"Rat God","steam_id":76561198066161598,"connected_time":2063000000000,"state":"active","ping":61},{"user_id":846,"name":"Angel","steam_id":76561199068960616,"connected_time":3026000000000,"state":"active","ping":49},{"user_id":857,"name":"breezewax","steam_id":76561198121702006,"connected_time":1134000000000,"state":"active","ping":69},{"user_id":862,"name":"Crylec","steam_id":76561198092755279,"connected_time":746000000000,"state":"active","ping":69},{"user_id":860,"name":"moonboy","steam_id":76561198172113657,"connected_time":803000000000,"state":"active","ping":87},{"user_id":847,"name":"shannongram influencer","steam_id":76561198143132686,"connected_time":2856000000000,"state":"active","ping":87},{"user_id":870,"name":"Geesemans","steam_id":76561199478892816,"connected_time":498000000000,"state":"active","ping":148},{"user_id":872,"name":"Starseeing Oracle","steam_id":76561198097720124,"connected_time":280000000000,"state":"active","ping":101},{"user_id":865,"name":"dur","steam_id":76561198057161210,"connected_time":692000000000,"state":"active","ping":84},{"user_id":855,"name":"mud","steam_id":76561199085742317,"connected_time":1181000000000,"state":"active","ping":119},{"user_id":873,"name":"BB Lorexav","steam_id":76561198207565988,"connected_time":266000000000,"state":"active","ping":82},{"user_id":867,"name":"ShadozoneX","steam_id":76561198255452404,"connected_time":613000000000,"state":"active","ping":80},{"user_id":850,"name":"Spy Gaming","steam_id":76561198453295613,"connected_time":2304000000000,"state":"active","ping":124},{"user_id":861,"name":"DaMeximan","steam_id":76561198046825090,"connected_time":801000000000,"state":"active","ping":119},{"user_id":869,"name":"Sky!","steam_id":76561198141953747,"connected_time":550000000000,"state":"active","ping":62},{"user_id":838,"name":"//NC Nika","steam_id":76561198050445395,"connected_time":4190000000000,"state":"active","ping":137}]},{"server_id":106,"name":"Uncletopia | Chicago | 2 | All Maps","name_short":"chi-2","host":"chi-1.us.uncletopia.com","port":27025,"enabled":true,"region":"us-central","cc":"us","latitude":41.881832,"longitude":-87.62318,"reserved":0,"last_update":"0001-01-01T00:00:00Z","name_a2s":"Uncletopia | Chicago | 2 | All Maps","protocol":17,"map":"cp_snakewater_final1","folder":"tf","game":"Team Fortress","app_id":440,"player_count":21,"max_players":24,"Bots":0,"server_type":"Dedicated","server_os":"Linux","password":true,"vac":true,"version":"7961495","steam_id":85568392924469985,"keywords":["cp","nocrits","nodmgspread","uncletopia"],"game_id":440,"stv_port":27026,"stv_name":"Uncletopia | Chicago | 2 | All Maps | STV","players":[{"user_id":699,"name":"goat","steam_id":76561198059709483,"connected_time":752000000000,"state":"active","ping":67},{"user_id":615,"name":"Thequirka","steam_id":76561198968058652,"connected_time":4478000000000,"state":"active","ping":102},{"user_id":614,"name":"left 4 dead soker","steam_id":76561198066566813,"connected_time":4535000000000,"state":"active","ping":143},{"user_id":691,"name":"Yon","steam_id":76561198098631397,"connected_time":1824000000000,"state":"active","ping":55},{"user_id":706,"name":"i became a prostitute","steam_id":76561198025368981,"connected_time":214000000000,"state":"active","ping":89},{"user_id":698,"name":"thehookerslammer","steam_id":76561198050136796,"connected_time":784000000000,"state":"active","ping":86},{"user_id":694,"name":"TOASTER IN A RAIN COAT","steam_id":76561199090392905,"connected_time":1211000000000,"state":"active","ping":51},{"user_id":680,"name":"Flayre","steam_id":76561198803036389,"connected_time":2670000000000,"state":"active","ping":69},{"user_id":700,"name":"Dark Karl","steam_id":76561198115714484,"connected_time":728000000000,"state":"active","ping":125},{"user_id":681,"name":"ìÜèCayenne Pepper ìÜè","steam_id":76561198124881810,"connected_time":2575000000000,"state":"active","ping":104},{"user_id":696,"name":"Wess","steam_id":76561198302735017,"connected_time":848000000000,"state":"active","ping":55},{"user_id":686,"name":"big tiddy lamia gf","steam_id":76561198378537090,"connected_time":2468000000000,"state":"active","ping":81},{"user_id":595,"name":"BiggFoot","steam_id":76561197998605599,"connected_time":6602000000000,"state":"active","ping":79},{"user_id":687,"name":"A Felicidade","steam_id":76561198043360498,"connected_time":2439000000000,"state":"active","ping":91},{"user_id":568,"name":"Aldatzailea Egitura","steam_id":76561199240547667,"connected_time":9559000000000,"state":"active","ping":101},{"user_id":707,"name":"for the king","steam_id":76561197973488858,"connected_time":149000000000,"state":"active","ping":53},{"user_id":709,"name":"beastmode","steam_id":76561199229507963,"connected_time":80000000000,"state":"active","ping":111},{"user_id":689,"name":"Greg","steam_id":76561198037791987,"connected_time":2339000000000,"state":"active","ping":89},{"user_id":695,"name":"sophie","steam_id":76561198272979713,"connected_time":1169000000000,"state":"active","ping":72},{"user_id":704,"name":"Pharthus","steam_id":76561198093866050,"connected_time":554000000000,"state":"active","ping":98}]},{"server_id":402,"name":"Uncletopia | Chicago | 3 | All Maps","name_short":"chi-3","host":"chi-1.us.uncletopia.com","port":27035,"enabled":true,"region":"us-central","cc":"us","latitude":41.881832,"longitude":-87.62318,"reserved":0,"last_update":"0001-01-01T00:00:00Z","name_a2s":"Uncletopia | Chicago | 3 | All Maps","protocol":17,"map":"cp_steel","folder":"tf","game":"Team Fortress","app_id":440,"player_count":20,"max_players":24,"Bots":0,"server_type":"Dedicated","server_os":"Linux","password":true,"vac":true,"version":"7961495","steam_id":85568392924515191,"keywords":["cp","nocrits","nodmgspread","uncletopia"],"game_id":440,"stv_port":27036,"stv_name":"Uncletopia | Chicago | 3 | All Maps | STV","players":[{"user_id":449,"name":"banjobun","steam_id":76561198116814525,"connected_time":2696000000000,"state":"active","ping":103},{"user_id":450,"name":"Shazzy","steam_id":76561198145460523,"connected_time":2689000000000,"state":"active","ping":98},{"user_id":451,"name":"crouching tiger heavy","steam_id":76561198121767390,"connected_time":2652000000000,"state":"active","ping":53},{"user_id":452,"name":"Hawksgamer","steam_id":76561198152405941,"connected_time":2638000000000,"state":"active","ping":107},{"user_id":453,"name":"Mr8bittripper","steam_id":76561198133894229,"connected_time":2631000000000,"state":"active","ping":93},{"user_id":461,"name":"Bartalong","steam_id":76561198075744195,"connected_time":1283000000000,"state":"active","ping":98},{"user_id":457,"name":"totoro","steam_id":76561198210420871,"connected_time":2312000000000,"state":"active","ping":46},{"user_id":456,"name":"Kamin","steam_id":76561198255299559,"connected_time":2490000000000,"state":"active","ping":93},{"user_id":477,"name":"Stinkly","steam_id":76561198045010846,"connected_time":515000000000,"state":"active","ping":79},{"user_id":459,"name":"Foloan","steam_id":76561199229528791,"connected_time":1682000000000,"state":"active","ping":74},{"user_id":480,"name":"giant993oceanic","steam_id":76561198132495371,"connected_time":179000000000,"state":"active","ping":87},{"user_id":481,"name":"EchoHound","steam_id":76561198995264386,"connected_time":126000000000,"state":"active","ping":52},{"user_id":463,"name":"Dreamzapp","steam_id":76561199084936632,"connected_time":1158000000000,"state":"active","ping":116},{"user_id":464,"name":"CalhonIX","steam_id":76561198194724181,"connected_time":1082000000000,"state":"active","ping":88},{"user_id":482,"name":"sleepy‚äπ","steam_id":76561199200969139,"connected_time":73000000000,"state":"active","ping":101},{"user_id":471,"name":"Wilma","steam_id":76561198138420251,"connected_time":902000000000,"state":"active","ping":60},{"user_id":468,"name":"slowdance","steam_id":76561198097427947,"connected_time":940000000000,"state":"active","ping":143},{"user_id":476,"name":"playguy carter","steam_id":76561198080679337,"connected_time":752000000000,"state":"active","ping":60},{"user_id":473,"name":"TruthHut","steam_id":76561198093452436,"connected_time":894000000000,"state":"active","ping":89},{"user_id":474,"name":"kac b4rney","steam_id":76561198166433332,"connected_time":875000000000,"state":"active","ping":102}]},{"server_id":403,"name":"Uncletopia | Chicago | 4 | All Maps","name_short":"chi-4","host":"chi-1.us.uncletopia.com","port":27045,"enabled":true,"region":"us-central","cc":"us","latitude":41.881832,"longitude":-87.62318,"reserved":0,"last_update":"0001-01-01T00:00:00Z","name_a2s":"Uncletopia | Chicago | 4 | All Maps","protocol":17,"map":"pl_swiftwater_final1","folder":"tf","game":"Team Fortress","app_id":440,"player_count":13,"max_players":24,"Bots":0,"server_type":"Dedicated","server_os":"Linux","password":true,"vac":true,"version":"7961495","steam_id":85568392924515193,"keywords":["nocrits","nodmgspread","payload","uncletopia"],"game_id":440,"stv_port":27046,"stv_name":"Uncletopia | Chicago | 4 | All Maps | STV","players":[{"user_id":302,"name":"alfredodan","steam_id":76561198025011044,"connected_time":2650000000000,"state":"active","ping":74},{"user_id":305,"name":"Cruisin'","steam_id":76561199245457119,"connected_time":2408000000000,"state":"active","ping":75},{"user_id":297,"name":"jayyteeAT","steam_id":76561198059575962,"connected_time":2784000000000,"state":"active","ping":46},{"user_id":310,"name":"Ojen","steam_id":76561197998414482,"connected_time":1924000000000,"state":"active","ping":59},{"user_id":295,"name":"ninety9dragonfly","steam_id":76561198363406983,"connected_time":2815000000000,"state":"active","ping":132},{"user_id":312,"name":"i need u","steam_id":76561198030625151,"connected_time":1319000000000,"state":"active","ping":90},{"user_id":194,"name":"NvAka","steam_id":76561199044781490,"connected_time":10918000000000,"state":"active","ping":54},{"user_id":318,"name":"I SHITTED","steam_id":76561198035997366,"connected_time":338000000000,"state":"active","ping":69},{"user_id":298,"name":"snail from ear AT(cochlea)","steam_id":76561198184900753,"connected_time":2776000000000,"state":"active","ping":45},{"user_id":315,"name":"paypur -rng","steam_id":76561198214370515,"connected_time":900000000000,"state":"active","ping":74},{"user_id":283,"name":"KASHI","steam_id":76561198045285049,"connected_time":4172000000000,"state":"active","ping":71},{"user_id":285,"name":"gabe","steam_id":76561198106707955,"connected_time":4144000000000,"state":"active","ping":49},{"user_id":304,"name":"averted","steam_id":76561198067784310,"connected_time":2600000000000,"state":"active","ping":65}]},{"server_id":36,"name":"Uncletopia | Chicago | 5 | All Maps","name_short":"chi-5","host":"chi-2.us.uncletopia.com","port":27015,"enabled":true,"region":"us-central","cc":"us","latitude":41.881832,"longitude":-87.62318,"reserved":0,"last_update":"0001-01-01T00:00:00Z","name_a2s":"Uncletopia | Chicago | 5 | All Maps","protocol":17,"map":"pl_borneo","folder":"tf","game":"Team Fortress","app_id":440,"player_count":23,"max_players":24,"Bots":0,"server_type":"Dedicated","server_os":"Linux","password":true,"vac":true,"version":"7961495","steam_id":85568392924866362,"keywords":["nocrits","nodmgspread","payload","uncletopia"],"game_id":440,"stv_port":27016,"stv_name":"Uncletopia | Chicago | 5 | All Maps | STV","players":[{"user_id":321,"name":"Sandvich","steam_id":76561199032771769,"connected_time":1392000000000,"state":"active","ping":92},{"user_id":333,"name":"Techne","steam_id":76561198090486583,"connected_time":265000000000,"state":"active","ping":95},{"user_id":334,"name":"Œ±–ºŒ±zŒµ‚Ñ¢","steam_id":76561197971073129,"connected_time":250000000000,"state":"active","ping":119},{"user_id":290,"name":"Gram Tokers Count Doinkula","steam_id":76561198112811565,"connected_time":3163000000000,"state":"active","ping":74},{"user_id":317,"name":"SoldMyKidneyForCollege","steam_id":76561198096329559,"connected_time":1452000000000,"state":"active","ping":98},{"user_id":291,"name":"Raizen","steam_id":76561199092445367,"connected_time":3107000000000,"state":"active","ping":50},{"user_id":308,"name":"Goredude","steam_id":76561198041048764,"connected_time":2127000000000,"state":"active","ping":59},{"user_id":287,"name":"Fightin Cow","steam_id":76561198080941486,"connected_time":3214000000000,"state":"active","ping":78},{"user_id":335,"name":"chill","steam_id":76561198982840251,"connected_time":207000000000,"state":"active","ping":71},{"user_id":331,"name":"kinderaser","steam_id":76561198077168765,"connected_time":397000000000,"state":"active","ping":75},{"user_id":339,"name":"car crash compilation #34","steam_id":76561198042773724,"connected_time":32000000000,"state":"spawning","ping":91},{"user_id":318,"name":"DrD1sconnect.TV","steam_id":76561198067487221,"connected_time":1442000000000,"state":"active","ping":83},{"user_id":279,"name":"CumBoy","steam_id":76561198121411970,"connected_time":3845000000000,"state":"active","ping":68},{"user_id":336,"name":"sum0","steam_id":76561198260451626,"connected_time":179000000000,"state":"active","ping":95},{"user_id":337,"name":"/\\","steam_id":76561198045522596,"connected_time":89000000000,"state":"active","ping":82},{"user_id":323,"name":"FelixDaCheese","steam_id":76561198839364464,"connected_time":1304000000000,"state":"active","ping":60},{"user_id":320,"name":"SaaxoM","steam_id":76561198208256603,"connected_time":1417000000000,"state":"active","ping":101},{"user_id":324,"name":"Oreo Gun","steam_id":76561199014401808,"connected_time":1288000000000,"state":"active","ping":115},{"user_id":338,"name":"raduski","steam_id":76561198795699119,"connected_time":66000000000,"state":"active","ping":84},{"user_id":330,"name":"Pepilepsi","steam_id":76561198000809372,"connected_time":881000000000,"state":"active","ping":53},{"user_id":280,"name":"zpalmtree","steam_id":76561198134307620,"connected_time":3824000000000,"state":"active","ping":60},{"user_id":327,"name":"CHIKN","steam_id":76561198277792665,"connected_time":1191000000000,"state":"active","ping":107},{"user_id":277,"name":"Mufalito","steam_id":76561198951889482,"connected_time":4006000000000,"state":"active","ping":130}]},{"server_id":37,"name":"Uncletopia | Chicago | 6 | All Maps","name_short":"chi-6","host":"chi-2.us.uncletopia.com","port":27025,"enabled":true,"region":"us-central","cc":"us","latitude":41.881832,"longitude":-87.62318,"reserved":0,"last_update":"0001-01-01T00:00:00Z","name_a2s":"Uncletopia | Chicago | 6 | All Maps","protocol":17,"map":"cp_dustbowl","folder":"tf","game":"Team Fortress","app_id":440,"player_count":21,"max_players":24,"Bots":0,"server_type":"Dedicated","server_os":"Linux","password":true,"vac":true,"version":"7961495","steam_id":85568392924866363,"keywords":["cp","nocrits","nodmgspread","uncletopia"],"game_id":440,"stv_port":27026,"stv_name":"Uncletopia | Chicago | 6 | All Maps | STV","players":[{"user_id":341,"name":"leer.","steam_id":76561198864458303,"connected_time":1468000000000,"state":"active","ping":68},{"user_id":354,"name":"Dr. House","steam_id":76561198052910702,"connected_time":1118000000000,"state":"active","ping":47},{"user_id":271,"name":"Kenn","steam_id":76561198061505015,"connected_time":8662000000000,"state":"active","ping":76},{"user_id":345,"name":"GraViTyXIII","steam_id":76561197993334348,"connected_time":1401000000000,"state":"active","ping":67},{"user_id":288,"name":"Unlimited_Trees","steam_id":76561198299141443,"connected_time":7575000000000,"state":"active","ping":126},{"user_id":263,"name":"ashelin praxis nude mod","steam_id":76561198167907089,"connected_time":9191000000000,"state":"active","ping":70},{"user_id":351,"name":"plutonium isotope","steam_id":76561198319442494,"connected_time":1247000000000,"state":"active","ping":102},{"user_id":347,"name":"3 Crabs in a bucket","steam_id":76561198173288395,"connected_time":1355000000000,"state":"active","ping":79},{"user_id":320,"name":"james_bondage","steam_id":76561199476062624,"connected_time":3605000000000,"state":"active","ping":90},{"user_id":350,"name":"BMoney","steam_id":76561198799389030,"connected_time":1278000000000,"state":"active","ping":129},{"user_id":348,"name":"FluffyEzio123","steam_id":76561198125304761,"connected_time":1339000000000,"state":"active","ping":82},{"user_id":330,"name":"Voodo133","steam_id":76561198042670351,"connected_time":3266000000000,"state":"active","ping":89},{"user_id":349,"name":"MistakesWereMade","steam_id":76561199059220481,"connected_time":1307000000000,"state":"active","ping":106},{"user_id":352,"name":"group fortification the second","steam_id":76561198986754793,"connected_time":1171000000000,"state":"active","ping":142},{"user_id":334,"name":"Shadow Steak Ramen","steam_id":76561198077838946,"connected_time":2140000000000,"state":"active","ping":66},{"user_id":335,"name":"Yoyo","steam_id":76561199000583700,"connected_time":2013000000000,"state":"active","ping":69},{"user_id":338,"name":"cyclops","steam_id":76561197970370198,"connected_time":1926000000000,"state":"active","ping":45},{"user_id":355,"name":"Frosty","steam_id":76561198117382889,"connected_time":1108000000000,"state":"active","ping":82},{"user_id":337,"name":"Alshek","steam_id":76561198115594676,"connected_time":1978000000000,"state":"active","ping":57},{"user_id":357,"name":"Petrivus","steam_id":76561198202152453,"connected_time":1007000000000,"state":"active","ping":111},{"user_id":356,"name":"A bowl of cereal","steam_id":76561198237348656,"connected_time":1108000000000,"state":"active","ping":111}]},{"server_id":38,"name":"Uncletopia | Chicago | 7 | Stopwatch","name_short":"chi-7","host":"chi-2.us.uncletopia.com","port":27035,"enabled":true,"region":"us-central","cc":"us","latitude":41.881832,"longitude":-87.62318,"reserved":0,"last_update":"0001-01-01T00:00:00Z","name_a2s":"Uncletopia | Chicago | 7 | Stopwatch","protocol":17,"map":"koth_lakeside_final","folder":"tf","game":"Team Fortress","app_id":440,"player_count":0,"max_players":24,"Bots":0,"server_type":"Dedicated","server_os":"Linux","password":true,"vac":true,"version":"7961495","steam_id":85568392924866364,"keywords":["cp","nocrits","nodmgspread","uncletopia"],"game_id":440,"stv_port":27036,"stv_name":"Uncletopia | Chicago | 7 | Stopwatch | STV","players":null},{"server_id":39,"name":"Uncletopia | Chicago | 8 | Community","name_short":"chi-8","host":"chi-2.us.uncletopia.com","port":27045,"enabled":true,"region":"us-central","cc":"us","latitude":41.881832,"longitude":-87.62318,"reserved":0,"last_update":"0001-01-01T00:00:00Z","name_a2s":"Uncletopia | Chicago | 8 | Community","protocol":17,"map":"workshop/pl_fifthcurve_rc1.ugc648227046","folder":"tf","game":"Team Fortress","app_id":440,"player_count":0,"max_players":24,"Bots":0,"server_type":"Dedicated","server_os":"Linux","password":true,"vac":true,"version":"7961495","steam_id":85568392924866365,"keywords":["nocrits","nodmgspread","payload","uncletopia"],"game_id":440,"stv_port":27046,"stv_name":"Uncletopia | Chicago | 8 | Community | STV","players":null},{"server_id":8,"name":"Uncletopia | Dallas | 1 | All Maps","name_short":"dal-1","host":"dal-1.us.uncletopia.com","port":27015,"enabled":true,"region":"us-central","cc":"us","latitude":32.779167,"longitude":-96.80889,"reserved":0,"last_update":"0001-01-01T00:00:00Z","name_a2s":"Uncletopia | Dallas | 1 | All Maps","protocol":17,"map":"pl_frontier_final","folder":"tf","game":"Team Fortress","app_id":440,"player_count":23,"max_players":24,"Bots":0,"server_type":"Dedicated","server_os":"Linux","password":true,"vac":true,"version":"7961495","steam_id":85568392924469986,"keywords":["nocrits","nodmgspread","payload","uncletopia"],"game_id":440,"stv_port":27016,"stv_name":"Uncletopia | Dallas | 1 | All Maps | STV","players":[{"user_id":720,"name":"canadian birds","steam_id":76561198059466588,"connected_time":539000000000,"state":"active","ping":76},{"user_id":695,"name":"wugmup","steam_id":76561199096287734,"connected_time":1678000000000,"state":"active","ping":91},{"user_id":678,"name":"tek lintowe fan","steam_id":76561198206177593,"connected_time":3074000000000,"state":"active","ping":76},{"user_id":714,"name":"Scoops M'Gooch","steam_id":76561198048423812,"connected_time":744000000000,"state":"active","ping":92},{"user_id":674,"name":"whoopdeedoo","steam_id":76561198064874829,"connected_time":3268000000000,"state":"active","ping":63},{"user_id":659,"name":"Gaming","steam_id":76561198107080532,"connected_time":3698000000000,"state":"active","ping":81},{"user_id":694,"name":"owl","steam_id":76561198088403016,"connected_time":1763000000000,"state":"active","ping":178},{"user_id":706,"name":"^;;^","steam_id":76561198164460801,"connected_time":1158000000000,"state":"active","ping":105},{"user_id":570,"name":"awawa oyoyo awawa oyoyo","steam_id":76561198062263639,"connected_time":11935000000000,"state":"active","ping":54},{"user_id":709,"name":"9/11 Airlines","steam_id":76561198096306325,"connected_time":1095000000000,"state":"active","ping":87},{"user_id":710,"name":"Projectrex","steam_id":76561198028223030,"connected_time":942000000000,"state":"active","ping":88},{"user_id":721,"name":"YASAI JUICE","steam_id":76561198131971992,"connected_time":508000000000,"state":"active","ping":59},{"user_id":726,"name":"Jon","steam_id":76561198290315229,"connected_time":227000000000,"state":"active","ping":85},{"user_id":722,"name":"CowMilkingMoth","steam_id":76561198047607935,"connected_time":505000000000,"state":"active","ping":72},{"user_id":697,"name":"frank n furter TF2EASY.COM","steam_id":76561198308883028,"connected_time":1635000000000,"state":"active","ping":85},{"user_id":723,"name":"bunnygirl gaming","steam_id":76561198036901822,"connected_time":407000000000,"state":"active","ping":45},{"user_id":700,"name":"W00t","steam_id":76561198017118256,"connected_time":1438000000000,"state":"active","ping":63},{"user_id":727,"name":"pim","steam_id":76561198095163441,"connected_time":219000000000,"state":"active","ping":55},{"user_id":728,"name":"START PRAYIN BOY","steam_id":76561198089173996,"connected_time":24000000000,"state":"spawning","ping":75},{"user_id":703,"name":"MasterGeek.MX","steam_id":76561198063355220,"connected_time":1417000000000,"state":"active","ping":98},{"user_id":635,"name":"Locomotive","steam_id":76561199152926930,"connected_time":6003000000000,"state":"active","ping":69},{"user_id":729,"name":"CherryPieRed2023","steam_id":76561198998007496,"connected_time":20000000000,"state":"active","ping":112},{"user_id":725,"name":"SHADOW","steam_id":76561198207768148,"connected_time":364000000000,"state":"active","ping":114}]},{"server_id":108,"name":"Uncletopia | Dallas | 2 | All Maps","name_short":"dal-2","host":"dal-1.us.uncletopia.com","port":27025,"enabled":true,"region":"us-central","cc":"us","latitude":32.779167,"longitude":-96.80889,"reserved":0,"last_update":"0001-01-01T00:00:00Z","name_a2s":"Uncletopia | Dallas | 2 | All Maps","protocol":17,"map":"pl_upward","folder":"tf","game":"Team Fortress","app_id":440,"player_count":24,"max_players":24,"Bots":0,"server_type":"Dedicated","server_os":"Linux","password":true,"vac":true,"version":"7961495","steam_id":85568392924469988,"keywords":["nocrits","nodmgspread","payload","uncletopia"],"game_id":440,"stv_port":27026,"stv_name":"Uncletopia | Dallas | 2 | All Maps | STV","players":[{"user_id":423,"name":"HalfDead","steam_id":76561198049700226,"connected_time":2598000000000,"state":"active","ping":103},{"user_id":400,"name":"Wizard02","steam_id":76561198178293623,"connected_time":4010000000000,"state":"active","ping":57},{"user_id":401,"name":"cass","steam_id":76561198074502046,"connected_time":3983000000000,"state":"active","ping":93},{"user_id":437,"name":"tretts","steam_id":76561199138150678,"connected_time":1170000000000,"state":"active","ping":74},{"user_id":419,"name":"PhantomGamerModz","steam_id":76561198425172210,"connected_time":2938000000000,"state":"active","ping":71},{"user_id":431,"name":"Killerfish360","steam_id":76561198115029584,"connected_time":1836000000000,"state":"active","ping":74},{"user_id":422,"name":"Fire Wizard","steam_id":76561198972006814,"connected_time":2698000000000,"state":"active","ping":66},{"user_id":424,"name":"Lore","steam_id":76561198098407538,"connected_time":2530000000000,"state":"active","ping":74},{"user_id":436,"name":"ReDiculous22","steam_id":76561198038391383,"connected_time":1559000000000,"state":"active","ping":45},{"user_id":403,"name":"gerg","steam_id":76561197997127387,"connected_time":3965000000000,"state":"active","ping":91},{"user_id":412,"name":"Cryo","steam_id":76561198264057688,"connected_time":3324000000000,"state":"active","ping":102},{"user_id":429,"name":"TheMightyGod","steam_id":76561198220055968,"connected_time":2058000000000,"state":"active","ping":59},{"user_id":404,"name":"Under an Unquiet Skull","steam_id":76561198164782653,"connected_time":3964000000000,"state":"active","ping":90},{"user_id":443,"name":"SomeoneElse","steam_id":76561198239023334,"connected_time":188000000000,"state":"active","ping":95},{"user_id":405,"name":"social distance warrior","steam_id":76561198128992994,"connected_time":3955000000000,"state":"active","ping":84},{"user_id":444,"name":"Extra Toasty","steam_id":76561198979550763,"connected_time":110000000000,"state":"active","ping":89},{"user_id":439,"name":"mrthugpug1732","steam_id":76561198881200768,"connected_time":1139000000000,"state":"active","ping":94},{"user_id":421,"name":"Muselk","steam_id":76561199289676387,"connected_time":2731000000000,"state":"active","ping":72},{"user_id":433,"name":"Dave1972@yahoo.com","steam_id":76561198154342285,"connected_time":1762000000000,"state":"active","ping":85},{"user_id":426,"name":"Deluxe_Taco34","steam_id":76561199037653437,"connected_time":2488000000000,"state":"active","ping":126},{"user_id":442,"name":"Squatter1","steam_id":76561198078987734,"connected_time":449000000000,"state":"active","ping":89},{"user_id":440,"name":"cure","steam_id":76561199174450788,"connected_time":1030000000000,"state":"active","ping":133},{"user_id":355,"name":"Lancerland","steam_id":76561198130497320,"connected_time":7307000000000,"state":"active","ping":88},{"user_id":441,"name":"fruitlogic","steam_id":76561198071251588,"connected_time":1021000000000,"state":"active","ping":92}]},{"server_id":404,"name":"Uncletopia | Dallas | 3 | All Maps","name_short":"dal-3","host":"dal-1.us.uncletopia.com","port":27035,"enabled":true,"region":"us-central","cc":"us","latitude":32.779167,"longitude":-96.80889,"reserved":0,"last_update":"0001-01-01T00:00:00Z","name_a2s":"Uncletopia | Dallas | 3 | All Maps","protocol":17,"map":"pl_upward","folder":"tf","game":"Team Fortress","app_id":440,"player_count":23,"max_players":24,"Bots":0,"server_type":"Dedicated","server_os":"Linux","password":true,"vac":true,"version":"7961495","steam_id":85568392924515219,"keywords":["nocrits","nodmgspread","payload","uncletopia"],"game_id":440,"stv_port":27036,"stv_name":"Uncletopia | Dallas | 3 | All Maps | STV","players":[{"user_id":368,"name":"da-me da-ne","steam_id":76561198186208857,"connected_time":896000000000,"state":"active","ping":73},{"user_id":363,"name":"PunchedHornet","steam_id":76561198226479172,"connected_time":1271000000000,"state":"active","ping":84},{"user_id":328,"name":"Dongus","steam_id":76561197979056451,"connected_time":4390000000000,"state":"active","ping":103},{"user_id":374,"name":"array","steam_id":76561198280409646,"connected_time":338000000000,"state":"active","ping":64},{"user_id":377,"name":"gooch_masta","steam_id":76561198151578423,"connected_time":50000000000,"state":"active","ping":87},{"user_id":378,"name":"Unidity Nargen - bidenskins.loo","steam_id":76561198368508980,"connected_time":45000000000,"state":"active","ping":96},{"user_id":379,"name":"bladees realest, saddest verse","steam_id":76561198098099826,"connected_time":8000000000,"state":"spawning","ping":68},{"user_id":364,"name":"lyvesauce","steam_id":76561198320740429,"connected_time":977000000000,"state":"active","ping":45},{"user_id":358,"name":"woooflet","steam_id":76561199208387179,"connected_time":1914000000000,"state":"active","ping":45},{"user_id":365,"name":"Red","steam_id":76561198001939529,"connected_time":973000000000,"state":"active","ping":85},{"user_id":372,"name":"IosephVII","steam_id":76561198101116197,"connected_time":840000000000,"state":"active","ping":116},{"user_id":280,"name":"‚ù§ Ashley ‚ù§","steam_id":76561198056428303,"connected_time":8879000000000,"state":"active","ping":78},{"user_id":322,"name":"Scrum","steam_id":76561198055422081,"connected_time":5289000000000,"state":"active","ping":65},{"user_id":323,"name":"Gwendolyn","steam_id":76561198170458145,"connected_time":5228000000000,"state":"active","ping":98},{"user_id":283,"name":"self sufficient kitten","steam_id":76561197960592612,"connected_time":8498000000000,"state":"active","ping":92},{"user_id":367,"name":"gemsticks","steam_id":76561198442218271,"connected_time":915000000000,"state":"active","ping":108},{"user_id":375,"name":"art vandelay","steam_id":76561198003219831,"connected_time":325000000000,"state":"active","ping":77},{"user_id":359,"name":"Decapitation Station","steam_id":76561198201796098,"connected_time":1734000000000,"state":"active","ping":92},{"user_id":332,"name":"A Mexican Troll","steam_id":76561197989019261,"connected_time":3769000000000,"state":"active","ping":73},{"user_id":370,"name":"Paperclip","steam_id":76561198057076337,"connected_time":881000000000,"state":"active","ping":115},{"user_id":335,"name":"Octo","steam_id":76561198024056355,"connected_time":3611000000000,"state":"active","ping":86},{"user_id":315,"name":"Kenny[Goblin]","steam_id":76561199005805984,"connected_time":5800000000000,"state":"active","ping":44},{"user_id":373,"name":"RC","steam_id":76561198048127881,"connected_time":831000000000,"state":"active","ping":61}]},{"server_id":405,"name":"Uncletopia | Dallas | 4 | Community","name_short":"dal-4","host":"dal-1.us.uncletopia.com","port":27045,"enabled":true,"region":"us-central","cc":"us","latitude":32.779167,"longitude":-96.80889,"reserved":0,"last_update":"0001-01-01T00:00:00Z","name_a2s":"Uncletopia | Dallas | 4 | Community","protocol":17,"map":"workshop/pl_cashworks_final1.ugc2904065412","folder":"tf","game":"Team Fortress","app_id":440,"player_count":0,"max_players":24,"Bots":0,"server_type":"Dedicated","server_os":"Linux","password":true,"vac":true,"version":"7961495","steam_id":85568392924515220,"keywords":["nocrits","nodmgspread","payload","uncletopia"],"game_id":440,"stv_port":27046,"stv_name":"Uncletopia | Dallas | 4 | Community | STV","players":null},{"server_id":5,"name":"Uncletopia | Frankfurt | 1 | All Maps","name_short":"frk-1","host":"frk-1.de.uncletopia.com","port":27015,"enabled":true,"region":"eu","cc":"de","latitude":50.110924,"longitude":8.682127,"reserved":0,"last_update":"0001-01-01T00:00:00Z","name_a2s":"Uncletopia | Frankfurt | 1 | All Maps","protocol":17,"map":"koth_highpass","folder":"tf","game":"Team Fortress","app_id":440,"player_count":0,"max_players":24,"Bots":0,"server_type":"Dedicated","server_os":"Linux","password":true,"vac":true,"version":"7961495","steam_id":85568392924469989,"keywords":["cp","nocrits","nodmgspread","uncletopia"],"game_id":440,"stv_port":27016,"stv_name":"Uncletopia | Frankfurt | 1 | All Maps | STV","players":null},{"server_id":110,"name":"Uncletopia | Frankfurt | 2 | All Maps","name_short":"frk-2","host":"frk-1.de.uncletopia.com","port":27025,"enabled":true,"region":"eu","cc":"de","latitude":50.110924,"longitude":8.682127,"reserved":0,"last_update":"0001-01-01T00:00:00Z","name_a2s":"Uncletopia | Frankfurt | 2 | All Maps","protocol":17,"map":"cp_dustbowl","folder":"tf","game":"Team Fortress","app_id":440,"player_count":0,"max_players":24,"Bots":0,"server_type":"Dedicated","server_os":"Linux","password":true,"vac":true,"version":"7961495","steam_id":85568392924469990,"keywords":["cp","nocrits","nodmgspread","uncletopia"],"game_id":440,"stv_port":27026,"stv_name":"Uncletopia | Frankfurt | 2 | All Maps | STV","players":null},{"server_id":308,"name":"Uncletopia | Frankfurt | 3 | All Maps","name_short":"frk-3","host":"frk-1.de.uncletopia.com","port":27035,"enabled":true,"region":"eu","cc":"de","latitude":50.110924,"longitude":8.682127,"reserved":0,"last_update":"0001-01-01T00:00:00Z","name_a2s":"Uncletopia | Frankfurt | 3 | All Maps","protocol":17,"map":"pl_barnblitz","folder":"tf","game":"Team Fortress","app_id":440,"player_count":0,"max_players":24,"Bots":0,"server_type":"Dedicated","server_os":"Linux","password":true,"vac":true,"version":"7961495","steam_id":85568392924504274,"keywords":["nocrits","nodmgspread","payload","uncletopia"],"game_id":440,"stv_port":27036,"stv_name":"Uncletopia | Frankfurt | 3 | All Maps | STV","players":null},{"server_id":309,"name":"Uncletopia | Frankfurt | 4 | All Maps","name_short":"frk-4","host":"frk-1.de.uncletopia.com","port":27045,"enabled":true,"region":"eu","cc":"de","latitude":50.110924,"longitude":8.682127,"reserved":0,"last_update":"0001-01-01T00:00:00Z","name_a2s":"Uncletopia | Frankfurt | 4 | All Maps","protocol":17,"map":"koth_highpass","folder":"tf","game":"Team Fortress","app_id":440,"player_count":0,"max_players":24,"Bots":0,"server_type":"Dedicated","server_os":"Linux","password":true,"vac":true,"version":"7961495","steam_id":85568392924504275,"keywords":["cp","nocrits","nodmgspread","uncletopia"],"game_id":440,"stv_port":27046,"stv_name":"Uncletopia | Frankfurt | 4 | All Maps | STV","players":null},{"server_id":310,"name":"Uncletopia | Frankfurt | 5 | All Maps","name_short":"frk-5","host":"frk-1.de.uncletopia.com","port":27055,"enabled":true,"region":"eu","cc":"de","latitude":50.110924,"longitude":8.682127,"reserved":0,"last_update":"0001-01-01T00:00:00Z","name_a2s":"Uncletopia | Frankfurt | 5 | All Maps","protocol":17,"map":"pl_badwater","folder":"tf","game":"Team Fortress","app_id":440,"player_count":0,"max_players":24,"Bots":0,"server_type":"Dedicated","server_os":"Linux","password":true,"vac":true,"version":"7961495","steam_id":85568392924504277,"keywords":["nocrits","nodmgspread","payload","uncletopia"],"game_id":440,"stv_port":27056,"stv_name":"Uncletopia | Frankfurt | 5 | All Maps | STV","players":null},{"server_id":311,"name":"Uncletopia | Frankfurt | 6 | All Maps","name_short":"frk-6","host":"frk-1.de.uncletopia.com","port":27065,"enabled":true,"region":"eu","cc":"de","latitude":50.110924,"longitude":8.682127,"reserved":0,"last_update":"0001-01-01T00:00:00Z","name_a2s":"Uncletopia | Frankfurt | 6 | All Maps","protocol":17,"map":"cp_altitude","folder":"tf","game":"Team Fortress","app_id":440,"player_count":0,"max_players":24,"Bots":0,"server_type":"Dedicated","server_os":"Linux","password":true,"vac":true,"version":"7961495","steam_id":85568392924504278,"keywords":["cp","nocrits","nodmgspread","uncletopia"],"game_id":440,"stv_port":27066,"stv_name":"Uncletopia | Frankfurt | 6 | All Maps | STV","players":null},{"server_id":23,"name":"Uncletopia | Frankfurt | 7 | Stopwatch","name_short":"frk-7","host":"frk-1.de.uncletopia.com","port":27075,"enabled":true,"region":"eu","cc":"de","latitude":50.110924,"longitude":8.682127,"reserved":0,"last_update":"0001-01-01T00:00:00Z","name_a2s":"Uncletopia | Frankfurt | 7 | Stopwatch","protocol":17,"map":"pl_frontier_final","folder":"tf","game":"Team Fortress","app_id":440,"player_count":0,"max_players":24,"Bots":0,"server_type":"Dedicated","server_os":"Linux","password":true,"vac":true,"version":"7961495","steam_id":85568392924742827,"keywords":["nocrits","nodmgspread","payload","uncletopia"],"game_id":440,"stv_port":27076,"stv_name":"Uncletopia | Frankfurt | 7 | Stopwatch | STV","players":null},{"server_id":24,"name":"Uncletopia | Frankfurt | 8 | Community","name_short":"frk-8","host":"frk-1.de.uncletopia.com","port":27085,"enabled":true,"region":"eu","cc":"de","latitude":50.110924,"longitude":8.682127,"reserved":0,"last_update":"0001-01-01T00:00:00Z","name_a2s":"Uncletopia | Frankfurt | 8 | Community","protocol":17,"map":"cp_mountainlab","folder":"tf","game":"Team Fortress","app_id":440,"player_count":0,"max_players":24,"Bots":0,"server_type":"Dedicated","server_os":"Linux","password":true,"vac":true,"version":"7961495","steam_id":85568392924742828,"keywords":["cp","nocrits","nodmgspread","uncletopia"],"game_id":440,"stv_port":27086,"stv_name":"Uncletopia | Frankfurt | 8 | Community | STV","players":null},{"server_id":202,"name":"Uncletopia | Hong Kong | 1 | All Maps","name_short":"hgk-1","host":"hgk-1.hk.uncletopia.com","port":27015,"enabled":true,"region":"asia","cc":"hk","latitude":22.302711,"longitude":114.177216,"reserved":0,"last_update":"0001-01-01T00:00:00Z","name_a2s":"Uncletopia | Hong Kong | 1 | All Maps","protocol":17,"map":"cp_sunshine","folder":"tf","game":"Team Fortress","app_id":440,"player_count":24,"max_players":24,"Bots":0,"server_type":"Dedicated","server_os":"Linux","password":true,"vac":true,"version":"7961495","steam_id":85568392924494504,"keywords":["cp","nocrits","nodmgspread","uncletopia"],"game_id":440,"stv_port":27016,"stv_name":"Uncletopia | Hong Kong | 1 | All Maps | STV","players":[{"user_id":91,"name":"Sai","steam_id":76561199069225036,"connected_time":2001000000000,"state":"active","ping":35},{"user_id":123,"name":"allMAX","steam_id":76561198270980670,"connected_time":528000000000,"state":"active","ping":100},{"user_id":125,"name":"Popolor","steam_id":76561198134861914,"connected_time":400000000000,"state":"active","ping":68},{"user_id":83,"name":"[Sicky] I twin-charged your kid","steam_id":76561198228084940,"connected_time":2551000000000,"state":"active","ping":42},{"user_id":126,"name":"Poli","steam_id":76561199118278155,"connected_time":393000000000,"state":"active","ping":61},{"user_id":81,"name":"Beef Wellington","steam_id":76561197995635241,"connected_time":2613000000000,"state":"active","ping":118},{"user_id":86,"name":"marisaloses","steam_id":76561199033032870,"connected_time":2405000000000,"state":"active","ping":116},{"user_id":127,"name":"2746","steam_id":76561199390507975,"connected_time":384000000000,"state":"active","ping":54},{"user_id":128,"name":"Saffron","steam_id":76561199025320247,"connected_time":382000000000,"state":"active","ping":75},{"user_id":66,"name":"Shades on Goggles","steam_id":76561198406067629,"connected_time":3884000000000,"state":"active","ping":109},{"user_id":40,"name":"e","steam_id":76561199120787394,"connected_time":5793000000000,"state":"active","ping":118},{"user_id":70,"name":"toad„ÉÑ","steam_id":76561198082199290,"connected_time":3562000000000,"state":"active","ping":44},{"user_id":117,"name":"LEGS","steam_id":76561199111623890,"connected_time":772000000000,"state":"active","ping":68},{"user_id":76,"name":"i am a F2P and my aim is shit","steam_id":76561199475974790,"connected_time":3098000000000,"state":"active","ping":80},{"user_id":129,"name":"Truong Bang","steam_id":76561198138009392,"connected_time":209000000000,"state":"active","ping":101},{"user_id":118,"name":"14","steam_id":76561198113401862,"connected_time":765000000000,"state":"active","ping":85},{"user_id":93,"name":"Dits","steam_id":76561198283833960,"connected_time":1826000000000,"state":"active","ping":41},{"user_id":74,"name":"PawmKin","steam_id":76561198344175018,"connected_time":3385000000000,"state":"active","ping":113},{"user_id":119,"name":"villy","steam_id":76561198169263597,"connected_time":765000000000,"state":"active","ping":37},{"user_id":130,"name":"keawluktao","steam_id":76561199197857102,"connected_time":180000000000,"state":"active","ping":104},{"user_id":90,"name":"MS PowerPoint","steam_id":76561198369523192,"connected_time":2184000000000,"state":"active","ping":65},{"user_id":87,"name":"PissDrinker196","steam_id":76561198856157761,"connected_time":2350000000000,"state":"active","ping":115},{"user_id":88,"name":"The one who shit on piss","steam_id":76561199254649689,"connected_time":2339000000000,"state":"active","ping":123},{"user_id":131,"name":"lolbeanlover","steam_id":76561199250851702,"connected_time":66000000000,"state":"active","ping":47}]},{"server_id":1,"name":"Uncletopia | Los Angeles | 1 | All Maps","name_short":"lax-1","host":"lax-1.us.uncletopia.com","port":27015,"enabled":true,"region":"us-west","cc":"us","latitude":33.94279,"longitude":-118.41004,"reserved":0,"last_update":"0001-01-01T00:00:00Z","name_a2s":"Uncletopia | Los Angeles | 1 | All Maps","protocol":17,"map":"pl_swiftwater_final1","folder":"tf","game":"Team Fortress","app_id":440,"player_count":24,"max_players":24,"Bots":0,"server_type":"Dedicated","server_os":"Linux","password":true,"vac":true,"version":"7961495","steam_id":85568392924469991,"keywords":["nocrits","nodmgspread","payload","uncletopia"],"game_id":440,"stv_port":27016,"stv_name":"Uncletopia | Los Angeles | 1 | All Maps | STV","players":[{"user_id":214,"name":"\u003c3","steam_id":76561198196829267,"connected_time":1983000000000,"state":"active","ping":56},{"user_id":199,"name":"Mr. Noodle","steam_id":76561198025280658,"connected_time":3148000000000,"state":"active","ping":49},{"user_id":195,"name":"monsterkill4567","steam_id":76561198272986367,"connected_time":3504000000000,"state":"active","ping":50},{"user_id":196,"name":"fertile moist and well drained","steam_id":76561198031409921,"connected_time":3476000000000,"state":"active","ping":49},{"user_id":189,"name":"vynn","steam_id":76561198017218011,"connected_time":3939000000000,"state":"active","ping":105},{"user_id":210,"name":"Syrup","steam_id":76561198055850531,"connected_time":2334000000000,"state":"active","ping":47},{"user_id":197,"name":"Schnitz","steam_id":76561198265484253,"connected_time":3472000000000,"state":"active","ping":58},{"user_id":211,"name":"EdxTheFig","steam_id":76561198108650109,"connected_time":2306000000000,"state":"active","ping":45},{"user_id":213,"name":"Supersonic","steam_id":76561198042167127,"connected_time":1997000000000,"state":"active","ping":87},{"user_id":176,"name":"SamSmelly","steam_id":76561198045152184,"connected_time":4468000000000,"state":"active","ping":48},{"user_id":175,"name":"sobaka","steam_id":76561198116008934,"connected_time":4493000000000,"state":"active","ping":57},{"user_id":177,"name":"soundcloud.com/cremexav","steam_id":76561198134544837,"connected_time":4413000000000,"state":"active","ping":45},{"user_id":220,"name":"Smoothpolishness","steam_id":76561198029084002,"connected_time":253000000000,"state":"active","ping":61},{"user_id":217,"name":"ChozoChorizo","steam_id":76561198272609196,"connected_time":312000000000,"state":"active","ping":99},{"user_id":205,"name":"BigGoose","steam_id":76561198833281392,"connected_time":3003000000000,"state":"active","ping":100},{"user_id":219,"name":"Larry Gooseman","steam_id":76561198018696922,"connected_time":282000000000,"state":"active","ping":59},{"user_id":208,"name":"GLXy","steam_id":76561198207551544,"connected_time":2358000000000,"state":"active","ping":69},{"user_id":166,"name":"Pyrotek‚Å¥","steam_id":76561198072747672,"connected_time":5514000000000,"state":"active","ping":44},{"user_id":212,"name":"poggerchamp","steam_id":76561199145124973,"connected_time":2302000000000,"state":"active","ping":89},{"user_id":218,"name":"awe","steam_id":76561198338739253,"connected_time":299000000000,"state":"active","ping":60},{"user_id":183,"name":"dodecadron","steam_id":76561198027397222,"connected_time":4219000000000,"state":"active","ping":96},{"user_id":209,"name":"Looge","steam_id":76561198155483586,"connected_time":2356000000000,"state":"active","ping":99},{"user_id":216,"name":"McCrabby","steam_id":76561199501373441,"connected_time":1536000000000,"state":"active","ping":47},{"user_id":186,"name":"FROYO b4nny","steam_id":76561197970669109,"connected_time":4109000000000,"state":"active","ping":46}]},{"server_id":112,"name":"Uncletopia | Los Angeles | 2 | All Maps","name_short":"lax-2","host":"lax-1.us.uncletopia.com","port":27025,"enabled":true,"region":"us-west","cc":"us","latitude":33.94279,"longitude":-118.41004,"reserved":0,"last_update":"0001-01-01T00:00:00Z","name_a2s":"Uncletopia | Los Angeles | 2 | All Maps","protocol":17,"map":"cp_egypt_final","folder":"tf","game":"Team Fortress","app_id":440,"player_count":24,"max_players":24,"Bots":0,"server_type":"Dedicated","server_os":"Linux","password":true,"vac":true,"version":"7961495","steam_id":85568392924469992,"keywords":["cp","nocrits","nodmgspread","uncletopia"],"game_id":440,"stv_port":27026,"stv_name":"Uncletopia | Los Angeles | 2 | All Maps | STV","players":[{"user_id":583,"name":"Boombox Bozo","steam_id":76561198327008356,"connected_time":2997000000000,"state":"active","ping":94},{"user_id":612,"name":"unnamed","steam_id":76561198240590320,"connected_time":849000000000,"state":"active","ping":45},{"user_id":615,"name":"Lumberjane37 (She/Her)","steam_id":76561198014841793,"connected_time":8000000000,"state":"spawning","ping":60},{"user_id":605,"name":"naturia","steam_id":76561198092317849,"connected_time":978000000000,"state":"active","ping":38},{"user_id":585,"name":"Cinquefoil","steam_id":76561198166967060,"connected_time":2956000000000,"state":"active","ping":56},{"user_id":595,"name":"hiSockk","steam_id":76561199340001395,"connected_time":2722000000000,"state":"active","ping":58},{"user_id":555,"name":"Be Gay, Do Crimes, Smoke Weed!","steam_id":76561198092419868,"connected_time":6244000000000,"state":"active","ping":84},{"user_id":584,"name":"The_Dominator47","steam_id":76561198170443759,"connected_time":2988000000000,"state":"active","ping":58},{"user_id":546,"name":"Ethanol Buttchugger","steam_id":76561199127590316,"connected_time":6825000000000,"state":"active","ping":60},{"user_id":616,"name":"vanillain","steam_id":76561198058617608,"connected_time":7000000000,"state":"spawning","ping":58},{"user_id":614,"name":"Gamecmdr","steam_id":76561198001623218,"connected_time":26000000000,"state":"active","ping":100},{"user_id":597,"name":"BitPieStudios","steam_id":76561198059216393,"connected_time":2582000000000,"state":"active","ping":47},{"user_id":609,"name":"Listen up, chopped salad","steam_id":76561198015440724,"connected_time":896000000000,"state":"active","ping":76},{"user_id":581,"name":"Mario Barret","steam_id":76561198301353499,"connected_time":3061000000000,"state":"active","ping":48},{"user_id":582,"name":"Schnabel","steam_id":76561198226159564,"connected_time":3061000000000,"state":"active","ping":68},{"user_id":606,"name":"Knebby","steam_id":76561198045154056,"connected_time":967000000000,"state":"active","ping":51},{"user_id":553,"name":"Drone #0432 (they/it)","steam_id":76561198027321950,"connected_time":6455000000000,"state":"active","ping":93},{"user_id":587,"name":"Error","steam_id":76561199050994293,"connected_time":2938000000000,"state":"active","ping":69},{"user_id":613,"name":"The Gitrog Monster","steam_id":76561198026941076,"connected_time":250000000000,"state":"active","ping":57},{"user_id":589,"name":"blozet","steam_id":76561199120161035,"connected_time":2899000000000,"state":"active","ping":104},{"user_id":598,"name":"Type Three Dabeetus","steam_id":76561198062710038,"connected_time":2572000000000,"state":"active","ping":57},{"user_id":607,"name":"monkey squirts","steam_id":76561197983101644,"connected_time":938000000000,"state":"active","ping":50},{"user_id":602,"name":"TheBrocklobster","steam_id":76561198039682984,"connected_time":1776000000000,"state":"active","ping":56},{"user_id":599,"name":"Joe From Progressive","steam_id":76561198336597038,"connected_time":2549000000000,"state":"active","ping":45}]},{"server_id":324,"name":"Uncletopia | Los Angeles | 3 | All Maps","name_short":"lax-3","host":"lax-1.us.uncletopia.com","port":27035,"enabled":true,"region":"us-west","cc":"us","latitude":33.94279,"longitude":-118.41004,"reserved":0,"last_update":"0001-01-01T00:00:00Z","name_a2s":"Uncletopia | Los Angeles | 3 | All Maps","protocol":17,"map":"koth_viaduct","folder":"tf","game":"Team Fortress","app_id":440,"player_count":4,"max_players":24,"Bots":0,"server_type":"Dedicated","server_os":"Linux","password":true,"vac":true,"version":"7961495","steam_id":85568392924510198,"keywords":["cp","nocrits","nodmgspread","uncletopia"],"game_id":440,"stv_port":27036,"stv_name":"Uncletopia | Los Angeles | 3 | All Maps | STV","players":[{"user_id":22,"name":"Ebby","steam_id":76561198124284351,"connected_time":489000000000,"state":"active","ping":105},{"user_id":23,"name":"XenPie","steam_id":76561198814382153,"connected_time":488000000000,"state":"active","ping":54},{"user_id":24,"name":"Yung 2.0","steam_id":76561198089364689,"connected_time":433000000000,"state":"active","ping":122},{"user_id":25,"name":"FriskyDemon","steam_id":76561198043684646,"connected_time":369000000000,"state":"active","ping":73}]},{"server_id":25,"name":"Uncletopia | Los Angeles | 4 | Stopwatch","name_short":"lax-4","host":"lax-1.us.uncletopia.com","port":27045,"enabled":true,"region":"us-west","cc":"us","latitude":33.94279,"longitude":-118.41004,"reserved":0,"last_update":"0001-01-01T00:00:00Z","name_a2s":"Uncletopia | Los Angeles | 4 | Stopwatch","protocol":17,"map":"workshop/koth_bagel_rc6.ugc2514036946","folder":"tf","game":"Team Fortress","app_id":440,"player_count":0,"max_players":24,"Bots":0,"server_type":"Dedicated","server_os":"Linux","password":true,"vac":true,"version":"7961495","steam_id":85568392924510199,"keywords":["cp","nocrits","nodmgspread","uncletopia"],"game_id":440,"stv_port":27046,"stv_name":"Uncletopia | Los Angeles | 4 | Stopwatch | STV","players":null},{"server_id":11,"name":"Uncletopia | London | 1 | All Maps","name_short":"lon-1","host":"lon-1.uk.uncletopia.com","port":27015,"enabled":true,"region":"eu","cc":"gb","latitude":51.509865,"longitude":-0.118092,"reserved":0,"last_update":"0001-01-01T00:00:00Z","name_a2s":"Uncletopia | London | 1 | All Maps","protocol":17,"map":"pl_frontier_final","folder":"tf","game":"Team Fortress","app_id":440,"player_count":18,"max_players":24,"Bots":0,"server_type":"Dedicated","server_os":"Linux","password":true,"vac":true,"version":"7961495","steam_id":85568392924367362,"keywords":["nocrits","nodmgspread","payload","uncletopia"],"game_id":440,"stv_port":27016,"stv_name":"Uncletopia | London | 1 | All Maps | STV","players":[{"user_id":49,"name":"Louna","steam_id":76561198393344301,"connected_time":9000000000,"state":"active","ping":101},{"user_id":25,"name":"Dooting","steam_id":76561199069121777,"connected_time":1617000000000,"state":"active","ping":85},{"user_id":33,"name":"Edith","steam_id":76561198867635722,"connected_time":918000000000,"state":"active","ping":143},{"user_id":24,"name":"Lewylow","steam_id":76561198005425686,"connected_time":1906000000000,"state":"active","ping":52},{"user_id":27,"name":"Sgorbio09","steam_id":76561199081364164,"connected_time":1536000000000,"state":"active","ping":85},{"user_id":34,"name":"Bounty","steam_id":76561198032698137,"connected_time":902000000000,"state":"active","ping":67},{"user_id":48,"name":"Demongodcrush","steam_id":76561198001531988,"connected_time":99000000000,"state":"active","ping":157},{"user_id":12,"name":"jjkun786","steam_id":76561199438517484,"connected_time":3284000000000,"state":"active","ping":30},{"user_id":45,"name":"Pulga Pelada","steam_id":76561198147163134,"connected_time":265000000000,"state":"active","ping":81},{"user_id":29,"name":"noseb","steam_id":76561199480942903,"connected_time":1081000000000,"state":"active","ping":77},{"user_id":40,"name":"MrEdman4","steam_id":76561198062233923,"connected_time":593000000000,"state":"active","ping":110},{"user_id":31,"name":"Abdul Orozslan","steam_id":76561199215033257,"connected_time":1012000000000,"state":"active","ping":120},{"user_id":46,"name":"MastahDizzy","steam_id":76561198123024093,"connected_time":264000000000,"state":"active","ping":47},{"user_id":42,"name":"Geeeny","steam_id":76561197981643120,"connected_time":488000000000,"state":"active","ping":64},{"user_id":37,"name":"Ace","steam_id":76561198193179149,"connected_time":842000000000,"state":"active","ping":109},{"user_id":43,"name":"Madokanon","steam_id":76561199500033132,"connected_time":430000000000,"state":"active","ping":105},{"user_id":39,"name":"henrik2357","steam_id":76561199499721991,"connected_time":789000000000,"state":"active","ping":85},{"user_id":47,"name":"Qdarks","steam_id":76561198013391340,"connected_time":227000000000,"state":"active","ping":144}]},{"server_id":114,"name":"Uncletopia | London | 2 | All Maps","name_short":"lon-2","host":"lon-1.uk.uncletopia.com","port":27025,"enabled":true,"region":"eu","cc":"gb","latitude":51.509865,"longitude":-0.118092,"reserved":0,"last_update":"0001-01-01T00:00:00Z","name_a2s":"Uncletopia | London | 2 | All Maps","protocol":17,"map":"koth_lakeside_final","folder":"tf","game":"Team Fortress","app_id":440,"player_count":0,"max_players":24,"Bots":0,"server_type":"Dedicated","server_os":"Linux","password":true,"vac":true,"version":"7961495","steam_id":85568392924470941,"keywords":["cp","nocrits","nodmgspread","uncletopia"],"game_id":440,"stv_port":27026,"stv_name":"Uncletopia | London | 2 | All Maps | STV","players":null},{"server_id":320,"name":"Uncletopia | London | 3 | All Maps","name_short":"lon-3","host":"lon-1.uk.uncletopia.com","port":27035,"enabled":true,"region":"eu","cc":"gb","latitude":51.509865,"longitude":-0.118092,"reserved":0,"last_update":"0001-01-01T00:00:00Z","name_a2s":"Uncletopia | London | 3 | All Maps","protocol":17,"map":"cp_process_final","folder":"tf","game":"Team Fortress","app_id":440,"player_count":0,"max_players":24,"Bots":0,"server_type":"Dedicated","server_os":"Linux","password":true,"vac":true,"version":"7961495","steam_id":85568392924510192,"keywords":["cp","nocrits","nodmgspread","uncletopia"],"game_id":440,"stv_port":27036,"stv_name":"Uncletopia | London | 3 | All Maps | STV","players":null},{"server_id":321,"name":"Uncletopia | London | 4 | All Maps","name_short":"lon-4","host":"lon-1.uk.uncletopia.com","port":27045,"enabled":true,"region":"eu","cc":"gb","latitude":51.509865,"longitude":-0.118092,"reserved":0,"last_update":"0001-01-01T00:00:00Z","name_a2s":"Uncletopia | London | 4 | All Maps","protocol":17,"map":"koth_cascade","folder":"tf","game":"Team Fortress","app_id":440,"player_count":0,"max_players":24,"Bots":0,"server_type":"Dedicated","server_os":"Linux","password":true,"vac":true,"version":"7961495","steam_id":85568392924510193,"keywords":["cp","nocrits","nodmgspread","uncletopia"],"game_id":440,"stv_port":27046,"stv_name":"Uncletopia | London | 4 | All Maps | STV","players":null},{"server_id":21,"name":"Uncletopia | London | 5 | All Maps","name_short":"lon-5","host":"lon-1.uk.uncletopia.com","port":27055,"enabled":true,"region":"eu","cc":"gb","latitude":51.509865,"longitude":-0.118092,"reserved":0,"last_update":"0001-01-01T00:00:00Z","name_a2s":"Uncletopia | London | 5 | All Maps","protocol":17,"map":"koth_lakeside_final","folder":"tf","game":"Team Fortress","app_id":440,"player_count":0,"max_players":24,"Bots":0,"server_type":"Dedicated","server_os":"Linux","password":true,"vac":true,"version":"7961495","steam_id":85568392924742829,"keywords":["cp","nocrits","nodmgspread","uncletopia"],"game_id":440,"stv_port":27056,"stv_name":"Uncletopia | London | 5 | All Maps | STV","players":null},{"server_id":22,"name":"Uncletopia | London | 6 | All Maps","name_short":"lon-6","host":"lon-1.uk.uncletopia.com","port":27065,"enabled":true,"region":"eu","cc":"gb","latitude":51.509865,"longitude":-0.118092,"reserved":0,"last_update":"0001-01-01T00:00:00Z","name_a2s":"Uncletopia | London | 6 | All Maps","protocol":17,"map":"cp_dustbowl","folder":"tf","game":"Team Fortress","app_id":440,"player_count":0,"max_players":24,"Bots":0,"server_type":"Dedicated","server_os":"Linux","password":true,"vac":true,"version":"7961495","steam_id":85568392924742830,"keywords":["cp","nocrits","nodmgspread","uncletopia"],"game_id":440,"stv_port":27066,"stv_name":"Uncletopia | London | 6 | All Maps | STV","players":null},{"server_id":40,"name":"Uncletopia | London | 7 | Stopwatch","name_short":"lon-7","host":"lon-1.uk.uncletopia.com","port":27075,"enabled":true,"region":"eu","cc":"gb","latitude":51.509865,"longitude":-0.118092,"reserved":0,"last_update":"0001-01-01T00:00:00Z","name_a2s":"Uncletopia | London | 7 | Stopwatch","protocol":17,"map":"koth_lakeside_final","folder":"tf","game":"Team Fortress","app_id":440,"player_count":0,"max_players":24,"Bots":0,"server_type":"Dedicated","server_os":"Linux","password":true,"vac":true,"version":"7961495","steam_id":85568392924964314,"keywords":["cp","nocrits","nodmgspread","uncletopia"],"game_id":440,"stv_port":27076,"stv_name":"Uncletopia | London | 7 | Stopwatch | STV","players":null},{"server_id":41,"name":"Uncletopia | London | 8 | Community","name_short":"lon-8","host":"lon-1.uk.uncletopia.com","port":27085,"enabled":true,"region":"eu","cc":"gb","latitude":51.509865,"longitude":-0.118092,"reserved":0,"last_update":"0001-01-01T00:00:00Z","name_a2s":"Uncletopia | London | 8 | Community","protocol":17,"map":"workshop/pl_corrode_rc2.ugc546577989","folder":"tf","game":"Team Fortress","app_id":440,"player_count":2,"max_players":24,"Bots":0,"server_type":"Dedicated","server_os":"Linux","password":true,"vac":true,"version":"7961495","steam_id":85568392924964315,"keywords":["nocrits","nodmgspread","payload","uncletopia"],"game_id":440,"stv_port":27086,"stv_name":"Uncletopia | London | 8 | Community | STV","players":[{"user_id":3,"name":"khaim0919","steam_id":76561198254695382,"connected_time":131000000000,"state":"active","ping":175},{"user_id":4,"name":"a blobfish with internet access","steam_id":76561199383803580,"connected_time":81000000000,"state":"spawning","ping":624}]},{"server_id":300,"name":"Uncletopia | Montr√©al | 1 | One Thousand Uncles","name_short":"mtl-1","host":"mtl-1.ca.uncletopia.com","port":27015,"enabled":true,"region":"us-east","cc":"ca","latitude":45.50889,"longitude":-73.56167,"reserved":0,"last_update":"0001-01-01T00:00:00Z","name_a2s":"","protocol":0,"map":"","folder":"","game":"","app_id":0,"player_count":0,"max_players":0,"Bots":0,"server_type":"","server_os":"","password":false,"vac":false,"version":"","steam_id":0,"keywords":null,"game_id":0,"stv_port":0,"stv_name":"","players":null},{"server_id":301,"name":"Uncletopia | Montr√©al | 2 | One Thousand Uncles","name_short":"mtl-2","host":"mtl-1.ca.uncletopia.com","port":27025,"enabled":true,"region":"us-east","cc":"ca","latitude":45.50889,"longitude":-73.56167,"reserved":0,"last_update":"0001-01-01T00:00:00Z","name_a2s":"","protocol":0,"map":"","folder":"","game":"","app_id":0,"player_count":0,"max_players":0,"Bots":0,"server_type":"","server_os":"","password":false,"vac":false,"version":"","steam_id":0,"keywords":null,"game_id":0,"stv_port":0,"stv_name":"","players":null},{"server_id":302,"name":"Uncletopia | Montr√©al | 3 | One Thousand Uncles","name_short":"mtl-3","host":"mtl-1.ca.uncletopia.com","port":27035,"enabled":true,"region":"us-east","cc":"ca","latitude":45.50889,"longitude":-73.56167,"reserved":0,"last_update":"0001-01-01T00:00:00Z","name_a2s":"","protocol":0,"map":"","folder":"","game":"","app_id":0,"player_count":0,"max_players":0,"Bots":0,"server_type":"","server_os":"","password":false,"vac":false,"version":"","steam_id":0,"keywords":null,"game_id":0,"stv_port":0,"stv_name":"","players":null},{"server_id":13,"name":"Uncletopia | New York City | 1 | All Maps","name_short":"nyc-1","host":"nyc-1.us.uncletopia.com","port":27015,"enabled":true,"region":"us-east","cc":"us","latitude":40.73061,"longitude":-73.93524,"reserved":0,"last_update":"0001-01-01T00:00:00Z","name_a2s":"Uncletopia | New York City | 1 | All Maps","protocol":17,"map":"pl_frontier_final","folder":"tf","game":"Team Fortress","app_id":440,"player_count":23,"max_players":24,"Bots":0,"server_type":"Dedicated","server_os":"Linux","password":true,"vac":true,"version":"7961495","steam_id":85568392924469993,"keywords":["nocrits","nodmgspread","payload","uncletopia"],"game_id":440,"stv_port":27016,"stv_name":"Uncletopia | New York City | 1 | All Maps | STV","players":[{"user_id":671,"name":"sloth (be nice im cringe)","steam_id":76561198047098172,"connected_time":4315000000000,"state":"active","ping":60},{"user_id":682,"name":"Buck","steam_id":76561198064244796,"connected_time":3478000000000,"state":"active","ping":48},{"user_id":721,"name":"Muffin","steam_id":76561198111403028,"connected_time":559000000000,"state":"active","ping":60},{"user_id":722,"name":"cat enjoyer","steam_id":76561198841284543,"connected_time":404000000000,"state":"active","ping":88},{"user_id":658,"name":"Voracious Puma","steam_id":76561197963621649,"connected_time":5108000000000,"state":"active","ping":89},{"user_id":717,"name":"rubn","steam_id":76561198119586410,"connected_time":759000000000,"state":"active","ping":135},{"user_id":723,"name":"Sputnuts","steam_id":76561198236857310,"connected_time":392000000000,"state":"active","ping":41},{"user_id":664,"name":"Femboy Medic Main","steam_id":76561198268225109,"connected_time":4570000000000,"state":"active","ping":82},{"user_id":702,"name":"Stunner","steam_id":76561198063197896,"connected_time":1595000000000,"state":"active","ping":124},{"user_id":609,"name":"googa","steam_id":76561198133130452,"connected_time":10404000000000,"state":"active","ping":45},{"user_id":710,"name":"ssuurrffiinn","steam_id":76561198100942212,"connected_time":1052000000000,"state":"active","ping":75},{"user_id":724,"name":"riley","steam_id":76561198133142520,"connected_time":306000000000,"state":"active","ping":64},{"user_id":585,"name":"ndvr","steam_id":76561199379200102,"connected_time":12216000000000,"state":"active","ping":55},{"user_id":697,"name":"kikikikoboy","steam_id":76561198073380271,"connected_time":2146000000000,"state":"active","ping":68},{"user_id":727,"name":"Honey-Fox","steam_id":76561198133244742,"connected_time":117000000000,"state":"active","ping":53},{"user_id":725,"name":"Kiril","steam_id":76561198051433762,"connected_time":220000000000,"state":"active","ping":157},{"user_id":708,"name":"ellby","steam_id":76561198304585963,"connected_time":1234000000000,"state":"active","ping":60},{"user_id":726,"name":"Muxie","steam_id":76561198268567705,"connected_time":160000000000,"state":"active","ping":39},{"user_id":713,"name":"GarbageTruck","steam_id":76561198080019414,"connected_time":940000000000,"state":"active","ping":70},{"user_id":728,"name":"The Horny","steam_id":76561198863639459,"connected_time":52000000000,"state":"spawning","ping":665},{"user_id":715,"name":"Ludcmorais","steam_id":76561198359217809,"connected_time":910000000000,"state":"active","ping":173},{"user_id":716,"name":"Kimmyera","steam_id":76561198060317191,"connected_time":886000000000,"state":"active","ping":62},{"user_id":696,"name":"Warhawk","steam_id":76561198049067108,"connected_time":2368000000000,"state":"active","ping":113}]},{"server_id":14,"name":"Uncletopia | New York City | 2 | All Maps","name_short":"nyc-2","host":"nyc-1.us.uncletopia.com","port":27025,"enabled":true,"region":"us-east","cc":"us","latitude":40.73061,"longitude":-73.93524,"reserved":0,"last_update":"0001-01-01T00:00:00Z","name_a2s":"Uncletopia | New York City | 2 | All Maps","protocol":17,"map":"koth_highpass","folder":"tf","game":"Team Fortress","app_id":440,"player_count":0,"max_players":24,"Bots":0,"server_type":"Dedicated","server_os":"Linux","password":true,"vac":true,"version":"7961495","steam_id":85568392924469994,"keywords":["cp","nocrits","nodmgspread","uncletopia"],"game_id":440,"stv_port":27026,"stv_name":"Uncletopia | New York City | 2 | All Maps | STV","players":null},{"server_id":15,"name":"Uncletopia | New York City | 3 | Stopwatch","name_short":"nyc-3","host":"nyc-1.us.uncletopia.com","port":27035,"enabled":true,"region":"us-east","cc":"us","latitude":40.73061,"longitude":-73.93524,"reserved":0,"last_update":"0001-01-01T00:00:00Z","name_a2s":"Uncletopia | New York City | 3 | Stopwatch","protocol":17,"map":"cp_gullywash_final1","folder":"tf","game":"Team Fortress","app_id":440,"player_count":0,"max_players":24,"Bots":0,"server_type":"Dedicated","server_os":"Linux","password":true,"vac":true,"version":"7961495","steam_id":85568392924742820,"keywords":["cp","nocrits","nodmgspread","uncletopia"],"game_id":440,"stv_port":27036,"stv_name":"Uncletopia | New York City | 3 | Stopwatch | STV","players":null},{"server_id":16,"name":"Uncletopia | New York City | 4 | Community","name_short":"nyc-4","host":"nyc-1.us.uncletopia.com","port":27045,"enabled":true,"region":"us-east","cc":"us","latitude":40.73061,"longitude":-73.93524,"reserved":0,"last_update":"0001-01-01T00:00:00Z","name_a2s":"Uncletopia | New York City | 4 | Community","protocol":17,"map":"workshop/pl_boundary_final1.ugc456799153","folder":"tf","game":"Team Fortress","app_id":440,"player_count":0,"max_players":24,"Bots":0,"server_type":"Dedicated","server_os":"Linux","password":true,"vac":true,"version":"7961495","steam_id":85568392924742821,"keywords":["nocrits","nodmgspread","payload","uncletopia"],"game_id":440,"stv_port":27046,"stv_name":"Uncletopia | New York City | 4 | Community | STV","players":null},{"server_id":142,"name":"Uncletopia | S√£o Paulo | 1 | All Maps","name_short":"sao-1","host":"sao-1.br.uncletopia.com","port":27015,"enabled":true,"region":"sa","cc":"br","latitude":-23.533773,"longitude":-46.62529,"reserved":0,"last_update":"0001-01-01T00:00:00Z","name_a2s":"Uncletopia | S√£o Paulo | 1 | All Maps","protocol":17,"map":"koth_viaduct","folder":"tf","game":"Team Fortress","app_id":440,"player_count":0,"max_players":24,"Bots":0,"server_type":"Dedicated","server_os":"Linux","password":true,"vac":true,"version":"7961495","steam_id":85568392924469996,"keywords":["cp","nocrits","nodmgspread","uncletopia"],"game_id":440,"stv_port":27016,"stv_name":"Uncletopia | S√£o Paulo | 1 | All Maps | STV","players":null},{"server_id":143,"name":"Uncletopia | S√£o Paulo | 2 | Community","name_short":"sao-2","host":"sao-2.br.uncletopia.com","port":27015,"enabled":true,"region":"sa","cc":"br","latitude":-23.533773,"longitude":-46.62529,"reserved":0,"last_update":"0001-01-01T00:00:00Z","name_a2s":"Uncletopia | S√£o Paulo | 2 | Community","protocol":17,"map":"workshop/koth_slaughter_rc1.ugc1712845210","folder":"tf","game":"Team Fortress","app_id":440,"player_count":0,"max_players":24,"Bots":0,"server_type":"Dedicated","server_os":"Linux","password":true,"vac":true,"version":"7961495","steam_id":85568392924485349,"keywords":["cp","nocrits","nodmgspread","uncletopia"],"game_id":440,"stv_port":27016,"stv_name":"Uncletopia | S√£o Paulo | 2 | Community | STV","players":null},{"server_id":7,"name":"Uncletopia | Seattle | 1 | All Maps","name_short":"sea-1","host":"sea-1.us.uncletopia.com","port":27015,"enabled":true,"region":"us-west","cc":"us","latitude":47.608013,"longitude":-122.33517,"reserved":0,"last_update":"0001-01-01T00:00:00Z","name_a2s":"Uncletopia | Seattle | 1 | All Maps","protocol":17,"map":"plr_bananabay","folder":"tf","game":"Team Fortress","app_id":440,"player_count":24,"max_players":24,"Bots":0,"server_type":"Dedicated","server_os":"Linux","password":true,"vac":true,"version":"7961495","steam_id":85568392924469997,"keywords":["nocrits","nodmgspread","payload","uncletopia"],"game_id":440,"stv_port":27016,"stv_name":"Uncletopia | Seattle | 1 | All Maps | STV","players":[{"user_id":562,"name":"toes","steam_id":76561198221151676,"connected_time":4712000000000,"state":"active","ping":56},{"user_id":607,"name":"C Sharp Minor","steam_id":76561199185191710,"connected_time":196000000000,"state":"active","ping":135},{"user_id":578,"name":"NEBULA","steam_id":76561198086878595,"connected_time":2780000000000,"state":"active","ping":70},{"user_id":609,"name":"Shibbitties","steam_id":76561197977628298,"connected_time":16000000000,"state":"active","ping":53},{"user_id":565,"name":"Ayayayayayahuasca","steam_id":76561199002906056,"connected_time":4663000000000,"state":"active","ping":48},{"user_id":601,"name":"twink in pastry flops","steam_id":76561198340646012,"connected_time":273000000000,"state":"active","ping":44},{"user_id":504,"name":"Attrition","steam_id":76561197969881916,"connected_time":10014000000000,"state":"active","ping":46},{"user_id":597,"name":"PopcornBucketGames","steam_id":76561199089562026,"connected_time":876000000000,"state":"active","ping":50},{"user_id":599,"name":"thats crazy","steam_id":76561198095480838,"connected_time":529000000000,"state":"active","ping":45},{"user_id":544,"name":"Melly","steam_id":76561198045867175,"connected_time":6272000000000,"state":"active","ping":75},{"user_id":604,"name":"Daz","steam_id":76561198041431938,"connected_time":239000000000,"state":"active","ping":52},{"user_id":572,"name":"Latency","steam_id":76561198106690890,"connected_time":3709000000000,"state":"active","ping":67},{"user_id":593,"name":"blinkerton city","steam_id":76561198054270410,"connected_time":1095000000000,"state":"active","ping":58},{"user_id":569,"name":"chocky","steam_id":76561198057491296,"connected_time":4013000000000,"state":"active","ping":45},{"user_id":605,"name":":(){ :|:\u0026 };:","steam_id":76561198115242460,"connected_time":237000000000,"state":"active","ping":72},{"user_id":558,"name":"Lily Thorn","steam_id":76561198305488625,"connected_time":5246000000000,"state":"active","ping":57},{"user_id":586,"name":"vulture pupy","steam_id":76561198061963965,"connected_time":2596000000000,"state":"active","ping":61},{"user_id":602,"name":"gorlab","steam_id":76561198025089694,"connected_time":267000000000,"state":"active","ping":64},{"user_id":580,"name":"Exbocks","steam_id":76561198222343492,"connected_time":2739000000000,"state":"active","ping":61},{"user_id":608,"name":"Sweets","steam_id":76561198998446307,"connected_time":103000000000,"state":"active","ping":62},{"user_id":573,"name":"Nom Skirrett","steam_id":76561198014600788,"connected_time":3679000000000,"state":"active","ping":64},{"user_id":590,"name":"DragonJimmy","steam_id":76561198272966565,"connected_time":2471000000000,"state":"active","ping":91},{"user_id":588,"name":"Username","steam_id":76561198198918781,"connected_time":2524000000000,"state":"active","ping":83},{"user_id":591,"name":"rushy :))","steam_id":76561198065825165,"connected_time":2417000000000,"state":"active","ping":100}]},{"server_id":119,"name":"Uncletopia | Seattle | 2 | All Maps","name_short":"sea-2","host":"sea-1.us.uncletopia.com","port":27025,"enabled":true,"region":"us-west","cc":"us","latitude":47.608013,"longitude":-122.33517,"reserved":0,"last_update":"0001-01-01T00:00:00Z","name_a2s":"Uncletopia | Seattle | 2 | All Maps","protocol":17,"map":"cp_sunshine","folder":"tf","game":"Team Fortress","app_id":440,"player_count":22,"max_players":24,"Bots":0,"server_type":"Dedicated","server_os":"Linux","password":true,"vac":true,"version":"7961495","steam_id":85568392924469998,"keywords":["cp","nocrits","nodmgspread","uncletopia"],"game_id":440,"stv_port":27026,"stv_name":"Uncletopia | Seattle | 2 | All Maps | STV","players":[{"user_id":258,"name":"duddlee","steam_id":76561198030052564,"connected_time":11721000000000,"state":"active","ping":58},{"user_id":374,"name":"IonicMist","steam_id":76561198047105563,"connected_time":447000000000,"state":"active","ping":45},{"user_id":375,"name":"jodi.org","steam_id":76561198131833567,"connected_time":424000000000,"state":"active","ping":63},{"user_id":387,"name":"ÂáØÂì•","steam_id":76561198315497009,"connected_time":7000000000,"state":"spawning","ping":234},{"user_id":382,"name":"RainboomCrash","steam_id":76561198065612273,"connected_time":201000000000,"state":"active","ping":45},{"user_id":380,"name":"ƒê√Ø…ê»ê…π…¶…Üa","steam_id":76561198981411945,"connected_time":281000000000,"state":"active","ping":67},{"user_id":354,"name":"wendigo","steam_id":76561197994528974,"connected_time":3525000000000,"state":"active","ping":86},{"user_id":331,"name":"BL√òRG","steam_id":76561198036126673,"connected_time":5708000000000,"state":"active","ping":84},{"user_id":324,"name":"mo wangs","steam_id":76561198045992418,"connected_time":6416000000000,"state":"active","ping":58},{"user_id":381,"name":"Captain Keyes","steam_id":76561198434168606,"connected_time":269000000000,"state":"active","ping":54},{"user_id":297,"name":"Dank Hill","steam_id":76561198081194839,"connected_time":8552000000000,"state":"active","ping":47},{"user_id":367,"name":"Skagerecked","steam_id":76561198006578524,"connected_time":1429000000000,"state":"active","ping":45},{"user_id":383,"name":"Mustapha Lemieux","steam_id":76561198151666102,"connected_time":189000000000,"state":"active","ping":60},{"user_id":323,"name":"GalaxyDoug32","steam_id":76561197997126305,"connected_time":6525000000000,"state":"active","ping":60},{"user_id":368,"name":"jerry the abacus","steam_id":76561198041863231,"connected_time":1217000000000,"state":"active","ping":74},{"user_id":353,"name":"Banette","steam_id":76561198215458333,"connected_time":3550000000000,"state":"active","ping":49},{"user_id":350,"name":"Boogie03","steam_id":76561198995812187,"connected_time":3890000000000,"state":"active","ping":72},{"user_id":384,"name":"Omegaman","steam_id":76561198034579579,"connected_time":186000000000,"state":"active","ping":48},{"user_id":385,"name":"dash","steam_id":76561198043889548,"connected_time":179000000000,"state":"active","ping":76},{"user_id":373,"name":"yoingle spoingle","steam_id":76561198336684715,"connected_time":482000000000,"state":"active","ping":122},{"user_id":259,"name":"roody","steam_id":76561198066260405,"connected_time":11439000000000,"state":"active","ping":45},{"user_id":386,"name":"reverie","steam_id":76561198168158637,"connected_time":127000000000,"state":"active","ping":100}]},{"server_id":406,"name":"Uncletopia | Seattle | 3 | Stopwatch","name_short":"sea-3","host":"sea-1.us.uncletopia.com","port":27035,"enabled":true,"region":"us-west","cc":"us","latitude":47.608013,"longitude":-122.33517,"reserved":0,"last_update":"0001-01-01T00:00:00Z","name_a2s":"Uncletopia | Seattle | 3 | Stopwatch","protocol":17,"map":"pl_pier","folder":"tf","game":"Team Fortress","app_id":440,"player_count":0,"max_players":24,"Bots":0,"server_type":"Dedicated","server_os":"Linux","password":true,"vac":true,"version":"7961495","steam_id":85568392924515217,"keywords":["nocrits","nodmgspread","payload","uncletopia"],"game_id":440,"stv_port":27036,"stv_name":"Uncletopia | Seattle | 3 | Stopwatch | STV","players":null},{"server_id":17,"name":"Uncletopia | San Francisco | 1 | All Maps","name_short":"sfo-1","host":"sfo-1.us.uncletopia.com","port":27015,"enabled":true,"region":"us-west","cc":"us","latitude":37.77397,"longitude":-122.4313,"reserved":0,"last_update":"0001-01-01T00:00:00Z","name_a2s":"Uncletopia | San Francisco | 1 | All Maps","protocol":17,"map":"pl_thundermountain","folder":"tf","game":"Team Fortress","app_id":440,"player_count":22,"max_players":24,"Bots":0,"server_type":"Dedicated","server_os":"Linux","password":true,"vac":true,"version":"7961495","steam_id":85568392924469999,"keywords":["nocrits","nodmgspread","payload","uncletopia"],"game_id":440,"stv_port":27016,"stv_name":"Uncletopia | San Francisco | 1 | All Maps | STV","players":[{"user_id":303,"name":"californjoe","steam_id":76561197965047795,"connected_time":494000000000,"state":"active","ping":51},{"user_id":300,"name":"Lt Lushen","steam_id":76561198124083273,"connected_time":720000000000,"state":"active","ping":77},{"user_id":271,"name":"Nato #ClashGG","steam_id":76561198161062837,"connected_time":3229000000000,"state":"active","ping":58},{"user_id":272,"name":"K-2","steam_id":76561198322606535,"connected_time":3227000000000,"state":"active","ping":85},{"user_id":302,"name":"TimeToPie","steam_id":76561197999411135,"connected_time":618000000000,"state":"active","ping":45},{"user_id":263,"name":"Ian","steam_id":76561198159334435,"connected_time":3614000000000,"state":"active","ping":179},{"user_id":289,"name":"netoc6","steam_id":76561199065312168,"connected_time":2038000000000,"state":"active","ping":122},{"user_id":275,"name":"Ragnalon","steam_id":76561198807377526,"connected_time":3000000000000,"state":"active","ping":61},{"user_id":277,"name":"sincerelymagicmeister","steam_id":76561198393923543,"connected_time":2958000000000,"state":"active","ping":69},{"user_id":257,"name":"Irony is pretty cringy","steam_id":76561198120391460,"connected_time":4322000000000,"state":"active","ping":50},{"user_id":294,"name":"CAPSTAR100 BOSSPLAYER13","steam_id":76561198070136627,"connected_time":1396000000000,"state":"active","ping":47},{"user_id":278,"name":"Byte The Protogen","steam_id":76561199229871383,"connected_time":2943000000000,"state":"active","ping":69},{"user_id":295,"name":"human criminal","steam_id":76561198036753164,"connected_time":1380000000000,"state":"active","ping":105},{"user_id":285,"name":"Xexat","steam_id":76561198041668498,"connected_time":2766000000000,"state":"active","ping":67},{"user_id":305,"name":"Bolbi","steam_id":76561198051811597,"connected_time":425000000000,"state":"active","ping":66},{"user_id":291,"name":"danEY","steam_id":76561198049857596,"connected_time":1926000000000,"state":"active","ping":44},{"user_id":297,"name":"Fajita Master","steam_id":76561198329150962,"connected_time":1338000000000,"state":"active","ping":97},{"user_id":299,"name":"Mex1999","steam_id":76561198045755065,"connected_time":763000000000,"state":"active","ping":66},{"user_id":301,"name":"awesomebrololo","steam_id":76561198374283489,"connected_time":716000000000,"state":"active","ping":101},{"user_id":292,"name":"Perfectly Generic Object","steam_id":76561198992039900,"connected_time":1507000000000,"state":"active","ping":73},{"user_id":284,"name":"‚õßAlkahestry","steam_id":76561198109641497,"connected_time":2835000000000,"state":"active","ping":49},{"user_id":306,"name":"TheBeepMann","steam_id":76561198156230733,"connected_time":153000000000,"state":"active","ping":50}]},{"server_id":18,"name":"Uncletopia | San Francisco | 2 | All Maps","name_short":"sfo-2","host":"sfo-1.us.uncletopia.com","port":27025,"enabled":true,"region":"us-west","cc":"us","latitude":37.77397,"longitude":-122.4313,"reserved":0,"last_update":"0001-01-01T00:00:00Z","name_a2s":"Uncletopia | San Francisco | 2 | All Maps","protocol":17,"map":"pl_badwater","folder":"tf","game":"Team Fortress","app_id":440,"player_count":21,"max_players":24,"Bots":0,"server_type":"Dedicated","server_os":"Linux","password":true,"vac":true,"version":"7961495","steam_id":85568392924470000,"keywords":["nocrits","nodmgspread","payload","uncletopia"],"game_id":440,"stv_port":27026,"stv_name":"Uncletopia | San Francisco | 2 | All Maps | STV","players":[{"user_id":68,"name":"GoldtoothFour","steam_id":76561198055529332,"connected_time":4621000000000,"state":"active","ping":109},{"user_id":117,"name":"011sra","steam_id":76561199489542125,"connected_time":1198000000000,"state":"active","ping":72},{"user_id":119,"name":"giveit5","steam_id":76561198030815437,"connected_time":1192000000000,"state":"active","ping":60},{"user_id":111,"name":"MayoMateo","steam_id":76561198360809933,"connected_time":1758000000000,"state":"active","ping":54},{"user_id":129,"name":"NAWWWWWWWWWWW","steam_id":76561198878913441,"connected_time":192000000000,"state":"active","ping":47},{"user_id":97,"name":"the keebler","steam_id":76561199486326945,"connected_time":2573000000000,"state":"active","ping":108},{"user_id":41,"name":"eeellliii1","steam_id":76561198056261636,"connected_time":5273000000000,"state":"active","ping":83},{"user_id":42,"name":"Phrog","steam_id":76561198072975322,"connected_time":5254000000000,"state":"active","ping":76},{"user_id":45,"name":"Vrita","steam_id":76561198059483641,"connected_time":5028000000000,"state":"active","ping":56},{"user_id":98,"name":"UnusualTofu","steam_id":76561198060103750,"connected_time":2564000000000,"state":"active","ping":67},{"user_id":124,"name":"femboy spy","steam_id":76561199338554815,"connected_time":941000000000,"state":"active","ping":63},{"user_id":128,"name":"ars110","steam_id":76561198030492435,"connected_time":442000000000,"state":"active","ping":76},{"user_id":50,"name":"bobtheninjaman","steam_id":76561198066424544,"connected_time":4833000000000,"state":"active","ping":63},{"user_id":125,"name":"Giddy","steam_id":76561198271951969,"connected_time":940000000000,"state":"active","ping":75},{"user_id":122,"name":"coda","steam_id":76561198092052685,"connected_time":1097000000000,"state":"active","ping":111},{"user_id":127,"name":"[UW] BobbyZimmerman","steam_id":76561197993835647,"connected_time":687000000000,"state":"active","ping":84},{"user_id":90,"name":"Havi","steam_id":76561198197832829,"connected_time":3579000000000,"state":"active","ping":72},{"user_id":106,"name":"chimplicity","steam_id":76561198012097062,"connected_time":2139000000000,"state":"active","ping":81},{"user_id":120,"name":"Rusty","steam_id":76561198055585129,"connected_time":1185000000000,"state":"active","ping":61},{"user_id":112,"name":"Bene Tlailax","steam_id":76561198131567365,"connected_time":1589000000000,"state":"active","ping":71},{"user_id":123,"name":"The Soviet Lobster","steam_id":76561198822062399,"connected_time":1042000000000,"state":"active","ping":66}]},{"server_id":19,"name":"Uncletopia | San Francisco | 3 | Stopwatch","name_short":"sfo-3","host":"sfo-1.us.uncletopia.com","port":27035,"enabled":true,"region":"us-west","cc":"us","latitude":37.77397,"longitude":-122.4313,"reserved":0,"last_update":"0001-01-01T00:00:00Z","name_a2s":"Uncletopia | San Francisco | 3 | Stopwatch","protocol":17,"map":"workshop/koth_ramjam_rc1.ugc459778887","folder":"tf","game":"Team Fortress","app_id":440,"player_count":0,"max_players":24,"Bots":0,"server_type":"Dedicated","server_os":"Linux","password":true,"vac":true,"version":"7961495","steam_id":85568392924742824,"keywords":["cp","nocrits","nodmgspread","uncletopia"],"game_id":440,"stv_port":27036,"stv_name":"Uncletopia | San Francisco | 3 | Stopwatch | STV","players":null},{"server_id":20,"name":"Uncletopia | San Francisco | 4 | Community","name_short":"sfo-4","host":"sfo-1.us.uncletopia.com","port":27045,"enabled":true,"region":"us-west","cc":"us","latitude":37.77397,"longitude":-122.4313,"reserved":0,"last_update":"0001-01-01T00:00:00Z","name_a2s":"Uncletopia | San Francisco | 4 | Community","protocol":17,"map":"workshop/cp_villa_b19.ugc2113052569","folder":"tf","game":"Team Fortress","app_id":440,"player_count":0,"max_players":24,"Bots":0,"server_type":"Dedicated","server_os":"Linux","password":true,"vac":true,"version":"7961495","steam_id":85568392924742826,"keywords":["cp","nocrits","nodmgspread","uncletopia"],"game_id":440,"stv_port":27046,"stv_name":"Uncletopia | San Francisco | 4 | Community | STV","players":null},{"server_id":141,"name":"Uncletopia | Sydney | 1 | All Maps","name_short":"syd-1","host":"syd-1.au.uncletopia.com","port":27015,"enabled":true,"region":"au","cc":"au","latitude":-33.865143,"longitude":151.2099,"reserved":0,"last_update":"0001-01-01T00:00:00Z","name_a2s":"Uncletopia | Sydney | 1 | All Maps","protocol":17,"map":"pl_snowycoast","folder":"tf","game":"Team Fortress","app_id":440,"player_count":22,"max_players":24,"Bots":0,"server_type":"Dedicated","server_os":"Linux","password":true,"vac":true,"version":"7961495","steam_id":85568392924470001,"keywords":["nocrits","nodmgspread","payload","uncletopia"],"game_id":440,"stv_port":27016,"stv_name":"Uncletopia | Sydney | 1 | All Maps | STV","players":[{"user_id":15,"name":"Mikey","steam_id":76561198438203131,"connected_time":2323000000000,"state":"active","ping":60},{"user_id":16,"name":"Elbox","steam_id":76561198277799857,"connected_time":1942000000000,"state":"active","ping":59},{"user_id":27,"name":"Sezama [HF]","steam_id":76561198816829053,"connected_time":770000000000,"state":"active","ping":58},{"user_id":19,"name":"FascismSalad","steam_id":76561198262410973,"connected_time":1804000000000,"state":"active","ping":54},{"user_id":21,"name":"cakey","steam_id":76561198173746761,"connected_time":1303000000000,"state":"active","ping":50},{"user_id":35,"name":"HmmF","steam_id":76561198255886585,"connected_time":450000000000,"state":"active","ping":49},{"user_id":33,"name":"Bill Dipperly","steam_id":76561199161482509,"connected_time":455000000000,"state":"active","ping":72},{"user_id":34,"name":"LaFleur","steam_id":76561198869499113,"connected_time":451000000000,"state":"active","ping":55},{"user_id":25,"name":"Asl:3x","steam_id":76561198972095766,"connected_time":965000000000,"state":"active","ping":45},{"user_id":26,"name":"Cocopowder","steam_id":76561198927912704,"connected_time":939000000000,"state":"active","ping":69},{"user_id":44,"name":"Deep Fried Pyro","steam_id":76561198063545062,"connected_time":74000000000,"state":"active","ping":147},{"user_id":29,"name":"AbruptPuppet","steam_id":76561198241538390,"connected_time":708000000000,"state":"active","ping":56},{"user_id":30,"name":"El Cucuy","steam_id":76561199140616120,"connected_time":669000000000,"state":"active","ping":99},{"user_id":32,"name":"CoolJosh3k .com","steam_id":76561197997407342,"connected_time":506000000000,"state":"active","ping":51},{"user_id":43,"name":"Sichuan Spicy Noodle Sauce","steam_id":76561198072545299,"connected_time":142000000000,"state":"active","ping":40},{"user_id":37,"name":"Bykeshgoly","steam_id":76561198075046784,"connected_time":358000000000,"state":"active","ping":47},{"user_id":39,"name":"Crucial","steam_id":76561198992582454,"connected_time":312000000000,"state":"active","ping":47},{"user_id":40,"name":"i got 5 kills once","steam_id":76561198383320315,"connected_time":301000000000,"state":"active","ping":54},{"user_id":41,"name":"1446","steam_id":76561198376383989,"connected_time":283000000000,"state":"active","ping":63},{"user_id":45,"name":"Didgereedank","steam_id":76561198043068128,"connected_time":68000000000,"state":"active","ping":33},{"user_id":46,"name":"fred","steam_id":76561199496222946,"connected_time":43000000000,"state":"active","ping":303},{"user_id":47,"name":"Reefo","steam_id":76561198161626796,"connected_time":27000000000,"state":"active","ping":69}]},{"server_id":123,"name":"Uncletopia | Sydney | 2 | All Maps","name_short":"syd-2","host":"syd-1.au.uncletopia.com","port":27025,"enabled":true,"region":"au","cc":"au","latitude":-33.865143,"longitude":151.2099,"reserved":0,"last_update":"0001-01-01T00:00:00Z","name_a2s":"Uncletopia | Sydney | 2 | All Maps","protocol":17,"map":"koth_highpass","folder":"tf","game":"Team Fortress","app_id":440,"player_count":0,"max_players":24,"Bots":0,"server_type":"Dedicated","server_os":"Linux","password":true,"vac":true,"version":"7961495","steam_id":85568392924470002,"keywords":["cp","nocrits","nodmgspread","uncletopia"],"game_id":440,"stv_port":27026,"stv_name":"Uncletopia | Sydney | 2 | All Maps | STV","players":null},{"server_id":395,"name":"Uncletopia | Sydney | 3 | All Maps","name_short":"syd-3","host":"syd-1.au.uncletopia.com","port":27035,"enabled":true,"region":"au","cc":"au","latitude":-33.865143,"longitude":151.2099,"reserved":0,"last_update":"0001-01-01T00:00:00Z","name_a2s":"Uncletopia | Sydney | 3 | All Maps","protocol":17,"map":"pl_swiftwater_final1","folder":"tf","game":"Team Fortress","app_id":440,"player_count":0,"max_players":24,"Bots":0,"server_type":"Dedicated","server_os":"Linux","password":true,"vac":true,"version":"7961495","steam_id":85568392925194467,"keywords":["nocrits","nodmgspread","payload","uncletopia"],"game_id":440,"stv_port":27036,"stv_name":"Uncletopia | Sydney | 3 | All Maps | STV","players":null},{"server_id":396,"name":"Uncletopia | Sydney | 4 | All Maps","name_short":"syd-4","host":"syd-1.au.uncletopia.com","port":27045,"enabled":true,"region":"au","cc":"au","latitude":-33.865143,"longitude":151.2099,"reserved":0,"last_update":"0001-01-01T00:00:00Z","name_a2s":"Uncletopia | Sydney | 4 | All Maps","protocol":17,"map":"koth_lakeside_final","folder":"tf","game":"Team Fortress","app_id":440,"player_count":0,"max_players":24,"Bots":0,"server_type":"Dedicated","server_os":"Linux","password":true,"vac":true,"version":"7961495","steam_id":85568392925397958,"keywords":["cp","nocrits","nodmgspread","uncletopia"],"game_id":440,"stv_port":27046,"stv_name":"Uncletopia | Sydney | 4 | All Maps | STV","players":null},{"server_id":58,"name":"Uncletopia | Sydney | 5 | Stopwatch","name_short":"syd-5","host":"syd-1.au.uncletopia.com","port":27055,"enabled":true,"region":"au","cc":"au","latitude":-33.865143,"longitude":151.2099,"reserved":0,"last_update":"0001-01-01T00:00:00Z","name_a2s":"Uncletopia | Sydney | 5 | Stopwatch","protocol":17,"map":"pl_swiftwater_final1","folder":"tf","game":"Team Fortress","app_id":440,"player_count":0,"max_players":24,"Bots":0,"server_type":"Dedicated","server_os":"Linux","password":true,"vac":true,"version":"7961495","steam_id":85568392925397959,"keywords":["nocrits","nodmgspread","payload","uncletopia"],"game_id":440,"stv_port":27056,"stv_name":"Uncletopia | Sydney | 5 | Stopwatch | STV","players":null},{"server_id":59,"name":"Uncletopia | Sydney | 6 | Community","name_short":"syd-6","host":"syd-1.au.uncletopia.com","port":27065,"enabled":true,"region":"au","cc":"au","latitude":-33.865143,"longitude":151.2099,"reserved":0,"last_update":"0001-01-01T00:00:00Z","name_a2s":"Uncletopia | Sydney | 6 | Community","protocol":17,"map":"workshop/cp_fulgur_rc2a.ugc2068252300","folder":"tf","game":"Team Fortress","app_id":440,"player_count":0,"max_players":24,"Bots":0,"server_type":"Dedicated","server_os":"Linux","password":true,"vac":true,"version":"7961495","steam_id":85568392925397960,"keywords":["cp","nocrits","nodmgspread","uncletopia"],"game_id":440,"stv_port":27066,"stv_name":"Uncletopia | Sydney | 6 | Community | STV","players":null},{"server_id":49,"name":"Uncletopia | Warsaw | 1 | One Thousand Uncles","name_short":"waw-1","host":"waw-1.pl.uncletopia.com","port":27015,"enabled":true,"region":"eu","cc":"pl","latitude":52.2297,"longitude":21.017532,"reserved":0,"last_update":"0001-01-01T00:00:00Z","name_a2s":"Uncletopia | Warsaw | 1 | One Thousand Uncles","protocol":17,"map":"koth_highpass","folder":"tf","game":"Team Fortress","app_id":440,"player_count":0,"max_players":32,"Bots":0,"server_type":"Dedicated","server_os":"Linux","password":true,"vac":true,"version":"7961495","steam_id":85568392925397850,"keywords":["alltalk","cp","danepve","increased_maxplayers","nocrits","norespawntime","uncletopia"],"game_id":440,"stv_port":0,"stv_name":"","players":null},{"server_id":50,"name":"Uncletopia | Warsaw | 2 | One Thousand Uncles","name_short":"waw-2","host":"waw-1.pl.uncletopia.com","port":27025,"enabled":true,"region":"eu","cc":"pl","latitude":52.2297,"longitude":21.017532,"reserved":0,"last_update":"0001-01-01T00:00:00Z","name_a2s":"Uncletopia | Warsaw | 2 | One Thousand Uncles","protocol":17,"map":"cp_dustbowl","folder":"tf","game":"Team Fortress","app_id":440,"player_count":0,"max_players":32,"Bots":0,"server_type":"Dedicated","server_os":"Linux","password":true,"vac":true,"version":"7961495","steam_id":85568392925397851,"keywords":["alltalk","cp","danepve","increased_maxplayers","nocrits","norespawntime","uncletopia"],"game_id":440,"stv_port":0,"stv_name":"","players":null},{"server_id":51,"name":"Uncletopia | Warsaw | 3 | All Maps","name_short":"waw-3","host":"waw-1.pl.uncletopia.com","port":27035,"enabled":true,"region":"eu","cc":"pl","latitude":52.2297,"longitude":21.017532,"reserved":0,"last_update":"0001-01-01T00:00:00Z","name_a2s":"Uncletopia | Warsaw | 3 | All Maps","protocol":17,"map":"plr_pipeline","folder":"tf","game":"Team Fortress","app_id":440,"player_count":0,"max_players":24,"Bots":0,"server_type":"Dedicated","server_os":"Linux","password":true,"vac":true,"version":"7961495","steam_id":85568392925397852,"keywords":["nocrits","nodmgspread","payload","uncletopia"],"game_id":440,"stv_port":27036,"stv_name":"Uncletopia | Warsaw | 3 | All Maps | STV","players":null},{"server_id":52,"name":"Uncletopia | Warsaw | 4 | All Maps","name_short":"waw-4","host":"waw-1.pl.uncletopia.com","port":27045,"enabled":true,"region":"eu","cc":"pl","latitude":52.2297,"longitude":21.017532,"reserved":0,"last_update":"0001-01-01T00:00:00Z","name_a2s":"Uncletopia | Warsaw | 4 | All Maps","protocol":17,"map":"cp_coldfront","folder":"tf","game":"Team Fortress","app_id":440,"player_count":0,"max_players":24,"Bots":0,"server_type":"Dedicated","server_os":"Linux","password":true,"vac":true,"version":"7961495","steam_id":85568392925397853,"keywords":["cp","nocrits","nodmgspread","uncletopia"],"game_id":440,"stv_port":27046,"stv_name":"Uncletopia | Warsaw | 4 | All Maps | STV","players":null},{"server_id":53,"name":"Uncletopia | Warsaw | 5 | Stopwatch","name_short":"waw-5","host":"waw-1.pl.uncletopia.com","port":27055,"enabled":true,"region":"eu","cc":"pl","latitude":52.2297,"longitude":21.017532,"reserved":0,"last_update":"0001-01-01T00:00:00Z","name_a2s":"Uncletopia | Warsaw | 5 | Stopwatch","protocol":17,"map":"workshop/koth_bagel_rc6.ugc2514036946","folder":"tf","game":"Team Fortress","app_id":440,"player_count":0,"max_players":24,"Bots":0,"server_type":"Dedicated","server_os":"Linux","password":true,"vac":true,"version":"7961495","steam_id":85568392925397854,"keywords":["cp","nocrits","nodmgspread","uncletopia"],"game_id":440,"stv_port":27056,"stv_name":"Uncletopia | Warsaw | 5 | Stopwatch | STV","players":null},{"server_id":54,"name":"Uncletopia | Warsaw | 6 | Community","name_short":"waw-6","host":"waw-1.pl.uncletopia.com","port":27065,"enabled":true,"region":"eu","cc":"pl","latitude":52.2297,"longitude":21.017532,"reserved":0,"last_update":"0001-01-01T00:00:00Z","name_a2s":"Uncletopia | Warsaw | 6 | Community","protocol":17,"map":"workshop/pl_badwater_pro_v12.ugc2142942074","folder":"tf","game":"Team Fortress","app_id":440,"player_count":0,"max_players":24,"Bots":0,"server_type":"Dedicated","server_os":"Linux","password":true,"vac":true,"version":"7961495","steam_id":85568392925397856,"keywords":["nocrits","nodmgspread","payload","uncletopia"],"game_id":440,"stv_port":27066,"stv_name":"Uncletopia | Warsaw | 6 | Community | STV","players":null}]}