{"status":true,"message":"","result":[{"server_id":9,"name":"Uncletopia | Atlanta | 1 | All Maps","name_short":"atl-1","host":"atl-1.us.uncletopia.com","port":27015,"enabled":true,"region":"us-east","cc":"us","latitude":33.753746,"longitude":-84.38633,"reserved":0,"last_update":"0001-01-01T00:00:00Z","name_a2s":"Uncletopia | Atlanta | 1 | All Maps","protocol":17,"map":"cp_process_final","folder":"tf","game":"Team Fortress","app_id":440,"player_count":0,"max_players":24,"Bots":0,"server_type":"Dedicated","server_os":"Linux","password":true,"vac":true,"version":"7961495","steam_id":85568392924469982,"keywords":["cp","nocrits","nodmgspread","uncletopia"],"game_id":440,"stv_port":27016,"stv_name":"Uncletopia | Atlanta | 1 | All Maps | STV","players":null},{"server_id":104,"name":"Uncletopia | Atlanta | 2 | All Maps","name_short":"atl-2","host":"atl-1.us.uncletopia.com","port":27025,"enabled":true,"region":"us-east","cc":"us","latitude":33.753746,"longitude":-84.38633,"reserved":0,"last_update":"0001-01-01T00:00:00Z","name_a2s":"Uncletopia | Atlanta | 2 | All Maps","protocol":17,"map":"pl_borneo","folder":"tf","game":"Team Fortress","app_id":440,"player_count":14,"max_players":24,"Bots":0,"server_type":"Dedicated","server_os":"Linux","password":true,"vac":true,"version":"7961495","steam_id":85568392924469983,"keywords":["nocrits","nodmgspread","payload","uncletopia"],"game_id":440,"stv_port":27026,"stv_name":"Uncletopia | Atlanta | 2 | All Maps | STV","players":null},{"server_id":400,"name":"Uncletopia | Atlanta | 3 | All Maps","name_short":"atl-3","host":"atl-1.us.uncletopia.com","port":27035,"enabled":true,"region":"us-east","cc":"us","latitude":33.753746,"longitude":-84.38633,"reserved":0,"last_update":"0001-01-01T00:00:00Z","name_a2s":"Uncletopia | Atlanta | 3 | All Maps","protocol":17,"map":"pl_snowycoast","folder":"tf","game":"Team Fortress","app_id":440,"player_count":0,"max_players":24,"Bots":0,"server_type":"Dedicated","server_os":"Linux","password":true,"vac":true,"version":"7961495","steam_id":85568392924515187,"keywords":["nocrits","nodmgspread","payload","uncletopia"],"game_id":440,"stv_port":27036,"stv_name":"Uncletopia | Atlanta | 3 | All Maps | STV","players":null},{"server_id":401,"name":"Uncletopia | Atlanta | 4 | Community","name_short":"atl-4","host":"atl-1.us.uncletopia.com","port":27045,"enabled":true,"region":"us-east","cc":"us","latitude":33.753746,"longitude":-84.38633,"reserved":0,"last_update":"0001-01-01T00:00:00Z","name_a2s":"Uncletopia | Atlanta | 4 | Community","protocol":17,"map":"pl_fifthcurve_rc1","folder":"tf","game":"Team Fortress","app_id":440,"player_count":0,"max_players":24,"Bots":0,"server_type":"Dedicated","server_os":"Linux","password":true,"vac":true,"version":"7961495","steam_id":85568392924515188,"keywords":["nocrits","nodmgspread","payload","uncletopia"],"game_id":440,"stv_port":27046,"stv_name":"Uncletopia | Atlanta | 4 | Community | STV","players":null},{"server_id":2,"name":"Uncletopia | Chicago | 1 | All Maps","name_short":"chi-1","host":"chi-1.us.uncletopia.com","port":27015,"enabled":true,"region":"us-central","cc":"us","latitude":41.881832,"longitude":-87.62318,"reserved":0,"last_update":"0001-01-01T00:00:00Z","name_a2s":"Uncletopia | Chicago | 1 | All Maps","protocol":17,"map":"pl_badwater","folder":"tf","game":"Team Fortress","app_id":440,"player_count":24,"max_players":24,"Bots":0,"server_type":"Dedicated","server_os":"Linux","password":true,"vac":true,"version":"7961495","steam_id":85568392924469984,"keywords":["nocrits","nodmgspread","payload","uncletopia"],"game_id":440,"stv_port":27016,"stv_name":"Uncletopia | Chicago | 1 | All Maps | STV","players":[{"user_id":855,"name":"Bodhi (she/they)","steam_id":76561198103230995,"connected_time":6257000000000,"state":"active","ping":77},{"user_id":921,"name":"Angry Cum","steam_id":76561198109188419,"connected_time":64000000000,"state":"active","ping":84},{"user_id":868,"name":"Qwerty","steam_id":76561198023525894,"connected_time":5654000000000,"state":"active","ping":169},{"user_id":909,"name":"Osteo-Oligarch","steam_id":76561198164731896,"connected_time":1300000000000,"state":"active","ping":70},{"user_id":917,"name":"ash","steam_id":76561198127890645,"connected_time":85000000000,"state":"active","ping":75},{"user_id":862,"name":"V.E.R.G.I.L.I.U.S.","steam_id":76561198046055673,"connected_time":5728000000000,"state":"active","ping":73},{"user_id":873,"name":"vv","steam_id":76561198134813102,"connected_time":4606000000000,"state":"active","ping":66},{"user_id":844,"name":"Wizard Raccoon","steam_id":76561198072562591,"connected_time":7162000000000,"state":"active","ping":83},{"user_id":910,"name":" ∞ ∞‚Å±À°À°À¢","steam_id":76561198832455443,"connected_time":1285000000000,"state":"active","ping":60},{"user_id":924,"name":"Aniz","steam_id":76561199226665024,"connected_time":36000000000,"state":"active","ping":181},{"user_id":919,"name":"rose","steam_id":76561198048882285,"connected_time":71000000000,"state":"active","ping":60},{"user_id":905,"name":"suzuya #LFT","steam_id":76561199207991492,"connected_time":1371000000000,"state":"active","ping":60},{"user_id":914,"name":"Comradical","steam_id":76561197990808285,"connected_time":725000000000,"state":"active","ping":84},{"user_id":920,"name":"nomad","steam_id":76561197998740399,"connected_time":67000000000,"state":"active","ping":62},{"user_id":922,"name":"JokLit","steam_id":76561198117542242,"connected_time":61000000000,"state":"active","ping":198},{"user_id":903,"name":"Chicken Burger","steam_id":76561198358529311,"connected_time":2448000000000,"state":"active","ping":70},{"user_id":902,"name":"for the king","steam_id":76561197973488858,"connected_time":2522000000000,"state":"active","ping":52},{"user_id":906,"name":"orgasmo","steam_id":76561198047355245,"connected_time":1367000000000,"state":"active","ping":66},{"user_id":918,"name":"eish","steam_id":76561198089463603,"connected_time":85000000000,"state":"active","ping":130},{"user_id":856,"name":"Your Local Sad Queer Librarian","steam_id":76561198013077080,"connected_time":6099000000000,"state":"active","ping":52},{"user_id":890,"name":"pancake ‚óè","steam_id":76561198999217575,"connected_time":3477000000000,"state":"active","ping":67},{"user_id":858,"name":"‚òÖRIVI‚òÖ","steam_id":76561198086635699,"connected_time":6068000000000,"state":"active","ping":87},{"user_id":923,"name":"Sophie","steam_id":76561198170408057,"connected_time":60000000000,"state":"active","ping":62},{"user_id":907,"name":"Mr.Silver","steam_id":76561198156382508,"connected_time":1367000000000,"state":"active","ping":61}]},{"server_id":106,"name":"Uncletopia | Chicago | 2 | All Maps","name_short":"chi-2","host":"chi-1.us.uncletopia.com","port":27025,"enabled":true,"region":"us-central","cc":"us","latitude":41.881832,"longitude":-87.62318,"reserved":0,"last_update":"0001-01-01T00:00:00Z","name_a2s":"Uncletopia | Chicago | 2 | All Maps","protocol":17,"map":"pl_badwater","folder":"tf","game":"Team Fortress","app_id":440,"player_count":24,"max_players":24,"Bots":0,"server_type":"Dedicated","server_os":"Linux","password":true,"vac":true,"version":"7961495","steam_id":85568392924469985,"keywords":["nocrits","nodmgspread","payload","uncletopia"],"game_id":440,"stv_port":27026,"stv_name":"Uncletopia | Chicago | 2 | All Maps | STV","players":[{"user_id":352,"name":"2ndWhiterunGuard","steam_id":76561198105382714,"connected_time":2179000000000,"state":"active","ping":73},{"user_id":330,"name":"we're so back","steam_id":76561198058485742,"connected_time":3466000000000,"state":"active","ping":68},{"user_id":355,"name":"BrainlezBrainiac","steam_id":76561199193942805,"connected_time":1674000000000,"state":"active","ping":84},{"user_id":366,"name":"Thingy","steam_id":76561198140161202,"connected_time":599000000000,"state":"active","ping":73},{"user_id":364,"name":":)","steam_id":76561198093921290,"connected_time":977000000000,"state":"active","ping":46},{"user_id":321,"name":"Shystie","steam_id":76561198025371440,"connected_time":3681000000000,"state":"active","ping":82},{"user_id":351,"name":"Rukks","steam_id":76561197993918954,"connected_time":2221000000000,"state":"active","ping":85},{"user_id":299,"name":"Plate","steam_id":76561198013720285,"connected_time":5461000000000,"state":"active","ping":70},{"user_id":323,"name":"caRat","steam_id":76561198859267372,"connected_time":3644000000000,"state":"active","ping":90},{"user_id":353,"name":"El Gato Paranoico","steam_id":76561198116567116,"connected_time":1701000000000,"state":"active","ping":98},{"user_id":365,"name":"eat Pant","steam_id":76561197974965536,"connected_time":950000000000,"state":"active","ping":61},{"user_id":348,"name":"OHGODBEES!","steam_id":76561198000653374,"connected_time":2711000000000,"state":"active","ping":141},{"user_id":369,"name":"Joker","steam_id":76561198108480348,"connected_time":152000000000,"state":"active","ping":109},{"user_id":300,"name":"i suffer from ligma","steam_id":76561199158496518,"connected_time":5399000000000,"state":"active","ping":118},{"user_id":336,"name":"DRAGON_WARRIOR","steam_id":76561198155720118,"connected_time":3285000000000,"state":"active","ping":58},{"user_id":356,"name":"Deborp","steam_id":76561198118868430,"connected_time":1669000000000,"state":"active","ping":83},{"user_id":359,"name":"Lili Rouxxx","steam_id":76561198000522179,"connected_time":1592000000000,"state":"active","ping":63},{"user_id":297,"name":"Bowl","steam_id":76561198133931159,"connected_time":5948000000000,"state":"active","ping":63},{"user_id":370,"name":"primordialheath","steam_id":76561199386942638,"connected_time":122000000000,"state":"active","ping":56},{"user_id":368,"name":"cotton candy warrior","steam_id":76561198058998371,"connected_time":378000000000,"state":"active","ping":69},{"user_id":361,"name":"Cy4nideCutie","steam_id":76561198126686695,"connected_time":1414000000000,"state":"active","ping":70},{"user_id":363,"name":"ìÜèCayenne Pepper ìÜè","steam_id":76561198124881810,"connected_time":1142000000000,"state":"active","ping":107},{"user_id":362,"name":"dunk","steam_id":76561198132476501,"connected_time":1366000000000,"state":"active","ping":47},{"user_id":367,"name":"smooth brain","steam_id":76561198049253541,"connected_time":502000000000,"state":"active","ping":70}]},{"server_id":402,"name":"Uncletopia | Chicago | 3 | All Maps","name_short":"chi-3","host":"chi-1.us.uncletopia.com","port":27035,"enabled":true,"region":"us-central","cc":"us","latitude":41.881832,"longitude":-87.62318,"reserved":0,"last_update":"0001-01-01T00:00:00Z","name_a2s":"Uncletopia | Chicago | 3 | All Maps","protocol":17,"map":"ctf_sawmill","folder":"tf","game":"Team Fortress","app_id":440,"player_count":24,"max_players":24,"Bots":0,"server_type":"Dedicated","server_os":"Linux","password":true,"vac":true,"version":"7961495","steam_id":85568392924515191,"keywords":["ctf","nocrits","nodmgspread","uncletopia"],"game_id":440,"stv_port":27036,"stv_name":"Uncletopia | Chicago | 3 | All Maps | STV","players":[{"user_id":724,"name":"Jeff","steam_id":76561199003107869,"connected_time":2603000000000,"state":"active","ping":99},{"user_id":745,"name":"TyroneTheBee","steam_id":76561199007116804,"connected_time":1000000000000,"state":"active","ping":63},{"user_id":732,"name":"wow120000000000000098","steam_id":76561198016826181,"connected_time":2462000000000,"state":"active","ping":71},{"user_id":726,"name":"Blade Racer","steam_id":76561198155896703,"connected_time":2551000000000,"state":"active","ping":74},{"user_id":764,"name":"IAin'tClownin'","steam_id":76561198143328086,"connected_time":198000000000,"state":"active","ping":73},{"user_id":766,"name":"bologna movement","steam_id":76561199143725014,"connected_time":38000000000,"state":"active","ping":74},{"user_id":744,"name":"mika ultra","steam_id":76561198139802458,"connected_time":1631000000000,"state":"active","ping":68},{"user_id":752,"name":"President William Howard Taft","steam_id":76561198047691108,"connected_time":636000000000,"state":"active","ping":69},{"user_id":719,"name":"November","steam_id":76561198131631865,"connected_time":3352000000000,"state":"active","ping":76},{"user_id":759,"name":"Engideer","steam_id":76561198145733164,"connected_time":511000000000,"state":"active","ping":73},{"user_id":750,"name":"roddy ricch - ballin","steam_id":76561198111290441,"connected_time":710000000000,"state":"active","ping":56},{"user_id":723,"name":"I am NOT a Spy","steam_id":76561199153596010,"connected_time":2617000000000,"state":"active","ping":123},{"user_id":762,"name":"crashies","steam_id":76561198151400547,"connected_time":332000000000,"state":"active","ping":68},{"user_id":743,"name":"pele","steam_id":76561198021224745,"connected_time":1792000000000,"state":"active","ping":55},{"user_id":765,"name":"Deep Fried Dan","steam_id":76561198092110938,"connected_time":192000000000,"state":"active","ping":98},{"user_id":755,"name":"-robotic","steam_id":76561198085674870,"connected_time":561000000000,"state":"active","ping":85},{"user_id":733,"name":"Infinitytacos","steam_id":76561198884260211,"connected_time":2456000000000,"state":"active","ping":45},{"user_id":742,"name":"chloe","steam_id":76561198369849908,"connected_time":1863000000000,"state":"active","ping":75},{"user_id":756,"name":"CeeJ üôä","steam_id":76561198065257478,"connected_time":560000000000,"state":"active","ping":79},{"user_id":757,"name":"pad6z23h8s","steam_id":76561198880756741,"connected_time":559000000000,"state":"active","ping":159},{"user_id":767,"name":"WinterCat","steam_id":76561199071923869,"connected_time":36000000000,"state":"active","ping":79},{"user_id":735,"name":"WoodsRunner","steam_id":76561198121812870,"connected_time":2411000000000,"state":"active","ping":49},{"user_id":761,"name":"Trippy","steam_id":76561199090730294,"connected_time":392000000000,"state":"active","ping":63}]},{"server_id":403,"name":"Uncletopia | Chicago | 4 | All Maps","name_short":"chi-4","host":"chi-1.us.uncletopia.com","port":27045,"enabled":true,"region":"us-central","cc":"us","latitude":41.881832,"longitude":-87.62318,"reserved":0,"last_update":"0001-01-01T00:00:00Z","name_a2s":"Uncletopia | Chicago | 4 | All Maps","protocol":17,"map":"koth_lakeside_final","folder":"tf","game":"Team Fortress","app_id":440,"player_count":22,"max_players":24,"Bots":0,"server_type":"Dedicated","server_os":"Linux","password":true,"vac":true,"version":"7961495","steam_id":85568392924515193,"keywords":["cp","nocrits","nodmgspread","uncletopia"],"game_id":440,"stv_port":27046,"stv_name":"Uncletopia | Chicago | 4 | All Maps | STV","players":[{"user_id":667,"name":"Tri_Hunter","steam_id":76561198108176706,"connected_time":1047000000000,"state":"active","ping":62},{"user_id":674,"name":"Sulphur Cake","steam_id":76561198061427354,"connected_time":703000000000,"state":"active","ping":71},{"user_id":669,"name":"Uncle Sam","steam_id":76561197978674870,"connected_time":971000000000,"state":"active","ping":68},{"user_id":670,"name":"Lucil3 on Bandcamp","steam_id":76561198149063013,"connected_time":969000000000,"state":"active","ping":64},{"user_id":671,"name":"shaq$","steam_id":76561198045246504,"connected_time":962000000000,"state":"active","ping":54},{"user_id":666,"name":"King of Ping","steam_id":76561198278737470,"connected_time":1156000000000,"state":"active","ping":69},{"user_id":677,"name":"Soldier","steam_id":76561198029265697,"connected_time":561000000000,"state":"active","ping":68},{"user_id":660,"name":"winds","steam_id":76561198081791957,"connected_time":2108000000000,"state":"active","ping":62},{"user_id":672,"name":"chubbbo","steam_id":76561198943598378,"connected_time":954000000000,"state":"active","ping":56},{"user_id":673,"name":"That Canadian Dude","steam_id":76561198024985831,"connected_time":952000000000,"state":"active","ping":63},{"user_id":661,"name":"Frank","steam_id":76561198428759980,"connected_time":2091000000000,"state":"active","ping":90},{"user_id":652,"name":"Thequirka","steam_id":76561198968058652,"connected_time":3001000000000,"state":"active","ping":97},{"user_id":662,"name":"swift","steam_id":76561198082496000,"connected_time":1849000000000,"state":"active","ping":69},{"user_id":595,"name":"Phos","steam_id":76561198122339506,"connected_time":6625000000000,"state":"active","ping":72},{"user_id":658,"name":"Toblerone","steam_id":76561198057374871,"connected_time":2763000000000,"state":"active","ping":61},{"user_id":665,"name":"KrylonHeretic","steam_id":76561198139811459,"connected_time":1648000000000,"state":"active","ping":111},{"user_id":653,"name":"super-oofio64","steam_id":76561198954052123,"connected_time":2994000000000,"state":"active","ping":106},{"user_id":654,"name":"McSpazatron","steam_id":76561198955942148,"connected_time":2937000000000,"state":"active","ping":91},{"user_id":676,"name":"Guts","steam_id":76561198244702428,"connected_time":698000000000,"state":"active","ping":54},{"user_id":655,"name":"Firebreak (whee/whim/wish)","steam_id":76561198009518178,"connected_time":2909000000000,"state":"active","ping":64},{"user_id":656,"name":"Spinch","steam_id":76561198296224166,"connected_time":2895000000000,"state":"active","ping":95},{"user_id":657,"name":"Publo","steam_id":76561198161777140,"connected_time":2883000000000,"state":"active","ping":72}]},{"server_id":36,"name":"Uncletopia | Chicago | 5 | All Maps","name_short":"chi-5","host":"chi-2.us.uncletopia.com","port":27015,"enabled":true,"region":"us-central","cc":"us","latitude":41.881832,"longitude":-87.62318,"reserved":0,"last_update":"0001-01-01T00:00:00Z","name_a2s":"Uncletopia | Chicago | 5 | All Maps","protocol":17,"map":"koth_lakeside_final","folder":"tf","game":"Team Fortress","app_id":440,"player_count":21,"max_players":24,"Bots":0,"server_type":"Dedicated","server_os":"Linux","password":true,"vac":true,"version":"7961495","steam_id":85568392924866362,"keywords":["cp","nocrits","nodmgspread","uncletopia"],"game_id":440,"stv_port":27016,"stv_name":"Uncletopia | Chicago | 5 | All Maps | STV","players":[{"user_id":536,"name":"mina","steam_id":76561198881665250,"connected_time":1448000000000,"state":"active","ping":91},{"user_id":544,"name":"Jofferie","steam_id":76561198035927549,"connected_time":432000000000,"state":"active","ping":76},{"user_id":548,"name":"Rohi Mig","steam_id":76561198113623627,"connected_time":317000000000,"state":"active","ping":61},{"user_id":529,"name":"ultralisk52","steam_id":76561198051666604,"connected_time":1738000000000,"state":"active","ping":59},{"user_id":545,"name":"stall","steam_id":76561199152861652,"connected_time":418000000000,"state":"active","ping":49},{"user_id":555,"name":"ABZ Gamer","steam_id":76561199027227636,"connected_time":142000000000,"state":"active","ping":75},{"user_id":551,"name":"isucktoomuch****","steam_id":76561198075165369,"connected_time":239000000000,"state":"active","ping":118},{"user_id":549,"name":"¬øskitt1eS?","steam_id":76561198330093211,"connected_time":282000000000,"state":"active","ping":60},{"user_id":526,"name":"Whyamidoingthisaaaa","steam_id":76561199168837342,"connected_time":1888000000000,"state":"active","ping":78},{"user_id":552,"name":"Pastor John","steam_id":76561198216484412,"connected_time":236000000000,"state":"active","ping":66},{"user_id":514,"name":"18 pounds","steam_id":76561198025804838,"connected_time":2724000000000,"state":"active","ping":66},{"user_id":553,"name":"Sr. Cleotar","steam_id":76561199125688378,"connected_time":204000000000,"state":"active","ping":83},{"user_id":556,"name":"Dr Oshawott","steam_id":76561198042021629,"connected_time":4000000000,"state":"spawning","ping":49},{"user_id":554,"name":"Phantis_Squid","steam_id":76561199428864090,"connected_time":191000000000,"state":"active","ping":70},{"user_id":538,"name":"Hero","steam_id":76561198044117696,"connected_time":1340000000000,"state":"active","ping":70},{"user_id":524,"name":"Cereal","steam_id":76561198128418112,"connected_time":2149000000000,"state":"active","ping":88},{"user_id":522,"name":"f","steam_id":76561198215559840,"connected_time":2166000000000,"state":"active","ping":68},{"user_id":540,"name":"reero","steam_id":76561198071785065,"connected_time":1016000000000,"state":"active","ping":57},{"user_id":523,"name":"‚ú™ goofbears -iwnl-","steam_id":76561199100831175,"connected_time":2154000000000,"state":"active","ping":60},{"user_id":479,"name":"monkeycake","steam_id":76561198272061915,"connected_time":6304000000000,"state":"active","ping":58},{"user_id":510,"name":"boywife","steam_id":76561198810691607,"connected_time":3932000000000,"state":"active","ping":81}]},{"server_id":37,"name":"Uncletopia | Chicago | 6 | All Maps","name_short":"chi-6","host":"chi-2.us.uncletopia.com","port":27025,"enabled":true,"region":"us-central","cc":"us","latitude":41.881832,"longitude":-87.62318,"reserved":0,"last_update":"0001-01-01T00:00:00Z","name_a2s":"Uncletopia | Chicago | 6 | All Maps","protocol":17,"map":"koth_lakeside_final","folder":"tf","game":"Team Fortress","app_id":440,"player_count":16,"max_players":24,"Bots":0,"server_type":"Dedicated","server_os":"Linux","password":true,"vac":true,"version":"7961495","steam_id":85568392924866363,"keywords":["cp","nocrits","nodmgspread","uncletopia"],"game_id":440,"stv_port":27026,"stv_name":"Uncletopia | Chicago | 6 | All Maps | STV","players":[{"user_id":579,"name":"The Despian Tax Office","steam_id":76561198029853893,"connected_time":1063000000000,"state":"active","ping":48},{"user_id":584,"name":"MR. BEEEEEEEEEEEEEAAAAAAAAAAST","steam_id":76561198205346760,"connected_time":328000000000,"state":"active","ping":45},{"user_id":585,"name":"I LOVE ANNIHILATORS","steam_id":76561198082349305,"connected_time":237000000000,"state":"active","ping":108},{"user_id":586,"name":"Sneaky Snek","steam_id":76561198168011096,"connected_time":224000000000,"state":"active","ping":168},{"user_id":559,"name":"0ff","steam_id":76561199115773908,"connected_time":2366000000000,"state":"active","ping":70},{"user_id":561,"name":"skullcrushar","steam_id":76561198094512992,"connected_time":2331000000000,"state":"active","ping":44},{"user_id":564,"name":"SpockASD","steam_id":76561198307516731,"connected_time":2077000000000,"state":"active","ping":74},{"user_id":576,"name":"Santamen","steam_id":76561198119478199,"connected_time":1123000000000,"state":"active","ping":56},{"user_id":566,"name":"sooty","steam_id":76561198830243167,"connected_time":2072000000000,"state":"active","ping":60},{"user_id":567,"name":"Veketzin","steam_id":76561198880024812,"connected_time":2067000000000,"state":"active","ping":101},{"user_id":568,"name":"Nexus","steam_id":76561198305472434,"connected_time":2045000000000,"state":"active","ping":99},{"user_id":582,"name":"crayonnipple","steam_id":76561198070253331,"connected_time":371000000000,"state":"active","ping":58},{"user_id":580,"name":"frank","steam_id":76561198137777483,"connected_time":1037000000000,"state":"active","ping":67},{"user_id":572,"name":"the real big sips","steam_id":76561197999945358,"connected_time":1964000000000,"state":"active","ping":65},{"user_id":573,"name":"girlboss warcriminal","steam_id":76561198049258493,"connected_time":1943000000000,"state":"active","ping":120},{"user_id":578,"name":"seldom","steam_id":76561198166193756,"connected_time":1082000000000,"state":"active","ping":55}]},{"server_id":38,"name":"Uncletopia | Chicago | 7 | Stopwatch Beta","name_short":"chi-7","host":"chi-2.us.uncletopia.com","port":27035,"enabled":true,"region":"us-central","cc":"us","latitude":41.881832,"longitude":-87.62318,"reserved":0,"last_update":"0001-01-01T00:00:00Z","name_a2s":"Uncletopia | Chicago | 7 | Stopwatch Beta","protocol":17,"map":"workshop/koth_product_final.ugc454272353","folder":"tf","game":"Team Fortress","app_id":440,"player_count":0,"max_players":24,"Bots":0,"server_type":"Dedicated","server_os":"Linux","password":true,"vac":true,"version":"7961495","steam_id":85568392924866364,"keywords":["cp","nocrits","nodmgspread","uncletopia"],"game_id":440,"stv_port":27036,"stv_name":"Uncletopia | Chicago | 7 | Stopwatch Beta | STV","players":null},{"server_id":39,"name":"Uncletopia | Chicago | 8 | Community","name_short":"chi-8","host":"chi-2.us.uncletopia.com","port":27045,"enabled":true,"region":"us-central","cc":"us","latitude":41.881832,"longitude":-87.62318,"reserved":0,"last_update":"0001-01-01T00:00:00Z","name_a2s":"Uncletopia | Chicago | 8 | Community","protocol":17,"map":"workshop/pl_cactuscanyon_redux_final2.ugc2579644293","folder":"tf","game":"Team Fortress","app_id":440,"player_count":0,"max_players":24,"Bots":0,"server_type":"Dedicated","server_os":"Linux","password":true,"vac":true,"version":"7961495","steam_id":85568392924866365,"keywords":["nocrits","nodmgspread","payload","uncletopia"],"game_id":440,"stv_port":27046,"stv_name":"Uncletopia | Chicago | 8 | Community | STV","players":null},{"server_id":8,"name":"Uncletopia | Dallas | 1 | All Maps","name_short":"dal-1","host":"dal-1.us.uncletopia.com","port":27015,"enabled":true,"region":"us-central","cc":"us","latitude":32.779167,"longitude":-96.80889,"reserved":0,"last_update":"0001-01-01T00:00:00Z","name_a2s":"Uncletopia | Dallas | 1 | All Maps","protocol":17,"map":"pl_upward","folder":"tf","game":"Team Fortress","app_id":440,"player_count":24,"max_players":24,"Bots":0,"server_type":"Dedicated","server_os":"Linux","password":true,"vac":true,"version":"7961495","steam_id":85568392924469986,"keywords":["nocrits","nodmgspread","payload","uncletopia"],"game_id":440,"stv_port":27016,"stv_name":"Uncletopia | Dallas | 1 | All Maps | STV","players":[{"user_id":684,"name":"Cyberwulph","steam_id":76561198297412789,"connected_time":4043000000000,"state":"active","ping":94},{"user_id":697,"name":"purpleflame","steam_id":76561198277979851,"connected_time":2140000000000,"state":"active","ping":82},{"user_id":708,"name":"FG7","steam_id":76561198381197197,"connected_time":1179000000000,"state":"active","ping":152},{"user_id":668,"name":"Clubs","steam_id":76561198271133942,"connected_time":4641000000000,"state":"active","ping":59},{"user_id":716,"name":"flippercurve","steam_id":76561199238295034,"connected_time":221000000000,"state":"active","ping":71},{"user_id":700,"name":"Zanegerous","steam_id":76561198256514642,"connected_time":2121000000000,"state":"active","ping":72},{"user_id":717,"name":"Bheem","steam_id":76561198170453459,"connected_time":176000000000,"state":"active","ping":91},{"user_id":718,"name":"sweaterfan","steam_id":76561199389567214,"connected_time":168000000000,"state":"active","ping":68},{"user_id":711,"name":"ƒê√Ø…ê»ê…π…¶…Üa","steam_id":76561198981411945,"connected_time":929000000000,"state":"active","ping":87},{"user_id":696,"name":"firulais","steam_id":76561198860460013,"connected_time":2372000000000,"state":"active","ping":78},{"user_id":690,"name":"Project_Counter","steam_id":76561198152786076,"connected_time":3421000000000,"state":"active","ping":50},{"user_id":719,"name":"Œ© Das Gebeine Œî","steam_id":76561198063665024,"connected_time":146000000000,"state":"active","ping":45},{"user_id":701,"name":"inzang","steam_id":76561198088318074,"connected_time":2116000000000,"state":"active","ping":55},{"user_id":503,"name":"Lee?","steam_id":76561199060892634,"connected_time":18224000000000,"state":"active","ping":66},{"user_id":715,"name":"SuperbSunnyD","steam_id":76561198057531269,"connected_time":275000000000,"state":"active","ping":75},{"user_id":720,"name":"3-13","steam_id":76561198063929021,"connected_time":104000000000,"state":"active","ping":54},{"user_id":687,"name":"Crouching Helps","steam_id":76561198011862054,"connected_time":3661000000000,"state":"active","ping":74},{"user_id":669,"name":"Rilshrink","steam_id":76561198202586792,"connected_time":4510000000000,"state":"active","ping":50},{"user_id":698,"name":"porz","steam_id":76561198195711453,"connected_time":2133000000000,"state":"active","ping":45},{"user_id":712,"name":"Bolbi","steam_id":76561198051811597,"connected_time":704000000000,"state":"active","ping":85},{"user_id":685,"name":"Gglilboy","steam_id":76561198097556319,"connected_time":3949000000000,"state":"active","ping":79},{"user_id":709,"name":"tsz","steam_id":76561199246231090,"connected_time":1175000000000,"state":"active","ping":86},{"user_id":683,"name":"catboy","steam_id":76561198298140571,"connected_time":4224000000000,"state":"active","ping":96},{"user_id":714,"name":"EverythingZen","steam_id":76561198257384503,"connected_time":480000000000,"state":"active","ping":65}]},{"server_id":108,"name":"Uncletopia | Dallas | 2 | All Maps","name_short":"dal-2","host":"dal-1.us.uncletopia.com","port":27025,"enabled":true,"region":"us-central","cc":"us","latitude":32.779167,"longitude":-96.80889,"reserved":0,"last_update":"0001-01-01T00:00:00Z","name_a2s":"Uncletopia | Dallas | 2 | All Maps","protocol":17,"map":"pl_borneo","folder":"tf","game":"Team Fortress","app_id":440,"player_count":24,"max_players":24,"Bots":0,"server_type":"Dedicated","server_os":"Linux","password":true,"vac":true,"version":"7961495","steam_id":85568392924469988,"keywords":["nocrits","nodmgspread","payload","uncletopia"],"game_id":440,"stv_port":27026,"stv_name":"Uncletopia | Dallas | 2 | All Maps | STV","players":[{"user_id":769,"name":"?pengin","steam_id":76561198254236408,"connected_time":978000000000,"state":"active","ping":89},{"user_id":770,"name":"Ghoulenoir","steam_id":76561198074314573,"connected_time":842000000000,"state":"active","ping":62},{"user_id":760,"name":"makeshift_burrito","steam_id":76561198042510825,"connected_time":1556000000000,"state":"active","ping":86},{"user_id":771,"name":"Wikked","steam_id":76561198196149207,"connected_time":771000000000,"state":"active","ping":132},{"user_id":653,"name":"rAnch","steam_id":76561198024562587,"connected_time":4202000000000,"state":"active","ping":30},{"user_id":761,"name":"lucasgamer4life","steam_id":76561198129816242,"connected_time":1441000000000,"state":"active","ping":86},{"user_id":710,"name":"Taco+Taco=Burrito","steam_id":76561198063128663,"connected_time":3003000000000,"state":"active","ping":79},{"user_id":774,"name":"Swiggs","steam_id":76561198135015291,"connected_time":680000000000,"state":"active","ping":67},{"user_id":754,"name":"awakelist","steam_id":76561199129744011,"connected_time":1930000000000,"state":"active","ping":130},{"user_id":766,"name":"Yapple Dapple","steam_id":76561198082422815,"connected_time":1192000000000,"state":"active","ping":62},{"user_id":777,"name":"Sychke","steam_id":76561198067144055,"connected_time":144000000000,"state":"active","ping":75},{"user_id":778,"name":"BB Lorexav","steam_id":76561198207565988,"connected_time":142000000000,"state":"active","ping":70},{"user_id":762,"name":"SleepyScotoplanesTTV","steam_id":76561198968140914,"connected_time":1433000000000,"state":"active","ping":71},{"user_id":775,"name":"herb","steam_id":76561198185980055,"connected_time":403000000000,"state":"active","ping":75},{"user_id":740,"name":"kat","steam_id":76561198099191938,"connected_time":2279000000000,"state":"active","ping":70},{"user_id":773,"name":"BlancaLamb","steam_id":76561198025646073,"connected_time":683000000000,"state":"active","ping":76},{"user_id":750,"name":"gmaay","steam_id":76561199104911185,"connected_time":2051000000000,"state":"active","ping":86},{"user_id":577,"name":"FrostNova","steam_id":76561198348354629,"connected_time":7965000000000,"state":"active","ping":83},{"user_id":779,"name":"scrimblo","steam_id":76561199150833796,"connected_time":71000000000,"state":"active","ping":97},{"user_id":780,"name":"Belts the Puppet","steam_id":76561198322969864,"connected_time":37000000000,"state":"active","ping":87},{"user_id":666,"name":"Joe Nathan","steam_id":76561198041030399,"connected_time":3946000000000,"state":"active","ping":59},{"user_id":759,"name":"Die-Sas","steam_id":76561198987794008,"connected_time":1835000000000,"state":"active","ping":72},{"user_id":765,"name":"Bunny of Epicness","steam_id":76561198003897012,"connected_time":1225000000000,"state":"active","ping":49},{"user_id":781,"name":"Adonut","steam_id":76561198805858184,"connected_time":8000000000,"state":"spawning","ping":171}]},{"server_id":404,"name":"Uncletopia | Dallas | 3 | All Maps","name_short":"dal-3","host":"dal-1.us.uncletopia.com","port":27035,"enabled":true,"region":"us-central","cc":"us","latitude":32.779167,"longitude":-96.80889,"reserved":0,"last_update":"0001-01-01T00:00:00Z","name_a2s":"Uncletopia | Dallas | 3 | All Maps","protocol":17,"map":"cp_well","folder":"tf","game":"Team Fortress","app_id":440,"player_count":24,"max_players":24,"Bots":0,"server_type":"Dedicated","server_os":"Linux","password":true,"vac":true,"version":"7961495","steam_id":85568392924515219,"keywords":["cp","nocrits","nodmgspread","uncletopia"],"game_id":440,"stv_port":27036,"stv_name":"Uncletopia | Dallas | 3 | All Maps | STV","players":[{"user_id":613,"name":"OuterEos","steam_id":76561198151557939,"connected_time":4065000000000,"state":"active","ping":75},{"user_id":652,"name":"K.A.R.M.A.","steam_id":76561198240750142,"connected_time":986000000000,"state":"active","ping":75},{"user_id":653,"name":"animatedprotootype","steam_id":76561199037624522,"connected_time":934000000000,"state":"active","ping":84},{"user_id":642,"name":"LofiVibes","steam_id":76561198054533267,"connected_time":1576000000000,"state":"active","ping":81},{"user_id":659,"name":"Five","steam_id":76561198026640473,"connected_time":370000000000,"state":"active","ping":60},{"user_id":661,"name":"NECRON GRUNT","steam_id":76561198028354983,"connected_time":163000000000,"state":"active","ping":91},{"user_id":662,"name":"Kazmirl","steam_id":76561198116008410,"connected_time":84000000000,"state":"active","ping":107},{"user_id":620,"name":"i am clinically insane","steam_id":76561199013323529,"connected_time":3601000000000,"state":"active","ping":90},{"user_id":597,"name":"Snoopy","steam_id":76561198273735974,"connected_time":4749000000000,"state":"active","ping":92},{"user_id":626,"name":"Great Lord Fazzie","steam_id":76561198073628559,"connected_time":3380000000000,"state":"active","ping":94},{"user_id":640,"name":"50 bmg ratshot","steam_id":76561198156139568,"connected_time":1666000000000,"state":"active","ping":59},{"user_id":627,"name":"Kenny","steam_id":76561198031540741,"connected_time":2751000000000,"state":"active","ping":91},{"user_id":599,"name":"alpha turbochad sigma hypermale","steam_id":76561198200174751,"connected_time":4675000000000,"state":"active","ping":77},{"user_id":650,"name":"dansal","steam_id":76561197997042510,"connected_time":1368000000000,"state":"active","ping":57},{"user_id":633,"name":"Ryan Lewis truther","steam_id":76561198050505826,"connected_time":2088000000000,"state":"active","ping":60},{"user_id":601,"name":"Silver","steam_id":76561197994217357,"connected_time":4665000000000,"state":"active","ping":96},{"user_id":663,"name":"Bew","steam_id":76561198146745998,"connected_time":52000000000,"state":"active","ping":89},{"user_id":603,"name":"Pizza","steam_id":76561198118748364,"connected_time":4653000000000,"state":"active","ping":85},{"user_id":651,"name":"jojeda654","steam_id":76561198002970763,"connected_time":1349000000000,"state":"active","ping":52},{"user_id":605,"name":"No Chance of Pearly Gates","steam_id":76561198042570322,"connected_time":4637000000000,"state":"active","ping":77},{"user_id":664,"name":"Woomy","steam_id":76561198070242372,"connected_time":4000000000,"state":"spawning","ping":46},{"user_id":655,"name":"Yep Im Ethan","steam_id":76561199066140775,"connected_time":810000000000,"state":"active","ping":67},{"user_id":639,"name":"2 3rd graders in a trenchcoat","steam_id":76561198084885479,"connected_time":1696000000000,"state":"active","ping":75},{"user_id":658,"name":"Full Throttle Axolotl","steam_id":76561198041836477,"connected_time":433000000000,"state":"active","ping":62}]},{"server_id":405,"name":"Uncletopia | Dallas | 4 | Community","name_short":"dal-4","host":"dal-1.us.uncletopia.com","port":27045,"enabled":true,"region":"us-central","cc":"us","latitude":32.779167,"longitude":-96.80889,"reserved":0,"last_update":"0001-01-01T00:00:00Z","name_a2s":"Uncletopia | Dallas | 4 | Community","protocol":17,"map":"workshop/koth_ashville_final.ugc2130459942","folder":"tf","game":"Team Fortress","app_id":440,"player_count":0,"max_players":24,"Bots":0,"server_type":"Dedicated","server_os":"Linux","password":true,"vac":true,"version":"7961495","steam_id":85568392924515220,"keywords":["cp","nocrits","nodmgspread","uncletopia"],"game_id":440,"stv_port":27046,"stv_name":"Uncletopia | Dallas | 4 | Community | STV","players":null},{"server_id":5,"name":"Uncletopia | Frankfurt | 1 | All Maps","name_short":"frk-1","host":"frk-1.de.uncletopia.com","port":27015,"enabled":true,"region":"eu","cc":"de","latitude":50.110924,"longitude":8.682127,"reserved":0,"last_update":"0001-01-01T00:00:00Z","name_a2s":"Uncletopia | Frankfurt | 1 | All Maps","protocol":17,"map":"pl_badwater","folder":"tf","game":"Team Fortress","app_id":440,"player_count":0,"max_players":24,"Bots":0,"server_type":"Dedicated","server_os":"Linux","password":true,"vac":true,"version":"7961495","steam_id":85568392924469989,"keywords":["nocrits","nodmgspread","payload","uncletopia"],"game_id":440,"stv_port":27016,"stv_name":"Uncletopia | Frankfurt | 1 | All Maps | STV","players":null},{"server_id":110,"name":"Uncletopia | Frankfurt | 2 | All Maps","name_short":"frk-2","host":"frk-1.de.uncletopia.com","port":27025,"enabled":true,"region":"eu","cc":"de","latitude":50.110924,"longitude":8.682127,"reserved":0,"last_update":"0001-01-01T00:00:00Z","name_a2s":"Uncletopia | Frankfurt | 2 | All Maps","protocol":17,"map":"koth_lakeside_final","folder":"tf","game":"Team Fortress","app_id":440,"player_count":0,"max_players":24,"Bots":0,"server_type":"Dedicated","server_os":"Linux","password":true,"vac":true,"version":"7961495","steam_id":85568392924469990,"keywords":["cp","nocrits","nodmgspread","uncletopia"],"game_id":440,"stv_port":27026,"stv_name":"Uncletopia | Frankfurt | 2 | All Maps | STV","players":null},{"server_id":308,"name":"Uncletopia | Frankfurt | 3 | All Maps","name_short":"frk-3","host":"frk-1.de.uncletopia.com","port":27035,"enabled":true,"region":"eu","cc":"de","latitude":50.110924,"longitude":8.682127,"reserved":0,"last_update":"0001-01-01T00:00:00Z","name_a2s":"Uncletopia | Frankfurt | 3 | All Maps","protocol":17,"map":"cp_sunshine","folder":"tf","game":"Team Fortress","app_id":440,"player_count":0,"max_players":24,"Bots":0,"server_type":"Dedicated","server_os":"Linux","password":true,"vac":true,"version":"7961495","steam_id":85568392924504274,"keywords":["cp","nocrits","nodmgspread","uncletopia"],"game_id":440,"stv_port":27036,"stv_name":"Uncletopia | Frankfurt | 3 | All Maps | STV","players":null},{"server_id":309,"name":"Uncletopia | Frankfurt | 4 | All Maps","name_short":"frk-4","host":"frk-1.de.uncletopia.com","port":27045,"enabled":true,"region":"eu","cc":"de","latitude":50.110924,"longitude":8.682127,"reserved":0,"last_update":"0001-01-01T00:00:00Z","name_a2s":"Uncletopia | Frankfurt | 4 | All Maps","protocol":17,"map":"cp_altitude","folder":"tf","game":"Team Fortress","app_id":440,"player_count":0,"max_players":24,"Bots":0,"server_type":"Dedicated","server_os":"Linux","password":true,"vac":true,"version":"7961495","steam_id":85568392924504275,"keywords":["cp","nocrits","nodmgspread","uncletopia"],"game_id":440,"stv_port":27046,"stv_name":"Uncletopia | Frankfurt | 4 | All Maps | STV","players":null},{"server_id":310,"name":"Uncletopia | Frankfurt | 5 | All Maps","name_short":"frk-5","host":"frk-1.de.uncletopia.com","port":27055,"enabled":true,"region":"eu","cc":"de","latitude":50.110924,"longitude":8.682127,"reserved":0,"last_update":"0001-01-01T00:00:00Z","name_a2s":"Uncletopia | Frankfurt | 5 | All Maps","protocol":17,"map":"cp_process_final","folder":"tf","game":"Team Fortress","app_id":440,"player_count":0,"max_players":24,"Bots":0,"server_type":"Dedicated","server_os":"Linux","password":true,"vac":true,"version":"7961495","steam_id":85568392924504277,"keywords":["cp","nocrits","nodmgspread","uncletopia"],"game_id":440,"stv_port":27056,"stv_name":"Uncletopia | Frankfurt | 5 | All Maps | STV","players":null},{"server_id":311,"name":"Uncletopia | Frankfurt | 6 | All Maps","name_short":"frk-6","host":"frk-1.de.uncletopia.com","port":27065,"enabled":true,"region":"eu","cc":"de","latitude":50.110924,"longitude":8.682127,"reserved":0,"last_update":"0001-01-01T00:00:00Z","name_a2s":"Uncletopia | Frankfurt | 6 | All Maps","protocol":17,"map":"pl_barnblitz","folder":"tf","game":"Team Fortress","app_id":440,"player_count":0,"max_players":24,"Bots":0,"server_type":"Dedicated","server_os":"Linux","password":true,"vac":true,"version":"7961495","steam_id":85568392924504278,"keywords":["nocrits","nodmgspread","payload","uncletopia"],"game_id":440,"stv_port":27066,"stv_name":"Uncletopia | Frankfurt | 6 | All Maps | STV","players":null},{"server_id":23,"name":"Uncletopia | Frankfurt | 7 | Stopwatch Beta","name_short":"frk-7","host":"frk-1.de.uncletopia.com","port":27075,"enabled":true,"region":"eu","cc":"de","latitude":50.110924,"longitude":8.682127,"reserved":0,"last_update":"0001-01-01T00:00:00Z","name_a2s":"Uncletopia | Frankfurt | 7 | Stopwatch Beta","protocol":17,"map":"koth_cascade","folder":"tf","game":"Team Fortress","app_id":440,"player_count":0,"max_players":24,"Bots":0,"server_type":"Dedicated","server_os":"Linux","password":true,"vac":true,"version":"7961495","steam_id":85568392924742827,"keywords":["cp","nocrits","nodmgspread","uncletopia"],"game_id":440,"stv_port":27076,"stv_name":"Uncletopia | Frankfurt | 7 | Stopwatch Beta | STV","players":null},{"server_id":24,"name":"Uncletopia | Frankfurt | 8 | Community","name_short":"frk-8","host":"frk-1.de.uncletopia.com","port":27085,"enabled":true,"region":"eu","cc":"de","latitude":50.110924,"longitude":8.682127,"reserved":0,"last_update":"0001-01-01T00:00:00Z","name_a2s":"Uncletopia | Frankfurt | 8 | Community","protocol":17,"map":"cp_dustbowl","folder":"tf","game":"Team Fortress","app_id":440,"player_count":0,"max_players":24,"Bots":0,"server_type":"Dedicated","server_os":"Linux","password":true,"vac":true,"version":"7961495","steam_id":85568392924742828,"keywords":["cp","nocrits","nodmgspread","uncletopia"],"game_id":440,"stv_port":27086,"stv_name":"Uncletopia | Frankfurt | 8 | Community | STV","players":null},{"server_id":202,"name":"Uncletopia | Hong Kong | 1 | All Maps","name_short":"hgk-1","host":"hgk-1.hk.uncletopia.com","port":27015,"enabled":true,"region":"asia","cc":"hk","latitude":22.302711,"longitude":114.177216,"reserved":0,"last_update":"0001-01-01T00:00:00Z","name_a2s":"Uncletopia | Hong Kong | 1 | All Maps","protocol":17,"map":"koth_viaduct","folder":"tf","game":"Team Fortress","app_id":440,"player_count":0,"max_players":24,"Bots":0,"server_type":"Dedicated","server_os":"Linux","password":true,"vac":true,"version":"7961495","steam_id":85568392924494504,"keywords":["cp","nocrits","nodmgspread","uncletopia"],"game_id":440,"stv_port":27016,"stv_name":"Uncletopia | Hong Kong | 1 | All Maps | STV","players":null},{"server_id":1,"name":"Uncletopia | Los Angeles | 1 | All Maps","name_short":"lax-1","host":"lax-1.us.uncletopia.com","port":27015,"enabled":true,"region":"us-west","cc":"us","latitude":33.94279,"longitude":-118.41004,"reserved":0,"last_update":"0001-01-01T00:00:00Z","name_a2s":"Uncletopia | Los Angeles | 1 | All Maps","protocol":17,"map":"cp_dustbowl","folder":"tf","game":"Team Fortress","app_id":440,"player_count":24,"max_players":24,"Bots":0,"server_type":"Dedicated","server_os":"Linux","password":true,"vac":true,"version":"7961495","steam_id":85568392924469991,"keywords":["cp","nocrits","nodmgspread","uncletopia"],"game_id":440,"stv_port":27016,"stv_name":"Uncletopia | Los Angeles | 1 | All Maps | STV","players":[{"user_id":320,"name":"hash","steam_id":76561198058516339,"connected_time":3823000000000,"state":"active","ping":43},{"user_id":358,"name":"vioxynteris","steam_id":76561198161428666,"connected_time":1394000000000,"state":"active","ping":31},{"user_id":351,"name":"An00bis","steam_id":76561198044084508,"connected_time":1829000000000,"state":"active","ping":53},{"user_id":354,"name":"pebbleguye","steam_id":76561198034662654,"connected_time":1771000000000,"state":"active","ping":86},{"user_id":330,"name":"xbox record that","steam_id":76561198150117455,"connected_time":2691000000000,"state":"active","ping":55},{"user_id":325,"name":"i cant aim","steam_id":76561198065873462,"connected_time":3350000000000,"state":"active","ping":47},{"user_id":337,"name":"dunnydunjo","steam_id":76561198069605283,"connected_time":2360000000000,"state":"active","ping":49},{"user_id":253,"name":"Schnitz","steam_id":76561198265484253,"connected_time":8930000000000,"state":"active","ping":59},{"user_id":368,"name":"Whisper!","steam_id":76561198119609795,"connected_time":122000000000,"state":"active","ping":56},{"user_id":359,"name":"Higuma","steam_id":76561198375229012,"connected_time":1314000000000,"state":"active","ping":67},{"user_id":310,"name":"werolat","steam_id":76561197960544784,"connected_time":4776000000000,"state":"active","ping":68},{"user_id":268,"name":"Tocha","steam_id":76561198119725400,"connected_time":7790000000000,"state":"active","ping":102},{"user_id":345,"name":"BurdBrain","steam_id":76561197962097737,"connected_time":1998000000000,"state":"active","ping":58},{"user_id":336,"name":"Tommy da bird","steam_id":76561198136340711,"connected_time":2374000000000,"state":"active","ping":96},{"user_id":338,"name":"Soda","steam_id":76561198108363656,"connected_time":2352000000000,"state":"active","ping":81},{"user_id":369,"name":"Mike Bean Burritos","steam_id":76561198173430607,"connected_time":22000000000,"state":"active","ping":81},{"user_id":360,"name":"Dirtbomb","steam_id":76561198002403301,"connected_time":1048000000000,"state":"active","ping":73},{"user_id":353,"name":"Tako","steam_id":76561199264073138,"connected_time":1799000000000,"state":"active","ping":33},{"user_id":361,"name":"Person Man","steam_id":76561198293857963,"connected_time":917000000000,"state":"active","ping":65},{"user_id":367,"name":"Torigan","steam_id":76561198058150064,"connected_time":398000000000,"state":"active","ping":99},{"user_id":341,"name":"I gambled my wife away..","steam_id":76561198274180010,"connected_time":2290000000000,"state":"active","ping":44},{"user_id":366,"name":"DoctorVoid","steam_id":76561198154715380,"connected_time":445000000000,"state":"active","ping":62},{"user_id":356,"name":"breathing meat donut","steam_id":76561198123566649,"connected_time":1741000000000,"state":"active","ping":83},{"user_id":303,"name":"Terror","steam_id":76561198188685728,"connected_time":5396000000000,"state":"active","ping":104}]},{"server_id":112,"name":"Uncletopia | Los Angeles | 2 | All Maps","name_short":"lax-2","host":"lax-1.us.uncletopia.com","port":27025,"enabled":true,"region":"us-west","cc":"us","latitude":33.94279,"longitude":-118.41004,"reserved":0,"last_update":"0001-01-01T00:00:00Z","name_a2s":"Uncletopia | Los Angeles | 2 | All Maps","protocol":17,"map":"pl_barnblitz","folder":"tf","game":"Team Fortress","app_id":440,"player_count":24,"max_players":24,"Bots":0,"server_type":"Dedicated","server_os":"Linux","password":true,"vac":true,"version":"7961495","steam_id":85568392924469992,"keywords":["nocrits","nodmgspread","payload","uncletopia"],"game_id":440,"stv_port":27026,"stv_name":"Uncletopia | Los Angeles | 2 | All Maps | STV","players":[{"user_id":555,"name":"Sol","steam_id":76561198121500201,"connected_time":2291000000000,"state":"active","ping":46},{"user_id":601,"name":"Edendelt","steam_id":76561199382750867,"connected_time":410000000000,"state":"active","ping":54},{"user_id":602,"name":"Interrobang","steam_id":76561198385044529,"connected_time":370000000000,"state":"active","ping":95},{"user_id":468,"name":"They could be ********","steam_id":76561198441020995,"connected_time":9206000000000,"state":"active","ping":66},{"user_id":603,"name":"Gugomo","steam_id":76561198121428316,"connected_time":343000000000,"state":"active","ping":35},{"user_id":596,"name":"fart with reverb","steam_id":76561198861823583,"connected_time":767000000000,"state":"active","ping":113},{"user_id":604,"name":"Temujin","steam_id":76561198030936583,"connected_time":225000000000,"state":"active","ping":104},{"user_id":597,"name":"Das Anchor","steam_id":76561198060173151,"connected_time":747000000000,"state":"active","ping":91},{"user_id":600,"name":"Phantom Thief","steam_id":76561198254482947,"connected_time":444000000000,"state":"active","ping":55},{"user_id":452,"name":"squibonacci","steam_id":76561198305870184,"connected_time":10010000000000,"state":"active","ping":68},{"user_id":605,"name":"Pho","steam_id":76561198306515742,"connected_time":206000000000,"state":"active","ping":59},{"user_id":607,"name":"jim awesome","steam_id":76561198337486020,"connected_time":196000000000,"state":"active","ping":62},{"user_id":567,"name":"Rusty","steam_id":76561198055585129,"connected_time":1739000000000,"state":"active","ping":74},{"user_id":578,"name":"Killing_Moon","steam_id":76561198028185566,"connected_time":1422000000000,"state":"active","ping":56},{"user_id":586,"name":"Vegan Veal","steam_id":76561198123607452,"connected_time":1165000000000,"state":"active","ping":77},{"user_id":392,"name":"JavaScript Frappuccino","steam_id":76561198111620153,"connected_time":13820000000000,"state":"active","ping":71},{"user_id":580,"name":"Nani","steam_id":76561198010230727,"connected_time":1375000000000,"state":"active","ping":58},{"user_id":595,"name":"Ralph Kramden (Slim Charles)","steam_id":76561197981687895,"connected_time":808000000000,"state":"active","ping":59},{"user_id":585,"name":"Maniac9","steam_id":76561197960530967,"connected_time":1204000000000,"state":"active","ping":48},{"user_id":559,"name":"[DATS‚û°] Sugar Meowth","steam_id":76561197995251793,"connected_time":2139000000000,"state":"active","ping":69},{"user_id":608,"name":"hakken","steam_id":76561199102391736,"connected_time":171000000000,"state":"active","ping":56},{"user_id":594,"name":"De Monki","steam_id":76561198964210411,"connected_time":827000000000,"state":"active","ping":68},{"user_id":583,"name":"flop","steam_id":76561199230528008,"connected_time":1341000000000,"state":"active","ping":86},{"user_id":609,"name":"poob","steam_id":76561198406728732,"connected_time":153000000000,"state":"active","ping":98}]},{"server_id":324,"name":"Uncletopia | Los Angeles | 3 | All Maps","name_short":"lax-3","host":"lax-1.us.uncletopia.com","port":27035,"enabled":true,"region":"us-west","cc":"us","latitude":33.94279,"longitude":-118.41004,"reserved":0,"last_update":"0001-01-01T00:00:00Z","name_a2s":"Uncletopia | Los Angeles | 3 | All Maps","protocol":17,"map":"pl_rumford_event","folder":"tf","game":"Team Fortress","app_id":440,"player_count":24,"max_players":24,"Bots":0,"server_type":"Dedicated","server_os":"Linux","password":true,"vac":true,"version":"7961495","steam_id":85568392924510198,"keywords":["nocrits","nodmgspread","payload","uncletopia"],"game_id":440,"stv_port":27036,"stv_name":"Uncletopia | Los Angeles | 3 | All Maps | STV","players":[{"user_id":440,"name":"Saber","steam_id":76561199030547855,"connected_time":81000000000,"state":"active","ping":54},{"user_id":438,"name":"Mr. E","steam_id":76561198060381147,"connected_time":366000000000,"state":"active","ping":69},{"user_id":434,"name":"zombie relic","steam_id":76561198079472501,"connected_time":596000000000,"state":"active","ping":50},{"user_id":372,"name":"TYLER","steam_id":76561198841399048,"connected_time":4324000000000,"state":"active","ping":99},{"user_id":404,"name":"It's a Doggydog World","steam_id":76561198018232414,"connected_time":2335000000000,"state":"active","ping":74},{"user_id":356,"name":"TrueGodOfBread","steam_id":76561198127577215,"connected_time":5570000000000,"state":"active","ping":46},{"user_id":431,"name":"The Dumptruck of Notre-Dame","steam_id":76561198004815026,"connected_time":694000000000,"state":"active","ping":56},{"user_id":433,"name":"Dranos","steam_id":76561198317456244,"connected_time":662000000000,"state":"active","ping":62},{"user_id":420,"name":"boomer","steam_id":76561198108761337,"connected_time":1672000000000,"state":"active","ping":51},{"user_id":427,"name":"potassium and fiber heavy","steam_id":76561198032259680,"connected_time":1232000000000,"state":"active","ping":110},{"user_id":422,"name":"Joe Biden (Deceased)","steam_id":76561198170427507,"connected_time":1602000000000,"state":"active","ping":52},{"user_id":423,"name":"loco503","steam_id":76561198827495121,"connected_time":1590000000000,"state":"active","ping":73},{"user_id":410,"name":"Zaiah","steam_id":76561198377588247,"connected_time":1944000000000,"state":"active","ping":79},{"user_id":412,"name":"Leftovers","steam_id":76561198046041079,"connected_time":1903000000000,"state":"active","ping":120},{"user_id":396,"name":"indyjacob","steam_id":76561198065158713,"connected_time":2643000000000,"state":"active","ping":73},{"user_id":432,"name":"goon refinery","steam_id":76561198166781089,"connected_time":691000000000,"state":"active","ping":85},{"user_id":428,"name":"Korn Dawg","steam_id":76561198026941076,"connected_time":755000000000,"state":"active","ping":62},{"user_id":439,"name":"gatorbelt","steam_id":76561198145784505,"connected_time":246000000000,"state":"active","ping":47},{"user_id":415,"name":"the hunchback of gay paris","steam_id":76561197987056308,"connected_time":1767000000000,"state":"active","ping":75},{"user_id":419,"name":"meszaros1293","steam_id":76561198168201600,"connected_time":1685000000000,"state":"active","ping":63},{"user_id":436,"name":"Hythreon","steam_id":76561198083031622,"connected_time":477000000000,"state":"active","ping":75},{"user_id":399,"name":"ATOMIC SPEED","steam_id":76561199407580843,"connected_time":2606000000000,"state":"active","ping":56},{"user_id":417,"name":"parallax","steam_id":76561198004438881,"connected_time":1760000000000,"state":"active","ping":70},{"user_id":296,"name":"wrist game dumbin","steam_id":76561198247984828,"connected_time":9511000000000,"state":"active","ping":54}]},{"server_id":25,"name":"Uncletopia | Los Angeles | 4 | Stopwatch Beta","name_short":"lax-4","host":"lax-1.us.uncletopia.com","port":27045,"enabled":true,"region":"us-west","cc":"us","latitude":33.94279,"longitude":-118.41004,"reserved":0,"last_update":"0001-01-01T00:00:00Z","name_a2s":"Uncletopia | Los Angeles | 4 | Stopwatch Beta","protocol":17,"map":"workshop/koth_ashville_final.ugc2130459942","folder":"tf","game":"Team Fortress","app_id":440,"player_count":0,"max_players":24,"Bots":0,"server_type":"Dedicated","server_os":"Linux","password":true,"vac":true,"version":"7961495","steam_id":85568392924510199,"keywords":["cp","nocrits","nodmgspread","uncletopia"],"game_id":440,"stv_port":27046,"stv_name":"Uncletopia | Los Angeles | 4 | Stopwatch Beta | STV","players":null},{"server_id":11,"name":"Uncletopia | London | 1 | All Maps","name_short":"lon-1","host":"lon-1.uk.uncletopia.com","port":27015,"enabled":true,"region":"eu","cc":"gb","latitude":51.509865,"longitude":-0.118092,"reserved":0,"last_update":"0001-01-01T00:00:00Z","name_a2s":"Uncletopia | London | 1 | All Maps","protocol":17,"map":"pl_borneo","folder":"tf","game":"Team Fortress","app_id":440,"player_count":0,"max_players":24,"Bots":0,"server_type":"Dedicated","server_os":"Linux","password":true,"vac":true,"version":"7961495","steam_id":85568392924367362,"keywords":["nocrits","nodmgspread","payload","uncletopia"],"game_id":440,"stv_port":27016,"stv_name":"Uncletopia | London | 1 | All Maps | STV","players":null},{"server_id":114,"name":"Uncletopia | London | 2 | All Maps","name_short":"lon-2","host":"lon-1.uk.uncletopia.com","port":27025,"enabled":true,"region":"eu","cc":"gb","latitude":51.509865,"longitude":-0.118092,"reserved":0,"last_update":"0001-01-01T00:00:00Z","name_a2s":"Uncletopia | London | 2 | All Maps","protocol":17,"map":"cp_snakewater_final1","folder":"tf","game":"Team Fortress","app_id":440,"player_count":0,"max_players":24,"Bots":0,"server_type":"Dedicated","server_os":"Linux","password":true,"vac":true,"version":"7961495","steam_id":85568392924470941,"keywords":["cp","nocrits","nodmgspread","uncletopia"],"game_id":440,"stv_port":27026,"stv_name":"Uncletopia | London | 2 | All Maps | STV","players":null},{"server_id":320,"name":"Uncletopia | London | 3 | All Maps","name_short":"lon-3","host":"lon-1.uk.uncletopia.com","port":27035,"enabled":true,"region":"eu","cc":"gb","latitude":51.509865,"longitude":-0.118092,"reserved":0,"last_update":"0001-01-01T00:00:00Z","name_a2s":"Uncletopia | London | 3 | All Maps","protocol":17,"map":"pl_pier","folder":"tf","game":"Team Fortress","app_id":440,"player_count":0,"max_players":24,"Bots":0,"server_type":"Dedicated","server_os":"Linux","password":true,"vac":true,"version":"7961495","steam_id":85568392924510192,"keywords":["nocrits","nodmgspread","payload","uncletopia"],"game_id":440,"stv_port":27036,"stv_name":"Uncletopia | London | 3 | All Maps | STV","players":null},{"server_id":321,"name":"Uncletopia | London | 4 | All Maps","name_short":"lon-4","host":"lon-1.uk.uncletopia.com","port":27045,"enabled":true,"region":"eu","cc":"gb","latitude":51.509865,"longitude":-0.118092,"reserved":0,"last_update":"0001-01-01T00:00:00Z","name_a2s":"Uncletopia | London | 4 | All Maps","protocol":17,"map":"koth_viaduct","folder":"tf","game":"Team Fortress","app_id":440,"player_count":0,"max_players":24,"Bots":0,"server_type":"Dedicated","server_os":"Linux","password":true,"vac":true,"version":"7961495","steam_id":85568392924510193,"keywords":["cp","nocrits","nodmgspread","uncletopia"],"game_id":440,"stv_port":27046,"stv_name":"Uncletopia | London | 4 | All Maps | STV","players":null},{"server_id":21,"name":"Uncletopia | London | 5 | All Maps","name_short":"lon-5","host":"lon-1.uk.uncletopia.com","port":27055,"enabled":true,"region":"eu","cc":"gb","latitude":51.509865,"longitude":-0.118092,"reserved":0,"last_update":"0001-01-01T00:00:00Z","name_a2s":"Uncletopia | London | 5 | All Maps","protocol":17,"map":"pl_barnblitz","folder":"tf","game":"Team Fortress","app_id":440,"player_count":0,"max_players":24,"Bots":0,"server_type":"Dedicated","server_os":"Linux","password":true,"vac":true,"version":"7961495","steam_id":85568392924742829,"keywords":["nocrits","nodmgspread","payload","uncletopia"],"game_id":440,"stv_port":27056,"stv_name":"Uncletopia | London | 5 | All Maps | STV","players":null},{"server_id":22,"name":"Uncletopia | London | 6 | All Maps","name_short":"lon-6","host":"lon-1.uk.uncletopia.com","port":27065,"enabled":true,"region":"eu","cc":"gb","latitude":51.509865,"longitude":-0.118092,"reserved":0,"last_update":"0001-01-01T00:00:00Z","name_a2s":"Uncletopia | London | 6 | All Maps","protocol":17,"map":"pl_borneo","folder":"tf","game":"Team Fortress","app_id":440,"player_count":0,"max_players":24,"Bots":0,"server_type":"Dedicated","server_os":"Linux","password":true,"vac":true,"version":"7961495","steam_id":85568392924742830,"keywords":["nocrits","nodmgspread","payload","uncletopia"],"game_id":440,"stv_port":27066,"stv_name":"Uncletopia | London | 6 | All Maps | STV","players":null},{"server_id":40,"name":"Uncletopia | London | 7 | No Payload","name_short":"lon-7","host":"lon-1.uk.uncletopia.com","port":27075,"enabled":true,"region":"eu","cc":"gb","latitude":51.509865,"longitude":-0.118092,"reserved":0,"last_update":"0001-01-01T00:00:00Z","name_a2s":"Uncletopia | London | 7 | No Payload","protocol":17,"map":"cp_egypt_final","folder":"tf","game":"Team Fortress","app_id":440,"player_count":0,"max_players":24,"Bots":0,"server_type":"Dedicated","server_os":"Linux","password":true,"vac":true,"version":"7961495","steam_id":85568392924964314,"keywords":["cp","nocrits","nodmgspread","uncletopia"],"game_id":440,"stv_port":27076,"stv_name":"Uncletopia | London | 7 | No Payload | STV","players":null},{"server_id":41,"name":"Uncletopia | London | 8 | Community","name_short":"lon-8","host":"lon-1.uk.uncletopia.com","port":27085,"enabled":true,"region":"eu","cc":"gb","latitude":51.509865,"longitude":-0.118092,"reserved":0,"last_update":"0001-01-01T00:00:00Z","name_a2s":"Uncletopia | London | 8 | Community","protocol":17,"map":"pl_borneo","folder":"tf","game":"Team Fortress","app_id":440,"player_count":0,"max_players":24,"Bots":0,"server_type":"Dedicated","server_os":"Linux","password":true,"vac":true,"version":"7961495","steam_id":85568392924964315,"keywords":["nocrits","nodmgspread","payload","uncletopia"],"game_id":440,"stv_port":27086,"stv_name":"Uncletopia | London | 8 | Community | STV","players":null},{"server_id":300,"name":"Uncletopia | Montr√©al | 1 | All Maps","name_short":"mtl-1","host":"mtl-1.ca.uncletopia.com","port":27015,"enabled":true,"region":"us-east","cc":"ca","latitude":45.50889,"longitude":-73.56167,"reserved":0,"last_update":"0001-01-01T00:00:00Z","name_a2s":"Uncletopia | Montr√©al | 1 | All Maps","protocol":17,"map":"pl_swiftwater_final1","folder":"tf","game":"Team Fortress","app_id":440,"player_count":0,"max_players":24,"Bots":0,"server_type":"Dedicated","server_os":"Linux","password":true,"vac":true,"version":"7961495","steam_id":85568392924500087,"keywords":["nocrits","nodmgspread","payload","uncletopia"],"game_id":440,"stv_port":27016,"stv_name":"Uncletopia | Montr√©al | 1 | All Maps | STV","players":null},{"server_id":301,"name":"Uncletopia | Montr√©al | 2 | All Maps","name_short":"mtl-2","host":"mtl-1.ca.uncletopia.com","port":27025,"enabled":true,"region":"us-east","cc":"ca","latitude":45.50889,"longitude":-73.56167,"reserved":0,"last_update":"0001-01-01T00:00:00Z","name_a2s":"Uncletopia | Montr√©al | 2 | All Maps","protocol":17,"map":"cp_dustbowl","folder":"tf","game":"Team Fortress","app_id":440,"player_count":0,"max_players":24,"Bots":0,"server_type":"Dedicated","server_os":"Linux","password":true,"vac":true,"version":"7961495","steam_id":85568392924500088,"keywords":["cp","nocrits","nodmgspread","uncletopia"],"game_id":440,"stv_port":27026,"stv_name":"Uncletopia | Montr√©al | 2 | All Maps | STV","players":null},{"server_id":302,"name":"Uncletopia | Montr√©al | 3 | All Maps","name_short":"mtl-3","host":"mtl-1.ca.uncletopia.com","port":27035,"enabled":true,"region":"us-east","cc":"ca","latitude":45.50889,"longitude":-73.56167,"reserved":0,"last_update":"0001-01-01T00:00:00Z","name_a2s":"Uncletopia | Montr√©al | 3 | All Maps","protocol":17,"map":"koth_cascade","folder":"tf","game":"Team Fortress","app_id":440,"player_count":0,"max_players":24,"Bots":0,"server_type":"Dedicated","server_os":"Linux","password":true,"vac":true,"version":"7961495","steam_id":85568392924500089,"keywords":["cp","nocrits","nodmgspread","uncletopia"],"game_id":440,"stv_port":27036,"stv_name":"Uncletopia | Montr√©al | 3 | All Maps | STV","players":null},{"server_id":303,"name":"Uncletopia | Montr√©al | 4 | No Payload","name_short":"mtl-4","host":"mtl-1.ca.uncletopia.com","port":27045,"enabled":true,"region":"us-east","cc":"ca","latitude":45.50889,"longitude":-73.56167,"reserved":0,"last_update":"0001-01-01T00:00:00Z","name_a2s":"Uncletopia | Montr√©al | 4 | No Payload","protocol":17,"map":"koth_lakeside_final","folder":"tf","game":"Team Fortress","app_id":440,"player_count":0,"max_players":24,"Bots":0,"server_type":"Dedicated","server_os":"Linux","password":true,"vac":true,"version":"7961495","steam_id":85568392924500090,"keywords":["cp","nocrits","nodmgspread","uncletopia"],"game_id":440,"stv_port":27046,"stv_name":"Uncletopia | Montr√©al | 4 | No Payload | STV","players":null},{"server_id":13,"name":"Uncletopia | New York City | 1 | All Maps","name_short":"nyc-1","host":"nyc-1.us.uncletopia.com","port":27015,"enabled":true,"region":"us-east","cc":"us","latitude":40.73061,"longitude":-73.93524,"reserved":0,"last_update":"0001-01-01T00:00:00Z","name_a2s":"Uncletopia | New York City | 1 | All Maps","protocol":17,"map":"pl_badwater","folder":"tf","game":"Team Fortress","app_id":440,"player_count":20,"max_players":24,"Bots":0,"server_type":"Dedicated","server_os":"Linux","password":true,"vac":true,"version":"7961495","steam_id":85568392924469993,"keywords":["nocrits","nodmgspread","payload","uncletopia"],"game_id":440,"stv_port":27016,"stv_name":"Uncletopia | New York City | 1 | All Maps | STV","players":[{"user_id":940,"name":"FueledBurrito","steam_id":76561198094396678,"connected_time":2201000000000,"state":"active","ping":59},{"user_id":939,"name":"JHLO","steam_id":76561198074359967,"connected_time":2225000000000,"state":"active","ping":62},{"user_id":949,"name":"pl_chicago","steam_id":76561198055626638,"connected_time":1184000000000,"state":"active","ping":69},{"user_id":906,"name":"Gentoo Linux Gaming","steam_id":76561197999657118,"connected_time":6094000000000,"state":"active","ping":63},{"user_id":955,"name":"Witch_One","steam_id":76561198127510212,"connected_time":353000000000,"state":"active","ping":126},{"user_id":926,"name":"roman","steam_id":76561198170066797,"connected_time":3896000000000,"state":"active","ping":61},{"user_id":922,"name":"Fun Sized Depression","steam_id":76561198835517383,"connected_time":4116000000000,"state":"active","ping":71},{"user_id":953,"name":"Loser","steam_id":76561198139384735,"connected_time":646000000000,"state":"active","ping":64},{"user_id":956,"name":"Zero","steam_id":76561198064142285,"connected_time":353000000000,"state":"active","ping":86},{"user_id":950,"name":"hatsune miku","steam_id":76561199445009981,"connected_time":1177000000000,"state":"active","ping":108},{"user_id":957,"name":"gaster","steam_id":76561198976947772,"connected_time":209000000000,"state":"active","ping":201},{"user_id":958,"name":"yourghost","steam_id":76561199111221729,"connected_time":191000000000,"state":"active","ping":127},{"user_id":959,"name":"jorjor wells","steam_id":76561199073429082,"connected_time":157000000000,"state":"active","ping":58},{"user_id":928,"name":"Apetometrist","steam_id":76561198045391635,"connected_time":3815000000000,"state":"active","ping":72},{"user_id":900,"name":"Lumpy the Illegally Blind","steam_id":76561198053125768,"connected_time":6270000000000,"state":"active","ping":139},{"user_id":960,"name":"Super Sand Lesbian","steam_id":76561198028157625,"connected_time":130000000000,"state":"active","ping":139},{"user_id":961,"name":"FrogoMancer","steam_id":76561198857550559,"connected_time":92000000000,"state":"spawning","ping":138},{"user_id":903,"name":"Venumb Bengal","steam_id":76561198156498290,"connected_time":6208000000000,"state":"active","ping":93},{"user_id":948,"name":"automated wood production","steam_id":76561198307060128,"connected_time":1378000000000,"state":"active","ping":76},{"user_id":864,"name":"Meh","steam_id":76561198078187920,"connected_time":9503000000000,"state":"active","ping":87}]},{"server_id":14,"name":"Uncletopia | New York City | 2 | All Maps","name_short":"nyc-2","host":"nyc-1.us.uncletopia.com","port":27025,"enabled":true,"region":"us-east","cc":"us","latitude":40.73061,"longitude":-73.93524,"reserved":0,"last_update":"0001-01-01T00:00:00Z","name_a2s":"Uncletopia | New York City | 2 | All Maps","protocol":17,"map":"cp_process_final","folder":"tf","game":"Team Fortress","app_id":440,"player_count":23,"max_players":24,"Bots":0,"server_type":"Dedicated","server_os":"Linux","password":true,"vac":true,"version":"7961495","steam_id":85568392924469994,"keywords":["cp","nocrits","nodmgspread","uncletopia"],"game_id":440,"stv_port":27026,"stv_name":"Uncletopia | New York City | 2 | All Maps | STV","players":[{"user_id":687,"name":"goliath birdeater","steam_id":76561198089852954,"connected_time":7440000000000,"state":"active","ping":76},{"user_id":768,"name":"orbisg","steam_id":76561198004133638,"connected_time":2668000000000,"state":"active","ping":116},{"user_id":686,"name":"dunk","steam_id":76561198066114874,"connected_time":7454000000000,"state":"active","ping":109},{"user_id":786,"name":"Dullahan","steam_id":76561198119668908,"connected_time":1067000000000,"state":"active","ping":109},{"user_id":782,"name":"Zetawaves","steam_id":76561198113207896,"connected_time":1694000000000,"state":"active","ping":61},{"user_id":773,"name":"A Puppy","steam_id":76561198828184456,"connected_time":2391000000000,"state":"active","ping":45},{"user_id":781,"name":"DragoDuck","steam_id":76561198385685683,"connected_time":1717000000000,"state":"active","ping":105},{"user_id":750,"name":"wise","steam_id":76561198030066204,"connected_time":3267000000000,"state":"active","ping":30},{"user_id":794,"name":"twink floyd","steam_id":76561199487086586,"connected_time":752000000000,"state":"active","ping":79},{"user_id":777,"name":"on that zaza?","steam_id":76561198038713198,"connected_time":2314000000000,"state":"active","ping":46},{"user_id":795,"name":"Pink fluoride","steam_id":76561198055337107,"connected_time":723000000000,"state":"active","ping":71},{"user_id":792,"name":"Dr. Milker","steam_id":76561198068516964,"connected_time":874000000000,"state":"active","ping":127},{"user_id":801,"name":"mac","steam_id":76561198043039518,"connected_time":254000000000,"state":"active","ping":62},{"user_id":791,"name":"Timon's high on crack cocaine!","steam_id":76561198180396430,"connected_time":954000000000,"state":"active","ping":55},{"user_id":793,"name":"MyrButCool","steam_id":76561198177245933,"connected_time":822000000000,"state":"active","ping":53},{"user_id":796,"name":"Engie's best friend","steam_id":76561197961707932,"connected_time":713000000000,"state":"active","ping":137},{"user_id":769,"name":"stile","steam_id":76561198149443710,"connected_time":2665000000000,"state":"active","ping":119},{"user_id":753,"name":"Yakul","steam_id":76561198100040013,"connected_time":3230000000000,"state":"active","ping":97},{"user_id":766,"name":"Funke Monke","steam_id":76561198079440976,"connected_time":2815000000000,"state":"active","ping":76},{"user_id":797,"name":"Duncan Idaho","steam_id":76561197988963861,"connected_time":704000000000,"state":"active","ping":50},{"user_id":798,"name":"werecat","steam_id":76561198005091213,"connected_time":650000000000,"state":"active","ping":44},{"user_id":802,"name":"samsung tokyo","steam_id":76561198102681457,"connected_time":122000000000,"state":"active","ping":82},{"user_id":746,"name":"tracker","steam_id":76561198046911616,"connected_time":3458000000000,"state":"active","ping":42}]},{"server_id":15,"name":"Uncletopia | New York City | 3 | Stopwatch Beta","name_short":"nyc-3","host":"nyc-1.us.uncletopia.com","port":27035,"enabled":true,"region":"us-east","cc":"us","latitude":40.73061,"longitude":-73.93524,"reserved":0,"last_update":"0001-01-01T00:00:00Z","name_a2s":"Uncletopia | New York City | 3 | Stopwatch Beta","protocol":17,"map":"workshop/koth_bagel_rc6.ugc2514036946","folder":"tf","game":"Team Fortress","app_id":440,"player_count":0,"max_players":24,"Bots":0,"server_type":"Dedicated","server_os":"Linux","password":true,"vac":true,"version":"7961495","steam_id":85568392924742820,"keywords":["cp","nocrits","nodmgspread","uncletopia"],"game_id":440,"stv_port":27036,"stv_name":"Uncletopia | New York City | 3 | Stopwatch Beta | STV","players":null},{"server_id":16,"name":"Uncletopia | New York City | 4 | Community","name_short":"nyc-4","host":"nyc-1.us.uncletopia.com","port":27045,"enabled":true,"region":"us-east","cc":"us","latitude":40.73061,"longitude":-73.93524,"reserved":0,"last_update":"0001-01-01T00:00:00Z","name_a2s":"Uncletopia | New York City | 4 | Community","protocol":17,"map":"workshop/cp_croissant_final.ugc458840209","folder":"tf","game":"Team Fortress","app_id":440,"player_count":0,"max_players":24,"Bots":0,"server_type":"Dedicated","server_os":"Linux","password":true,"vac":true,"version":"7961495","steam_id":85568392924742821,"keywords":["cp","nocrits","nodmgspread","uncletopia"],"game_id":440,"stv_port":27046,"stv_name":"Uncletopia | New York City | 4 | Community | STV","players":null},{"server_id":142,"name":"Uncletopia | S√£o Paulo | 1 | All Maps","name_short":"sao-1","host":"sao-1.br.uncletopia.com","port":27015,"enabled":true,"region":"sa","cc":"br","latitude":-23.533773,"longitude":-46.62529,"reserved":0,"last_update":"0001-01-01T00:00:00Z","name_a2s":"Uncletopia | S√£o Paulo | 1 | All Maps","protocol":17,"map":"koth_viaduct","folder":"tf","game":"Team Fortress","app_id":440,"player_count":0,"max_players":24,"Bots":0,"server_type":"Dedicated","server_os":"Linux","password":true,"vac":true,"version":"7961495","steam_id":85568392924469996,"keywords":["cp","nocrits","nodmgspread","uncletopia"],"game_id":440,"stv_port":27016,"stv_name":"Uncletopia | S√£o Paulo | 1 | All Maps | STV","players":null},{"server_id":143,"name":"Uncletopia | S√£o Paulo | 2 | Community","name_short":"sao-2","host":"sao-2.br.uncletopia.com","port":27015,"enabled":true,"region":"sa","cc":"br","latitude":-23.533773,"longitude":-46.62529,"reserved":0,"last_update":"0001-01-01T00:00:00Z","name_a2s":"Uncletopia | S√£o Paulo | 2 | Community","protocol":17,"map":"workshop/pl_corrode_rc2.ugc546577989","folder":"tf","game":"Team Fortress","app_id":440,"player_count":0,"max_players":24,"Bots":0,"server_type":"Dedicated","server_os":"Linux","password":true,"vac":true,"version":"7961495","steam_id":85568392924485349,"keywords":["nocrits","nodmgspread","payload","uncletopia"],"game_id":440,"stv_port":27016,"stv_name":"Uncletopia | S√£o Paulo | 2 | Community | STV","players":null},{"server_id":7,"name":"Uncletopia | Seattle | 1 | All Maps","name_short":"sea-1","host":"sea-1.us.uncletopia.com","port":27015,"enabled":true,"region":"us-west","cc":"us","latitude":47.608013,"longitude":-122.33517,"reserved":0,"last_update":"0001-01-01T00:00:00Z","name_a2s":"Uncletopia | Seattle | 1 | All Maps","protocol":17,"map":"pl_pier","folder":"tf","game":"Team Fortress","app_id":440,"player_count":24,"max_players":24,"Bots":0,"server_type":"Dedicated","server_os":"Linux","password":true,"vac":true,"version":"7961495","steam_id":85568392924469997,"keywords":["nocrits","nodmgspread","payload","uncletopia"],"game_id":440,"stv_port":27016,"stv_name":"Uncletopia | Seattle | 1 | All Maps | STV","players":[{"user_id":365,"name":"ilun","steam_id":76561198042913843,"connected_time":14747000000000,"state":"active","ping":51},{"user_id":428,"name":"Haydob13","steam_id":76561198110378191,"connected_time":9503000000000,"state":"active","ping":48},{"user_id":464,"name":"mub","steam_id":76561197961943948,"connected_time":5801000000000,"state":"active","ping":46},{"user_id":482,"name":"WaffleWithNoToppings","steam_id":76561199088280111,"connected_time":3783000000000,"state":"active","ping":51},{"user_id":408,"name":"a cat plushie","steam_id":76561198080046542,"connected_time":11152000000000,"state":"active","ping":41},{"user_id":503,"name":"swarm of bee","steam_id":76561198059604047,"connected_time":771000000000,"state":"active","ping":38},{"user_id":472,"name":"Luca","steam_id":76561198125087140,"connected_time":4506000000000,"state":"active","ping":39},{"user_id":494,"name":"Attrition","steam_id":76561197969881916,"connected_time":2029000000000,"state":"active","ping":55},{"user_id":475,"name":"gnoblin","steam_id":76561198210322871,"connected_time":4435000000000,"state":"active","ping":85},{"user_id":489,"name":"shane","steam_id":76561198060491451,"connected_time":2838000000000,"state":"active","ping":78},{"user_id":493,"name":"slushy :))","steam_id":76561198135281802,"connected_time":2221000000000,"state":"active","ping":50},{"user_id":487,"name":"soup","steam_id":76561198043209046,"connected_time":3023000000000,"state":"active","ping":74},{"user_id":486,"name":"Arsonist Goose","steam_id":76561198147441830,"connected_time":3030000000000,"state":"active","ping":72},{"user_id":512,"name":"Skoad","steam_id":76561198104650528,"connected_time":15000000000,"state":"active","ping":64},{"user_id":485,"name":"Radio","steam_id":76561198194821053,"connected_time":3039000000000,"state":"active","ping":50},{"user_id":510,"name":"Barton","steam_id":76561198203088523,"connected_time":53000000000,"state":"active","ping":64},{"user_id":502,"name":"lusty","steam_id":76561198138478947,"connected_time":1156000000000,"state":"active","ping":34},{"user_id":471,"name":"mega","steam_id":76561198089520959,"connected_time":4606000000000,"state":"active","ping":95},{"user_id":508,"name":"EddieEnder","steam_id":76561198057912688,"connected_time":454000000000,"state":"active","ping":64},{"user_id":505,"name":"Boobie and vagene","steam_id":76561198078464924,"connected_time":699000000000,"state":"active","ping":46},{"user_id":509,"name":"trackpad gaming | f2p","steam_id":76561198840414371,"connected_time":76000000000,"state":"active","ping":47},{"user_id":481,"name":"Username","steam_id":76561199033122306,"connected_time":4052000000000,"state":"active","ping":157},{"user_id":500,"name":"gldhd","steam_id":76561198051751133,"connected_time":1363000000000,"state":"active","ping":63},{"user_id":506,"name":"Gohan Beast","steam_id":76561198271939793,"connected_time":699000000000,"state":"active","ping":45}]},{"server_id":119,"name":"Uncletopia | Seattle | 2 | All Maps","name_short":"sea-2","host":"sea-1.us.uncletopia.com","port":27025,"enabled":true,"region":"us-west","cc":"us","latitude":47.608013,"longitude":-122.33517,"reserved":0,"last_update":"0001-01-01T00:00:00Z","name_a2s":"Uncletopia | Seattle | 2 | All Maps","protocol":17,"map":"plr_hightower","folder":"tf","game":"Team Fortress","app_id":440,"player_count":24,"max_players":24,"Bots":0,"server_type":"Dedicated","server_os":"Linux","password":true,"vac":true,"version":"7961495","steam_id":85568392924469998,"keywords":["nocrits","nodmgspread","payload","uncletopia"],"game_id":440,"stv_port":27026,"stv_name":"Uncletopia | Seattle | 2 | All Maps | STV","players":[{"user_id":612,"name":"Finkly","steam_id":76561198049828110,"connected_time":562000000000,"state":"active","ping":43},{"user_id":605,"name":"rorywashere /·ê† - Àï -„Éû ‚≥ä","steam_id":76561198065825165,"connected_time":1573000000000,"state":"active","ping":98},{"user_id":620,"name":"NEBULA","steam_id":76561198086878595,"connected_time":234000000000,"state":"active","ping":67},{"user_id":610,"name":"Faefanger","steam_id":76561198201871002,"connected_time":856000000000,"state":"active","ping":63},{"user_id":621,"name":"CatyushaTheGreat","steam_id":76561198295878299,"connected_time":200000000000,"state":"active","ping":57},{"user_id":609,"name":"ùíÜùíóùíäùíçArnoldGamingÔæ†","steam_id":76561198040140247,"connected_time":1144000000000,"state":"active","ping":141},{"user_id":584,"name":"Petrivus","steam_id":76561198202152453,"connected_time":3440000000000,"state":"active","ping":54},{"user_id":600,"name":"spurious george","steam_id":76561198043558709,"connected_time":1879000000000,"state":"active","ping":58},{"user_id":566,"name":"DaBigA","steam_id":76561198326492538,"connected_time":5312000000000,"state":"active","ping":55},{"user_id":619,"name":"9c Flasher","steam_id":76561198053289095,"connected_time":288000000000,"state":"active","ping":36},{"user_id":607,"name":"Dr. Eggman","steam_id":76561199053746837,"connected_time":1547000000000,"state":"active","ping":158},{"user_id":603,"name":"Ducks","steam_id":76561198130038345,"connected_time":1627000000000,"state":"active","ping":68},{"user_id":614,"name":"thunderous prophet","steam_id":76561198131166135,"connected_time":523000000000,"state":"active","ping":35},{"user_id":615,"name":"Shm0g0","steam_id":76561198097331670,"connected_time":487000000000,"state":"active","ping":66},{"user_id":595,"name":"Lazy_Vex","steam_id":76561198287661985,"connected_time":2000000000000,"state":"active","ping":121},{"user_id":616,"name":"Trips","steam_id":76561198054581597,"connected_time":448000000000,"state":"active","ping":63},{"user_id":602,"name":"(414) fungi","steam_id":76561198169755734,"connected_time":1871000000000,"state":"active","ping":61},{"user_id":617,"name":"jadeite","steam_id":76561198022298676,"connected_time":446000000000,"state":"active","ping":32},{"user_id":618,"name":"Cyaniday","steam_id":76561198302051082,"connected_time":342000000000,"state":"active","ping":75},{"user_id":622,"name":"Red Orbama","steam_id":76561198047002366,"connected_time":194000000000,"state":"active","ping":47},{"user_id":589,"name":"TheCowledWiz","steam_id":76561198016735868,"connected_time":2689000000000,"state":"active","ping":50},{"user_id":597,"name":"HotHead","steam_id":76561198138468982,"connected_time":1957000000000,"state":"active","ping":54},{"user_id":623,"name":"chadj.cummins2010","steam_id":76561198347967106,"connected_time":110000000000,"state":"active","ping":138},{"user_id":533,"name":"T√ºCold","steam_id":76561198111278197,"connected_time":7492000000000,"state":"active","ping":55}]},{"server_id":406,"name":"Uncletopia | Seattle | 3 | Stopwatch Beta","name_short":"sea-3","host":"sea-1.us.uncletopia.com","port":27035,"enabled":true,"region":"us-west","cc":"us","latitude":47.608013,"longitude":-122.33517,"reserved":0,"last_update":"0001-01-01T00:00:00Z","name_a2s":"Uncletopia | Seattle | 3 | Stopwatch Beta","protocol":17,"map":"workshop/koth_ashville_final.ugc2130459942","folder":"tf","game":"Team Fortress","app_id":440,"player_count":0,"max_players":24,"Bots":0,"server_type":"Dedicated","server_os":"Linux","password":true,"vac":true,"version":"7961495","steam_id":85568392924515217,"keywords":["cp","nocrits","nodmgspread","uncletopia"],"game_id":440,"stv_port":27036,"stv_name":"Uncletopia | Seattle | 3 | Stopwatch Beta | STV","players":null},{"server_id":17,"name":"Uncletopia | San Francisco | 1 | All Maps","name_short":"sfo-1","host":"sfo-1.us.uncletopia.com","port":27015,"enabled":true,"region":"us-west","cc":"us","latitude":37.77397,"longitude":-122.4313,"reserved":0,"last_update":"0001-01-01T00:00:00Z","name_a2s":"Uncletopia | San Francisco | 1 | All Maps","protocol":17,"map":"cp_mountainlab","folder":"tf","game":"Team Fortress","app_id":440,"player_count":22,"max_players":24,"Bots":0,"server_type":"Dedicated","server_os":"Linux","password":true,"vac":true,"version":"7961495","steam_id":85568392924469999,"keywords":["cp","nocrits","nodmgspread","uncletopia"],"game_id":440,"stv_port":27016,"stv_name":"Uncletopia | San Francisco | 1 | All Maps | STV","players":[{"user_id":556,"name":"Cope","steam_id":76561198105929029,"connected_time":2135000000000,"state":"active","ping":74},{"user_id":587,"name":"Mr. Carfox","steam_id":76561198041664428,"connected_time":435000000000,"state":"active","ping":45},{"user_id":557,"name":"PROFILE NAME","steam_id":76561199438851854,"connected_time":2104000000000,"state":"active","ping":87},{"user_id":585,"name":"!","steam_id":76561199189013920,"connected_time":509000000000,"state":"active","ping":36},{"user_id":592,"name":"Eric4bz","steam_id":76561198054439606,"connected_time":209000000000,"state":"active","ping":91},{"user_id":593,"name":"sora","steam_id":76561198094256973,"connected_time":185000000000,"state":"active","ping":52},{"user_id":567,"name":"Green Mario","steam_id":76561198094325997,"connected_time":1618000000000,"state":"active","ping":74},{"user_id":563,"name":"osothedog","steam_id":76561198043226026,"connected_time":1728000000000,"state":"active","ping":52},{"user_id":581,"name":"porksoda","steam_id":76561198021451377,"connected_time":654000000000,"state":"active","ping":61},{"user_id":591,"name":"Gm_Trash","steam_id":76561199445091548,"connected_time":266000000000,"state":"active","ping":68},{"user_id":565,"name":"Meexuy","steam_id":76561198841434402,"connected_time":1658000000000,"state":"active","ping":72},{"user_id":548,"name":"AED","steam_id":76561198384123465,"connected_time":2654000000000,"state":"active","ping":111},{"user_id":566,"name":"Paxton Bradlyey","steam_id":76561198066979420,"connected_time":1650000000000,"state":"active","ping":69},{"user_id":568,"name":"‚ô´ Gilgion","steam_id":76561198050297529,"connected_time":1602000000000,"state":"active","ping":66},{"user_id":583,"name":"cup","steam_id":76561198121245586,"connected_time":631000000000,"state":"active","ping":82},{"user_id":513,"name":"A Pile Of Bacon","steam_id":76561198105243785,"connected_time":5489000000000,"state":"active","ping":59},{"user_id":586,"name":"im not your father luke","steam_id":76561199089515791,"connected_time":497000000000,"state":"active","ping":63},{"user_id":572,"name":"Kalir","steam_id":76561197996125658,"connected_time":1519000000000,"state":"active","ping":82},{"user_id":588,"name":"framp down","steam_id":76561198006316527,"connected_time":427000000000,"state":"active","ping":71},{"user_id":594,"name":"Your Dad","steam_id":76561199126802921,"connected_time":169000000000,"state":"active","ping":109},{"user_id":595,"name":"Degenerate Antics","steam_id":76561198163957116,"connected_time":100000000000,"state":"active","ping":65},{"user_id":577,"name":"Mr defrost","steam_id":76561198322125657,"connected_time":1399000000000,"state":"active","ping":84}]},{"server_id":18,"name":"Uncletopia | San Francisco | 2 | All Maps","name_short":"sfo-2","host":"sfo-1.us.uncletopia.com","port":27025,"enabled":true,"region":"us-west","cc":"us","latitude":37.77397,"longitude":-122.4313,"reserved":0,"last_update":"0001-01-01T00:00:00Z","name_a2s":"Uncletopia | San Francisco | 2 | All Maps","protocol":17,"map":"pl_frontier_final","folder":"tf","game":"Team Fortress","app_id":440,"player_count":5,"max_players":24,"Bots":0,"server_type":"Dedicated","server_os":"Linux","password":true,"vac":true,"version":"7961495","steam_id":85568392924470000,"keywords":["nocrits","nodmgspread","payload","uncletopia"],"game_id":440,"stv_port":27026,"stv_name":"Uncletopia | San Francisco | 2 | All Maps | STV","players":[{"user_id":80,"name":"G6 Mud","steam_id":76561198356426602,"connected_time":814000000000,"state":"active","ping":45},{"user_id":51,"name":"AverageAJ","steam_id":76561198882160891,"connected_time":4059000000000,"state":"active","ping":84},{"user_id":52,"name":"Onulator","steam_id":76561198948392056,"connected_time":4038000000000,"state":"active","ping":79},{"user_id":41,"name":"Mom","steam_id":76561198207936000,"connected_time":4555000000000,"state":"active","ping":37},{"user_id":79,"name":"bobletoob","steam_id":76561199184464900,"connected_time":1613000000000,"state":"active","ping":63}]},{"server_id":19,"name":"Uncletopia | San Francisco | 3 | Stopwatch Beta","name_short":"sfo-3","host":"sfo-1.us.uncletopia.com","port":27035,"enabled":true,"region":"us-west","cc":"us","latitude":37.77397,"longitude":-122.4313,"reserved":0,"last_update":"0001-01-01T00:00:00Z","name_a2s":"Uncletopia | San Francisco | 3 | Stopwatch Beta","protocol":17,"map":"koth_highpass","folder":"tf","game":"Team Fortress","app_id":440,"player_count":0,"max_players":24,"Bots":0,"server_type":"Dedicated","server_os":"Linux","password":true,"vac":true,"version":"7961495","steam_id":85568392924742824,"keywords":["cp","nocrits","nodmgspread","uncletopia"],"game_id":440,"stv_port":27036,"stv_name":"Uncletopia | San Francisco | 3 | Stopwatch Beta | STV","players":null},{"server_id":20,"name":"Uncletopia | San Francisco | 4 | Community","name_short":"sfo-4","host":"sfo-1.us.uncletopia.com","port":27045,"enabled":true,"region":"us-west","cc":"us","latitude":37.77397,"longitude":-122.4313,"reserved":0,"last_update":"0001-01-01T00:00:00Z","name_a2s":"Uncletopia | San Francisco | 4 | Community","protocol":17,"map":"workshop/cp_glacier_rc6.ugc2905735376","folder":"tf","game":"Team Fortress","app_id":440,"player_count":0,"max_players":24,"Bots":0,"server_type":"Dedicated","server_os":"Linux","password":true,"vac":true,"version":"7961495","steam_id":85568392924742826,"keywords":["cp","nocrits","nodmgspread","uncletopia"],"game_id":440,"stv_port":27046,"stv_name":"Uncletopia | San Francisco | 4 | Community | STV","players":null},{"server_id":141,"name":"Uncletopia | Sydney | 1 | All Maps","name_short":"syd-1","host":"syd-1.au.uncletopia.com","port":27015,"enabled":true,"region":"au","cc":"au","latitude":-33.865143,"longitude":151.2099,"reserved":0,"last_update":"0001-01-01T00:00:00Z","name_a2s":"Uncletopia | Sydney | 1 | All Maps","protocol":17,"map":"cp_snakewater_final1","folder":"tf","game":"Team Fortress","app_id":440,"player_count":3,"max_players":24,"Bots":0,"server_type":"Dedicated","server_os":"Linux","password":true,"vac":true,"version":"7961495","steam_id":85568392924470001,"keywords":["cp","nocrits","nodmgspread","uncletopia"],"game_id":440,"stv_port":27016,"stv_name":"Uncletopia | Sydney | 1 | All Maps | STV","players":[{"user_id":5,"name":"sav","steam_id":76561198058760041,"connected_time":652000000000,"state":"active","ping":71},{"user_id":6,"name":"using a laptop","steam_id":76561199445302425,"connected_time":651000000000,"state":"active","ping":153},{"user_id":7,"name":"‡∏£—í–≥‡πè‡πè‡πì‡∏¨‡πÄ’áœÇ—í","steam_id":76561199422901400,"connected_time":641000000000,"state":"active","ping":85}]},{"server_id":123,"name":"Uncletopia | Sydney | 2 | All Maps","name_short":"syd-2","host":"syd-1.au.uncletopia.com","port":27025,"enabled":true,"region":"au","cc":"au","latitude":-33.865143,"longitude":151.2099,"reserved":0,"last_update":"0001-01-01T00:00:00Z","name_a2s":"Uncletopia | Sydney | 2 | All Maps","protocol":17,"map":"pl_snowycoast","folder":"tf","game":"Team Fortress","app_id":440,"player_count":11,"max_players":24,"Bots":0,"server_type":"Dedicated","server_os":"Linux","password":true,"vac":true,"version":"7961495","steam_id":85568392924470002,"keywords":["nocrits","nodmgspread","payload","uncletopia"],"game_id":440,"stv_port":27026,"stv_name":"Uncletopia | Sydney | 2 | All Maps | STV","players":[{"user_id":10,"name":"Brick","steam_id":76561199177456602,"connected_time":580000000000,"state":"active","ping":160},{"user_id":4,"name":"Potato","steam_id":76561199055123049,"connected_time":658000000000,"state":"active","ping":79},{"user_id":5,"name":"cakey","steam_id":76561198173746761,"connected_time":657000000000,"state":"active","ping":48},{"user_id":6,"name":"uven","steam_id":76561198080981482,"connected_time":650000000000,"state":"active","ping":38},{"user_id":11,"name":"SoundlessPlum","steam_id":76561198077872547,"connected_time":557000000000,"state":"active","ping":55},{"user_id":12,"name":"UrAvgDMG","steam_id":76561199214859141,"connected_time":555000000000,"state":"active","ping":143},{"user_id":13,"name":"Selling Anti-Matter for $543","steam_id":76561198070708382,"connected_time":548000000000,"state":"active","ping":52},{"user_id":14,"name":"Perplexia","steam_id":76561198012215739,"connected_time":468000000000,"state":"active","ping":79},{"user_id":15,"name":"A Simple Wok","steam_id":76561198134842324,"connected_time":450000000000,"state":"active","ping":60},{"user_id":17,"name":"trxsh","steam_id":76561198194421386,"connected_time":30000000000,"state":"active","ping":59},{"user_id":18,"name":"cibo","steam_id":76561198798929932,"connected_time":18000000000,"state":"active","ping":91}]},{"server_id":395,"name":"Uncletopia | Sydney | 3 | All Maps","name_short":"syd-3","host":"syd-1.au.uncletopia.com","port":27035,"enabled":true,"region":"au","cc":"au","latitude":-33.865143,"longitude":151.2099,"reserved":0,"last_update":"0001-01-01T00:00:00Z","name_a2s":"Uncletopia | Sydney | 3 | All Maps","protocol":17,"map":"cp_dustbowl","folder":"tf","game":"Team Fortress","app_id":440,"player_count":0,"max_players":24,"Bots":0,"server_type":"Dedicated","server_os":"Linux","password":true,"vac":true,"version":"7961495","steam_id":85568392925194467,"keywords":["cp","nocrits","nodmgspread","uncletopia"],"game_id":440,"stv_port":27036,"stv_name":"Uncletopia | Sydney | 3 | All Maps | STV","players":null},{"server_id":396,"name":"Uncletopia | Sydney | 4 | All Maps","name_short":"syd-4","host":"syd-1.au.uncletopia.com","port":27045,"enabled":true,"region":"au","cc":"au","latitude":-33.865143,"longitude":151.2099,"reserved":0,"last_update":"0001-01-01T00:00:00Z","name_a2s":"Uncletopia | Sydney | 4 | All Maps","protocol":17,"map":"cp_dustbowl","folder":"tf","game":"Team Fortress","app_id":440,"player_count":0,"max_players":24,"Bots":0,"server_type":"Dedicated","server_os":"Linux","password":true,"vac":true,"version":"7961495","steam_id":85568392925397958,"keywords":["cp","nocrits","nodmgspread","uncletopia"],"game_id":440,"stv_port":27046,"stv_name":"Uncletopia | Sydney | 4 | All Maps | STV","players":null},{"server_id":58,"name":"Uncletopia | Sydney | 5 | Stopwatch Beta","name_short":"syd-5","host":"syd-1.au.uncletopia.com","port":27055,"enabled":true,"region":"au","cc":"au","latitude":-33.865143,"longitude":151.2099,"reserved":0,"last_update":"0001-01-01T00:00:00Z","name_a2s":"Uncletopia | Sydney | 5 | Stopwatch Beta","protocol":17,"map":"koth_viaduct","folder":"tf","game":"Team Fortress","app_id":440,"player_count":0,"max_players":24,"Bots":0,"server_type":"Dedicated","server_os":"Linux","password":true,"vac":true,"version":"7961495","steam_id":85568392925397959,"keywords":["cp","nocrits","nodmgspread","uncletopia"],"game_id":440,"stv_port":27056,"stv_name":"Uncletopia | Sydney | 5 | Stopwatch Beta | STV","players":null},{"server_id":59,"name":"Uncletopia | Sydney | 6 | Community","name_short":"syd-6","host":"syd-1.au.uncletopia.com","port":27065,"enabled":true,"region":"au","cc":"au","latitude":-33.865143,"longitude":151.2099,"reserved":0,"last_update":"0001-01-01T00:00:00Z","name_a2s":"Uncletopia | Sydney | 6 | Community","protocol":17,"map":"koth_cascade","folder":"tf","game":"Team Fortress","app_id":440,"player_count":0,"max_players":24,"Bots":0,"server_type":"Dedicated","server_os":"Linux","password":true,"vac":true,"version":"7961495","steam_id":85568392925397960,"keywords":["cp","nocrits","nodmgspread","uncletopia"],"game_id":440,"stv_port":27066,"stv_name":"Uncletopia | Sydney | 6 | Community | STV","players":null},{"server_id":49,"name":"Uncletopia | Warsaw | 1 | All Maps","name_short":"waw-1","host":"waw-1.pl.uncletopia.com","port":27015,"enabled":true,"region":"eu","cc":"pl","latitude":52.2297,"longitude":21.017532,"reserved":0,"last_update":"0001-01-01T00:00:00Z","name_a2s":"","protocol":0,"map":"","folder":"","game":"","app_id":0,"player_count":0,"max_players":0,"Bots":0,"server_type":"","server_os":"","password":false,"vac":false,"version":"","steam_id":0,"keywords":null,"game_id":0,"stv_port":0,"stv_name":"","players":null},{"server_id":50,"name":"Uncletopia | Warsaw | 2 | All Maps","name_short":"waw-2","host":"waw-1.pl.uncletopia.com","port":27025,"enabled":true,"region":"eu","cc":"pl","latitude":52.2297,"longitude":21.017532,"reserved":0,"last_update":"0001-01-01T00:00:00Z","name_a2s":"","protocol":0,"map":"","folder":"","game":"","app_id":0,"player_count":0,"max_players":0,"Bots":0,"server_type":"","server_os":"","password":false,"vac":false,"version":"","steam_id":0,"keywords":null,"game_id":0,"stv_port":0,"stv_name":"","players":null},{"server_id":51,"name":"Uncletopia | Warsaw | 3 | All Maps","name_short":"waw-3","host":"waw-1.pl.uncletopia.com","port":27035,"enabled":true,"region":"eu","cc":"pl","latitude":52.2297,"longitude":21.017532,"reserved":0,"last_update":"0001-01-01T00:00:00Z","name_a2s":"","protocol":0,"map":"","folder":"","game":"","app_id":0,"player_count":0,"max_players":0,"Bots":0,"server_type":"","server_os":"","password":false,"vac":false,"version":"","steam_id":0,"keywords":null,"game_id":0,"stv_port":0,"stv_name":"","players":null},{"server_id":52,"name":"Uncletopia | Warsaw | 4 | All Maps","name_short":"waw-4","host":"waw-1.pl.uncletopia.com","port":27045,"enabled":true,"region":"eu","cc":"pl","latitude":52.2297,"longitude":21.017532,"reserved":0,"last_update":"0001-01-01T00:00:00Z","name_a2s":"","protocol":0,"map":"","folder":"","game":"","app_id":0,"player_count":0,"max_players":0,"Bots":0,"server_type":"","server_os":"","password":false,"vac":false,"version":"","steam_id":0,"keywords":null,"game_id":0,"stv_port":0,"stv_name":"","players":null},{"server_id":53,"name":"Uncletopia | Warsaw | 5 | Stopwatch Beta","name_short":"waw-5","host":"waw-1.pl.uncletopia.com","port":27055,"enabled":true,"region":"eu","cc":"pl","latitude":52.2297,"longitude":21.017532,"reserved":0,"last_update":"0001-01-01T00:00:00Z","name_a2s":"","protocol":0,"map":"","folder":"","game":"","app_id":0,"player_count":0,"max_players":0,"Bots":0,"server_type":"","server_os":"","password":false,"vac":false,"version":"","steam_id":0,"keywords":null,"game_id":0,"stv_port":0,"stv_name":"","players":null},{"server_id":54,"name":"Uncletopia | Warsaw | 6 | Community","name_short":"waw-6","host":"waw-1.pl.uncletopia.com","port":27065,"enabled":true,"region":"eu","cc":"pl","latitude":52.2297,"longitude":21.017532,"reserved":0,"last_update":"0001-01-01T00:00:00Z","name_a2s":"","protocol":0,"map":"","folder":"","game":"","app_id":0,"player_count":0,"max_players":0,"Bots":0,"server_type":"","server_os":"","password":false,"vac":false,"version":"","steam_id":0,"keywords":null,"game_id":0,"stv_port":0,"stv_name":"","players":null}]}