{"status":true,"message":"","result":[{"server_id":9,"name":"Uncletopia | Atlanta | 1 | All Maps","name_short":"atl-1","host":"atl-1.us.uncletopia.com","port":27015,"enabled":true,"region":"us-east","cc":"us","latitude":33.753746,"longitude":-84.38633,"reserved":0,"last_update":"0001-01-01T00:00:00Z","name_a2s":"Uncletopia | Atlanta | 1 | All Maps","protocol":17,"map":"pl_snowycoast","folder":"tf","game":"Team Fortress","app_id":440,"player_count":24,"max_players":24,"Bots":0,"server_type":"Dedicated","server_os":"Linux","password":true,"vac":true,"version":"7742253","steam_id":85568392924469982,"keywords":["nocrits","nodmgspread","payload","uncletopia"],"game_id":440,"stv_port":27016,"stv_name":"Uncletopia | Atlanta | 1 | All Maps | STV","players":[{"user_id":326,"name":"Papa Meme a la Cream","steam_id":76561198067810973,"connected_time":609000000000,"state":"active","ping":76},{"user_id":283,"name":"Nephs","steam_id":76561198136763403,"connected_time":3082000000000,"state":"active","ping":78},{"user_id":273,"name":"||:♩♩♩♪:|| Opplydead","steam_id":76561198028630334,"connected_time":4471000000000,"state":"active","ping":108},{"user_id":306,"name":"Doominic","steam_id":76561198259172209,"connected_time":1649000000000,"state":"active","ping":80},{"user_id":309,"name":"reis","steam_id":76561199232952016,"connected_time":1614000000000,"state":"active","ping":176},{"user_id":327,"name":"Gnome Warlord","steam_id":76561199075520017,"connected_time":297000000000,"state":"active","ping":57},{"user_id":314,"name":"James","steam_id":76561198081313916,"connected_time":1552000000000,"state":"active","ping":52},{"user_id":300,"name":"Quiggles","steam_id":76561199177247655,"connected_time":2195000000000,"state":"active","ping":50},{"user_id":320,"name":"tanmantincan","steam_id":76561198105044427,"connected_time":760000000000,"state":"active","ping":92},{"user_id":330,"name":"Ivan the Terrible","steam_id":76561198139595241,"connected_time":202000000000,"state":"active","ping":165},{"user_id":321,"name":"mrplumpkin","steam_id":76561198238872216,"connected_time":753000000000,"state":"active","ping":74},{"user_id":254,"name":"FemboyNate","steam_id":76561198146636410,"connected_time":5423000000000,"state":"active","ping":75},{"user_id":310,"name":"Open Mailbox","steam_id":76561198051933580,"connected_time":1606000000000,"state":"active","ping":77},{"user_id":269,"name":"catgirl of the void","steam_id":76561198052542017,"connected_time":4740000000000,"state":"active","ping":54},{"user_id":316,"name":"ATL1 | SALEM","steam_id":76561198116281100,"connected_time":796000000000,"state":"active","ping":34},{"user_id":307,"name":"Strawburrr","steam_id":76561199208694620,"connected_time":1641000000000,"state":"active","ping":58},{"user_id":311,"name":"indi","steam_id":76561198045917538,"connected_time":1599000000000,"state":"active","ping":66},{"user_id":301,"name":"HARRY","steam_id":76561198842067238,"connected_time":2183000000000,"state":"active","ping":68},{"user_id":296,"name":"woodrow","steam_id":76561198323702203,"connected_time":2727000000000,"state":"active","ping":72},{"user_id":312,"name":"ATL1 | Psionic Box","steam_id":76561198151019322,"connected_time":1592000000000,"state":"active","ping":75},{"user_id":322,"name":"summerof69","steam_id":76561198069049410,"connected_time":734000000000,"state":"active","ping":66},{"user_id":323,"name":"leumas","steam_id":76561198240408540,"connected_time":731000000000,"state":"active","ping":73},{"user_id":317,"name":"com lag","steam_id":76561198019019392,"connected_time":795000000000,"state":"active","ping":67},{"user_id":328,"name":"Rockhead","steam_id":76561197995196535,"connected_time":265000000000,"state":"active","ping":63}]},{"server_id":400,"name":"Uncletopia | Atlanta | 3 | Stopwatch Beta","name_short":"atl-3","host":"atl-1.us.uncletopia.com","port":27035,"enabled":true,"region":"us-east","cc":"us","latitude":33.753746,"longitude":-84.38633,"reserved":0,"last_update":"0001-01-01T00:00:00Z","name_a2s":"Uncletopia | Atlanta | 3 | Stopwatch Beta","protocol":17,"map":"workshop/pl_badwater_pro_v12.ugc2142942074","folder":"tf","game":"Team Fortress","app_id":440,"player_count":0,"max_players":24,"Bots":0,"server_type":"Dedicated","server_os":"Linux","password":true,"vac":true,"version":"7742253","steam_id":85568392924515187,"keywords":["nocrits","nodmgspread","payload","uncletopia"],"game_id":440,"stv_port":27036,"stv_name":"Uncletopia | Atlanta | 3 | Stopwatch Beta | STV","players":null},{"server_id":401,"name":"Uncletopia | Atlanta | 4 | No Payload","name_short":"atl-4","host":"atl-1.us.uncletopia.com","port":27045,"enabled":true,"region":"us-east","cc":"us","latitude":33.753746,"longitude":-84.38633,"reserved":0,"last_update":"0001-01-01T00:00:00Z","name_a2s":"Uncletopia | Atlanta | 4 | No Payload","protocol":17,"map":"pl_pier","folder":"tf","game":"Team Fortress","app_id":440,"player_count":0,"max_players":24,"Bots":0,"server_type":"Dedicated","server_os":"Linux","password":true,"vac":true,"version":"7723704","steam_id":85568392924515188,"keywords":["nocrits","nodmgspread","payload","uncletopia"],"game_id":440,"stv_port":27046,"stv_name":"Uncletopia | Atlanta | 4 | No Payload | STV","players":null},{"server_id":2,"name":"Uncletopia | Chicago | 1 | All Maps","name_short":"chi-1","host":"chi-1.us.uncletopia.com","port":27015,"enabled":true,"region":"us-central","cc":"us","latitude":41.881832,"longitude":-87.62318,"reserved":0,"last_update":"0001-01-01T00:00:00Z","name_a2s":"Uncletopia | Chicago | 1 | All Maps","protocol":17,"map":"pl_frontier_final","folder":"tf","game":"Team Fortress","app_id":440,"player_count":19,"max_players":24,"Bots":0,"server_type":"Dedicated","server_os":"Linux","password":true,"vac":true,"version":"7742253","steam_id":85568392924469984,"keywords":["nocrits","nodmgspread","payload","uncletopia"],"game_id":440,"stv_port":27016,"stv_name":"Uncletopia | Chicago | 1 | All Maps | STV","players":[{"user_id":426,"name":"Kraftlos","steam_id":76561198074350350,"connected_time":2488000000000,"state":"active","ping":74},{"user_id":446,"name":"Semyr","steam_id":76561198125655939,"connected_time":268000000000,"state":"active","ping":66},{"user_id":445,"name":"Catboy Potemkin","steam_id":76561198078474420,"connected_time":330000000000,"state":"active","ping":64},{"user_id":447,"name":"CrankShaft","steam_id":76561197970750813,"connected_time":255000000000,"state":"active","ping":59},{"user_id":377,"name":"full mental alchemist","steam_id":76561198007187994,"connected_time":6180000000000,"state":"active","ping":59},{"user_id":442,"name":"No Telefrag Plz","steam_id":76561198113931312,"connected_time":1532000000000,"state":"active","ping":68},{"user_id":451,"name":"ch","steam_id":76561198012566405,"connected_time":21000000000,"state":"active","ping":61},{"user_id":444,"name":"Shwa","steam_id":76561198122613101,"connected_time":453000000000,"state":"active","ping":74},{"user_id":400,"name":"no","steam_id":76561198248853140,"connected_time":4422000000000,"state":"active","ping":44},{"user_id":435,"name":"NukaTheRabbit {Fur}","steam_id":76561198058692928,"connected_time":1799000000000,"state":"active","ping":52},{"user_id":397,"name":"Brig.Gen.D_Dudepower","steam_id":76561198905510048,"connected_time":4761000000000,"state":"active","ping":52},{"user_id":450,"name":"kibble","steam_id":76561198077083011,"connected_time":28000000000,"state":"active","ping":74},{"user_id":423,"name":"bikerkid207","steam_id":76561198390782783,"connected_time":2858000000000,"state":"active","ping":63},{"user_id":449,"name":"Expresso Depresso","steam_id":76561199161187893,"connected_time":187000000000,"state":"active","ping":60},{"user_id":448,"name":"stop","steam_id":76561198268686419,"connected_time":226000000000,"state":"active","ping":63},{"user_id":438,"name":"❤ Ashley ❤","steam_id":76561198056428303,"connected_time":1705000000000,"state":"active","ping":104},{"user_id":441,"name":"recycle","steam_id":76561198819562111,"connected_time":1650000000000,"state":"active","ping":64},{"user_id":389,"name":"Back with the milk","steam_id":76561199020105501,"connected_time":5271000000000,"state":"active","ping":96},{"user_id":338,"name":"[slug]","steam_id":76561197989592178,"connected_time":9413000000000,"state":"active","ping":60}]},{"server_id":106,"name":"Uncletopia | Chicago | 2 | All Maps","name_short":"chi-2","host":"chi-1.us.uncletopia.com","port":27025,"enabled":true,"region":"us-central","cc":"us","latitude":41.881832,"longitude":-87.62318,"reserved":0,"last_update":"0001-01-01T00:00:00Z","name_a2s":"Uncletopia | Chicago | 2 | All Maps","protocol":17,"map":"cp_snakewater_final1","folder":"tf","game":"Team Fortress","app_id":440,"player_count":11,"max_players":24,"Bots":0,"server_type":"Dedicated","server_os":"Linux","password":true,"vac":true,"version":"7742253","steam_id":85568392924469985,"keywords":["cp","nocrits","nodmgspread","uncletopia"],"game_id":440,"stv_port":27026,"stv_name":"Uncletopia | Chicago | 2 | All Maps | STV","players":[{"user_id":383,"name":"StarB","steam_id":76561198149605368,"connected_time":1010000000000,"state":"active","ping":69},{"user_id":392,"name":"Fugazzy","steam_id":76561198080071727,"connected_time":79000000000,"state":"active","ping":52},{"user_id":326,"name":"uhooter","steam_id":76561198007829078,"connected_time":3496000000000,"state":"active","ping":45},{"user_id":386,"name":"Critscare","steam_id":76561198087712508,"connected_time":767000000000,"state":"active","ping":42},{"user_id":393,"name":"bC","steam_id":76561198064209323,"connected_time":69000000000,"state":"active","ping":35},{"user_id":362,"name":"TeatsMcghee #FertileStepDad","steam_id":76561198036483480,"connected_time":2208000000000,"state":"active","ping":74},{"user_id":380,"name":"simpmaster hustledaddy","steam_id":76561198034624737,"connected_time":1107000000000,"state":"active","ping":47},{"user_id":390,"name":"Buckytr","steam_id":76561198096335025,"connected_time":219000000000,"state":"active","ping":68},{"user_id":367,"name":"cool","steam_id":76561199033484246,"connected_time":2122000000000,"state":"active","ping":85},{"user_id":351,"name":"Ras","steam_id":76561198123546775,"connected_time":2371000000000,"state":"active","ping":65},{"user_id":353,"name":"The Almighty Rizzard","steam_id":76561198839205387,"connected_time":2361000000000,"state":"active","ping":68}]},{"server_id":402,"name":"Uncletopia | Chicago | 3 | All Maps","name_short":"chi-3","host":"chi-1.us.uncletopia.com","port":27035,"enabled":true,"region":"us-central","cc":"us","latitude":41.881832,"longitude":-87.62318,"reserved":0,"last_update":"0001-01-01T00:00:00Z","name_a2s":"Uncletopia | Chicago | 3 | All Maps","protocol":17,"map":"pl_upward","folder":"tf","game":"Team Fortress","app_id":440,"player_count":24,"max_players":24,"Bots":0,"server_type":"Dedicated","server_os":"Linux","password":true,"vac":true,"version":"7742253","steam_id":85568392924515191,"keywords":["nocrits","nodmgspread","payload","uncletopia"],"game_id":440,"stv_port":27036,"stv_name":"Uncletopia | Chicago | 3 | All Maps | STV","players":[{"user_id":278,"name":"Bad Day to be Some Cheeks","steam_id":76561198083251763,"connected_time":969000000000,"state":"active","ping":59},{"user_id":275,"name":"WellowWickd","steam_id":76561199455671853,"connected_time":1383000000000,"state":"active","ping":46},{"user_id":269,"name":"Sone","steam_id":76561198069601032,"connected_time":2025000000000,"state":"active","ping":76},{"user_id":273,"name":"MrChaosOK","steam_id":76561197976353083,"connected_time":1729000000000,"state":"active","ping":102},{"user_id":221,"name":"Nikofreaker","steam_id":76561198320604061,"connected_time":6077000000000,"state":"active","ping":75},{"user_id":260,"name":"Adam (Cursed Confetti Creature)","steam_id":76561198317690197,"connected_time":3381000000000,"state":"active","ping":45},{"user_id":280,"name":"Acid-talon","steam_id":76561198039545578,"connected_time":696000000000,"state":"active","ping":83},{"user_id":246,"name":"AAAAAAAAAAAAAAAAAAAAAAAAAAAAAAA","steam_id":76561198817866879,"connected_time":3889000000000,"state":"active","ping":71},{"user_id":252,"name":"Rappitor","steam_id":76561198105613110,"connected_time":3750000000000,"state":"active","ping":50},{"user_id":200,"name":"Ⓑ⓪⓪ⓣⓨⓒⓐⓚⓔⓢ","steam_id":76561198088776421,"connected_time":7169000000000,"state":"active","ping":67},{"user_id":264,"name":"Plain Toast","steam_id":76561198451580251,"connected_time":3034000000000,"state":"active","ping":75},{"user_id":281,"name":"caption cool","steam_id":76561197990612056,"connected_time":661000000000,"state":"active","ping":37},{"user_id":261,"name":"king of bogers","steam_id":76561198045731295,"connected_time":3159000000000,"state":"active","ping":64},{"user_id":276,"name":"crippling fumo addiction","steam_id":76561198115874625,"connected_time":1312000000000,"state":"active","ping":65},{"user_id":267,"name":"--_Cook_--","steam_id":76561198080855748,"connected_time":2220000000000,"state":"active","ping":77},{"user_id":254,"name":"Filthy Acts at Reasonable Price","steam_id":76561198354615890,"connected_time":3738000000000,"state":"active","ping":95},{"user_id":255,"name":"Vladikr1","steam_id":76561198401495362,"connected_time":3703000000000,"state":"active","ping":60},{"user_id":225,"name":"Lone Dancer","steam_id":76561199096241116,"connected_time":5937000000000,"state":"active","ping":60},{"user_id":282,"name":"condom shard #27","steam_id":76561198060342804,"connected_time":510000000000,"state":"active","ping":71},{"user_id":272,"name":"cokersworld","steam_id":76561198039731344,"connected_time":1962000000000,"state":"active","ping":73},{"user_id":191,"name":"ly","steam_id":76561198062922146,"connected_time":7766000000000,"state":"active","ping":75},{"user_id":265,"name":"The Caretaker","steam_id":76561198125241411,"connected_time":3030000000000,"state":"active","ping":120},{"user_id":268,"name":"Bread Baker","steam_id":76561198185335103,"connected_time":2041000000000,"state":"active","ping":54},{"user_id":283,"name":"LerN","steam_id":76561198083463877,"connected_time":218000000000,"state":"active","ping":45}]},{"server_id":403,"name":"Uncletopia | Chicago | 4 | All Maps","name_short":"chi-4","host":"chi-1.us.uncletopia.com","port":27045,"enabled":true,"region":"us-central","cc":"us","latitude":41.881832,"longitude":-87.62318,"reserved":0,"last_update":"0001-01-01T00:00:00Z","name_a2s":"Uncletopia | Chicago | 4 | All Maps","protocol":17,"map":"pl_barnblitz","folder":"tf","game":"Team Fortress","app_id":440,"player_count":24,"max_players":24,"Bots":0,"server_type":"Dedicated","server_os":"Linux","password":true,"vac":true,"version":"7742253","steam_id":85568392924515193,"keywords":["nocrits","nodmgspread","payload","uncletopia"],"game_id":440,"stv_port":27046,"stv_name":"Uncletopia | Chicago | 4 | All Maps | STV","players":[{"user_id":102,"name":"no wtf not that","steam_id":76561198461518382,"connected_time":2091000000000,"state":"active","ping":55},{"user_id":18,"name":"Claidhim","steam_id":76561198078139596,"connected_time":6806000000000,"state":"active","ping":60},{"user_id":135,"name":"TrashDargon","steam_id":76561198423900560,"connected_time":0,"state":"spawning","ping":19},{"user_id":20,"name":"Artemis","steam_id":76561198079751655,"connected_time":6671000000000,"state":"active","ping":66},{"user_id":21,"name":"Elsirk","steam_id":76561198055665464,"connected_time":6652000000000,"state":"active","ping":68},{"user_id":119,"name":"mayBee","steam_id":76561198035351764,"connected_time":1059000000000,"state":"active","ping":48},{"user_id":133,"name":"minumize","steam_id":76561198017539604,"connected_time":171000000000,"state":"active","ping":62},{"user_id":130,"name":"dr peppah chug!","steam_id":76561198068835693,"connected_time":669000000000,"state":"active","ping":82},{"user_id":120,"name":"teafital","steam_id":76561198406252824,"connected_time":1054000000000,"state":"active","ping":101},{"user_id":83,"name":"Meta","steam_id":76561198116402759,"connected_time":3558000000000,"state":"active","ping":70},{"user_id":131,"name":"darps","steam_id":76561198105227318,"connected_time":462000000000,"state":"active","ping":55},{"user_id":116,"name":"mammoth!?","steam_id":76561198066881911,"connected_time":1373000000000,"state":"active","ping":75},{"user_id":110,"name":"TrashCanGaming","steam_id":76561199150746424,"connected_time":1481000000000,"state":"active","ping":61},{"user_id":124,"name":"lamacq","steam_id":76561197961315538,"connected_time":952000000000,"state":"active","ping":46},{"user_id":68,"name":"groond","steam_id":76561198309426720,"connected_time":4441000000000,"state":"active","ping":66},{"user_id":125,"name":"aizen","steam_id":76561198102681457,"connected_time":921000000000,"state":"active","ping":73},{"user_id":111,"name":"Sh3ba Spaniel","steam_id":76561198047412394,"connected_time":1476000000000,"state":"active","ping":58},{"user_id":128,"name":"ZeR01206","steam_id":76561198980510227,"connected_time":805000000000,"state":"active","ping":63},{"user_id":105,"name":"Scooty.","steam_id":76561198138990283,"connected_time":1608000000000,"state":"active","ping":63},{"user_id":71,"name":"Uncle","steam_id":76561197988647705,"connected_time":4256000000000,"state":"active","ping":65},{"user_id":49,"name":"Walter.J.Kovacs","steam_id":76561199034498380,"connected_time":5773000000000,"state":"active","ping":154},{"user_id":134,"name":"yomommasabitch","steam_id":76561198323217150,"connected_time":163000000000,"state":"active","ping":62},{"user_id":113,"name":"Metal 9","steam_id":76561198178318343,"connected_time":1455000000000,"state":"active","ping":66},{"user_id":95,"name":"Randy \"the Man\" Johnson","steam_id":76561198039124445,"connected_time":2428000000000,"state":"active","ping":97}]},{"server_id":36,"name":"Uncletopia | Chicago | 5 | All Maps","name_short":"chi-5","host":"chi-2.us.uncletopia.com","port":27015,"enabled":true,"region":"us-central","cc":"us","latitude":41.881832,"longitude":-87.62318,"reserved":0,"last_update":"0001-01-01T00:00:00Z","name_a2s":"Uncletopia | Chicago | 5 | All Maps","protocol":17,"map":"pl_badwater","folder":"tf","game":"Team Fortress","app_id":440,"player_count":4,"max_players":24,"Bots":0,"server_type":"Dedicated","server_os":"Linux","password":true,"vac":true,"version":"7742253","steam_id":85568392924866362,"keywords":["nocrits","nodmgspread","payload","uncletopia"],"game_id":440,"stv_port":27016,"stv_name":"Uncletopia | Chicago | 5 | All Maps | STV","players":[{"user_id":11,"name":"THE DONUT LORD","steam_id":76561198946117409,"connected_time":3949000000000,"state":"active","ping":237},{"user_id":24,"name":"Aevilite","steam_id":76561198025005607,"connected_time":90000000000,"state":"active","ping":57},{"user_id":22,"name":"CFDv20","steam_id":76561198450073779,"connected_time":599000000000,"state":"active","ping":104},{"user_id":17,"name":"jlaguzzi007","steam_id":76561199058140274,"connected_time":2350000000000,"state":"active","ping":73}]},{"server_id":37,"name":"Uncletopia | Chicago | 6 | All Maps","name_short":"chi-6","host":"chi-2.us.uncletopia.com","port":27025,"enabled":true,"region":"us-central","cc":"us","latitude":41.881832,"longitude":-87.62318,"reserved":0,"last_update":"0001-01-01T00:00:00Z","name_a2s":"Uncletopia | Chicago | 6 | All Maps","protocol":17,"map":"pl_swiftwater_final1","folder":"tf","game":"Team Fortress","app_id":440,"player_count":23,"max_players":24,"Bots":0,"server_type":"Dedicated","server_os":"Linux","password":true,"vac":true,"version":"7742253","steam_id":85568392924866363,"keywords":["nocrits","nodmgspread","payload","uncletopia"],"game_id":440,"stv_port":27026,"stv_name":"Uncletopia | Chicago | 6 | All Maps | STV","players":[{"user_id":149,"name":"SussusAmogus","steam_id":76561198870275051,"connected_time":374000000000,"state":"active","ping":78},{"user_id":150,"name":"BluDiceThief","steam_id":76561198250033472,"connected_time":364000000000,"state":"active","ping":75},{"user_id":167,"name":"One Shot and A Miss","steam_id":76561198124269698,"connected_time":7000000000,"state":"spawning","ping":59},{"user_id":151,"name":"womthedom","steam_id":76561198088768287,"connected_time":353000000000,"state":"active","ping":53},{"user_id":163,"name":"kametro4","steam_id":76561198835430429,"connected_time":156000000000,"state":"active","ping":90},{"user_id":156,"name":"Im totally a hacker","steam_id":76561198888005736,"connected_time":317000000000,"state":"active","ping":74},{"user_id":133,"name":"Super Splint","steam_id":76561199465781208,"connected_time":2138000000000,"state":"active","ping":64},{"user_id":116,"name":"NoShen","steam_id":76561198147434663,"connected_time":4081000000000,"state":"active","ping":62},{"user_id":152,"name":"PBS Kids","steam_id":76561198178049845,"connected_time":352000000000,"state":"active","ping":92},{"user_id":109,"name":"potato pat","steam_id":76561198025489194,"connected_time":4427000000000,"state":"active","ping":75},{"user_id":148,"name":"YOU","steam_id":76561198068538473,"connected_time":487000000000,"state":"active","ping":75},{"user_id":158,"name":"dave strider","steam_id":76561198065112186,"connected_time":284000000000,"state":"active","ping":79},{"user_id":135,"name":"Koishi","steam_id":76561198054541054,"connected_time":2112000000000,"state":"active","ping":51},{"user_id":136,"name":"poey","steam_id":76561198865346767,"connected_time":2110000000000,"state":"active","ping":94},{"user_id":118,"name":"Jimmyjams1","steam_id":76561198869715324,"connected_time":3792000000000,"state":"active","ping":60},{"user_id":162,"name":"Walter White","steam_id":76561199165875631,"connected_time":184000000000,"state":"active","ping":131},{"user_id":105,"name":"basil","steam_id":76561198075758026,"connected_time":4639000000000,"state":"active","ping":95},{"user_id":155,"name":"blob","steam_id":76561198122375328,"connected_time":332000000000,"state":"active","ping":60},{"user_id":145,"name":"Lunchboxx","steam_id":76561198079735916,"connected_time":873000000000,"state":"active","ping":66},{"user_id":141,"name":"frid","steam_id":76561198005806915,"connected_time":1119000000000,"state":"active","ping":57},{"user_id":160,"name":"PCR","steam_id":76561198048748102,"connected_time":264000000000,"state":"active","ping":54},{"user_id":164,"name":"Espresso Enjoyer","steam_id":76561198254238409,"connected_time":142000000000,"state":"active","ping":113},{"user_id":165,"name":"e","steam_id":76561198131245396,"connected_time":115000000000,"state":"active","ping":56}]},{"server_id":38,"name":"Uncletopia | Chicago | 7 | Stopwatch Beta","name_short":"chi-7","host":"chi-2.us.uncletopia.com","port":27035,"enabled":true,"region":"us-central","cc":"us","latitude":41.881832,"longitude":-87.62318,"reserved":0,"last_update":"0001-01-01T00:00:00Z","name_a2s":"Uncletopia | Chicago | 7 | Stopwatch Beta","protocol":17,"map":"pl_upward","folder":"tf","game":"Team Fortress","app_id":440,"player_count":0,"max_players":24,"Bots":0,"server_type":"Dedicated","server_os":"Linux","password":true,"vac":true,"version":"7742253","steam_id":85568392924866364,"keywords":["nocrits","nodmgspread","payload","uncletopia"],"game_id":440,"stv_port":27036,"stv_name":"Uncletopia | Chicago | 7 | Stopwatch Beta | STV","players":null},{"server_id":39,"name":"Uncletopia | Chicago | 8 | Community","name_short":"chi-8","host":"chi-2.us.uncletopia.com","port":27045,"enabled":true,"region":"us-central","cc":"us","latitude":41.881832,"longitude":-87.62318,"reserved":0,"last_update":"0001-01-01T00:00:00Z","name_a2s":"Uncletopia | Chicago | 8 | Community","protocol":17,"map":"workshop/koth_synthetic_rc6a.ugc1549817316","folder":"tf","game":"Team Fortress","app_id":440,"player_count":0,"max_players":24,"Bots":0,"server_type":"Dedicated","server_os":"Linux","password":true,"vac":true,"version":"7742253","steam_id":85568392924866365,"keywords":["cp","nocrits","nodmgspread","uncletopia"],"game_id":440,"stv_port":27046,"stv_name":"Uncletopia | Chicago | 8 | Community | STV","players":null},{"server_id":8,"name":"Uncletopia | Dallas | 1 | All Maps","name_short":"dal-1","host":"dal-1.us.uncletopia.com","port":27015,"enabled":true,"region":"us-central","cc":"us","latitude":32.779167,"longitude":-96.80889,"reserved":0,"last_update":"0001-01-01T00:00:00Z","name_a2s":"Uncletopia | Dallas | 1 | All Maps","protocol":17,"map":"pl_borneo","folder":"tf","game":"Team Fortress","app_id":440,"player_count":23,"max_players":24,"Bots":0,"server_type":"Dedicated","server_os":"Linux","password":true,"vac":true,"version":"7742253","steam_id":85568392924469986,"keywords":["nocrits","nodmgspread","payload","uncletopia"],"game_id":440,"stv_port":27016,"stv_name":"Uncletopia | Dallas | 1 | All Maps | STV","players":[{"user_id":323,"name":"FoamyPirate.h","steam_id":76561197970312151,"connected_time":2411000000000,"state":"active","ping":71},{"user_id":336,"name":"the real mocha (not fake)","steam_id":76561198825658971,"connected_time":726000000000,"state":"active","ping":75},{"user_id":298,"name":"survivalist bubbie","steam_id":76561198860460013,"connected_time":3347000000000,"state":"active","ping":77},{"user_id":326,"name":"kermitcreeper(ZAZA)","steam_id":76561199222829972,"connected_time":1746000000000,"state":"active","ping":63},{"user_id":334,"name":"plink","steam_id":76561198057829889,"connected_time":952000000000,"state":"active","ping":109},{"user_id":329,"name":"survivalist keeda","steam_id":76561198277979851,"connected_time":1450000000000,"state":"active","ping":91},{"user_id":240,"name":"Mitty","steam_id":76561198014177684,"connected_time":7536000000000,"state":"active","ping":79},{"user_id":325,"name":"GLG.Liz","steam_id":76561198021957956,"connected_time":1817000000000,"state":"active","ping":45},{"user_id":335,"name":"B U L B U S 4K","steam_id":76561198095103255,"connected_time":883000000000,"state":"active","ping":85},{"user_id":184,"name":"deech","steam_id":76561198066429444,"connected_time":10035000000000,"state":"active","ping":84},{"user_id":211,"name":"The Robot Menace","steam_id":76561198043390413,"connected_time":8905000000000,"state":"active","ping":54},{"user_id":276,"name":"Grinski","steam_id":76561198054787727,"connected_time":4608000000000,"state":"active","ping":98},{"user_id":332,"name":"Tomato","steam_id":76561197996472649,"connected_time":1373000000000,"state":"active","ping":90},{"user_id":302,"name":"Strang","steam_id":76561198046936399,"connected_time":3238000000000,"state":"active","ping":88},{"user_id":292,"name":"refrigerator","steam_id":76561198034385095,"connected_time":3681000000000,"state":"active","ping":55},{"user_id":314,"name":"TYPEFRUITS","steam_id":76561198860235676,"connected_time":2840000000000,"state":"active","ping":83},{"user_id":169,"name":"G. Howard Dee","steam_id":76561198058382812,"connected_time":10917000000000,"state":"active","ping":64},{"user_id":263,"name":"「Jimbo Reference」","steam_id":76561198016078541,"connected_time":6187000000000,"state":"active","ping":81},{"user_id":283,"name":"Detective obvious (f2p)","steam_id":76561198977045933,"connected_time":4524000000000,"state":"active","ping":95},{"user_id":309,"name":"JayK","steam_id":76561198046277492,"connected_time":3002000000000,"state":"active","ping":60},{"user_id":267,"name":"CalebDOTexe","steam_id":76561198042071293,"connected_time":5773000000000,"state":"active","ping":65},{"user_id":296,"name":"FG7","steam_id":76561198381197197,"connected_time":3370000000000,"state":"active","ping":105},{"user_id":210,"name":"flexer_2000","steam_id":76561198084422657,"connected_time":8971000000000,"state":"active","ping":77}]},{"server_id":108,"name":"Uncletopia | Dallas | 2 | All Maps","name_short":"dal-2","host":"dal-1.us.uncletopia.com","port":27025,"enabled":true,"region":"us-central","cc":"us","latitude":32.779167,"longitude":-96.80889,"reserved":0,"last_update":"0001-01-01T00:00:00Z","name_a2s":"Uncletopia | Dallas | 2 | All Maps","protocol":17,"map":"pl_upward","folder":"tf","game":"Team Fortress","app_id":440,"player_count":24,"max_players":24,"Bots":0,"server_type":"Dedicated","server_os":"Linux","password":true,"vac":true,"version":"7742253","steam_id":85568392924469988,"keywords":["nocrits","nodmgspread","payload","uncletopia"],"game_id":440,"stv_port":27026,"stv_name":"Uncletopia | Dallas | 2 | All Maps | STV","players":[{"user_id":271,"name":"aisu","steam_id":76561198043768507,"connected_time":3013000000000,"state":"active","ping":81},{"user_id":272,"name":"Female Gamer","steam_id":76561199366482682,"connected_time":2993000000000,"state":"active","ping":105},{"user_id":208,"name":"SodaKid_7","steam_id":76561198079419485,"connected_time":6952000000000,"state":"active","ping":68},{"user_id":286,"name":"Gromble","steam_id":76561198148876897,"connected_time":2048000000000,"state":"active","ping":96},{"user_id":231,"name":"Rin \"Hindwing\" Redtail","steam_id":76561199074865638,"connected_time":6048000000000,"state":"active","ping":46},{"user_id":287,"name":"The Assistant Regional Manager","steam_id":76561199221484936,"connected_time":2045000000000,"state":"active","ping":112},{"user_id":275,"name":"Also","steam_id":76561199033216399,"connected_time":2934000000000,"state":"active","ping":54},{"user_id":285,"name":"MarekHamm","steam_id":76561198239042642,"connected_time":2062000000000,"state":"active","ping":55},{"user_id":301,"name":"Mr. Pink","steam_id":76561198065858172,"connected_time":393000000000,"state":"active","ping":84},{"user_id":284,"name":"Space Movie from 1998","steam_id":76561199194960453,"connected_time":2162000000000,"state":"active","ping":78},{"user_id":300,"name":"SharkBearGator","steam_id":76561198071233739,"connected_time":693000000000,"state":"active","ping":45},{"user_id":291,"name":"Void","steam_id":76561198308290211,"connected_time":971000000000,"state":"active","ping":92},{"user_id":257,"name":"Iron","steam_id":76561198247918478,"connected_time":3987000000000,"state":"active","ping":65},{"user_id":293,"name":"Titar Industries","steam_id":76561198143078476,"connected_time":861000000000,"state":"active","ping":85},{"user_id":297,"name":"MasterDoge17","steam_id":76561198917443549,"connected_time":774000000000,"state":"active","ping":92},{"user_id":260,"name":"IxMic88","steam_id":76561198018552479,"connected_time":3925000000000,"state":"active","ping":55},{"user_id":296,"name":"green goblin","steam_id":76561198074500319,"connected_time":796000000000,"state":"active","ping":91},{"user_id":302,"name":"Milk T34","steam_id":76561198116115227,"connected_time":309000000000,"state":"active","ping":77},{"user_id":290,"name":"Pütii SpenepS","steam_id":76561198029318657,"connected_time":999000000000,"state":"active","ping":38},{"user_id":298,"name":"Tectonic11","steam_id":76561198061169359,"connected_time":773000000000,"state":"active","ping":82},{"user_id":280,"name":"hunky dory","steam_id":76561198030422254,"connected_time":2628000000000,"state":"active","ping":102},{"user_id":289,"name":"Yakub","steam_id":76561198068856323,"connected_time":2021000000000,"state":"active","ping":111},{"user_id":282,"name":"Sailor Jupiter","steam_id":76561198125094648,"connected_time":2477000000000,"state":"active","ping":94},{"user_id":223,"name":"civilian","steam_id":76561198289811981,"connected_time":6624000000000,"state":"active","ping":62}]},{"server_id":5,"name":"Uncletopia | Frankfurt | 1 | All Maps","name_short":"frk-1","host":"frk-1.de.uncletopia.com","port":27015,"enabled":true,"region":"eu","cc":"de","latitude":50.110924,"longitude":8.682127,"reserved":0,"last_update":"0001-01-01T00:00:00Z","name_a2s":"Uncletopia | Frankfurt | 1 | All Maps","protocol":17,"map":"pl_rumford_event","folder":"tf","game":"Team Fortress","app_id":440,"player_count":24,"max_players":24,"Bots":0,"server_type":"Dedicated","server_os":"Linux","password":true,"vac":true,"version":"7742253","steam_id":85568392924469989,"keywords":["nocrits","nodmgspread","payload","uncletopia"],"game_id":440,"stv_port":27016,"stv_name":"Uncletopia | Frankfurt | 1 | All Maps | STV","players":[{"user_id":693,"name":"Ricey","steam_id":76561198832961307,"connected_time":1276000000000,"state":"active","ping":60},{"user_id":670,"name":"Emotional Crit","steam_id":76561198005251983,"connected_time":3140000000000,"state":"active","ping":57},{"user_id":607,"name":"r06u3","steam_id":76561198254099253,"connected_time":6540000000000,"state":"active","ping":181},{"user_id":667,"name":"GodOfGobboz","steam_id":76561198154677956,"connected_time":3420000000000,"state":"active","ping":61},{"user_id":699,"name":"Vershal Smershal","steam_id":76561198116223995,"connected_time":1150000000000,"state":"active","ping":60},{"user_id":688,"name":"Unexpected","steam_id":76561198944781914,"connected_time":2025000000000,"state":"active","ping":81},{"user_id":692,"name":"Coac","steam_id":76561198085265740,"connected_time":1388000000000,"state":"active","ping":61},{"user_id":700,"name":"MicardoRilos","steam_id":76561198860205441,"connected_time":1149000000000,"state":"active","ping":74},{"user_id":705,"name":"weSt","steam_id":76561198000913325,"connected_time":688000000000,"state":"active","ping":59},{"user_id":695,"name":"Mongoose","steam_id":76561199125198593,"connected_time":1237000000000,"state":"active","ping":65},{"user_id":707,"name":"Double your risk","steam_id":76561197995194628,"connected_time":628000000000,"state":"active","ping":72},{"user_id":701,"name":"Gorgeous George","steam_id":76561198144256544,"connected_time":1133000000000,"state":"active","ping":60},{"user_id":711,"name":"Bajas","steam_id":76561198179339326,"connected_time":310000000000,"state":"active","ping":76},{"user_id":660,"name":"Grillem Dafoe","steam_id":76561198306874574,"connected_time":3468000000000,"state":"active","ping":74},{"user_id":708,"name":"AWJ ˆ-ˆ","steam_id":76561198053628243,"connected_time":627000000000,"state":"active","ping":58},{"user_id":656,"name":"finger","steam_id":76561198032101031,"connected_time":3674000000000,"state":"active","ping":108},{"user_id":678,"name":"Uncle Owen","steam_id":76561198157999291,"connected_time":2329000000000,"state":"active","ping":88},{"user_id":698,"name":"Leszy","steam_id":76561198372172135,"connected_time":1218000000000,"state":"active","ping":67},{"user_id":672,"name":"☆☆ Air Force Juan ☆☆","steam_id":76561198013240411,"connected_time":3100000000000,"state":"active","ping":69},{"user_id":648,"name":"Skullflesh","steam_id":76561198286722734,"connected_time":4440000000000,"state":"active","ping":67},{"user_id":704,"name":"GogsCrunchyNuts","steam_id":76561198150599213,"connected_time":865000000000,"state":"active","ping":103},{"user_id":702,"name":"ArikMor","steam_id":76561199124472513,"connected_time":1132000000000,"state":"active","ping":101},{"user_id":703,"name":"Forgetful","steam_id":76561198147445965,"connected_time":1091000000000,"state":"active","ping":59}]},{"server_id":110,"name":"Uncletopia | Frankfurt | 2 | All Maps","name_short":"frk-2","host":"frk-1.de.uncletopia.com","port":27025,"enabled":true,"region":"eu","cc":"de","latitude":50.110924,"longitude":8.682127,"reserved":0,"last_update":"0001-01-01T00:00:00Z","name_a2s":"Uncletopia | Frankfurt | 2 | All Maps","protocol":17,"map":"pl_upward","folder":"tf","game":"Team Fortress","app_id":440,"player_count":24,"max_players":24,"Bots":0,"server_type":"Dedicated","server_os":"Linux","password":true,"vac":true,"version":"7742253","steam_id":85568392924469990,"keywords":["nocrits","nodmgspread","payload","uncletopia"],"game_id":440,"stv_port":27026,"stv_name":"Uncletopia | Frankfurt | 2 | All Maps | STV","players":[{"user_id":606,"name":"Savric","steam_id":76561197984478559,"connected_time":82000000000,"state":"active","ping":57},{"user_id":571,"name":"A Succulent Chinese Meal","steam_id":76561198069472440,"connected_time":2987000000000,"state":"active","ping":76},{"user_id":546,"name":"zdX","steam_id":76561198163735277,"connected_time":4341000000000,"state":"active","ping":50},{"user_id":580,"name":"Zombi3","steam_id":76561198326290621,"connected_time":2492000000000,"state":"active","ping":70},{"user_id":607,"name":"Proofmean","steam_id":76561198878552103,"connected_time":50000000000,"state":"active","ping":56},{"user_id":517,"name":"snake9544","steam_id":76561198083076205,"connected_time":6546000000000,"state":"active","ping":78},{"user_id":590,"name":"important photo","steam_id":76561199042045774,"connected_time":1569000000000,"state":"active","ping":64},{"user_id":567,"name":"Buddy","steam_id":76561198050185582,"connected_time":3478000000000,"state":"active","ping":79},{"user_id":574,"name":"waddle dork","steam_id":76561198297349985,"connected_time":2958000000000,"state":"active","ping":53},{"user_id":602,"name":"JohnTraveltime","steam_id":76561199244281754,"connected_time":495000000000,"state":"active","ping":77},{"user_id":597,"name":"etc","steam_id":76561197998394797,"connected_time":1072000000000,"state":"active","ping":56},{"user_id":601,"name":"RIP Pop RIP Von RIP X #ganja","steam_id":76561198119528210,"connected_time":721000000000,"state":"active","ping":65},{"user_id":605,"name":"Mollehh","steam_id":76561198354731126,"connected_time":209000000000,"state":"active","ping":58},{"user_id":508,"name":"Jonas Destark","steam_id":76561198030327441,"connected_time":7357000000000,"state":"active","ping":58},{"user_id":584,"name":"Gryoss","steam_id":76561197999837111,"connected_time":2438000000000,"state":"active","ping":98},{"user_id":598,"name":"epic gamer moment","steam_id":76561198299515070,"connected_time":1069000000000,"state":"active","ping":96},{"user_id":578,"name":"gaming","steam_id":76561198044461938,"connected_time":2646000000000,"state":"active","ping":59},{"user_id":579,"name":".bRdyyy","steam_id":76561198057256978,"connected_time":2521000000000,"state":"active","ping":45},{"user_id":599,"name":"Cazulas","steam_id":76561198027460283,"connected_time":1055000000000,"state":"active","ping":80},{"user_id":595,"name":"Lemmy","steam_id":76561199038870751,"connected_time":1286000000000,"state":"active","ping":77},{"user_id":593,"name":"Castellan","steam_id":76561197994861142,"connected_time":1508000000000,"state":"active","ping":61},{"user_id":575,"name":"Burpman","steam_id":76561198022897937,"connected_time":2958000000000,"state":"active","ping":60},{"user_id":604,"name":"Sweetcheesus","steam_id":76561198022299033,"connected_time":261000000000,"state":"active","ping":63},{"user_id":594,"name":"ProfessorCrack","steam_id":76561199035475627,"connected_time":1505000000000,"state":"active","ping":82}]},{"server_id":308,"name":"Uncletopia | Frankfurt | 3 | All Maps","name_short":"frk-3","host":"frk-1.de.uncletopia.com","port":27035,"enabled":true,"region":"eu","cc":"de","latitude":50.110924,"longitude":8.682127,"reserved":0,"last_update":"0001-01-01T00:00:00Z","name_a2s":"Uncletopia | Frankfurt | 3 | All Maps","protocol":17,"map":"pl_upward","folder":"tf","game":"Team Fortress","app_id":440,"player_count":24,"max_players":24,"Bots":0,"server_type":"Dedicated","server_os":"Linux","password":true,"vac":true,"version":"7742253","steam_id":85568392924504274,"keywords":["nocrits","nodmgspread","payload","uncletopia"],"game_id":440,"stv_port":27036,"stv_name":"Uncletopia | Frankfurt | 3 | All Maps | STV","players":[{"user_id":339,"name":"stoppen","steam_id":76561197960281482,"connected_time":1753000000000,"state":"active","ping":75},{"user_id":308,"name":"Michał","steam_id":76561198320346362,"connected_time":4661000000000,"state":"active","ping":55},{"user_id":337,"name":"tralalaOuiOui","steam_id":76561197963471507,"connected_time":2084000000000,"state":"active","ping":57},{"user_id":341,"name":"Decadence","steam_id":76561198206829379,"connected_time":1708000000000,"state":"active","ping":67},{"user_id":352,"name":"Barbiehunter #SaveTF2","steam_id":76561198071630928,"connected_time":755000000000,"state":"active","ping":51},{"user_id":340,"name":"Animatic","steam_id":76561198186421601,"connected_time":1750000000000,"state":"active","ping":179},{"user_id":355,"name":"Welder","steam_id":76561198355300561,"connected_time":226000000000,"state":"active","ping":69},{"user_id":284,"name":"ProMate","steam_id":76561198277138236,"connected_time":6274000000000,"state":"active","ping":66},{"user_id":354,"name":"MR.BLOTTO","steam_id":76561198067920111,"connected_time":590000000000,"state":"active","ping":45},{"user_id":353,"name":"bro.","steam_id":76561198053394831,"connected_time":662000000000,"state":"active","ping":58},{"user_id":278,"name":"donk","steam_id":76561198162676648,"connected_time":6618000000000,"state":"active","ping":72},{"user_id":347,"name":"zheel","steam_id":76561198354135485,"connected_time":1577000000000,"state":"active","ping":71},{"user_id":298,"name":"FJADL","steam_id":76561198237008214,"connected_time":5296000000000,"state":"active","ping":58},{"user_id":350,"name":"Syd","steam_id":76561198020515027,"connected_time":902000000000,"state":"active","ping":61},{"user_id":312,"name":"lanzer","steam_id":76561198049983016,"connected_time":3849000000000,"state":"active","ping":92},{"user_id":346,"name":"the joy of recycling","steam_id":76561198415564349,"connected_time":1675000000000,"state":"active","ping":64},{"user_id":323,"name":"Abby","steam_id":76561198170528489,"connected_time":3422000000000,"state":"active","ping":82},{"user_id":305,"name":"yourtruemedic","steam_id":76561198826881879,"connected_time":4728000000000,"state":"active","ping":67},{"user_id":330,"name":"tf2 snake","steam_id":76561198193971167,"connected_time":2471000000000,"state":"active","ping":58},{"user_id":311,"name":"sigma female","steam_id":76561198298576765,"connected_time":3882000000000,"state":"active","ping":75},{"user_id":325,"name":"AntsInMyAss","steam_id":76561198881037607,"connected_time":3416000000000,"state":"active","ping":68},{"user_id":351,"name":"festry","steam_id":76561198873296090,"connected_time":902000000000,"state":"active","ping":71},{"user_id":317,"name":"eple","steam_id":76561198017686306,"connected_time":3808000000000,"state":"active","ping":61},{"user_id":335,"name":"Spore","steam_id":76561198889433116,"connected_time":2259000000000,"state":"active","ping":80}]},{"server_id":309,"name":"Uncletopia | Frankfurt | 4 | All Maps","name_short":"frk-4","host":"frk-1.de.uncletopia.com","port":27045,"enabled":true,"region":"eu","cc":"de","latitude":50.110924,"longitude":8.682127,"reserved":0,"last_update":"0001-01-01T00:00:00Z","name_a2s":"Uncletopia | Frankfurt | 4 | All Maps","protocol":17,"map":"pl_snowycoast","folder":"tf","game":"Team Fortress","app_id":440,"player_count":24,"max_players":24,"Bots":0,"server_type":"Dedicated","server_os":"Linux","password":true,"vac":true,"version":"7742253","steam_id":85568392924504275,"keywords":["nocrits","nodmgspread","payload","uncletopia"],"game_id":440,"stv_port":27046,"stv_name":"Uncletopia | Frankfurt | 4 | All Maps | STV","players":[{"user_id":454,"name":"rummy","steam_id":76561197997573379,"connected_time":821000000000,"state":"active","ping":54},{"user_id":446,"name":"glyph","steam_id":76561197980736364,"connected_time":1082000000000,"state":"active","ping":73},{"user_id":455,"name":"Bumblebee","steam_id":76561198033551105,"connected_time":804000000000,"state":"active","ping":53},{"user_id":433,"name":"Heavy like a Brinks truck","steam_id":76561198197304886,"connected_time":1925000000000,"state":"active","ping":112},{"user_id":447,"name":"htraB","steam_id":76561198043122677,"connected_time":1054000000000,"state":"active","ping":56},{"user_id":460,"name":"Old Man Winter","steam_id":76561198007653168,"connected_time":747000000000,"state":"active","ping":71},{"user_id":421,"name":"FruityCrits","steam_id":76561198373779833,"connected_time":3125000000000,"state":"active","ping":44},{"user_id":424,"name":"Gebagemid","steam_id":76561198003684717,"connected_time":3021000000000,"state":"active","ping":66},{"user_id":450,"name":"the joy of recycling","steam_id":76561198138509827,"connected_time":1042000000000,"state":"active","ping":85},{"user_id":457,"name":"vikingo12","steam_id":76561198205392996,"connected_time":778000000000,"state":"active","ping":84},{"user_id":458,"name":"jovi_","steam_id":76561198449280552,"connected_time":765000000000,"state":"active","ping":63},{"user_id":428,"name":"thomas :-)","steam_id":76561198355097756,"connected_time":2421000000000,"state":"active","ping":61},{"user_id":411,"name":"Oskuri","steam_id":76561198155956047,"connected_time":3297000000000,"state":"active","ping":68},{"user_id":462,"name":"And Hit It!","steam_id":76561198030956814,"connected_time":729000000000,"state":"active","ping":58},{"user_id":464,"name":"Geab","steam_id":76561198198998973,"connected_time":466000000000,"state":"active","ping":88},{"user_id":438,"name":"Sleepycoffyn","steam_id":76561199278648379,"connected_time":1864000000000,"state":"active","ping":45},{"user_id":410,"name":"omnibombulator","steam_id":76561198025858897,"connected_time":3309000000000,"state":"active","ping":66},{"user_id":389,"name":"Ott","steam_id":76561198276464481,"connected_time":4675000000000,"state":"active","ping":62},{"user_id":429,"name":"λ{|V|ilk}Officer Butterloins","steam_id":76561198011983546,"connected_time":2366000000000,"state":"active","ping":141},{"user_id":439,"name":"PlebCord","steam_id":76561198120685803,"connected_time":1835000000000,"state":"active","ping":83},{"user_id":415,"name":"Grigori Rasputin","steam_id":76561198070810812,"connected_time":3277000000000,"state":"active","ping":101},{"user_id":466,"name":"PWizard","steam_id":76561198026458489,"connected_time":171000000000,"state":"active","ping":78},{"user_id":417,"name":"Doofenschmirtz Gaming","steam_id":76561198061301085,"connected_time":3266000000000,"state":"active","ping":51},{"user_id":449,"name":"Bohelor","steam_id":76561198135329948,"connected_time":1052000000000,"state":"active","ping":73}]},{"server_id":310,"name":"Uncletopia | Frankfurt | 5 | All Maps","name_short":"frk-5","host":"frk-1.de.uncletopia.com","port":27055,"enabled":true,"region":"eu","cc":"de","latitude":50.110924,"longitude":8.682127,"reserved":0,"last_update":"0001-01-01T00:00:00Z","name_a2s":"Uncletopia | Frankfurt | 5 | All Maps","protocol":17,"map":"plr_hightower","folder":"tf","game":"Team Fortress","app_id":440,"player_count":24,"max_players":24,"Bots":0,"server_type":"Dedicated","server_os":"Linux","password":true,"vac":true,"version":"7742253","steam_id":85568392924504277,"keywords":["nocrits","nodmgspread","payload","uncletopia"],"game_id":440,"stv_port":27056,"stv_name":"Uncletopia | Frankfurt | 5 | All Maps | STV","players":[{"user_id":564,"name":"Osmo","steam_id":76561199286764992,"connected_time":1364000000000,"state":"active","ping":76},{"user_id":585,"name":"xe_op","steam_id":76561199465718377,"connected_time":339000000000,"state":"active","ping":63},{"user_id":565,"name":"Filleman","steam_id":76561198159386946,"connected_time":1351000000000,"state":"active","ping":58},{"user_id":580,"name":"Bread","steam_id":76561198323756120,"connected_time":645000000000,"state":"active","ping":66},{"user_id":410,"name":"MAJAX","steam_id":76561198254828632,"connected_time":10588000000000,"state":"active","ping":57},{"user_id":518,"name":"Baki ツ","steam_id":76561198193615529,"connected_time":4332000000000,"state":"active","ping":59},{"user_id":538,"name":"dddd","steam_id":76561198120894372,"connected_time":2861000000000,"state":"active","ping":108},{"user_id":476,"name":"Meltryllis","steam_id":76561198157773041,"connected_time":6474000000000,"state":"active","ping":90},{"user_id":562,"name":"CarBombEnthusiast","steam_id":76561199448185434,"connected_time":1578000000000,"state":"active","ping":59},{"user_id":573,"name":"ViktorYoshi","steam_id":76561199157555246,"connected_time":974000000000,"state":"active","ping":63},{"user_id":574,"name":"primordial thrill","steam_id":76561198122691695,"connected_time":962000000000,"state":"active","ping":78},{"user_id":575,"name":"half-life's smell","steam_id":76561198068370236,"connected_time":954000000000,"state":"active","ping":95},{"user_id":555,"name":"Fart of Doom","steam_id":76561198042593027,"connected_time":1898000000000,"state":"active","ping":80},{"user_id":571,"name":"R8N - Obismal","steam_id":76561198007482714,"connected_time":1127000000000,"state":"active","ping":74},{"user_id":584,"name":"Vince","steam_id":76561199103000131,"connected_time":486000000000,"state":"active","ping":59},{"user_id":567,"name":"Alfred2.2","steam_id":76561198339314744,"connected_time":1237000000000,"state":"active","ping":63},{"user_id":576,"name":"StarlightTH","steam_id":76561198046922727,"connected_time":911000000000,"state":"active","ping":88},{"user_id":569,"name":"Wade Wilson's Spoilt C4","steam_id":76561198013884709,"connected_time":1192000000000,"state":"active","ping":100},{"user_id":577,"name":"Joe Byron","steam_id":76561198044465070,"connected_time":901000000000,"state":"active","ping":85},{"user_id":495,"name":"Good Ol' Frank","steam_id":76561198118490202,"connected_time":5135000000000,"state":"active","ping":60},{"user_id":586,"name":"ERBLIN011","steam_id":76561198302006065,"connected_time":101000000000,"state":"active","ping":85},{"user_id":582,"name":"SENTRY MAN","steam_id":76561198334042273,"connected_time":586000000000,"state":"active","ping":93},{"user_id":583,"name":"Baklava Enjoyer","steam_id":76561198990679631,"connected_time":584000000000,"state":"active","ping":75},{"user_id":579,"name":"Thebluetotodile","steam_id":76561198377832877,"connected_time":853000000000,"state":"active","ping":51}]},{"server_id":311,"name":"Uncletopia | Frankfurt | 6 | All Maps","name_short":"frk-6","host":"frk-1.de.uncletopia.com","port":27065,"enabled":true,"region":"eu","cc":"de","latitude":50.110924,"longitude":8.682127,"reserved":0,"last_update":"0001-01-01T00:00:00Z","name_a2s":"Uncletopia | Frankfurt | 6 | All Maps","protocol":17,"map":"cp_altitude","folder":"tf","game":"Team Fortress","app_id":440,"player_count":0,"max_players":24,"Bots":0,"server_type":"Dedicated","server_os":"Linux","password":true,"vac":true,"version":"7742253","steam_id":85568392924504278,"keywords":["cp","nocrits","nodmgspread","uncletopia"],"game_id":440,"stv_port":27066,"stv_name":"Uncletopia | Frankfurt | 6 | All Maps | STV","players":null},{"server_id":23,"name":"Uncletopia | Frankfurt | 7 | Stopwatch Beta","name_short":"frk-7","host":"frk-1.de.uncletopia.com","port":27075,"enabled":true,"region":"eu","cc":"de","latitude":50.110924,"longitude":8.682127,"reserved":0,"last_update":"0001-01-01T00:00:00Z","name_a2s":"Uncletopia | Frankfurt | 7 | Stopwatch Beta","protocol":17,"map":"workshop/pl_barnblitz_pro7.ugc582280235","folder":"tf","game":"Team Fortress","app_id":440,"player_count":0,"max_players":24,"Bots":0,"server_type":"Dedicated","server_os":"Linux","password":true,"vac":true,"version":"7742253","steam_id":85568392924742827,"keywords":["nocrits","nodmgspread","payload","uncletopia"],"game_id":440,"stv_port":27076,"stv_name":"Uncletopia | Frankfurt | 7 | Stopwatch Beta | STV","players":null},{"server_id":24,"name":"Uncletopia | Frankfurt | 8 | Community","name_short":"frk-8","host":"frk-1.de.uncletopia.com","port":27085,"enabled":true,"region":"eu","cc":"de","latitude":50.110924,"longitude":8.682127,"reserved":0,"last_update":"0001-01-01T00:00:00Z","name_a2s":"Uncletopia | Frankfurt | 8 | Community","protocol":17,"map":"workshop/pl_fifthcurve_rc1.ugc648227046","folder":"tf","game":"Team Fortress","app_id":440,"player_count":9,"max_players":24,"Bots":0,"server_type":"Dedicated","server_os":"Linux","password":true,"vac":true,"version":"7742253","steam_id":85568392924742828,"keywords":["nocrits","nodmgspread","payload","uncletopia"],"game_id":440,"stv_port":27086,"stv_name":"Uncletopia | Frankfurt | 8 | Community | STV","players":[{"user_id":362,"name":"Psychicpie","steam_id":76561198126065206,"connected_time":381000000000,"state":"active","ping":45},{"user_id":361,"name":"Vibing Wave [IRAN]","steam_id":76561198866358613,"connected_time":470000000000,"state":"active","ping":136},{"user_id":367,"name":"Fortezza","steam_id":76561198972539903,"connected_time":98000000000,"state":"active","ping":49},{"user_id":353,"name":"LenKineUltraGaming","steam_id":76561199195447283,"connected_time":1258000000000,"state":"active","ping":81},{"user_id":364,"name":"BCFire","steam_id":76561198070663279,"connected_time":190000000000,"state":"active","ping":56},{"user_id":368,"name":"asdlækasd","steam_id":76561198870764276,"connected_time":59000000000,"state":"active","ping":74},{"user_id":349,"name":"Error","steam_id":76561198308950067,"connected_time":1639000000000,"state":"active","ping":46},{"user_id":355,"name":"Foto-nio","steam_id":76561199084765056,"connected_time":1156000000000,"state":"active","ping":65}]},{"server_id":202,"name":"Uncletopia | Hong Kong | 1 | All Maps","name_short":"hgk-1","host":"hgk-1.hk.uncletopia.com","port":27015,"enabled":true,"region":"asia","cc":"hk","latitude":22.302711,"longitude":114.177216,"reserved":0,"last_update":"0001-01-01T00:00:00Z","name_a2s":"Uncletopia | Hong Kong | 1 | All Maps","protocol":17,"map":"pl_badwater","folder":"tf","game":"Team Fortress","app_id":440,"player_count":0,"max_players":24,"Bots":0,"server_type":"Dedicated","server_os":"Linux","password":true,"vac":true,"version":"7742253","steam_id":85568392924494504,"keywords":["nocrits","nodmgspread","payload","uncletopia"],"game_id":440,"stv_port":27016,"stv_name":"Uncletopia | Hong Kong | 1 | All Maps | STV","players":null},{"server_id":1,"name":"Uncletopia | Los Angeles | 1 | All Maps","name_short":"lax-1","host":"lax-1.us.uncletopia.com","port":27015,"enabled":true,"region":"us-west","cc":"us","latitude":33.94279,"longitude":-118.41004,"reserved":0,"last_update":"0001-01-01T00:00:00Z","name_a2s":"Uncletopia | Los Angeles | 1 | All Maps","protocol":17,"map":"pl_pier","folder":"tf","game":"Team Fortress","app_id":440,"player_count":24,"max_players":24,"Bots":0,"server_type":"Dedicated","server_os":"Linux","password":true,"vac":true,"version":"7742253","steam_id":85568392924469991,"keywords":["nocrits","nodmgspread","payload","uncletopia"],"game_id":440,"stv_port":27016,"stv_name":"Uncletopia | Los Angeles | 1 | All Maps | STV","players":[{"user_id":134,"name":"thisguy42424242","steam_id":76561199304282915,"connected_time":172000000000,"state":"active","ping":41},{"user_id":80,"name":"TheJuanSh0t","steam_id":76561199073277824,"connected_time":3346000000000,"state":"active","ping":53},{"user_id":109,"name":"groovetomanny","steam_id":76561198371660675,"connected_time":1879000000000,"state":"active","ping":45},{"user_id":68,"name":"berserker_tf2 ttv","steam_id":76561198303464488,"connected_time":4008000000000,"state":"active","ping":65},{"user_id":89,"name":"i ate atomic bomb","steam_id":76561198150406851,"connected_time":2804000000000,"state":"active","ping":60},{"user_id":114,"name":"DORATHEEXPLORER","steam_id":76561198124773931,"connected_time":1557000000000,"state":"active","ping":49},{"user_id":126,"name":"Leo","steam_id":76561198309760791,"connected_time":433000000000,"state":"active","ping":93},{"user_id":115,"name":"Roscoejustros","steam_id":76561198301189481,"connected_time":1543000000000,"state":"active","ping":42},{"user_id":96,"name":"Ass Beater","steam_id":76561198106038100,"connected_time":2288000000000,"state":"active","ping":71},{"user_id":95,"name":"DeckofDragons","steam_id":76561198057398213,"connected_time":2342000000000,"state":"active","ping":83},{"user_id":74,"name":"Feel the bern","steam_id":76561198078824519,"connected_time":3675000000000,"state":"active","ping":60},{"user_id":132,"name":"Dezzithediscoduck","steam_id":76561198037043489,"connected_time":399000000000,"state":"active","ping":55},{"user_id":122,"name":"Aspen draws","steam_id":76561198174524831,"connected_time":1325000000000,"state":"active","ping":110},{"user_id":113,"name":"Kira","steam_id":76561198021582061,"connected_time":1634000000000,"state":"active","ping":56},{"user_id":136,"name":"Meth Bomb","steam_id":76561198365857261,"connected_time":15000000000,"state":"spawning","ping":74},{"user_id":130,"name":"Jack (no monitor) (phoon)","steam_id":76561198986214155,"connected_time":423000000000,"state":"active","ping":53},{"user_id":79,"name":"Mothma","steam_id":76561198353789504,"connected_time":3496000000000,"state":"active","ping":61},{"user_id":125,"name":"AKKAWI","steam_id":76561198203159952,"connected_time":497000000000,"state":"active","ping":57},{"user_id":135,"name":"vanilla gorilla","steam_id":76561198007867721,"connected_time":168000000000,"state":"active","ping":54},{"user_id":104,"name":"Chad the Sex Haver","steam_id":76561198058236528,"connected_time":1967000000000,"state":"active","ping":58},{"user_id":133,"name":"Typha","steam_id":76561198350099066,"connected_time":319000000000,"state":"active","ping":55},{"user_id":123,"name":"grove","steam_id":76561198797049119,"connected_time":1285000000000,"state":"active","ping":117},{"user_id":86,"name":"Rat Smacker","steam_id":76561199090197628,"connected_time":3140000000000,"state":"active","ping":78},{"user_id":101,"name":"Jadus","steam_id":76561199091462938,"connected_time":2228000000000,"state":"active","ping":59}]},{"server_id":112,"name":"Uncletopia | Los Angeles | 2 | All Maps","name_short":"lax-2","host":"lax-1.us.uncletopia.com","port":27025,"enabled":true,"region":"us-west","cc":"us","latitude":33.94279,"longitude":-118.41004,"reserved":0,"last_update":"0001-01-01T00:00:00Z","name_a2s":"Uncletopia | Los Angeles | 2 | All Maps","protocol":17,"map":"pl_borneo","folder":"tf","game":"Team Fortress","app_id":440,"player_count":0,"max_players":24,"Bots":0,"server_type":"Dedicated","server_os":"Linux","password":true,"vac":true,"version":"7742253","steam_id":85568392924469992,"keywords":["nocrits","nodmgspread","payload","uncletopia"],"game_id":440,"stv_port":27026,"stv_name":"Uncletopia | Los Angeles | 2 | All Maps | STV","players":null},{"server_id":324,"name":"Uncletopia | Los Angeles | 3 | All Maps","name_short":"lax-3","host":"lax-1.us.uncletopia.com","port":27035,"enabled":true,"region":"us-west","cc":"us","latitude":33.94279,"longitude":-118.41004,"reserved":0,"last_update":"0001-01-01T00:00:00Z","name_a2s":"Uncletopia | Los Angeles | 3 | All Maps","protocol":17,"map":"pl_barnblitz","folder":"tf","game":"Team Fortress","app_id":440,"player_count":2,"max_players":24,"Bots":0,"server_type":"Dedicated","server_os":"Linux","password":true,"vac":true,"version":"7742253","steam_id":85568392924510198,"keywords":["nocrits","nodmgspread","payload","uncletopia"],"game_id":440,"stv_port":27036,"stv_name":"Uncletopia | Los Angeles | 3 | All Maps | STV","players":[{"user_id":10,"name":"potatis kaka sås","steam_id":76561197989859175,"connected_time":213000000000,"state":"active","ping":170},{"user_id":11,"name":"Lasse Kronér","steam_id":76561198001491292,"connected_time":199000000000,"state":"active","ping":182}]},{"server_id":25,"name":"Uncletopia | Los Angeles | 4 | Stopwatch Beta","name_short":"lax-4","host":"lax-1.us.uncletopia.com","port":27045,"enabled":true,"region":"us-west","cc":"us","latitude":33.94279,"longitude":-118.41004,"reserved":0,"last_update":"0001-01-01T00:00:00Z","name_a2s":"Uncletopia | Los Angeles | 4 | Stopwatch Beta","protocol":17,"map":"workshop/koth_product_final.ugc454272353","folder":"tf","game":"Team Fortress","app_id":440,"player_count":0,"max_players":24,"Bots":0,"server_type":"Dedicated","server_os":"Linux","password":true,"vac":true,"version":"7742253","steam_id":85568392924510199,"keywords":["cp","nocrits","nodmgspread","uncletopia"],"game_id":440,"stv_port":27046,"stv_name":"Uncletopia | Los Angeles | 4 | Stopwatch Beta | STV","players":null},{"server_id":11,"name":"Uncletopia | London | 1 | All Maps","name_short":"lon-1","host":"lon-1.uk.uncletopia.com","port":27015,"enabled":true,"region":"eu","cc":"gb","latitude":51.509865,"longitude":-0.118092,"reserved":0,"last_update":"0001-01-01T00:00:00Z","name_a2s":"Uncletopia | London | 1 | All Maps","protocol":17,"map":"pl_badwater","folder":"tf","game":"Team Fortress","app_id":440,"player_count":24,"max_players":24,"Bots":0,"server_type":"Dedicated","server_os":"Linux","password":true,"vac":true,"version":"7742253","steam_id":85568392924367362,"keywords":["nocrits","nodmgspread","payload","uncletopia"],"game_id":440,"stv_port":27016,"stv_name":"Uncletopia | London | 1 | All Maps | STV","players":[{"user_id":721,"name":"blade","steam_id":76561199308850812,"connected_time":1585000000000,"state":"active","ping":71},{"user_id":734,"name":"TheCuckshow","steam_id":76561198124304520,"connected_time":373000000000,"state":"active","ping":40},{"user_id":736,"name":"Bill","steam_id":76561198407800452,"connected_time":365000000000,"state":"active","ping":62},{"user_id":725,"name":"SOPHIIEE","steam_id":76561198443798981,"connected_time":1104000000000,"state":"active","ping":54},{"user_id":730,"name":"MaypulSoyrup","steam_id":76561199213966821,"connected_time":510000000000,"state":"active","ping":61},{"user_id":646,"name":"gnarly business","steam_id":76561198832688767,"connected_time":7809000000000,"state":"active","ping":46},{"user_id":711,"name":"jozkotrozko","steam_id":76561198355270729,"connected_time":2298000000000,"state":"active","ping":66},{"user_id":729,"name":"Katie","steam_id":76561198056193753,"connected_time":729000000000,"state":"active","ping":50},{"user_id":722,"name":"eggslut","steam_id":76561198010752241,"connected_time":1583000000000,"state":"active","ping":66},{"user_id":705,"name":"Real","steam_id":76561198322220924,"connected_time":2424000000000,"state":"active","ping":44},{"user_id":716,"name":"homeinvasion$","steam_id":76561199111905021,"connected_time":2036000000000,"state":"active","ping":108},{"user_id":724,"name":"Salesman","steam_id":76561198045527771,"connected_time":1164000000000,"state":"active","ping":50},{"user_id":739,"name":"Limeg210","steam_id":76561198152671630,"connected_time":264000000000,"state":"active","ping":84},{"user_id":691,"name":"teddy","steam_id":76561198007436837,"connected_time":3699000000000,"state":"active","ping":29},{"user_id":699,"name":"S1B0RG","steam_id":76561199025064312,"connected_time":2643000000000,"state":"active","ping":72},{"user_id":731,"name":"fallingpencil","steam_id":76561199230233148,"connected_time":398000000000,"state":"active","ping":46},{"user_id":726,"name":"quack","steam_id":76561198121003465,"connected_time":950000000000,"state":"active","ping":51},{"user_id":732,"name":"Kroto","steam_id":76561198056233760,"connected_time":393000000000,"state":"active","ping":74},{"user_id":701,"name":"Chloemew | TFConnect 2022!","steam_id":76561198042071762,"connected_time":2628000000000,"state":"active","ping":46},{"user_id":737,"name":"Yrjö Koskinen Yrjö-Koskinen","steam_id":76561198368181145,"connected_time":362000000000,"state":"active","ping":88},{"user_id":738,"name":"Patrick Bateman","steam_id":76561198049584298,"connected_time":361000000000,"state":"active","ping":152},{"user_id":708,"name":"Loading...","steam_id":76561198441894694,"connected_time":2364000000000,"state":"active","ping":80},{"user_id":728,"name":"Sonnakai","steam_id":76561198051688749,"connected_time":795000000000,"state":"active","ping":42},{"user_id":719,"name":"Dominus.","steam_id":76561199065917088,"connected_time":1978000000000,"state":"active","ping":61}]},{"server_id":114,"name":"Uncletopia | London | 2 | All Maps","name_short":"lon-2","host":"lon-1.uk.uncletopia.com","port":27025,"enabled":true,"region":"eu","cc":"gb","latitude":51.509865,"longitude":-0.118092,"reserved":0,"last_update":"0001-01-01T00:00:00Z","name_a2s":"Uncletopia | London | 2 | All Maps","protocol":17,"map":"pl_barnblitz","folder":"tf","game":"Team Fortress","app_id":440,"player_count":24,"max_players":24,"Bots":0,"server_type":"Dedicated","server_os":"Linux","password":true,"vac":true,"version":"7742253","steam_id":85568392924470941,"keywords":["nocrits","nodmgspread","payload","uncletopia"],"game_id":440,"stv_port":27026,"stv_name":"Uncletopia | London | 2 | All Maps | STV","players":[{"user_id":553,"name":"Axord","steam_id":76561199289652176,"connected_time":159000000000,"state":"active","ping":57},{"user_id":518,"name":"Farmercy","steam_id":76561198000038039,"connected_time":2306000000000,"state":"active","ping":67},{"user_id":554,"name":"Shirogame","steam_id":76561198126154697,"connected_time":39000000000,"state":"active","ping":153},{"user_id":528,"name":"LegoKatt","steam_id":76561198064536870,"connected_time":2117000000000,"state":"active","ping":86},{"user_id":520,"name":"A Featherless Biped","steam_id":76561198307904901,"connected_time":2291000000000,"state":"active","ping":33},{"user_id":542,"name":"Koli","steam_id":76561197992428783,"connected_time":755000000000,"state":"active","ping":60},{"user_id":485,"name":"❀snorlax","steam_id":76561198051629288,"connected_time":4365000000000,"state":"active","ping":62},{"user_id":550,"name":"Hotgamerdad","steam_id":76561198085940613,"connected_time":466000000000,"state":"active","ping":56},{"user_id":497,"name":"Dukuu_Topmuk","steam_id":76561198420338931,"connected_time":3511000000000,"state":"active","ping":46},{"user_id":517,"name":"rat performance","steam_id":76561198065854668,"connected_time":2329000000000,"state":"active","ping":44},{"user_id":551,"name":"The Bean Man","steam_id":76561198046932811,"connected_time":463000000000,"state":"active","ping":53},{"user_id":521,"name":"dog w ricks","steam_id":76561198387405805,"connected_time":2281000000000,"state":"active","ping":78},{"user_id":545,"name":"MAKENTAKEN","steam_id":76561199127359587,"connected_time":674000000000,"state":"active","ping":95},{"user_id":494,"name":"spy amongus","steam_id":76561199129509545,"connected_time":3634000000000,"state":"active","ping":120},{"user_id":540,"name":"IKARUS","steam_id":76561198850898422,"connected_time":823000000000,"state":"active","ping":75},{"user_id":508,"name":"Dellroy","steam_id":76561198161222252,"connected_time":2988000000000,"state":"active","ping":65},{"user_id":537,"name":"EchoBN","steam_id":76561198287127380,"connected_time":1362000000000,"state":"active","ping":45},{"user_id":487,"name":"General Antifascista","steam_id":76561198194714570,"connected_time":4338000000000,"state":"active","ping":58},{"user_id":481,"name":"Sir Skyber","steam_id":76561198064440004,"connected_time":4598000000000,"state":"active","ping":101},{"user_id":526,"name":"The Fellow Feller","steam_id":76561198188864306,"connected_time":2181000000000,"state":"active","ping":74},{"user_id":547,"name":"Aster","steam_id":76561198037920420,"connected_time":614000000000,"state":"active","ping":187},{"user_id":527,"name":"deez","steam_id":76561198831476915,"connected_time":2152000000000,"state":"active","ping":55},{"user_id":541,"name":"Vitamin Weee","steam_id":76561199183937747,"connected_time":823000000000,"state":"active","ping":79},{"user_id":512,"name":"SuntanPikachu","steam_id":76561198121242476,"connected_time":2609000000000,"state":"active","ping":50}]},{"server_id":320,"name":"Uncletopia | London | 3 | All Maps","name_short":"lon-3","host":"lon-1.uk.uncletopia.com","port":27035,"enabled":true,"region":"eu","cc":"gb","latitude":51.509865,"longitude":-0.118092,"reserved":0,"last_update":"0001-01-01T00:00:00Z","name_a2s":"Uncletopia | London | 3 | All Maps","protocol":17,"map":"pl_borneo","folder":"tf","game":"Team Fortress","app_id":440,"player_count":24,"max_players":24,"Bots":0,"server_type":"Dedicated","server_os":"Linux","password":true,"vac":true,"version":"7742253","steam_id":85568392924510192,"keywords":["nocrits","nodmgspread","payload","uncletopia"],"game_id":440,"stv_port":27036,"stv_name":"Uncletopia | London | 3 | All Maps | STV","players":[{"user_id":654,"name":"Fish person [less endangered]","steam_id":76561198390645507,"connected_time":1688000000000,"state":"active","ping":45},{"user_id":619,"name":"StabbyKnife","steam_id":76561198094010004,"connected_time":4147000000000,"state":"active","ping":82},{"user_id":663,"name":"Mei-Kuei","steam_id":76561198074493204,"connected_time":1434000000000,"state":"active","ping":69},{"user_id":678,"name":"Noob_with_source","steam_id":76561198870362103,"connected_time":770000000000,"state":"active","ping":57},{"user_id":650,"name":"Mr.Bombastick","steam_id":76561199098725634,"connected_time":2263000000000,"state":"active","ping":99},{"user_id":679,"name":"Arnold Schwarzenegger","steam_id":76561198871991529,"connected_time":729000000000,"state":"active","ping":63},{"user_id":665,"name":"Pyrolander","steam_id":76561198050785450,"connected_time":1302000000000,"state":"active","ping":51},{"user_id":667,"name":"kektuse","steam_id":76561198088426580,"connected_time":1224000000000,"state":"active","ping":70},{"user_id":620,"name":"Sneaky boi","steam_id":76561199195985387,"connected_time":4120000000000,"state":"active","ping":97},{"user_id":680,"name":"Room","steam_id":76561199174579733,"connected_time":726000000000,"state":"active","ping":120},{"user_id":577,"name":"Doogie","steam_id":76561198846924693,"connected_time":6445000000000,"state":"active","ping":50},{"user_id":676,"name":"KierUK |","steam_id":76561198119447994,"connected_time":856000000000,"state":"active","ping":50},{"user_id":622,"name":"Cosmetic brain","steam_id":76561198055936410,"connected_time":4111000000000,"state":"active","ping":75},{"user_id":562,"name":"Lewylow","steam_id":76561198005425686,"connected_time":7645000000000,"state":"active","ping":61},{"user_id":683,"name":"loveless","steam_id":76561198142256651,"connected_time":118000000000,"state":"active","ping":89},{"user_id":621,"name":"Swayer","steam_id":76561198056192460,"connected_time":4117000000000,"state":"active","ping":56},{"user_id":551,"name":"Samus","steam_id":76561198045943019,"connected_time":8715000000000,"state":"active","ping":60},{"user_id":677,"name":"Zelmor","steam_id":76561197997708311,"connected_time":812000000000,"state":"active","ping":45},{"user_id":554,"name":"TurboTabs","steam_id":76561198009785131,"connected_time":8122000000000,"state":"active","ping":51},{"user_id":681,"name":"Faiismyfirstname","steam_id":76561199433150314,"connected_time":711000000000,"state":"active","ping":50},{"user_id":565,"name":"Caesium_R4","steam_id":76561198432410602,"connected_time":7546000000000,"state":"active","ping":50},{"user_id":662,"name":"tiia (cold hends)","steam_id":76561198046196005,"connected_time":1487000000000,"state":"active","ping":60},{"user_id":618,"name":"gagalak","steam_id":76561198089979108,"connected_time":4187000000000,"state":"active","ping":104},{"user_id":671,"name":"DomiDaph","steam_id":76561198201303525,"connected_time":1072000000000,"state":"active","ping":107}]},{"server_id":321,"name":"Uncletopia | London | 4 | All Maps","name_short":"lon-4","host":"lon-1.uk.uncletopia.com","port":27045,"enabled":true,"region":"eu","cc":"gb","latitude":51.509865,"longitude":-0.118092,"reserved":0,"last_update":"0001-01-01T00:00:00Z","name_a2s":"Uncletopia | London | 4 | All Maps","protocol":17,"map":"koth_highpass","folder":"tf","game":"Team Fortress","app_id":440,"player_count":24,"max_players":24,"Bots":0,"server_type":"Dedicated","server_os":"Linux","password":true,"vac":true,"version":"7742253","steam_id":85568392924510193,"keywords":["cp","nocrits","nodmgspread","uncletopia"],"game_id":440,"stv_port":27046,"stv_name":"Uncletopia | London | 4 | All Maps | STV","players":[{"user_id":481,"name":"panakid","steam_id":76561198364121077,"connected_time":1017000000000,"state":"active","ping":92},{"user_id":483,"name":"Csanod","steam_id":76561198216576375,"connected_time":1002000000000,"state":"active","ping":74},{"user_id":490,"name":"Akero","steam_id":76561198857883916,"connected_time":900000000000,"state":"active","ping":74},{"user_id":498,"name":"ShoobyDooby","steam_id":76561198118473910,"connected_time":461000000000,"state":"active","ping":53},{"user_id":497,"name":"Random1","steam_id":76561199116602799,"connected_time":557000000000,"state":"active","ping":65},{"user_id":482,"name":"Keizer Ei","steam_id":76561199065419715,"connected_time":1010000000000,"state":"active","ping":49},{"user_id":460,"name":"marf","steam_id":76561198014828037,"connected_time":2566000000000,"state":"active","ping":56},{"user_id":502,"name":"Lennox","steam_id":76561198069063554,"connected_time":352000000000,"state":"active","ping":59},{"user_id":479,"name":"sad boy","steam_id":76561198116079972,"connected_time":1159000000000,"state":"active","ping":48},{"user_id":504,"name":"Burrito","steam_id":76561198023919089,"connected_time":342000000000,"state":"active","ping":76},{"user_id":433,"name":"emerge","steam_id":76561198186882891,"connected_time":5338000000000,"state":"active","ping":118},{"user_id":509,"name":"فوكينغ نيجيرس ي ه","steam_id":76561198880042335,"connected_time":148000000000,"state":"active","ping":71},{"user_id":496,"name":"Cabbch","steam_id":76561198045955679,"connected_time":598000000000,"state":"active","ping":53},{"user_id":345,"name":"TylowStar","steam_id":76561198357107806,"connected_time":10529000000000,"state":"active","ping":75},{"user_id":495,"name":"majora's boostio","steam_id":76561198392628642,"connected_time":646000000000,"state":"active","ping":44},{"user_id":474,"name":"Kodutah","steam_id":76561198203405574,"connected_time":1340000000000,"state":"active","ping":78},{"user_id":457,"name":"faccboi","steam_id":76561198137816642,"connected_time":3229000000000,"state":"active","ping":49},{"user_id":486,"name":"Kruthal","steam_id":76561198245726582,"connected_time":984000000000,"state":"active","ping":84},{"user_id":494,"name":"Blamnit","steam_id":76561198019409997,"connected_time":681000000000,"state":"active","ping":46},{"user_id":511,"name":"Toon","steam_id":76561198065421595,"connected_time":136000000000,"state":"active","ping":66},{"user_id":488,"name":"Handy","steam_id":76561198125055365,"connected_time":978000000000,"state":"active","ping":74},{"user_id":489,"name":"kbbq","steam_id":76561198346638308,"connected_time":970000000000,"state":"active","ping":57},{"user_id":461,"name":"Noodle","steam_id":76561197997208006,"connected_time":2553000000000,"state":"active","ping":65},{"user_id":512,"name":"Me.","steam_id":76561199063769348,"connected_time":130000000000,"state":"active","ping":124}]},{"server_id":21,"name":"Uncletopia | London | 5 | All Maps","name_short":"lon-5","host":"lon-1.uk.uncletopia.com","port":27055,"enabled":true,"region":"eu","cc":"gb","latitude":51.509865,"longitude":-0.118092,"reserved":0,"last_update":"0001-01-01T00:00:00Z","name_a2s":"Uncletopia | London | 5 | All Maps","protocol":17,"map":"koth_viaduct","folder":"tf","game":"Team Fortress","app_id":440,"player_count":0,"max_players":24,"Bots":0,"server_type":"Dedicated","server_os":"Linux","password":true,"vac":true,"version":"7742253","steam_id":85568392924742829,"keywords":["cp","nocrits","nodmgspread","uncletopia"],"game_id":440,"stv_port":27056,"stv_name":"Uncletopia | London | 5 | All Maps | STV","players":null},{"server_id":22,"name":"Uncletopia | London | 6 | All Maps","name_short":"lon-6","host":"lon-1.uk.uncletopia.com","port":27065,"enabled":true,"region":"eu","cc":"gb","latitude":51.509865,"longitude":-0.118092,"reserved":0,"last_update":"0001-01-01T00:00:00Z","name_a2s":"Uncletopia | London | 6 | All Maps","protocol":17,"map":"pl_pier","folder":"tf","game":"Team Fortress","app_id":440,"player_count":24,"max_players":24,"Bots":0,"server_type":"Dedicated","server_os":"Linux","password":true,"vac":true,"version":"7742253","steam_id":85568392924742830,"keywords":["nocrits","nodmgspread","payload","uncletopia"],"game_id":440,"stv_port":27066,"stv_name":"Uncletopia | London | 6 | All Maps | STV","players":[{"user_id":203,"name":"Dolphin2011","steam_id":76561197997323419,"connected_time":12000000000,"state":"active","ping":131},{"user_id":165,"name":"Dr Sex","steam_id":76561198029044617,"connected_time":1757000000000,"state":"active","ping":49},{"user_id":174,"name":"The Power","steam_id":76561198060566884,"connected_time":1272000000000,"state":"active","ping":49},{"user_id":175,"name":"arcSolver","steam_id":76561198212013944,"connected_time":1250000000000,"state":"active","ping":39},{"user_id":202,"name":"GalacticFantasy","steam_id":76561198072077658,"connected_time":172000000000,"state":"active","ping":66},{"user_id":159,"name":"Bandit","steam_id":76561198210490879,"connected_time":2073000000000,"state":"active","ping":49},{"user_id":20,"name":"Cossack","steam_id":76561198076661772,"connected_time":8882000000000,"state":"active","ping":94},{"user_id":137,"name":"Ok","steam_id":76561198356826506,"connected_time":3648000000000,"state":"active","ping":64},{"user_id":191,"name":"Perämiehenä","steam_id":76561197968945306,"connected_time":655000000000,"state":"active","ping":66},{"user_id":176,"name":"stalkerino","steam_id":76561198126044467,"connected_time":1232000000000,"state":"active","ping":105},{"user_id":204,"name":"★ sat1ra","steam_id":76561198011382701,"connected_time":0,"state":"spawning","ping":26},{"user_id":192,"name":"Pinroe","steam_id":76561198968160899,"connected_time":573000000000,"state":"active","ping":59},{"user_id":162,"name":"IX","steam_id":76561198039589783,"connected_time":1806000000000,"state":"active","ping":48},{"user_id":170,"name":"hmscole09","steam_id":76561198811362788,"connected_time":1462000000000,"state":"active","ping":57},{"user_id":193,"name":"Chungskingi","steam_id":76561198798605429,"connected_time":524000000000,"state":"active","ping":70},{"user_id":128,"name":"Minimi","steam_id":76561198873850443,"connected_time":4274000000000,"state":"active","ping":52},{"user_id":187,"name":"MG TF 2004!","steam_id":76561198042975907,"connected_time":954000000000,"state":"active","ping":54},{"user_id":201,"name":"stafforrdd","steam_id":76561198155137951,"connected_time":316000000000,"state":"active","ping":106},{"user_id":146,"name":"Pinkchup","steam_id":76561198106802803,"connected_time":3456000000000,"state":"active","ping":76},{"user_id":198,"name":"ZePequenio","steam_id":76561197968506094,"connected_time":407000000000,"state":"active","ping":49},{"user_id":197,"name":"Dr Ludwig","steam_id":76561198426522902,"connected_time":481000000000,"state":"active","ping":56},{"user_id":181,"name":"DevOth","steam_id":76561198066203788,"connected_time":1182000000000,"state":"active","ping":51},{"user_id":54,"name":"Regan","steam_id":76561198100631086,"connected_time":7736000000000,"state":"active","ping":53},{"user_id":134,"name":"I am the one who donks","steam_id":76561198419583460,"connected_time":3952000000000,"state":"active","ping":62}]},{"server_id":40,"name":"Uncletopia | London | 7 | No Payload","name_short":"lon-7","host":"lon-1.uk.uncletopia.com","port":27075,"enabled":true,"region":"eu","cc":"gb","latitude":51.509865,"longitude":-0.118092,"reserved":0,"last_update":"0001-01-01T00:00:00Z","name_a2s":"Uncletopia | London | 7 | No Payload","protocol":17,"map":"koth_badlands","folder":"tf","game":"Team Fortress","app_id":440,"player_count":0,"max_players":24,"Bots":0,"server_type":"Dedicated","server_os":"Linux","password":true,"vac":true,"version":"7742253","steam_id":85568392924964314,"keywords":["cp","nocrits","nodmgspread","uncletopia"],"game_id":440,"stv_port":27076,"stv_name":"Uncletopia | London | 7 | No Payload | STV","players":null},{"server_id":41,"name":"Uncletopia | London | 8 | Community","name_short":"lon-8","host":"lon-1.uk.uncletopia.com","port":27085,"enabled":true,"region":"eu","cc":"gb","latitude":51.509865,"longitude":-0.118092,"reserved":0,"last_update":"0001-01-01T00:00:00Z","name_a2s":"Uncletopia | London | 8 | Community","protocol":17,"map":"workshop/pl_vigil_rc9.ugc1266210012","folder":"tf","game":"Team Fortress","app_id":440,"player_count":0,"max_players":24,"Bots":0,"server_type":"Dedicated","server_os":"Linux","password":true,"vac":true,"version":"7742253","steam_id":85568392924964315,"keywords":["nocrits","nodmgspread","payload","uncletopia"],"game_id":440,"stv_port":27086,"stv_name":"Uncletopia | London | 8 | Community | STV","players":null},{"server_id":300,"name":"Uncletopia | Montréal | 1 | All Maps","name_short":"mtl-1","host":"mtl-1.ca.uncletopia.com","port":27015,"enabled":true,"region":"us-east","cc":"ca","latitude":45.50889,"longitude":-73.56167,"reserved":0,"last_update":"0001-01-01T00:00:00Z","name_a2s":"Uncletopia | Montréal | 1 | All Maps","protocol":17,"map":"pl_snowycoast","folder":"tf","game":"Team Fortress","app_id":440,"player_count":20,"max_players":24,"Bots":0,"server_type":"Dedicated","server_os":"Linux","password":true,"vac":true,"version":"7742253","steam_id":85568392924500087,"keywords":["nocrits","nodmgspread","payload","uncletopia"],"game_id":440,"stv_port":27016,"stv_name":"Uncletopia | Montréal | 1 | All Maps | STV","players":[{"user_id":141,"name":"Post nut clarity","steam_id":76561198060246831,"connected_time":741000000000,"state":"active","ping":65},{"user_id":143,"name":"MenacingMekhet","steam_id":76561198053165462,"connected_time":686000000000,"state":"active","ping":75},{"user_id":155,"name":"stepho","steam_id":76561199132035586,"connected_time":218000000000,"state":"active","ping":70},{"user_id":156,"name":"viscodolante","steam_id":76561198013650292,"connected_time":77000000000,"state":"active","ping":117},{"user_id":145,"name":"TheMeatlyShaymin","steam_id":76561199078945620,"connected_time":640000000000,"state":"active","ping":73},{"user_id":131,"name":"E","steam_id":76561198238236044,"connected_time":1623000000000,"state":"active","ping":86},{"user_id":38,"name":"Barack OBidoof","steam_id":76561198035142993,"connected_time":7790000000000,"state":"active","ping":60},{"user_id":132,"name":"DeathToCats","steam_id":76561198092238353,"connected_time":1527000000000,"state":"active","ping":90},{"user_id":133,"name":"mr.edderkopper","steam_id":76561198152614478,"connected_time":1521000000000,"state":"active","ping":86},{"user_id":149,"name":"floppy muppet","steam_id":76561198003076261,"connected_time":348000000000,"state":"active","ping":90},{"user_id":147,"name":"PILK","steam_id":76561198140235483,"connected_time":410000000000,"state":"active","ping":95},{"user_id":148,"name":"Sugary","steam_id":76561198088267265,"connected_time":408000000000,"state":"active","ping":98},{"user_id":119,"name":"Be!chqueen","steam_id":76561197961080789,"connected_time":2324000000000,"state":"active","ping":124},{"user_id":150,"name":"Saristan","steam_id":76561198093346048,"connected_time":328000000000,"state":"active","ping":62},{"user_id":74,"name":"ok","steam_id":76561198445140249,"connected_time":5431000000000,"state":"active","ping":78},{"user_id":57,"name":"who ate the cheese","steam_id":76561198275408467,"connected_time":6638000000000,"state":"active","ping":58},{"user_id":152,"name":"CrazyKermitRubes","steam_id":76561198009065204,"connected_time":309000000000,"state":"active","ping":63},{"user_id":103,"name":"★★☆☆☆","steam_id":76561198198984282,"connected_time":2983000000000,"state":"active","ping":60},{"user_id":122,"name":"Abe","steam_id":76561198079292761,"connected_time":2261000000000,"state":"active","ping":82},{"user_id":154,"name":"cancer","steam_id":76561198054260599,"connected_time":272000000000,"state":"active","ping":85}]},{"server_id":301,"name":"Uncletopia | Montréal | 2 | All Maps","name_short":"mtl-2","host":"mtl-1.ca.uncletopia.com","port":27025,"enabled":true,"region":"us-east","cc":"ca","latitude":45.50889,"longitude":-73.56167,"reserved":0,"last_update":"0001-01-01T00:00:00Z","name_a2s":"Uncletopia | Montréal | 2 | All Maps","protocol":17,"map":"koth_highpass","folder":"tf","game":"Team Fortress","app_id":440,"player_count":0,"max_players":24,"Bots":0,"server_type":"Dedicated","server_os":"Linux","password":true,"vac":true,"version":"7742253","steam_id":85568392924500088,"keywords":["cp","nocrits","nodmgspread","uncletopia"],"game_id":440,"stv_port":27026,"stv_name":"Uncletopia | Montréal | 2 | All Maps | STV","players":null},{"server_id":302,"name":"Uncletopia | Montréal | 3 | All Maps","name_short":"mtl-3","host":"mtl-1.ca.uncletopia.com","port":27035,"enabled":true,"region":"us-east","cc":"ca","latitude":45.50889,"longitude":-73.56167,"reserved":0,"last_update":"0001-01-01T00:00:00Z","name_a2s":"Uncletopia | Montréal | 3 | All Maps","protocol":17,"map":"pl_swiftwater_final1","folder":"tf","game":"Team Fortress","app_id":440,"player_count":0,"max_players":24,"Bots":0,"server_type":"Dedicated","server_os":"Linux","password":true,"vac":true,"version":"7742253","steam_id":85568392924500089,"keywords":["nocrits","nodmgspread","payload","uncletopia"],"game_id":440,"stv_port":27036,"stv_name":"Uncletopia | Montréal | 3 | All Maps | STV","players":null},{"server_id":303,"name":"Uncletopia | Montréal | 4 | No Payload","name_short":"mtl-4","host":"mtl-1.ca.uncletopia.com","port":27045,"enabled":true,"region":"us-east","cc":"ca","latitude":45.50889,"longitude":-73.56167,"reserved":0,"last_update":"0001-01-01T00:00:00Z","name_a2s":"Uncletopia | Montréal | 4 | No Payload","protocol":17,"map":"koth_lazarus","folder":"tf","game":"Team Fortress","app_id":440,"player_count":0,"max_players":24,"Bots":0,"server_type":"Dedicated","server_os":"Linux","password":true,"vac":true,"version":"7742253","steam_id":85568392924500090,"keywords":["cp","nocrits","nodmgspread","uncletopia"],"game_id":440,"stv_port":27046,"stv_name":"Uncletopia | Montréal | 4 | No Payload | STV","players":null},{"server_id":13,"name":"Uncletopia | New York City | 1 | All Maps","name_short":"nyc-1","host":"nyc-1.us.uncletopia.com","port":27015,"enabled":true,"region":"us-east","cc":"us","latitude":40.73061,"longitude":-73.93524,"reserved":0,"last_update":"0001-01-01T00:00:00Z","name_a2s":"Uncletopia | New York City | 1 | All Maps","protocol":17,"map":"cp_dustbowl","folder":"tf","game":"Team Fortress","app_id":440,"player_count":24,"max_players":24,"Bots":0,"server_type":"Dedicated","server_os":"Linux","password":true,"vac":true,"version":"7742253","steam_id":85568392924469993,"keywords":["cp","nocrits","nodmgspread","uncletopia"],"game_id":440,"stv_port":27016,"stv_name":"Uncletopia | New York City | 1 | All Maps | STV","players":[{"user_id":288,"name":"ValorPrime","steam_id":76561198048243338,"connected_time":2456000000000,"state":"active","ping":94},{"user_id":315,"name":"Toygar","steam_id":76561198023679830,"connected_time":619000000000,"state":"active","ping":68},{"user_id":307,"name":"Milk Curdle","steam_id":76561198305106477,"connected_time":800000000000,"state":"active","ping":60},{"user_id":300,"name":"BigMudita","steam_id":76561198023119411,"connected_time":1542000000000,"state":"active","ping":88},{"user_id":234,"name":"Seele","steam_id":76561198067833803,"connected_time":5998000000000,"state":"active","ping":51},{"user_id":290,"name":"Pixeled","steam_id":76561198088917077,"connected_time":2397000000000,"state":"active","ping":84},{"user_id":322,"name":"Big G","steam_id":76561198067496197,"connected_time":133000000000,"state":"active","ping":54},{"user_id":316,"name":"dvd of the simpsons season 6","steam_id":76561198075446150,"connected_time":618000000000,"state":"active","ping":154},{"user_id":317,"name":"Fragmire","steam_id":76561198192345691,"connected_time":605000000000,"state":"active","ping":44},{"user_id":302,"name":"regular milk","steam_id":76561198813251405,"connected_time":1084000000000,"state":"active","ping":52},{"user_id":314,"name":"Stupid","steam_id":76561198127348089,"connected_time":692000000000,"state":"active","ping":54},{"user_id":293,"name":"Whole Grain Cocaine","steam_id":76561198322838586,"connected_time":2308000000000,"state":"active","ping":95},{"user_id":305,"name":"4ling","steam_id":76561197994398381,"connected_time":861000000000,"state":"active","ping":56},{"user_id":296,"name":"hapi bananuh","steam_id":76561198091547092,"connected_time":2195000000000,"state":"active","ping":80},{"user_id":275,"name":"CheeseCake488","steam_id":76561199407617942,"connected_time":3665000000000,"state":"active","ping":166},{"user_id":196,"name":"CRAZY engineer","steam_id":76561198887937902,"connected_time":8691000000000,"state":"active","ping":59},{"user_id":270,"name":"matchstick","steam_id":76561198190100027,"connected_time":3878000000000,"state":"active","ping":45},{"user_id":311,"name":"Harness_Cpu","steam_id":76561198059516252,"connected_time":699000000000,"state":"active","ping":77},{"user_id":312,"name":"ChesterTheChest","steam_id":76561198044272658,"connected_time":698000000000,"state":"active","ping":118},{"user_id":320,"name":"{FITH}™ SmittyWun","steam_id":76561198079531938,"connected_time":531000000000,"state":"active","ping":74},{"user_id":131,"name":"PizzaPasta","steam_id":76561199125109082,"connected_time":13368000000000,"state":"active","ping":60},{"user_id":298,"name":"s33y00","steam_id":76561198005982232,"connected_time":1920000000000,"state":"active","ping":68},{"user_id":321,"name":"HarryjusttHarry","steam_id":76561198982810452,"connected_time":271000000000,"state":"active","ping":82},{"user_id":323,"name":"SquipSquap","steam_id":76561198295884253,"connected_time":124000000000,"state":"active","ping":82}]},{"server_id":14,"name":"Uncletopia | New York City | 2 | All Maps","name_short":"nyc-2","host":"nyc-1.us.uncletopia.com","port":27025,"enabled":true,"region":"us-east","cc":"us","latitude":40.73061,"longitude":-73.93524,"reserved":0,"last_update":"0001-01-01T00:00:00Z","name_a2s":"Uncletopia | New York City | 2 | All Maps","protocol":17,"map":"pl_snowycoast","folder":"tf","game":"Team Fortress","app_id":440,"player_count":24,"max_players":24,"Bots":0,"server_type":"Dedicated","server_os":"Linux","password":true,"vac":true,"version":"7742253","steam_id":85568392924469994,"keywords":["nocrits","nodmgspread","payload","uncletopia"],"game_id":440,"stv_port":27026,"stv_name":"Uncletopia | New York City | 2 | All Maps | STV","players":[{"user_id":264,"name":"T3","steam_id":76561199019536727,"connected_time":489000000000,"state":"active","ping":104},{"user_id":246,"name":"irk!","steam_id":76561198009129049,"connected_time":2338000000000,"state":"active","ping":32},{"user_id":265,"name":"L0gicz","steam_id":76561198082466196,"connected_time":488000000000,"state":"active","ping":91},{"user_id":232,"name":"Shipmunk","steam_id":76561198063062670,"connected_time":3056000000000,"state":"active","ping":46},{"user_id":254,"name":"火星 | Marsy","steam_id":76561198014979892,"connected_time":2107000000000,"state":"active","ping":60},{"user_id":213,"name":"uniwu - BUFF THE SPEED","steam_id":76561198864421290,"connected_time":4044000000000,"state":"active","ping":62},{"user_id":218,"name":"Venstiko","steam_id":76561199130318818,"connected_time":3880000000000,"state":"active","ping":64},{"user_id":219,"name":"Ironfyn","steam_id":76561198256850182,"connected_time":3834000000000,"state":"active","ping":45},{"user_id":255,"name":"what","steam_id":76561198082336619,"connected_time":1557000000000,"state":"active","ping":60},{"user_id":271,"name":"mcdoubble","steam_id":76561198089126832,"connected_time":8000000000,"state":"spawning","ping":69},{"user_id":258,"name":"aversa","steam_id":76561198840460101,"connected_time":993000000000,"state":"active","ping":58},{"user_id":248,"name":"Jolly evil little man","steam_id":76561198311053471,"connected_time":2319000000000,"state":"active","ping":89},{"user_id":242,"name":"Bashirider","steam_id":76561198260522253,"connected_time":2432000000000,"state":"active","ping":50},{"user_id":270,"name":"Rum and Death","steam_id":76561198095245223,"connected_time":100000000000,"state":"active","ping":45},{"user_id":267,"name":"nalezinik","steam_id":76561198030026119,"connected_time":380000000000,"state":"active","ping":68},{"user_id":217,"name":"LEÓN","steam_id":76561198257559257,"connected_time":3997000000000,"state":"active","ping":117},{"user_id":252,"name":"Uncle Majic the Hip Hop Magicia","steam_id":76561198107924303,"connected_time":2170000000000,"state":"active","ping":56},{"user_id":262,"name":"controller player","steam_id":76561198026975734,"connected_time":711000000000,"state":"active","ping":40},{"user_id":169,"name":"Laelaps","steam_id":76561198100061416,"connected_time":6675000000000,"state":"active","ping":55},{"user_id":266,"name":"mad water","steam_id":76561198299046290,"connected_time":467000000000,"state":"active","ping":84},{"user_id":259,"name":"Kamakura","steam_id":76561198871892477,"connected_time":871000000000,"state":"active","ping":93},{"user_id":249,"name":"BOT Bot","steam_id":76561197995225620,"connected_time":2308000000000,"state":"active","ping":56},{"user_id":268,"name":"MyamE","steam_id":76561198133278462,"connected_time":269000000000,"state":"active","ping":95},{"user_id":261,"name":"Dovid65","steam_id":76561199277530814,"connected_time":805000000000,"state":"active","ping":136}]},{"server_id":15,"name":"Uncletopia | New York City | 3 | Stopwatch Beta","name_short":"nyc-3","host":"nyc-1.us.uncletopia.com","port":27035,"enabled":true,"region":"us-east","cc":"us","latitude":40.73061,"longitude":-73.93524,"reserved":0,"last_update":"0001-01-01T00:00:00Z","name_a2s":"Uncletopia | New York City | 3 | Stopwatch Beta","protocol":17,"map":"workshop/pl_badwater_pro_v12.ugc2142942074","folder":"tf","game":"Team Fortress","app_id":440,"player_count":0,"max_players":24,"Bots":0,"server_type":"Dedicated","server_os":"Linux","password":true,"vac":true,"version":"7742253","steam_id":85568392924742820,"keywords":["nocrits","nodmgspread","payload","uncletopia"],"game_id":440,"stv_port":27036,"stv_name":"Uncletopia | New York City | 3 | Stopwatch Beta | STV","players":null},{"server_id":16,"name":"Uncletopia | New York City | 4 | Community","name_short":"nyc-4","host":"nyc-1.us.uncletopia.com","port":27045,"enabled":true,"region":"us-east","cc":"us","latitude":40.73061,"longitude":-73.93524,"reserved":0,"last_update":"0001-01-01T00:00:00Z","name_a2s":"Uncletopia | New York City | 4 | Community","protocol":17,"map":"workshop/pl_cactuscanyon_redux_rc4b.ugc2579644293","folder":"tf","game":"Team Fortress","app_id":440,"player_count":24,"max_players":24,"Bots":0,"server_type":"Dedicated","server_os":"Linux","password":true,"vac":true,"version":"7742253","steam_id":85568392924742821,"keywords":["nocrits","nodmgspread","payload","uncletopia"],"game_id":440,"stv_port":27046,"stv_name":"Uncletopia | New York City | 4 | Community | STV","players":[{"user_id":105,"name":"JesterJasper","steam_id":76561198025338925,"connected_time":209000000000,"state":"active","ping":118},{"user_id":89,"name":"Seico Bass","steam_id":76561198123498500,"connected_time":834000000000,"state":"active","ping":104},{"user_id":80,"name":"UNIT 220","steam_id":76561198042243497,"connected_time":1130000000000,"state":"active","ping":65},{"user_id":26,"name":"King Sans","steam_id":76561198294198517,"connected_time":4487000000000,"state":"active","ping":45},{"user_id":81,"name":"MrDuck","steam_id":76561199194675734,"connected_time":1127000000000,"state":"active","ping":52},{"user_id":50,"name":"worldspawn","steam_id":76561198069646543,"connected_time":2928000000000,"state":"active","ping":49},{"user_id":90,"name":"Johnny Lawrence #JohnnyMaxxing","steam_id":76561199367141671,"connected_time":790000000000,"state":"active","ping":45},{"user_id":84,"name":"jodie.blend","steam_id":76561198140701807,"connected_time":997000000000,"state":"active","ping":78},{"user_id":82,"name":"void_star","steam_id":76561198035696014,"connected_time":1058000000000,"state":"active","ping":63},{"user_id":95,"name":"IPlayGamez","steam_id":76561198041387508,"connected_time":672000000000,"state":"active","ping":52},{"user_id":94,"name":"Winter the Witchie","steam_id":76561198151971178,"connected_time":698000000000,"state":"active","ping":63},{"user_id":68,"name":"Two-Teste Tommy","steam_id":76561198064308936,"connected_time":1922000000000,"state":"active","ping":58},{"user_id":91,"name":"Budder Nubbs","steam_id":76561198353763789,"connected_time":784000000000,"state":"active","ping":60},{"user_id":83,"name":"FaZE xXcLaImEd_NaDwAgAXx F2P PL","steam_id":76561198067232540,"connected_time":1015000000000,"state":"active","ping":87},{"user_id":85,"name":"Swift","steam_id":76561198143805924,"connected_time":986000000000,"state":"active","ping":80},{"user_id":66,"name":"defcon","steam_id":76561198100656328,"connected_time":2034000000000,"state":"active","ping":86},{"user_id":96,"name":"Inevitable","steam_id":76561198210050169,"connected_time":669000000000,"state":"active","ping":58},{"user_id":103,"name":"[TF2Apples] Intense Green Apple","steam_id":76561198803561622,"connected_time":408000000000,"state":"active","ping":65},{"user_id":87,"name":"Narwhal SSN-671","steam_id":76561198799298592,"connected_time":908000000000,"state":"active","ping":89},{"user_id":88,"name":"festive jester","steam_id":76561198079609974,"connected_time":908000000000,"state":"active","ping":120},{"user_id":100,"name":"mattlawn","steam_id":76561199001350978,"connected_time":635000000000,"state":"active","ping":74},{"user_id":73,"name":"sus!","steam_id":76561198202152448,"connected_time":1807000000000,"state":"active","ping":45},{"user_id":99,"name":"A Cuppa Cat","steam_id":76561198401288612,"connected_time":659000000000,"state":"active","ping":78},{"user_id":101,"name":"FATHER","steam_id":76561198041308977,"connected_time":630000000000,"state":"active","ping":88}]},{"server_id":142,"name":"Uncletopia | São Paulo | 1 | All Maps","name_short":"sao-1","host":"sao-1.br.uncletopia.com","port":27015,"enabled":true,"region":"sa","cc":"br","latitude":-23.533773,"longitude":-46.62529,"reserved":0,"last_update":"0001-01-01T00:00:00Z","name_a2s":"Uncletopia | São Paulo | 1 | All Maps","protocol":17,"map":"plr_hightower","folder":"tf","game":"Team Fortress","app_id":440,"player_count":0,"max_players":24,"Bots":0,"server_type":"Dedicated","server_os":"Linux","password":true,"vac":true,"version":"7742253","steam_id":85568392924469996,"keywords":["nocrits","nodmgspread","payload","uncletopia"],"game_id":440,"stv_port":27016,"stv_name":"Uncletopia | São Paulo | 1 | All Maps | STV","players":null},{"server_id":143,"name":"Uncletopia | São Paulo | 2 | All Maps","name_short":"sao-2","host":"sao-2.br.uncletopia.com","port":27015,"enabled":true,"region":"sa","cc":"br","latitude":-23.533773,"longitude":-46.62529,"reserved":0,"last_update":"0001-01-01T00:00:00Z","name_a2s":"Uncletopia | São Paulo | 2 | All Maps","protocol":17,"map":"pl_upward","folder":"tf","game":"Team Fortress","app_id":440,"player_count":21,"max_players":24,"Bots":0,"server_type":"Dedicated","server_os":"Linux","password":true,"vac":true,"version":"7742253","steam_id":85568392924485349,"keywords":["nocrits","nodmgspread","payload","uncletopia"],"game_id":440,"stv_port":27016,"stv_name":"Uncletopia | São Paulo | 2 | All Maps | STV","players":[{"user_id":44,"name":"Chihayafuru Peak Fiction","steam_id":76561199066360306,"connected_time":339000000000,"state":"active","ping":80},{"user_id":37,"name":"[TFFP] pizurk","steam_id":76561198025102937,"connected_time":721000000000,"state":"active","ping":41},{"user_id":13,"name":"Andriel","steam_id":76561198281652242,"connected_time":3162000000000,"state":"active","ping":49},{"user_id":14,"name":"Derretimento Geral 2017","steam_id":76561198194300069,"connected_time":3159000000000,"state":"active","ping":40},{"user_id":15,"name":"Sonia Metralha","steam_id":76561198983533099,"connected_time":3133000000000,"state":"active","ping":53},{"user_id":36,"name":"Gogoyle50","steam_id":76561198148524228,"connected_time":922000000000,"state":"active","ping":45},{"user_id":20,"name":"LaserMann","steam_id":76561198281073028,"connected_time":2179000000000,"state":"active","ping":43},{"user_id":22,"name":"JosuéManeiros","steam_id":76561198177695750,"connected_time":2128000000000,"state":"active","ping":85},{"user_id":27,"name":"Edge","steam_id":76561198850405241,"connected_time":1714000000000,"state":"active","ping":43},{"user_id":46,"name":"Dvy","steam_id":76561198288924762,"connected_time":232000000000,"state":"active","ping":38},{"user_id":29,"name":"LT-25","steam_id":76561198140598278,"connected_time":1512000000000,"state":"active","ping":55},{"user_id":47,"name":"ioat","steam_id":76561198073077368,"connected_time":206000000000,"state":"active","ping":80},{"user_id":31,"name":"siLViNHO.PonTo","steam_id":76561198061827771,"connected_time":1344000000000,"state":"active","ping":41},{"user_id":32,"name":"C4u","steam_id":76561198876080606,"connected_time":1314000000000,"state":"active","ping":45},{"user_id":33,"name":"Oport","steam_id":76561198329712989,"connected_time":1101000000000,"state":"active","ping":67},{"user_id":39,"name":"non_ai","steam_id":76561198270951938,"connected_time":502000000000,"state":"active","ping":165},{"user_id":40,"name":"rising #savetf2","steam_id":76561199292458993,"connected_time":502000000000,"state":"active","ping":46},{"user_id":45,"name":"[TFFP] Venina Meneno","steam_id":76561198100334857,"connected_time":322000000000,"state":"active","ping":41},{"user_id":52,"name":"p31x1nh0 \u003c*(((\u003e\u003c","steam_id":76561198049967350,"connected_time":29000000000,"state":"active","ping":50},{"user_id":49,"name":"[TFFP] sʇuɐƆɔꟽ","steam_id":76561198044720211,"connected_time":119000000000,"state":"active","ping":46},{"user_id":50,"name":"lambari makonha","steam_id":76561198169083341,"connected_time":98000000000,"state":"active","ping":39}]},{"server_id":7,"name":"Uncletopia | Seattle | 1 | All Maps","name_short":"sea-1","host":"sea-1.us.uncletopia.com","port":27015,"enabled":true,"region":"us-west","cc":"us","latitude":47.608013,"longitude":-122.33517,"reserved":0,"last_update":"0001-01-01T00:00:00Z","name_a2s":"Uncletopia | Seattle | 1 | All Maps","protocol":17,"map":"pl_borneo","folder":"tf","game":"Team Fortress","app_id":440,"player_count":23,"max_players":24,"Bots":0,"server_type":"Dedicated","server_os":"Linux","password":true,"vac":true,"version":"7742253","steam_id":85568392924469997,"keywords":["nocrits","nodmgspread","payload","uncletopia"],"game_id":440,"stv_port":27016,"stv_name":"Uncletopia | Seattle | 1 | All Maps | STV","players":[{"user_id":216,"name":"Agent","steam_id":76561199389584938,"connected_time":4751000000000,"state":"active","ping":45},{"user_id":253,"name":"Mr.Thirteen","steam_id":76561198047468836,"connected_time":244000000000,"state":"active","ping":62},{"user_id":176,"name":"Pneumo.","steam_id":76561197987911883,"connected_time":8883000000000,"state":"active","ping":63},{"user_id":223,"name":"dearender","steam_id":76561199427644498,"connected_time":3662000000000,"state":"active","ping":58},{"user_id":244,"name":"alice's adventures in pyroland","steam_id":76561198325306660,"connected_time":1851000000000,"state":"active","ping":49},{"user_id":251,"name":"Ayayahuasca","steam_id":76561199002906056,"connected_time":259000000000,"state":"active","ping":45},{"user_id":267,"name":"Memefish","steam_id":76561199260529819,"connected_time":170000000000,"state":"active","ping":74},{"user_id":255,"name":"haj","steam_id":76561198043902911,"connected_time":229000000000,"state":"active","ping":50},{"user_id":248,"name":"Buckethead","steam_id":76561198210181296,"connected_time":1256000000000,"state":"active","ping":98},{"user_id":268,"name":"broob swaggger","steam_id":76561198318168646,"connected_time":134000000000,"state":"active","ping":75},{"user_id":254,"name":"Liquid Gold","steam_id":76561198347510093,"connected_time":243000000000,"state":"active","ping":57},{"user_id":240,"name":"Dimple","steam_id":76561198980324190,"connected_time":2003000000000,"state":"active","ping":52},{"user_id":265,"name":"povertyy","steam_id":76561198042833774,"connected_time":188000000000,"state":"active","ping":74},{"user_id":270,"name":"SesataPomang","steam_id":76561198145133059,"connected_time":46000000000,"state":"active","ping":89},{"user_id":160,"name":"Nolan","steam_id":76561198169648081,"connected_time":9508000000000,"state":"active","ping":95},{"user_id":236,"name":"Cardboardcoin","steam_id":76561199421284163,"connected_time":2392000000000,"state":"active","ping":66},{"user_id":249,"name":"some nerd","steam_id":76561198297272878,"connected_time":1235000000000,"state":"active","ping":73},{"user_id":269,"name":"dodecadron","steam_id":76561198027397222,"connected_time":109000000000,"state":"active","ping":69},{"user_id":154,"name":"Fh","steam_id":76561198000903511,"connected_time":9900000000000,"state":"active","ping":65},{"user_id":246,"name":"Serene Salamander","steam_id":76561198001094770,"connected_time":1480000000000,"state":"active","ping":89},{"user_id":243,"name":"MonteJT","steam_id":76561198055409360,"connected_time":1894000000000,"state":"active","ping":69},{"user_id":179,"name":"Aardappel","steam_id":76561198030894676,"connected_time":8333000000000,"state":"active","ping":63},{"user_id":250,"name":"BasedGod","steam_id":76561198061177973,"connected_time":265000000000,"state":"active","ping":61}]},{"server_id":119,"name":"Uncletopia | Seattle | 2 | All Maps","name_short":"sea-2","host":"sea-1.us.uncletopia.com","port":27025,"enabled":true,"region":"us-west","cc":"us","latitude":47.608013,"longitude":-122.33517,"reserved":0,"last_update":"0001-01-01T00:00:00Z","name_a2s":"Uncletopia | Seattle | 2 | All Maps","protocol":17,"map":"pl_borneo","folder":"tf","game":"Team Fortress","app_id":440,"player_count":23,"max_players":24,"Bots":0,"server_type":"Dedicated","server_os":"Linux","password":true,"vac":true,"version":"7742253","steam_id":85568392924469998,"keywords":["nocrits","nodmgspread","payload","uncletopia"],"game_id":440,"stv_port":27026,"stv_name":"Uncletopia | Seattle | 2 | All Maps | STV","players":[{"user_id":157,"name":"kev in","steam_id":76561198043409286,"connected_time":469000000000,"state":"active","ping":45},{"user_id":123,"name":"Amateur Glaswegian","steam_id":76561198030851956,"connected_time":1958000000000,"state":"active","ping":53},{"user_id":159,"name":"KingTinkerer","steam_id":76561198226856548,"connected_time":359000000000,"state":"active","ping":75},{"user_id":152,"name":"River Rat","steam_id":76561198116383976,"connected_time":612000000000,"state":"active","ping":61},{"user_id":162,"name":"MrActionJaxon","steam_id":76561198093549908,"connected_time":201000000000,"state":"active","ping":107},{"user_id":76,"name":"fng","steam_id":76561197986015240,"connected_time":4852000000000,"state":"active","ping":65},{"user_id":139,"name":"MyBreadislost","steam_id":76561199036723184,"connected_time":1197000000000,"state":"active","ping":75},{"user_id":153,"name":"filthycasual","steam_id":76561199138226238,"connected_time":610000000000,"state":"active","ping":44},{"user_id":154,"name":"Master Of Whales","steam_id":76561198349104889,"connected_time":604000000000,"state":"active","ping":82},{"user_id":161,"name":"loco503","steam_id":76561198827495121,"connected_time":303000000000,"state":"active","ping":78},{"user_id":137,"name":"winky","steam_id":76561199128617780,"connected_time":1224000000000,"state":"active","ping":85},{"user_id":133,"name":"Jolly","steam_id":76561198381749192,"connected_time":1541000000000,"state":"active","ping":88},{"user_id":141,"name":"cool beans","steam_id":76561198045758072,"connected_time":1182000000000,"state":"active","ping":64},{"user_id":134,"name":"snawg","steam_id":76561198141739280,"connected_time":1406000000000,"state":"active","ping":100},{"user_id":146,"name":"Spy achungus","steam_id":76561198135651070,"connected_time":1021000000000,"state":"active","ping":123},{"user_id":97,"name":"Captain Barrel","steam_id":76561199061470542,"connected_time":3796000000000,"state":"active","ping":113},{"user_id":98,"name":"LAB8","steam_id":76561198047743526,"connected_time":3788000000000,"state":"active","ping":45},{"user_id":142,"name":"ReaperzJG","steam_id":76561198857115024,"connected_time":1174000000000,"state":"active","ping":53},{"user_id":87,"name":"DrD","steam_id":76561198067266383,"connected_time":4206000000000,"state":"active","ping":29},{"user_id":160,"name":"HanakoToast","steam_id":76561198045233131,"connected_time":331000000000,"state":"active","ping":94},{"user_id":155,"name":"Kzjytsugn","steam_id":76561198130241974,"connected_time":578000000000,"state":"active","ping":41},{"user_id":145,"name":"AreChiGan","steam_id":76561199029026723,"connected_time":1087000000000,"state":"active","ping":98},{"user_id":156,"name":"Brochacho","steam_id":76561198302170749,"connected_time":511000000000,"state":"active","ping":90}]},{"server_id":406,"name":"Uncletopia | Seattle | 3 | Stopwatch Beta","name_short":"sea-3","host":"sea-1.us.uncletopia.com","port":27035,"enabled":true,"region":"us-west","cc":"us","latitude":47.608013,"longitude":-122.33517,"reserved":0,"last_update":"0001-01-01T00:00:00Z","name_a2s":"Uncletopia | Seattle | 3 | Stopwatch Beta","protocol":17,"map":"workshop/koth_ramjam_rc1.ugc459778887","folder":"tf","game":"Team Fortress","app_id":440,"player_count":0,"max_players":24,"Bots":0,"server_type":"Dedicated","server_os":"Linux","password":true,"vac":true,"version":"7742253","steam_id":85568392924515217,"keywords":["cp","nocrits","nodmgspread","uncletopia"],"game_id":440,"stv_port":27036,"stv_name":"Uncletopia | Seattle | 3 | Stopwatch Beta | STV","players":null},{"server_id":17,"name":"Uncletopia | San Francisco | 1 | All Maps","name_short":"sfo-1","host":"sfo-1.us.uncletopia.com","port":27015,"enabled":true,"region":"us-west","cc":"us","latitude":37.77397,"longitude":-122.4313,"reserved":0,"last_update":"0001-01-01T00:00:00Z","name_a2s":"Uncletopia | San Francisco | 1 | All Maps","protocol":17,"map":"pl_barnblitz","folder":"tf","game":"Team Fortress","app_id":440,"player_count":0,"max_players":24,"Bots":0,"server_type":"Dedicated","server_os":"Linux","password":true,"vac":true,"version":"7742253","steam_id":85568392924469999,"keywords":["nocrits","nodmgspread","payload","uncletopia"],"game_id":440,"stv_port":27016,"stv_name":"Uncletopia | San Francisco | 1 | All Maps | STV","players":null},{"server_id":18,"name":"Uncletopia | San Francisco | 2 | All Maps","name_short":"sfo-2","host":"sfo-1.us.uncletopia.com","port":27025,"enabled":true,"region":"us-west","cc":"us","latitude":37.77397,"longitude":-122.4313,"reserved":0,"last_update":"0001-01-01T00:00:00Z","name_a2s":"Uncletopia | San Francisco | 2 | All Maps","protocol":17,"map":"pl_borneo","folder":"tf","game":"Team Fortress","app_id":440,"player_count":0,"max_players":24,"Bots":0,"server_type":"Dedicated","server_os":"Linux","password":true,"vac":true,"version":"7742253","steam_id":85568392924470000,"keywords":["nocrits","nodmgspread","payload","uncletopia"],"game_id":440,"stv_port":27026,"stv_name":"Uncletopia | San Francisco | 2 | All Maps | STV","players":null},{"server_id":19,"name":"Uncletopia | San Francisco | 3 | Stopwatch Beta","name_short":"sfo-3","host":"sfo-1.us.uncletopia.com","port":27035,"enabled":true,"region":"us-west","cc":"us","latitude":37.77397,"longitude":-122.4313,"reserved":0,"last_update":"0001-01-01T00:00:00Z","name_a2s":"Uncletopia | San Francisco | 3 | Stopwatch Beta","protocol":17,"map":"cp_snakewater_final1","folder":"tf","game":"Team Fortress","app_id":440,"player_count":0,"max_players":24,"Bots":0,"server_type":"Dedicated","server_os":"Linux","password":true,"vac":true,"version":"7742253","steam_id":85568392924742824,"keywords":["cp","nocrits","nodmgspread","uncletopia"],"game_id":440,"stv_port":27036,"stv_name":"Uncletopia | San Francisco | 3 | Stopwatch Beta | STV","players":null},{"server_id":20,"name":"Uncletopia | San Francisco | 4 | Community","name_short":"sfo-4","host":"sfo-1.us.uncletopia.com","port":27045,"enabled":true,"region":"us-west","cc":"us","latitude":37.77397,"longitude":-122.4313,"reserved":0,"last_update":"0001-01-01T00:00:00Z","name_a2s":"Uncletopia | San Francisco | 4 | Community","protocol":17,"map":"workshop/koth_bagel_rc5.ugc2514036946","folder":"tf","game":"Team Fortress","app_id":440,"player_count":2,"max_players":24,"Bots":0,"server_type":"Dedicated","server_os":"Linux","password":true,"vac":true,"version":"7742253","steam_id":85568392924742826,"keywords":["cp","nocrits","nodmgspread","uncletopia"],"game_id":440,"stv_port":27046,"stv_name":"Uncletopia | San Francisco | 4 | Community | STV","players":[{"user_id":9,"name":"SneakiestSoldier","steam_id":76561199048165658,"connected_time":1617000000000,"state":"active","ping":61},{"user_id":10,"name":"werbots11","steam_id":76561199447199575,"connected_time":1614000000000,"state":"active","ping":57}]},{"server_id":141,"name":"Uncletopia | Sydney | 1 | All Maps","name_short":"syd-1","host":"syd-1.au.uncletopia.com","port":27015,"enabled":true,"region":"au","cc":"au","latitude":-33.865143,"longitude":151.2099,"reserved":0,"last_update":"0001-01-01T00:00:00Z","name_a2s":"Uncletopia | Sydney | 1 | All Maps","protocol":17,"map":"pl_barnblitz","folder":"tf","game":"Team Fortress","app_id":440,"player_count":6,"max_players":24,"Bots":0,"server_type":"Dedicated","server_os":"Linux","password":true,"vac":true,"version":"7742253","steam_id":85568392924470001,"keywords":["nocrits","nodmgspread","payload","uncletopia"],"game_id":440,"stv_port":27016,"stv_name":"Uncletopia | Sydney | 1 | All Maps | STV","players":[{"user_id":5,"name":"MayoMan","steam_id":76561199140828165,"connected_time":2247000000000,"state":"active","ping":40},{"user_id":6,"name":"IffyDuke","steam_id":76561199190195703,"connected_time":2241000000000,"state":"active","ping":40},{"user_id":11,"name":"BOT Mike","steam_id":76561199076662321,"connected_time":144000000000,"state":"active","ping":73},{"user_id":9,"name":"aBloodyKneecap","steam_id":76561198089940291,"connected_time":1589000000000,"state":"active","ping":56},{"user_id":14,"name":"burfdae boi","steam_id":76561199000827969,"connected_time":28000000000,"state":"active","ping":31},{"user_id":15,"name":"blaze","steam_id":76561198241303512,"connected_time":25000000000,"state":"active","ping":58}]},{"server_id":123,"name":"Uncletopia | Sydney | 2 | All Maps","name_short":"syd-2","host":"syd-1.au.uncletopia.com","port":27025,"enabled":true,"region":"au","cc":"au","latitude":-33.865143,"longitude":151.2099,"reserved":0,"last_update":"0001-01-01T00:00:00Z","name_a2s":"Uncletopia | Sydney | 2 | All Maps","protocol":17,"map":"cp_snakewater_final1","folder":"tf","game":"Team Fortress","app_id":440,"player_count":0,"max_players":24,"Bots":0,"server_type":"Dedicated","server_os":"Linux","password":true,"vac":true,"version":"7742253","steam_id":85568392924470002,"keywords":["cp","nocrits","nodmgspread","uncletopia"],"game_id":440,"stv_port":27026,"stv_name":"Uncletopia | Sydney | 2 | All Maps | STV","players":null},{"server_id":395,"name":"Uncletopia | Sydney | 3 | All Maps","name_short":"syd-3","host":"syd-1.au.uncletopia.com","port":27035,"enabled":true,"region":"au","cc":"au","latitude":-33.865143,"longitude":151.2099,"reserved":0,"last_update":"0001-01-01T00:00:00Z","name_a2s":"Uncletopia | Sydney | 3 | All Maps","protocol":17,"map":"koth_viaduct","folder":"tf","game":"Team Fortress","app_id":440,"player_count":0,"max_players":24,"Bots":0,"server_type":"Dedicated","server_os":"Linux","password":true,"vac":true,"version":"7742253","steam_id":85568392925194467,"keywords":["cp","nocrits","nodmgspread","uncletopia"],"game_id":440,"stv_port":27036,"stv_name":"Uncletopia | Sydney | 3 | All Maps | STV","players":null},{"server_id":396,"name":"Uncletopia | Sydney | 4 | All Maps","name_short":"syd-4","host":"syd-1.au.uncletopia.com","port":27045,"enabled":true,"region":"au","cc":"au","latitude":-33.865143,"longitude":151.2099,"reserved":0,"last_update":"0001-01-01T00:00:00Z","name_a2s":"Uncletopia | Sydney | 4 | All Maps","protocol":17,"map":"pl_frontier_final","folder":"tf","game":"Team Fortress","app_id":440,"player_count":0,"max_players":24,"Bots":0,"server_type":"Dedicated","server_os":"Linux","password":true,"vac":true,"version":"7742253","steam_id":85568392925397958,"keywords":["nocrits","nodmgspread","payload","uncletopia"],"game_id":440,"stv_port":27046,"stv_name":"Uncletopia | Sydney | 4 | All Maps | STV","players":null},{"server_id":58,"name":"Uncletopia | Sydney | 5 | Stopwatch Beta","name_short":"syd-5","host":"syd-1.au.uncletopia.com","port":27055,"enabled":true,"region":"au","cc":"au","latitude":-33.865143,"longitude":151.2099,"reserved":0,"last_update":"0001-01-01T00:00:00Z","name_a2s":"Uncletopia | Sydney | 5 | Stopwatch Beta","protocol":17,"map":"cp_granary","folder":"tf","game":"Team Fortress","app_id":440,"player_count":0,"max_players":24,"Bots":0,"server_type":"Dedicated","server_os":"Linux","password":true,"vac":true,"version":"7742253","steam_id":85568392925397959,"keywords":["cp","nocrits","nodmgspread","uncletopia"],"game_id":440,"stv_port":27056,"stv_name":"Uncletopia | Sydney | 5 | Stopwatch Beta | STV","players":null},{"server_id":59,"name":"Uncletopia | Sydney | 6 | Community","name_short":"syd-6","host":"syd-1.au.uncletopia.com","port":27065,"enabled":true,"region":"au","cc":"au","latitude":-33.865143,"longitude":151.2099,"reserved":0,"last_update":"0001-01-01T00:00:00Z","name_a2s":"Uncletopia | Sydney | 6 | Community","protocol":17,"map":"cp_dustbowl","folder":"tf","game":"Team Fortress","app_id":440,"player_count":0,"max_players":24,"Bots":0,"server_type":"Dedicated","server_os":"Linux","password":true,"vac":true,"version":"7742253","steam_id":85568392925397960,"keywords":["cp","nocrits","nodmgspread","uncletopia"],"game_id":440,"stv_port":27066,"stv_name":"Uncletopia | Sydney | 6 | Community | STV","players":null},{"server_id":49,"name":"Uncletopia | Warsaw | 1 | All Maps","name_short":"waw-1","host":"waw-1.pl.uncletopia.com","port":27015,"enabled":true,"region":"eu","cc":"pl","latitude":52.2297,"longitude":21.017532,"reserved":0,"last_update":"0001-01-01T00:00:00Z","name_a2s":"","protocol":0,"map":"","folder":"","game":"","app_id":0,"player_count":0,"max_players":0,"Bots":0,"server_type":"","server_os":"","password":false,"vac":false,"version":"","steam_id":0,"keywords":null,"game_id":0,"stv_port":0,"stv_name":"","players":null},{"server_id":50,"name":"Uncletopia | Warsaw | 2 | All Maps","name_short":"waw-2","host":"waw-1.pl.uncletopia.com","port":27025,"enabled":true,"region":"eu","cc":"pl","latitude":52.2297,"longitude":21.017532,"reserved":0,"last_update":"0001-01-01T00:00:00Z","name_a2s":"Uncletopia | Warsaw | 2 | All Maps","protocol":17,"map":"koth_lakeside_final","folder":"tf","game":"Team Fortress","app_id":440,"player_count":0,"max_players":24,"Bots":0,"server_type":"Dedicated","server_os":"Linux","password":true,"vac":true,"version":"7742253","steam_id":85568392925397851,"keywords":["cp","nocrits","nodmgspread","uncletopia"],"game_id":440,"stv_port":27026,"stv_name":"Uncletopia | Warsaw | 2 | All Maps | STV","players":null},{"server_id":51,"name":"Uncletopia | Warsaw | 3 | All Maps","name_short":"waw-3","host":"waw-1.pl.uncletopia.com","port":27035,"enabled":true,"region":"eu","cc":"pl","latitude":52.2297,"longitude":21.017532,"reserved":0,"last_update":"0001-01-01T00:00:00Z","name_a2s":"Uncletopia | Warsaw | 3 | All Maps","protocol":17,"map":"koth_lakeside_final","folder":"tf","game":"Team Fortress","app_id":440,"player_count":0,"max_players":24,"Bots":0,"server_type":"Dedicated","server_os":"Linux","password":true,"vac":true,"version":"7742253","steam_id":85568392925397852,"keywords":["cp","nocrits","nodmgspread","uncletopia"],"game_id":440,"stv_port":27036,"stv_name":"Uncletopia | Warsaw | 3 | All Maps | STV","players":null},{"server_id":52,"name":"Uncletopia | Warsaw | 4 | All Maps","name_short":"waw-4","host":"waw-1.pl.uncletopia.com","port":27045,"enabled":true,"region":"eu","cc":"pl","latitude":52.2297,"longitude":21.017532,"reserved":0,"last_update":"0001-01-01T00:00:00Z","name_a2s":"Uncletopia | Warsaw | 4 | All Maps","protocol":17,"map":"cp_sunshine","folder":"tf","game":"Team Fortress","app_id":440,"player_count":0,"max_players":24,"Bots":0,"server_type":"Dedicated","server_os":"Linux","password":true,"vac":true,"version":"7742253","steam_id":85568392925397853,"keywords":["cp","nocrits","nodmgspread","uncletopia"],"game_id":440,"stv_port":27046,"stv_name":"Uncletopia | Warsaw | 4 | All Maps | STV","players":null},{"server_id":53,"name":"Uncletopia | Warsaw | 5 | Stopwatch Beta","name_short":"waw-5","host":"waw-1.pl.uncletopia.com","port":27055,"enabled":true,"region":"eu","cc":"pl","latitude":52.2297,"longitude":21.017532,"reserved":0,"last_update":"0001-01-01T00:00:00Z","name_a2s":"Uncletopia | Warsaw | 5 | Stopwatch Beta","protocol":17,"map":"pl_swiftwater_final1","folder":"tf","game":"Team Fortress","app_id":440,"player_count":0,"max_players":24,"Bots":0,"server_type":"Dedicated","server_os":"Linux","password":true,"vac":true,"version":"7742253","steam_id":85568392925397854,"keywords":["nocrits","nodmgspread","payload","uncletopia"],"game_id":440,"stv_port":27056,"stv_name":"Uncletopia | Warsaw | 5 | Stopwatch Beta | STV","players":null},{"server_id":54,"name":"Uncletopia | Warsaw | 6 | Community","name_short":"waw-6","host":"waw-1.pl.uncletopia.com","port":27065,"enabled":true,"region":"eu","cc":"pl","latitude":52.2297,"longitude":21.017532,"reserved":0,"last_update":"0001-01-01T00:00:00Z","name_a2s":"Uncletopia | Warsaw | 6 | Community","protocol":17,"map":"workshop/koth_slaughter_rc1.ugc1712845210","folder":"tf","game":"Team Fortress","app_id":440,"player_count":0,"max_players":24,"Bots":0,"server_type":"Dedicated","server_os":"Linux","password":true,"vac":true,"version":"7742253","steam_id":85568392925397856,"keywords":["cp","nocrits","nodmgspread","uncletopia"],"game_id":440,"stv_port":27066,"stv_name":"Uncletopia | Warsaw | 6 | Community | STV","players":null}]}