{"status":true,"message":"","result":[{"server_id":9,"name":"Uncletopia | Atlanta | 1 | All Maps","name_short":"atl-1","host":"atl-1.us.uncletopia.com","port":27015,"enabled":true,"region":"us-east","cc":"us","latitude":33.753746,"longitude":-84.38633,"reserved":0,"last_update":"0001-01-01T00:00:00Z","name_a2s":"Uncletopia | Atlanta | 1 | All Maps","protocol":17,"map":"pl_borneo","folder":"tf","game":"Team Fortress","app_id":440,"player_count":1,"max_players":24,"Bots":0,"server_type":"Dedicated","server_os":"Linux","password":true,"vac":true,"version":"7757534","steam_id":85568392924469982,"keywords":["nocrits","nodmgspread","payload","uncletopia"],"game_id":440,"stv_port":27016,"stv_name":"Uncletopia | Atlanta | 1 | All Maps | STV","players":[{"user_id":15,"name":"lu","steam_id":76561198080731872,"connected_time":99000000000,"state":"active","ping":70}]},{"server_id":400,"name":"Uncletopia | Atlanta | 3 | Stopwatch Beta","name_short":"atl-3","host":"atl-1.us.uncletopia.com","port":27035,"enabled":true,"region":"us-east","cc":"us","latitude":33.753746,"longitude":-84.38633,"reserved":0,"last_update":"0001-01-01T00:00:00Z","name_a2s":"Uncletopia | Atlanta | 3 | Stopwatch Beta","protocol":17,"map":"pl_upward","folder":"tf","game":"Team Fortress","app_id":440,"player_count":0,"max_players":24,"Bots":0,"server_type":"Dedicated","server_os":"Linux","password":true,"vac":true,"version":"7757534","steam_id":85568392924515187,"keywords":["nocrits","nodmgspread","payload","uncletopia"],"game_id":440,"stv_port":27036,"stv_name":"Uncletopia | Atlanta | 3 | Stopwatch Beta | STV","players":null},{"server_id":401,"name":"Uncletopia | Atlanta | 4 | No Payload","name_short":"atl-4","host":"atl-1.us.uncletopia.com","port":27045,"enabled":true,"region":"us-east","cc":"us","latitude":33.753746,"longitude":-84.38633,"reserved":0,"last_update":"0001-01-01T00:00:00Z","name_a2s":"Uncletopia | Atlanta | 4 | No Payload","protocol":17,"map":"pl_pier","folder":"tf","game":"Team Fortress","app_id":440,"player_count":0,"max_players":24,"Bots":0,"server_type":"Dedicated","server_os":"Linux","password":true,"vac":true,"version":"7723704","steam_id":85568392924515188,"keywords":["nocrits","nodmgspread","payload","uncletopia"],"game_id":440,"stv_port":27046,"stv_name":"Uncletopia | Atlanta | 4 | No Payload | STV","players":null},{"server_id":2,"name":"Uncletopia | Chicago | 1 | All Maps","name_short":"chi-1","host":"chi-1.us.uncletopia.com","port":27015,"enabled":true,"region":"us-central","cc":"us","latitude":41.881832,"longitude":-87.62318,"reserved":0,"last_update":"0001-01-01T00:00:00Z","name_a2s":"Uncletopia | Chicago | 1 | All Maps","protocol":17,"map":"pl_frontier_final","folder":"tf","game":"Team Fortress","app_id":440,"player_count":24,"max_players":24,"Bots":0,"server_type":"Dedicated","server_os":"Linux","password":true,"vac":true,"version":"7757534","steam_id":85568392924469984,"keywords":["nocrits","nodmgspread","payload","uncletopia"],"game_id":440,"stv_port":27016,"stv_name":"Uncletopia | Chicago | 1 | All Maps | STV","players":[{"user_id":11,"name":"6t26j","steam_id":76561198278282836,"connected_time":5365000000000,"state":"active","ping":56},{"user_id":102,"name":"EmeraldCola","steam_id":76561198066663687,"connected_time":594000000000,"state":"active","ping":68},{"user_id":13,"name":"username","steam_id":76561198130826890,"connected_time":4889000000000,"state":"active","ping":75},{"user_id":62,"name":"motherfucker 2.0","steam_id":76561198141189209,"connected_time":2324000000000,"state":"active","ping":45},{"user_id":76,"name":"Quark","steam_id":76561198328155605,"connected_time":1370000000000,"state":"active","ping":59},{"user_id":63,"name":"Huey","steam_id":76561198972816386,"connected_time":2272000000000,"state":"active","ping":73},{"user_id":17,"name":"keep it piping hot","steam_id":76561199195104977,"connected_time":4417000000000,"state":"active","ping":65},{"user_id":79,"name":"Dzzplayz","steam_id":76561198380666998,"connected_time":866000000000,"state":"active","ping":91},{"user_id":119,"name":"No Binary","steam_id":76561198835593895,"connected_time":121000000000,"state":"active","ping":55},{"user_id":74,"name":"Samus","steam_id":76561198121933439,"connected_time":1909000000000,"state":"active","ping":76},{"user_id":64,"name":"Quatts","steam_id":76561198051482153,"connected_time":2267000000000,"state":"active","ping":59},{"user_id":72,"name":"Petard","steam_id":76561198873421104,"connected_time":1929000000000,"state":"active","ping":71},{"user_id":27,"name":"ṽ⧉  hank","steam_id":76561197977182378,"connected_time":3779000000000,"state":"active","ping":48},{"user_id":116,"name":"Quentin","steam_id":76561198032941413,"connected_time":389000000000,"state":"active","ping":75},{"user_id":78,"name":"Ultra\u003c3","steam_id":76561198352021493,"connected_time":1309000000000,"state":"active","ping":81},{"user_id":80,"name":"Canpake","steam_id":76561198106446161,"connected_time":822000000000,"state":"active","ping":52},{"user_id":67,"name":"Captain Red","steam_id":76561198191587983,"connected_time":2233000000000,"state":"active","ping":75},{"user_id":81,"name":"M1C4A3L","steam_id":76561198009980085,"connected_time":811000000000,"state":"active","ping":97},{"user_id":70,"name":"three three","steam_id":76561198177354155,"connected_time":2111000000000,"state":"active","ping":67},{"user_id":82,"name":"Mara Roo","steam_id":76561198279341789,"connected_time":795000000000,"state":"active","ping":93},{"user_id":83,"name":"Entreezy","steam_id":76561198271093809,"connected_time":780000000000,"state":"active","ping":122},{"user_id":121,"name":"troshgad","steam_id":76561198052030002,"connected_time":121000000000,"state":"active","ping":94},{"user_id":58,"name":"A Random Guy","steam_id":76561198282519457,"connected_time":2455000000000,"state":"active","ping":81},{"user_id":99,"name":"SR388","steam_id":76561199172178689,"connected_time":646000000000,"state":"active","ping":103}]},{"server_id":106,"name":"Uncletopia | Chicago | 2 | All Maps","name_short":"chi-2","host":"chi-1.us.uncletopia.com","port":27025,"enabled":true,"region":"us-central","cc":"us","latitude":41.881832,"longitude":-87.62318,"reserved":0,"last_update":"0001-01-01T00:00:00Z","name_a2s":"Uncletopia | Chicago | 2 | All Maps","protocol":17,"map":"cp_process_final","folder":"tf","game":"Team Fortress","app_id":440,"player_count":24,"max_players":24,"Bots":0,"server_type":"Dedicated","server_os":"Linux","password":true,"vac":true,"version":"7757534","steam_id":85568392924469985,"keywords":["cp","nocrits","nodmgspread","uncletopia"],"game_id":440,"stv_port":27026,"stv_name":"Uncletopia | Chicago | 2 | All Maps | STV","players":[{"user_id":269,"name":"Deadasfboi","steam_id":76561198072474034,"connected_time":793000000000,"state":"active","ping":56},{"user_id":275,"name":"MyamE","steam_id":76561198133278462,"connected_time":473000000000,"state":"active","ping":89},{"user_id":281,"name":"Dolphiniz","steam_id":76561199093367765,"connected_time":146000000000,"state":"active","ping":92},{"user_id":277,"name":"Nodspine","steam_id":76561198253579994,"connected_time":422000000000,"state":"active","ping":130},{"user_id":242,"name":"Yimi","steam_id":76561198097984345,"connected_time":2583000000000,"state":"active","ping":89},{"user_id":256,"name":"Claymore18","steam_id":76561198328211099,"connected_time":1355000000000,"state":"active","ping":71},{"user_id":246,"name":"razze","steam_id":76561198045129318,"connected_time":2374000000000,"state":"active","ping":62},{"user_id":254,"name":"a table","steam_id":76561198158461279,"connected_time":1922000000000,"state":"active","ping":59},{"user_id":260,"name":"chicanery","steam_id":76561198081654907,"connected_time":1328000000000,"state":"active","ping":68},{"user_id":283,"name":"Lennu","steam_id":76561198060730154,"connected_time":109000000000,"state":"active","ping":68},{"user_id":259,"name":"Draconic Ballad","steam_id":76561198027191515,"connected_time":1341000000000,"state":"active","ping":46},{"user_id":257,"name":"TheFlyingTortis","steam_id":76561198071576016,"connected_time":1349000000000,"state":"active","ping":57},{"user_id":278,"name":"rlty","steam_id":76561198009395055,"connected_time":384000000000,"state":"active","ping":61},{"user_id":157,"name":"✧ micca ","steam_id":76561197975540289,"connected_time":8639000000000,"state":"active","ping":53},{"user_id":270,"name":"trasho","steam_id":76561198066867150,"connected_time":771000000000,"state":"active","ping":71},{"user_id":279,"name":"co nar","steam_id":76561198086511399,"connected_time":350000000000,"state":"active","ping":77},{"user_id":280,"name":"krueger","steam_id":76561198268654031,"connected_time":314000000000,"state":"active","ping":57},{"user_id":284,"name":"Long Legged Larry","steam_id":76561198023585856,"connected_time":87000000000,"state":"active","ping":91},{"user_id":285,"name":"ElBentz","steam_id":76561199059582221,"connected_time":75000000000,"state":"active","ping":104},{"user_id":268,"name":"Lifial","steam_id":76561198271885819,"connected_time":986000000000,"state":"active","ping":75},{"user_id":266,"name":"Ninty","steam_id":76561199364725776,"connected_time":1247000000000,"state":"active","ping":96},{"user_id":199,"name":"Drachma","steam_id":76561198007310514,"connected_time":5655000000000,"state":"active","ping":73},{"user_id":272,"name":"gooby","steam_id":76561198045785955,"connected_time":654000000000,"state":"active","ping":72},{"user_id":286,"name":"floppy muppet","steam_id":76561198003076261,"connected_time":57000000000,"state":"active","ping":83}]},{"server_id":402,"name":"Uncletopia | Chicago | 3 | All Maps","name_short":"chi-3","host":"chi-1.us.uncletopia.com","port":27035,"enabled":true,"region":"us-central","cc":"us","latitude":41.881832,"longitude":-87.62318,"reserved":0,"last_update":"0001-01-01T00:00:00Z","name_a2s":"Uncletopia | Chicago | 3 | All Maps","protocol":17,"map":"koth_viaduct","folder":"tf","game":"Team Fortress","app_id":440,"player_count":0,"max_players":24,"Bots":0,"server_type":"Dedicated","server_os":"Linux","password":true,"vac":true,"version":"7757534","steam_id":85568392924515191,"keywords":["cp","nocrits","nodmgspread","uncletopia"],"game_id":440,"stv_port":27036,"stv_name":"Uncletopia | Chicago | 3 | All Maps | STV","players":null},{"server_id":403,"name":"Uncletopia | Chicago | 4 | All Maps","name_short":"chi-4","host":"chi-1.us.uncletopia.com","port":27045,"enabled":true,"region":"us-central","cc":"us","latitude":41.881832,"longitude":-87.62318,"reserved":0,"last_update":"0001-01-01T00:00:00Z","name_a2s":"Uncletopia | Chicago | 4 | All Maps","protocol":17,"map":"cp_altitude","folder":"tf","game":"Team Fortress","app_id":440,"player_count":0,"max_players":24,"Bots":0,"server_type":"Dedicated","server_os":"Linux","password":true,"vac":true,"version":"7757534","steam_id":85568392924515193,"keywords":["cp","nocrits","nodmgspread","uncletopia"],"game_id":440,"stv_port":27046,"stv_name":"Uncletopia | Chicago | 4 | All Maps | STV","players":null},{"server_id":36,"name":"Uncletopia | Chicago | 5 | All Maps","name_short":"chi-5","host":"chi-2.us.uncletopia.com","port":27015,"enabled":true,"region":"us-central","cc":"us","latitude":41.881832,"longitude":-87.62318,"reserved":0,"last_update":"0001-01-01T00:00:00Z","name_a2s":"Uncletopia | Chicago | 5 | All Maps","protocol":17,"map":"koth_cascade","folder":"tf","game":"Team Fortress","app_id":440,"player_count":0,"max_players":24,"Bots":0,"server_type":"Dedicated","server_os":"Linux","password":true,"vac":true,"version":"7757534","steam_id":85568392924866362,"keywords":["cp","nocrits","nodmgspread","uncletopia"],"game_id":440,"stv_port":27016,"stv_name":"Uncletopia | Chicago | 5 | All Maps | STV","players":null},{"server_id":37,"name":"Uncletopia | Chicago | 6 | All Maps","name_short":"chi-6","host":"chi-2.us.uncletopia.com","port":27025,"enabled":true,"region":"us-central","cc":"us","latitude":41.881832,"longitude":-87.62318,"reserved":0,"last_update":"0001-01-01T00:00:00Z","name_a2s":"Uncletopia | Chicago | 6 | All Maps","protocol":17,"map":"cp_mountainlab","folder":"tf","game":"Team Fortress","app_id":440,"player_count":0,"max_players":24,"Bots":0,"server_type":"Dedicated","server_os":"Linux","password":true,"vac":true,"version":"7757534","steam_id":85568392924866363,"keywords":["cp","nocrits","nodmgspread","uncletopia"],"game_id":440,"stv_port":27026,"stv_name":"Uncletopia | Chicago | 6 | All Maps | STV","players":null},{"server_id":38,"name":"Uncletopia | Chicago | 7 | Stopwatch Beta","name_short":"chi-7","host":"chi-2.us.uncletopia.com","port":27035,"enabled":true,"region":"us-central","cc":"us","latitude":41.881832,"longitude":-87.62318,"reserved":0,"last_update":"0001-01-01T00:00:00Z","name_a2s":"Uncletopia | Chicago | 7 | Stopwatch Beta","protocol":17,"map":"cp_sunshine","folder":"tf","game":"Team Fortress","app_id":440,"player_count":0,"max_players":24,"Bots":0,"server_type":"Dedicated","server_os":"Linux","password":true,"vac":true,"version":"7757534","steam_id":85568392924866364,"keywords":["cp","nocrits","nodmgspread","uncletopia"],"game_id":440,"stv_port":27036,"stv_name":"Uncletopia | Chicago | 7 | Stopwatch Beta | STV","players":null},{"server_id":39,"name":"Uncletopia | Chicago | 8 | Community","name_short":"chi-8","host":"chi-2.us.uncletopia.com","port":27045,"enabled":true,"region":"us-central","cc":"us","latitude":41.881832,"longitude":-87.62318,"reserved":0,"last_update":"0001-01-01T00:00:00Z","name_a2s":"Uncletopia | Chicago | 8 | Community","protocol":17,"map":"pl_pier","folder":"tf","game":"Team Fortress","app_id":440,"player_count":0,"max_players":24,"Bots":0,"server_type":"Dedicated","server_os":"Linux","password":true,"vac":true,"version":"7757534","steam_id":85568392924866365,"keywords":["nocrits","nodmgspread","payload","uncletopia"],"game_id":440,"stv_port":27046,"stv_name":"Uncletopia | Chicago | 8 | Community | STV","players":null},{"server_id":8,"name":"Uncletopia | Dallas | 1 | All Maps","name_short":"dal-1","host":"dal-1.us.uncletopia.com","port":27015,"enabled":true,"region":"us-central","cc":"us","latitude":32.779167,"longitude":-96.80889,"reserved":0,"last_update":"0001-01-01T00:00:00Z","name_a2s":"Uncletopia | Dallas | 1 | All Maps","protocol":17,"map":"pl_pier","folder":"tf","game":"Team Fortress","app_id":440,"player_count":0,"max_players":24,"Bots":0,"server_type":"Dedicated","server_os":"Linux","password":true,"vac":true,"version":"7757534","steam_id":85568392924469986,"keywords":["nocrits","nodmgspread","payload","uncletopia"],"game_id":440,"stv_port":27016,"stv_name":"Uncletopia | Dallas | 1 | All Maps | STV","players":null},{"server_id":108,"name":"Uncletopia | Dallas | 2 | All Maps","name_short":"dal-2","host":"dal-1.us.uncletopia.com","port":27025,"enabled":true,"region":"us-central","cc":"us","latitude":32.779167,"longitude":-96.80889,"reserved":0,"last_update":"0001-01-01T00:00:00Z","name_a2s":"Uncletopia | Dallas | 2 | All Maps","protocol":17,"map":"pl_borneo","folder":"tf","game":"Team Fortress","app_id":440,"player_count":0,"max_players":24,"Bots":0,"server_type":"Dedicated","server_os":"Linux","password":true,"vac":true,"version":"7757534","steam_id":85568392924469988,"keywords":["nocrits","nodmgspread","payload","uncletopia"],"game_id":440,"stv_port":27026,"stv_name":"Uncletopia | Dallas | 2 | All Maps | STV","players":null},{"server_id":5,"name":"Uncletopia | Frankfurt | 1 | All Maps","name_short":"frk-1","host":"frk-1.de.uncletopia.com","port":27015,"enabled":true,"region":"eu","cc":"de","latitude":50.110924,"longitude":8.682127,"reserved":0,"last_update":"0001-01-01T00:00:00Z","name_a2s":"Uncletopia | Frankfurt | 1 | All Maps","protocol":17,"map":"pl_upward","folder":"tf","game":"Team Fortress","app_id":440,"player_count":24,"max_players":24,"Bots":0,"server_type":"Dedicated","server_os":"Linux","password":true,"vac":true,"version":"7757534","steam_id":85568392924469989,"keywords":["nocrits","nodmgspread","payload","uncletopia"],"game_id":440,"stv_port":27016,"stv_name":"Uncletopia | Frankfurt | 1 | All Maps | STV","players":[{"user_id":223,"name":"Kron Krian","steam_id":76561198122541754,"connected_time":1767000000000,"state":"active","ping":66},{"user_id":240,"name":"tamz","steam_id":76561198146873972,"connected_time":735000000000,"state":"active","ping":45},{"user_id":175,"name":"TheLateAvenger","steam_id":76561198082369125,"connected_time":5253000000000,"state":"active","ping":56},{"user_id":241,"name":"Miton","steam_id":76561197970323209,"connected_time":728000000000,"state":"active","ping":79},{"user_id":237,"name":"beurgeur","steam_id":76561198872426314,"connected_time":1191000000000,"state":"active","ping":45},{"user_id":224,"name":"tiiyama","steam_id":76561198046196005,"connected_time":1733000000000,"state":"active","ping":40},{"user_id":249,"name":"VanillaWoof","steam_id":76561198158343951,"connected_time":516000000000,"state":"active","ping":51},{"user_id":242,"name":"Tre3","steam_id":76561198054795379,"connected_time":702000000000,"state":"active","ping":53},{"user_id":217,"name":"Jin","steam_id":76561198248878364,"connected_time":2033000000000,"state":"active","ping":39},{"user_id":229,"name":"bAdmon","steam_id":76561197961785793,"connected_time":1528000000000,"state":"active","ping":58},{"user_id":219,"name":"Leeroy Jenkins","steam_id":76561198137210227,"connected_time":2008000000000,"state":"active","ping":76},{"user_id":247,"name":"Gr3eNi3","steam_id":76561198092216995,"connected_time":604000000000,"state":"active","ping":43},{"user_id":243,"name":"PanPatrik","steam_id":76561198293331527,"connected_time":692000000000,"state":"active","ping":52},{"user_id":253,"name":"Mr.Man","steam_id":76561199175688390,"connected_time":249000000000,"state":"active","ping":76},{"user_id":225,"name":"The Mask","steam_id":76561198040009439,"connected_time":1729000000000,"state":"active","ping":74},{"user_id":245,"name":"Fat Pigeon","steam_id":76561198817940142,"connected_time":668000000000,"state":"active","ping":54},{"user_id":218,"name":"Okacha","steam_id":76561198341166854,"connected_time":2029000000000,"state":"active","ping":89},{"user_id":246,"name":"eza","steam_id":76561198124154487,"connected_time":667000000000,"state":"active","ping":72},{"user_id":252,"name":"X-tis","steam_id":76561198043837480,"connected_time":314000000000,"state":"active","ping":77},{"user_id":232,"name":"Crimea a bridge","steam_id":76561198030898371,"connected_time":1373000000000,"state":"active","ping":81},{"user_id":238,"name":"Albert Einstein","steam_id":76561198351190006,"connected_time":1185000000000,"state":"active","ping":82},{"user_id":139,"name":"HeroGuy","steam_id":76561199078628119,"connected_time":8377000000000,"state":"active","ping":46},{"user_id":208,"name":"Dextro","steam_id":76561198349648942,"connected_time":2317000000000,"state":"active","ping":90},{"user_id":214,"name":"Autonomous movement","steam_id":76561198087800030,"connected_time":2151000000000,"state":"active","ping":71}]},{"server_id":110,"name":"Uncletopia | Frankfurt | 2 | All Maps","name_short":"frk-2","host":"frk-1.de.uncletopia.com","port":27025,"enabled":true,"region":"eu","cc":"de","latitude":50.110924,"longitude":8.682127,"reserved":0,"last_update":"0001-01-01T00:00:00Z","name_a2s":"Uncletopia | Frankfurt | 2 | All Maps","protocol":17,"map":"pl_badwater","folder":"tf","game":"Team Fortress","app_id":440,"player_count":24,"max_players":24,"Bots":0,"server_type":"Dedicated","server_os":"Linux","password":true,"vac":true,"version":"7757534","steam_id":85568392924469990,"keywords":["nocrits","nodmgspread","payload","uncletopia"],"game_id":440,"stv_port":27026,"stv_name":"Uncletopia | Frankfurt | 2 | All Maps | STV","players":[{"user_id":154,"name":"Hot Beverage Enjoyer","steam_id":76561198060638325,"connected_time":1124000000000,"state":"active","ping":41},{"user_id":147,"name":"rickeeey","steam_id":76561199069460375,"connected_time":1417000000000,"state":"active","ping":56},{"user_id":185,"name":"ToniGAM3S","steam_id":76561198128605351,"connected_time":200000000000,"state":"active","ping":60},{"user_id":160,"name":"Gordon Birdman","steam_id":76561198013382324,"connected_time":906000000000,"state":"active","ping":62},{"user_id":178,"name":"JohkupohkuXD","steam_id":76561198391108762,"connected_time":257000000000,"state":"active","ping":84},{"user_id":181,"name":"day","steam_id":76561198260265302,"connected_time":215000000000,"state":"active","ping":60},{"user_id":188,"name":"RubyTheUnicorn","steam_id":76561198091772218,"connected_time":151000000000,"state":"active","ping":58},{"user_id":148,"name":"Tataffe","steam_id":76561198042048259,"connected_time":1369000000000,"state":"active","ping":61},{"user_id":155,"name":"Peachici","steam_id":76561198058278704,"connected_time":1074000000000,"state":"active","ping":97},{"user_id":149,"name":"gaz","steam_id":76561198843714742,"connected_time":1352000000000,"state":"active","ping":79},{"user_id":184,"name":"Falconetti","steam_id":76561198029930580,"connected_time":203000000000,"state":"active","ping":76},{"user_id":152,"name":"Rafnvaldr","steam_id":76561198026314229,"connected_time":1305000000000,"state":"active","ping":65},{"user_id":153,"name":"fallingpencil","steam_id":76561199230233148,"connected_time":1287000000000,"state":"active","ping":69},{"user_id":177,"name":"robitamoft","steam_id":76561198315903156,"connected_time":501000000000,"state":"active","ping":84},{"user_id":186,"name":"Waffy","steam_id":76561199045810038,"connected_time":188000000000,"state":"active","ping":72},{"user_id":162,"name":"Milosz52","steam_id":76561199060940204,"connected_time":875000000000,"state":"active","ping":78},{"user_id":166,"name":"jar","steam_id":76561198156384007,"connected_time":801000000000,"state":"active","ping":62},{"user_id":190,"name":"Kaishakunin","steam_id":76561198028123874,"connected_time":124000000000,"state":"active","ping":89},{"user_id":189,"name":"Wendias","steam_id":76561198418538887,"connected_time":151000000000,"state":"active","ping":91},{"user_id":165,"name":"bacon","steam_id":76561198986835013,"connected_time":826000000000,"state":"active","ping":88},{"user_id":167,"name":"Vollys","steam_id":76561198018077773,"connected_time":768000000000,"state":"active","ping":59},{"user_id":171,"name":"benifis163","steam_id":76561198420973492,"connected_time":654000000000,"state":"active","ping":103},{"user_id":172,"name":"giorno giovanna","steam_id":76561198993161087,"connected_time":645000000000,"state":"active","ping":49},{"user_id":173,"name":"HanımSever23","steam_id":76561198142124751,"connected_time":635000000000,"state":"active","ping":114}]},{"server_id":308,"name":"Uncletopia | Frankfurt | 3 | All Maps","name_short":"frk-3","host":"frk-1.de.uncletopia.com","port":27035,"enabled":true,"region":"eu","cc":"de","latitude":50.110924,"longitude":8.682127,"reserved":0,"last_update":"0001-01-01T00:00:00Z","name_a2s":"Uncletopia | Frankfurt | 3 | All Maps","protocol":17,"map":"pl_upward","folder":"tf","game":"Team Fortress","app_id":440,"player_count":24,"max_players":24,"Bots":0,"server_type":"Dedicated","server_os":"Linux","password":true,"vac":true,"version":"7757534","steam_id":85568392924504274,"keywords":["nocrits","nodmgspread","payload","uncletopia"],"game_id":440,"stv_port":27036,"stv_name":"Uncletopia | Frankfurt | 3 | All Maps | STV","players":[{"user_id":97,"name":"Pvt. Grichmann","steam_id":76561197977589522,"connected_time":2204000000000,"state":"active","ping":75},{"user_id":105,"name":"тукку ирма","steam_id":76561197998715016,"connected_time":1633000000000,"state":"active","ping":60},{"user_id":117,"name":"Dolcelatte","steam_id":76561198038501770,"connected_time":464000000000,"state":"active","ping":46},{"user_id":119,"name":"shr1mple","steam_id":76561198173537027,"connected_time":444000000000,"state":"active","ping":41},{"user_id":91,"name":"Thoom Slayer","steam_id":76561198155010055,"connected_time":2974000000000,"state":"active","ping":127},{"user_id":100,"name":"juicymangoes.2011","steam_id":76561198131670413,"connected_time":2070000000000,"state":"active","ping":61},{"user_id":109,"name":"Landsknecht","steam_id":76561199293036742,"connected_time":1222000000000,"state":"active","ping":54},{"user_id":108,"name":"r0la","steam_id":76561198128315340,"connected_time":1259000000000,"state":"active","ping":86},{"user_id":118,"name":"Pungkrockaren","steam_id":76561198050214002,"connected_time":458000000000,"state":"active","ping":60},{"user_id":120,"name":"Sperma985","steam_id":76561198808819694,"connected_time":416000000000,"state":"active","ping":47},{"user_id":111,"name":"mrms","steam_id":76561198289331719,"connected_time":1204000000000,"state":"active","ping":64},{"user_id":107,"name":"angel","steam_id":76561198121408313,"connected_time":1557000000000,"state":"active","ping":73},{"user_id":121,"name":"jaime8D","steam_id":76561197980590671,"connected_time":413000000000,"state":"active","ping":81},{"user_id":112,"name":"Yassine","steam_id":76561198140565712,"connected_time":1195000000000,"state":"active","ping":59},{"user_id":116,"name":"Joker","steam_id":76561199208034454,"connected_time":701000000000,"state":"active","ping":86},{"user_id":122,"name":"PAN","steam_id":76561198118671779,"connected_time":395000000000,"state":"active","ping":62},{"user_id":90,"name":"bug","steam_id":76561198178201457,"connected_time":3058000000000,"state":"active","ping":53},{"user_id":85,"name":"Hexagon","steam_id":76561198151205758,"connected_time":3447000000000,"state":"active","ping":49},{"user_id":82,"name":"Harlequin","steam_id":76561197967569114,"connected_time":3751000000000,"state":"active","ping":111},{"user_id":98,"name":"thekoolest88","steam_id":76561199022415672,"connected_time":2118000000000,"state":"active","ping":143},{"user_id":114,"name":"Optimist 50","steam_id":76561198039631442,"connected_time":1092000000000,"state":"active","ping":90},{"user_id":87,"name":"Pabs :D","steam_id":76561198000016962,"connected_time":3238000000000,"state":"active","ping":60},{"user_id":83,"name":"Mr. Mundy","steam_id":76561198132008918,"connected_time":3636000000000,"state":"active","ping":82},{"user_id":123,"name":"Izzie","steam_id":76561198090287325,"connected_time":198000000000,"state":"active","ping":73}]},{"server_id":309,"name":"Uncletopia | Frankfurt | 4 | All Maps","name_short":"frk-4","host":"frk-1.de.uncletopia.com","port":27045,"enabled":true,"region":"eu","cc":"de","latitude":50.110924,"longitude":8.682127,"reserved":0,"last_update":"0001-01-01T00:00:00Z","name_a2s":"Uncletopia | Frankfurt | 4 | All Maps","protocol":17,"map":"pl_borneo","folder":"tf","game":"Team Fortress","app_id":440,"player_count":24,"max_players":24,"Bots":0,"server_type":"Dedicated","server_os":"Linux","password":true,"vac":true,"version":"7757534","steam_id":85568392924504275,"keywords":["nocrits","nodmgspread","payload","uncletopia"],"game_id":440,"stv_port":27046,"stv_name":"Uncletopia | Frankfurt | 4 | All Maps | STV","players":[{"user_id":32,"name":"(...)NoNameGuy(...)","steam_id":76561198313204818,"connected_time":4736000000000,"state":"active","ping":47},{"user_id":86,"name":"noob","steam_id":76561198452111945,"connected_time":1059000000000,"state":"active","ping":57},{"user_id":89,"name":"2pac xnxxtentacion","steam_id":76561198190583242,"connected_time":45000000000,"state":"active","ping":79},{"user_id":82,"name":"Hoopty","steam_id":76561198057012442,"connected_time":1150000000000,"state":"active","ping":62},{"user_id":76,"name":"bigwish | bmod.tf","steam_id":76561197997859723,"connected_time":1425000000000,"state":"active","ping":77},{"user_id":87,"name":"In Da Club","steam_id":76561198043601838,"connected_time":659000000000,"state":"active","ping":60},{"user_id":54,"name":"The Bushman","steam_id":76561198152576682,"connected_time":3960000000000,"state":"active","ping":78},{"user_id":19,"name":"Clorox Consumer","steam_id":76561198120949216,"connected_time":5350000000000,"state":"active","ping":57},{"user_id":20,"name":"☣Strale☣","steam_id":76561198026578820,"connected_time":5260000000000,"state":"active","ping":64},{"user_id":78,"name":"The Command Prompt","steam_id":76561198154677956,"connected_time":1391000000000,"state":"active","ping":72},{"user_id":59,"name":"goodguydragg","steam_id":76561198305104891,"connected_time":3579000000000,"state":"active","ping":64},{"user_id":81,"name":"M1rkus","steam_id":76561198171215447,"connected_time":1164000000000,"state":"active","ping":68},{"user_id":88,"name":"quincy","steam_id":76561198880821320,"connected_time":295000000000,"state":"active","ping":81},{"user_id":67,"name":"Uselss Joe","steam_id":76561198275853629,"connected_time":2755000000000,"state":"active","ping":45},{"user_id":60,"name":"AleXandriX","steam_id":76561198035203950,"connected_time":3521000000000,"state":"active","ping":57},{"user_id":83,"name":"The Realist Killaz","steam_id":76561198106049954,"connected_time":1142000000000,"state":"active","ping":84},{"user_id":74,"name":"nachtraaf","steam_id":76561197960473205,"connected_time":1922000000000,"state":"active","ping":57},{"user_id":45,"name":"Orochi","steam_id":76561198265192382,"connected_time":4226000000000,"state":"active","ping":62},{"user_id":85,"name":"Thors","steam_id":76561197968739075,"connected_time":1075000000000,"state":"active","ping":50},{"user_id":47,"name":"pyong yang","steam_id":76561198875472890,"connected_time":4148000000000,"state":"active","ping":81},{"user_id":69,"name":"generic alias","steam_id":76561198271607226,"connected_time":2653000000000,"state":"active","ping":93},{"user_id":84,"name":"Anzu","steam_id":76561198043953503,"connected_time":1129000000000,"state":"active","ping":69},{"user_id":68,"name":"luma","steam_id":76561198081649669,"connected_time":2718000000000,"state":"active","ping":62},{"user_id":79,"name":"Ham","steam_id":76561199228241781,"connected_time":1204000000000,"state":"active","ping":56}]},{"server_id":310,"name":"Uncletopia | Frankfurt | 5 | All Maps","name_short":"frk-5","host":"frk-1.de.uncletopia.com","port":27055,"enabled":true,"region":"eu","cc":"de","latitude":50.110924,"longitude":8.682127,"reserved":0,"last_update":"0001-01-01T00:00:00Z","name_a2s":"Uncletopia | Frankfurt | 5 | All Maps","protocol":17,"map":"pl_upward","folder":"tf","game":"Team Fortress","app_id":440,"player_count":2,"max_players":24,"Bots":0,"server_type":"Dedicated","server_os":"Linux","password":true,"vac":true,"version":"7757534","steam_id":85568392924504277,"keywords":["nocrits","nodmgspread","payload","uncletopia"],"game_id":440,"stv_port":27056,"stv_name":"Uncletopia | Frankfurt | 5 | All Maps | STV","players":[{"user_id":11,"name":"Rachugh","steam_id":76561199235852578,"connected_time":258000000000,"state":"active","ping":183},{"user_id":12,"name":"WizardBoi","steam_id":76561199116664239,"connected_time":257000000000,"state":"active","ping":145}]},{"server_id":311,"name":"Uncletopia | Frankfurt | 6 | All Maps","name_short":"frk-6","host":"frk-1.de.uncletopia.com","port":27065,"enabled":true,"region":"eu","cc":"de","latitude":50.110924,"longitude":8.682127,"reserved":0,"last_update":"0001-01-01T00:00:00Z","name_a2s":"Uncletopia | Frankfurt | 6 | All Maps","protocol":17,"map":"cp_dustbowl","folder":"tf","game":"Team Fortress","app_id":440,"player_count":18,"max_players":24,"Bots":0,"server_type":"Dedicated","server_os":"Linux","password":true,"vac":true,"version":"7757534","steam_id":85568392924504278,"keywords":["cp","nocrits","nodmgspread","uncletopia"],"game_id":440,"stv_port":27066,"stv_name":"Uncletopia | Frankfurt | 6 | All Maps | STV","players":[{"user_id":36,"name":"ran is running","steam_id":76561199443185667,"connected_time":191000000000,"state":"active","ping":135},{"user_id":9,"name":"justin_ (f2p) (real)","steam_id":76561198839843428,"connected_time":3627000000000,"state":"active","ping":119},{"user_id":28,"name":"At0m!c","steam_id":76561198067085321,"connected_time":605000000000,"state":"active","ping":59},{"user_id":37,"name":"Cock thief","steam_id":76561199213400234,"connected_time":155000000000,"state":"active","ping":61},{"user_id":14,"name":"F","steam_id":76561199149462792,"connected_time":2765000000000,"state":"active","ping":68},{"user_id":20,"name":"SaSSolino","steam_id":76561198011308018,"connected_time":1905000000000,"state":"active","ping":45},{"user_id":22,"name":"ViktorYoshi","steam_id":76561199157555246,"connected_time":1506000000000,"state":"active","ping":55},{"user_id":29,"name":"Lewylow","steam_id":76561198005425686,"connected_time":589000000000,"state":"active","ping":87},{"user_id":32,"name":"Mr. Shadow | Folfie","steam_id":76561198037028507,"connected_time":417000000000,"state":"active","ping":56},{"user_id":38,"name":"idkmanbruh","steam_id":76561199403934454,"connected_time":124000000000,"state":"active","ping":98},{"user_id":34,"name":"Femboypawnguy","steam_id":76561198274894771,"connected_time":300000000000,"state":"active","ping":58},{"user_id":35,"name":"...jla","steam_id":76561198052435481,"connected_time":300000000000,"state":"active","ping":57},{"user_id":39,"name":"Leibeigener","steam_id":76561199275478305,"connected_time":93000000000,"state":"active","ping":62},{"user_id":40,"name":"Barbatruc","steam_id":76561198119019916,"connected_time":85000000000,"state":"active","ping":78},{"user_id":41,"name":"zadrot_227","steam_id":76561198416644815,"connected_time":65000000000,"state":"spawning","ping":312},{"user_id":42,"name":"im red","steam_id":76561199087284519,"connected_time":29000000000,"state":"active","ping":164},{"user_id":44,"name":"cheezstippers","steam_id":76561198115691795,"connected_time":6000000000,"state":"active","ping":104},{"user_id":45,"name":"My balls itch","steam_id":76561199121794613,"connected_time":0,"state":"spawning","ping":22}]},{"server_id":23,"name":"Uncletopia | Frankfurt | 7 | Stopwatch Beta","name_short":"frk-7","host":"frk-1.de.uncletopia.com","port":27075,"enabled":true,"region":"eu","cc":"de","latitude":50.110924,"longitude":8.682127,"reserved":0,"last_update":"0001-01-01T00:00:00Z","name_a2s":"Uncletopia | Frankfurt | 7 | Stopwatch Beta","protocol":17,"map":"pl_borneo","folder":"tf","game":"Team Fortress","app_id":440,"player_count":0,"max_players":24,"Bots":0,"server_type":"Dedicated","server_os":"Linux","password":true,"vac":true,"version":"7757534","steam_id":85568392924742827,"keywords":["nocrits","nodmgspread","payload","uncletopia"],"game_id":440,"stv_port":27076,"stv_name":"Uncletopia | Frankfurt | 7 | Stopwatch Beta | STV","players":null},{"server_id":24,"name":"Uncletopia | Frankfurt | 8 | Community","name_short":"frk-8","host":"frk-1.de.uncletopia.com","port":27085,"enabled":true,"region":"eu","cc":"de","latitude":50.110924,"longitude":8.682127,"reserved":0,"last_update":"0001-01-01T00:00:00Z","name_a2s":"Uncletopia | Frankfurt | 8 | Community","protocol":17,"map":"workshop/pl_fifthcurve_rc1.ugc648227046","folder":"tf","game":"Team Fortress","app_id":440,"player_count":5,"max_players":24,"Bots":0,"server_type":"Dedicated","server_os":"Linux","password":true,"vac":true,"version":"7757534","steam_id":85568392924742828,"keywords":["nocrits","nodmgspread","payload","uncletopia"],"game_id":440,"stv_port":27086,"stv_name":"Uncletopia | Frankfurt | 8 | Community | STV","players":[{"user_id":20,"name":"katzdani","steam_id":76561198843351132,"connected_time":330000000000,"state":"active","ping":67},{"user_id":12,"name":"Hole sympathizer","steam_id":76561198193357946,"connected_time":1541000000000,"state":"active","ping":106},{"user_id":13,"name":"Stragnov☆","steam_id":76561198074702465,"connected_time":1321000000000,"state":"active","ping":51},{"user_id":16,"name":"felixbluhm7","steam_id":76561199405465472,"connected_time":652000000000,"state":"active","ping":62},{"user_id":22,"name":"zzc","steam_id":76561199156481059,"connected_time":311000000000,"state":"active","ping":189}]},{"server_id":202,"name":"Uncletopia | Hong Kong | 1 | All Maps","name_short":"hgk-1","host":"hgk-1.hk.uncletopia.com","port":27015,"enabled":true,"region":"asia","cc":"hk","latitude":22.302711,"longitude":114.177216,"reserved":0,"last_update":"0001-01-01T00:00:00Z","name_a2s":"Uncletopia | Hong Kong | 1 | All Maps","protocol":17,"map":"pl_upward","folder":"tf","game":"Team Fortress","app_id":440,"player_count":4,"max_players":24,"Bots":0,"server_type":"Dedicated","server_os":"Linux","password":true,"vac":true,"version":"7757534","steam_id":85568392924494504,"keywords":["nocrits","nodmgspread","payload","uncletopia"],"game_id":440,"stv_port":27016,"stv_name":"Uncletopia | Hong Kong | 1 | All Maps | STV","players":[{"user_id":356,"name":"dr pepper good","steam_id":76561199250249487,"connected_time":193000000000,"state":"active","ping":78},{"user_id":353,"name":"The Equal of The Bat","steam_id":76561199067769682,"connected_time":1843000000000,"state":"active","ping":162},{"user_id":355,"name":"D43M0ns","steam_id":76561198274037941,"connected_time":1238000000000,"state":"active","ping":104},{"user_id":340,"name":"juan233","steam_id":76561198867566247,"connected_time":5107000000000,"state":"active","ping":114}]},{"server_id":1,"name":"Uncletopia | Los Angeles | 1 | All Maps","name_short":"lax-1","host":"lax-1.us.uncletopia.com","port":27015,"enabled":true,"region":"us-west","cc":"us","latitude":33.94279,"longitude":-118.41004,"reserved":0,"last_update":"0001-01-01T00:00:00Z","name_a2s":"Uncletopia | Los Angeles | 1 | All Maps","protocol":17,"map":"cp_process_final","folder":"tf","game":"Team Fortress","app_id":440,"player_count":0,"max_players":24,"Bots":0,"server_type":"Dedicated","server_os":"Linux","password":true,"vac":true,"version":"7757534","steam_id":85568392924469991,"keywords":["cp","nocrits","nodmgspread","uncletopia"],"game_id":440,"stv_port":27016,"stv_name":"Uncletopia | Los Angeles | 1 | All Maps | STV","players":null},{"server_id":112,"name":"Uncletopia | Los Angeles | 2 | All Maps","name_short":"lax-2","host":"lax-1.us.uncletopia.com","port":27025,"enabled":true,"region":"us-west","cc":"us","latitude":33.94279,"longitude":-118.41004,"reserved":0,"last_update":"0001-01-01T00:00:00Z","name_a2s":"Uncletopia | Los Angeles | 2 | All Maps","protocol":17,"map":"cp_mountainlab","folder":"tf","game":"Team Fortress","app_id":440,"player_count":0,"max_players":24,"Bots":0,"server_type":"Dedicated","server_os":"Linux","password":true,"vac":true,"version":"7757534","steam_id":85568392924469992,"keywords":["cp","nocrits","nodmgspread","uncletopia"],"game_id":440,"stv_port":27026,"stv_name":"Uncletopia | Los Angeles | 2 | All Maps | STV","players":null},{"server_id":324,"name":"Uncletopia | Los Angeles | 3 | All Maps","name_short":"lax-3","host":"lax-1.us.uncletopia.com","port":27035,"enabled":true,"region":"us-west","cc":"us","latitude":33.94279,"longitude":-118.41004,"reserved":0,"last_update":"0001-01-01T00:00:00Z","name_a2s":"Uncletopia | Los Angeles | 3 | All Maps","protocol":17,"map":"koth_highpass","folder":"tf","game":"Team Fortress","app_id":440,"player_count":0,"max_players":24,"Bots":0,"server_type":"Dedicated","server_os":"Linux","password":true,"vac":true,"version":"7757534","steam_id":85568392924510198,"keywords":["cp","nocrits","nodmgspread","uncletopia"],"game_id":440,"stv_port":27036,"stv_name":"Uncletopia | Los Angeles | 3 | All Maps | STV","players":null},{"server_id":25,"name":"Uncletopia | Los Angeles | 4 | Stopwatch Beta","name_short":"lax-4","host":"lax-1.us.uncletopia.com","port":27045,"enabled":true,"region":"us-west","cc":"us","latitude":33.94279,"longitude":-118.41004,"reserved":0,"last_update":"0001-01-01T00:00:00Z","name_a2s":"Uncletopia | Los Angeles | 4 | Stopwatch Beta","protocol":17,"map":"koth_viaduct","folder":"tf","game":"Team Fortress","app_id":440,"player_count":0,"max_players":24,"Bots":0,"server_type":"Dedicated","server_os":"Linux","password":true,"vac":true,"version":"7757534","steam_id":85568392924510199,"keywords":["cp","nocrits","nodmgspread","uncletopia"],"game_id":440,"stv_port":27046,"stv_name":"Uncletopia | Los Angeles | 4 | Stopwatch Beta | STV","players":null},{"server_id":11,"name":"Uncletopia | London | 1 | All Maps","name_short":"lon-1","host":"lon-1.uk.uncletopia.com","port":27015,"enabled":true,"region":"eu","cc":"gb","latitude":51.509865,"longitude":-0.118092,"reserved":0,"last_update":"0001-01-01T00:00:00Z","name_a2s":"Uncletopia | London | 1 | All Maps","protocol":17,"map":"pl_snowycoast","folder":"tf","game":"Team Fortress","app_id":440,"player_count":24,"max_players":24,"Bots":0,"server_type":"Dedicated","server_os":"Linux","password":true,"vac":true,"version":"7757534","steam_id":85568392924367362,"keywords":["nocrits","nodmgspread","payload","uncletopia"],"game_id":440,"stv_port":27016,"stv_name":"Uncletopia | London | 1 | All Maps | STV","players":[{"user_id":61,"name":"Aurora","steam_id":76561199385280253,"connected_time":3877000000000,"state":"active","ping":121},{"user_id":87,"name":"Dark ^^","steam_id":76561198036241064,"connected_time":1432000000000,"state":"active","ping":65},{"user_id":106,"name":"Rambi","steam_id":76561199058078505,"connected_time":131000000000,"state":"active","ping":163},{"user_id":104,"name":"IKARUS","steam_id":76561198850898422,"connected_time":146000000000,"state":"active","ping":71},{"user_id":84,"name":"Sotviing","steam_id":76561198154311159,"connected_time":1571000000000,"state":"active","ping":75},{"user_id":69,"name":"whatever","steam_id":76561198095943461,"connected_time":3317000000000,"state":"active","ping":62},{"user_id":103,"name":"bad goth girl","steam_id":76561198118989010,"connected_time":565000000000,"state":"active","ping":51},{"user_id":97,"name":"sisto majesto","steam_id":76561198073532776,"connected_time":1084000000000,"state":"active","ping":93},{"user_id":105,"name":"Утилизатор","steam_id":76561198001490104,"connected_time":142000000000,"state":"active","ping":90},{"user_id":88,"name":"Fan","steam_id":76561198440592048,"connected_time":1432000000000,"state":"active","ping":85},{"user_id":102,"name":"Qwerty","steam_id":76561198023525894,"connected_time":855000000000,"state":"active","ping":89},{"user_id":38,"name":"MEDIC!","steam_id":76561198149344029,"connected_time":6115000000000,"state":"active","ping":124},{"user_id":101,"name":"makarov","steam_id":76561198363892870,"connected_time":913000000000,"state":"active","ping":75},{"user_id":95,"name":"The Bonk Man™","steam_id":76561199044260792,"connected_time":1170000000000,"state":"active","ping":68},{"user_id":96,"name":"shop owner dr disrespects wife","steam_id":76561199028670732,"connected_time":1094000000000,"state":"active","ping":63},{"user_id":107,"name":"owl","steam_id":76561198229230864,"connected_time":126000000000,"state":"active","ping":90},{"user_id":99,"name":"ahhhhhhhhhh","steam_id":76561198271867664,"connected_time":991000000000,"state":"active","ping":55},{"user_id":100,"name":"Asgaard","steam_id":76561198026516905,"connected_time":956000000000,"state":"active","ping":119},{"user_id":68,"name":"COLD EXPOSURE ENTHUSIAST","steam_id":76561198119392756,"connected_time":3354000000000,"state":"active","ping":72},{"user_id":109,"name":"IKERIUS","steam_id":76561198274164589,"connected_time":0,"state":"spawning","ping":0},{"user_id":67,"name":"the_fume","steam_id":76561198236015392,"connected_time":3443000000000,"state":"active","ping":120},{"user_id":94,"name":"Jimortal","steam_id":76561198342426856,"connected_time":1280000000000,"state":"active","ping":60},{"user_id":59,"name":"Estamie","steam_id":76561198058527691,"connected_time":4232000000000,"state":"active","ping":72},{"user_id":53,"name":"john fortress","steam_id":76561198013237629,"connected_time":5682000000000,"state":"active","ping":96}]},{"server_id":114,"name":"Uncletopia | London | 2 | All Maps","name_short":"lon-2","host":"lon-1.uk.uncletopia.com","port":27025,"enabled":true,"region":"eu","cc":"gb","latitude":51.509865,"longitude":-0.118092,"reserved":0,"last_update":"0001-01-01T00:00:00Z","name_a2s":"Uncletopia | London | 2 | All Maps","protocol":17,"map":"pl_borneo","folder":"tf","game":"Team Fortress","app_id":440,"player_count":3,"max_players":24,"Bots":0,"server_type":"Dedicated","server_os":"Linux","password":true,"vac":true,"version":"7757534","steam_id":85568392924470941,"keywords":["nocrits","nodmgspread","payload","uncletopia"],"game_id":440,"stv_port":27026,"stv_name":"Uncletopia | London | 2 | All Maps | STV","players":[{"user_id":130,"name":"Braciola","steam_id":76561198036779196,"connected_time":68000000000,"state":"active","ping":84},{"user_id":128,"name":"Jaggy Snake","steam_id":76561197972779231,"connected_time":189000000000,"state":"active","ping":40},{"user_id":129,"name":"Pilorcio","steam_id":76561198036862688,"connected_time":83000000000,"state":"active","ping":78}]},{"server_id":320,"name":"Uncletopia | London | 3 | All Maps","name_short":"lon-3","host":"lon-1.uk.uncletopia.com","port":27035,"enabled":true,"region":"eu","cc":"gb","latitude":51.509865,"longitude":-0.118092,"reserved":0,"last_update":"0001-01-01T00:00:00Z","name_a2s":"Uncletopia | London | 3 | All Maps","protocol":17,"map":"koth_viaduct","folder":"tf","game":"Team Fortress","app_id":440,"player_count":0,"max_players":24,"Bots":0,"server_type":"Dedicated","server_os":"Linux","password":true,"vac":true,"version":"7757534","steam_id":85568392924510192,"keywords":["cp","nocrits","nodmgspread","uncletopia"],"game_id":440,"stv_port":27036,"stv_name":"Uncletopia | London | 3 | All Maps | STV","players":null},{"server_id":321,"name":"Uncletopia | London | 4 | All Maps","name_short":"lon-4","host":"lon-1.uk.uncletopia.com","port":27045,"enabled":true,"region":"eu","cc":"gb","latitude":51.509865,"longitude":-0.118092,"reserved":0,"last_update":"0001-01-01T00:00:00Z","name_a2s":"Uncletopia | London | 4 | All Maps","protocol":17,"map":"cp_steel","folder":"tf","game":"Team Fortress","app_id":440,"player_count":23,"max_players":24,"Bots":0,"server_type":"Dedicated","server_os":"Linux","password":true,"vac":true,"version":"7757534","steam_id":85568392924510193,"keywords":["cp","nocrits","nodmgspread","uncletopia"],"game_id":440,"stv_port":27046,"stv_name":"Uncletopia | London | 4 | All Maps | STV","players":[{"user_id":507,"name":"Garden Freeman","steam_id":76561199073314677,"connected_time":950000000000,"state":"active","ping":73},{"user_id":494,"name":"Alexei","steam_id":76561197987169026,"connected_time":1252000000000,"state":"active","ping":44},{"user_id":512,"name":"ReVerb","steam_id":76561198024949870,"connected_time":441000000000,"state":"active","ping":42},{"user_id":513,"name":"THAID","steam_id":76561198880370039,"connected_time":355000000000,"state":"active","ping":54},{"user_id":436,"name":"Ben Doverr","steam_id":76561198034264020,"connected_time":5252000000000,"state":"active","ping":121},{"user_id":498,"name":"Frozen pizza","steam_id":76561198891046692,"connected_time":1072000000000,"state":"active","ping":75},{"user_id":499,"name":"Raldow","steam_id":76561198021389301,"connected_time":1071000000000,"state":"active","ping":50},{"user_id":509,"name":"Pain in a Box","steam_id":76561197990777173,"connected_time":573000000000,"state":"active","ping":75},{"user_id":478,"name":"disposablesuperbread","steam_id":76561199074703607,"connected_time":2367000000000,"state":"active","ping":70},{"user_id":510,"name":"Eternity","steam_id":76561198238099668,"connected_time":561000000000,"state":"active","ping":94},{"user_id":514,"name":"Frazzle","steam_id":76561198262577951,"connected_time":313000000000,"state":"active","ping":65},{"user_id":480,"name":"M4X P3NGU1N","steam_id":76561198099784929,"connected_time":2220000000000,"state":"active","ping":59},{"user_id":506,"name":"Making Coffee","steam_id":76561198138281039,"connected_time":970000000000,"state":"active","ping":70},{"user_id":443,"name":"Brass beast heavy","steam_id":76561198274197623,"connected_time":4473000000000,"state":"active","ping":74},{"user_id":364,"name":"tactical783","steam_id":76561199051688560,"connected_time":9837000000000,"state":"active","ping":70},{"user_id":432,"name":"wickEd_","steam_id":76561198048068999,"connected_time":5541000000000,"state":"active","ping":162},{"user_id":486,"name":"NSB","steam_id":76561198045489976,"connected_time":1674000000000,"state":"active","ping":165},{"user_id":458,"name":"Ben Dover","steam_id":76561198031389399,"connected_time":3508000000000,"state":"active","ping":165},{"user_id":477,"name":"KillerQueen (he/they/she)","steam_id":76561199019399725,"connected_time":2413000000000,"state":"active","ping":54},{"user_id":505,"name":"Nobaddy","steam_id":76561198037871007,"connected_time":972000000000,"state":"active","ping":74},{"user_id":490,"name":"Rezkey","steam_id":76561198206079048,"connected_time":1548000000000,"state":"active","ping":59},{"user_id":508,"name":"CommanderX","steam_id":76561197991425069,"connected_time":876000000000,"state":"active","ping":51},{"user_id":425,"name":"KlevukaS™","steam_id":76561198312867604,"connected_time":5777000000000,"state":"active","ping":87}]},{"server_id":21,"name":"Uncletopia | London | 5 | All Maps","name_short":"lon-5","host":"lon-1.uk.uncletopia.com","port":27055,"enabled":true,"region":"eu","cc":"gb","latitude":51.509865,"longitude":-0.118092,"reserved":0,"last_update":"0001-01-01T00:00:00Z","name_a2s":"Uncletopia | London | 5 | All Maps","protocol":17,"map":"pl_borneo","folder":"tf","game":"Team Fortress","app_id":440,"player_count":22,"max_players":24,"Bots":0,"server_type":"Dedicated","server_os":"Linux","password":true,"vac":true,"version":"7757534","steam_id":85568392924742829,"keywords":["nocrits","nodmgspread","payload","uncletopia"],"game_id":440,"stv_port":27056,"stv_name":"Uncletopia | London | 5 | All Maps | STV","players":[{"user_id":551,"name":"janvaljen","steam_id":76561198017781450,"connected_time":19000000000,"state":"active","ping":108},{"user_id":477,"name":"Ripper","steam_id":76561197977547003,"connected_time":5525000000000,"state":"active","ping":98},{"user_id":474,"name":"Fuvuk","steam_id":76561198044458593,"connected_time":5798000000000,"state":"active","ping":90},{"user_id":532,"name":"night.s","steam_id":76561198326287823,"connected_time":1486000000000,"state":"active","ping":72},{"user_id":533,"name":"Kahvi","steam_id":76561198723244199,"connected_time":1366000000000,"state":"active","ping":75},{"user_id":536,"name":"timvs5","steam_id":76561198136646312,"connected_time":1205000000000,"state":"active","ping":68},{"user_id":542,"name":"drew","steam_id":76561198012304706,"connected_time":993000000000,"state":"active","ping":100},{"user_id":550,"name":"X45Y","steam_id":76561198112534025,"connected_time":108000000000,"state":"active","ping":50},{"user_id":522,"name":"Dionysos","steam_id":76561198022589417,"connected_time":2153000000000,"state":"active","ping":57},{"user_id":531,"name":"uhooter","steam_id":76561198007829078,"connected_time":1723000000000,"state":"active","ping":117},{"user_id":544,"name":"Topme","steam_id":76561198091734693,"connected_time":781000000000,"state":"active","ping":60},{"user_id":525,"name":"Mi Manchi","steam_id":76561198171573129,"connected_time":2079000000000,"state":"active","ping":68},{"user_id":524,"name":"Nyham","steam_id":76561198087435433,"connected_time":2117000000000,"state":"active","ping":57},{"user_id":499,"name":"jesses from the hit show breaki","steam_id":76561198834897089,"connected_time":3572000000000,"state":"active","ping":71},{"user_id":526,"name":"TheBulletBot","steam_id":76561198285895096,"connected_time":1891000000000,"state":"active","ping":45},{"user_id":519,"name":"Lukas","steam_id":76561198009118452,"connected_time":2191000000000,"state":"active","ping":67},{"user_id":501,"name":"Banal Destroyer","steam_id":76561198299570372,"connected_time":3552000000000,"state":"active","ping":70},{"user_id":492,"name":"Loop_Cat","steam_id":76561199045902145,"connected_time":4005000000000,"state":"active","ping":129},{"user_id":539,"name":"Caruzon - Obismal","steam_id":76561198036211170,"connected_time":1139000000000,"state":"active","ping":83},{"user_id":546,"name":"Célério","steam_id":76561198088253576,"connected_time":452000000000,"state":"active","ping":45},{"user_id":549,"name":"PrinceGrotle","steam_id":76561198206131603,"connected_time":235000000000,"state":"active","ping":127},{"user_id":435,"name":"Zerfesh","steam_id":76561198117534358,"connected_time":9604000000000,"state":"active","ping":91}]},{"server_id":22,"name":"Uncletopia | London | 6 | All Maps","name_short":"lon-6","host":"lon-1.uk.uncletopia.com","port":27065,"enabled":true,"region":"eu","cc":"gb","latitude":51.509865,"longitude":-0.118092,"reserved":0,"last_update":"0001-01-01T00:00:00Z","name_a2s":"Uncletopia | London | 6 | All Maps","protocol":17,"map":"pl_barnblitz","folder":"tf","game":"Team Fortress","app_id":440,"player_count":0,"max_players":24,"Bots":0,"server_type":"Dedicated","server_os":"Linux","password":true,"vac":true,"version":"7757534","steam_id":85568392924742830,"keywords":["nocrits","nodmgspread","payload","uncletopia"],"game_id":440,"stv_port":27066,"stv_name":"Uncletopia | London | 6 | All Maps | STV","players":null},{"server_id":40,"name":"Uncletopia | London | 7 | No Payload","name_short":"lon-7","host":"lon-1.uk.uncletopia.com","port":27075,"enabled":true,"region":"eu","cc":"gb","latitude":51.509865,"longitude":-0.118092,"reserved":0,"last_update":"0001-01-01T00:00:00Z","name_a2s":"Uncletopia | London | 7 | No Payload","protocol":17,"map":"cp_coldfront","folder":"tf","game":"Team Fortress","app_id":440,"player_count":0,"max_players":24,"Bots":0,"server_type":"Dedicated","server_os":"Linux","password":true,"vac":true,"version":"7757534","steam_id":85568392924964314,"keywords":["cp","nocrits","nodmgspread","uncletopia"],"game_id":440,"stv_port":27076,"stv_name":"Uncletopia | London | 7 | No Payload | STV","players":null},{"server_id":41,"name":"Uncletopia | London | 8 | Community","name_short":"lon-8","host":"lon-1.uk.uncletopia.com","port":27085,"enabled":true,"region":"eu","cc":"gb","latitude":51.509865,"longitude":-0.118092,"reserved":0,"last_update":"0001-01-01T00:00:00Z","name_a2s":"Uncletopia | London | 8 | Community","protocol":17,"map":"workshop/pl_fifthcurve_rc1.ugc648227046","folder":"tf","game":"Team Fortress","app_id":440,"player_count":0,"max_players":24,"Bots":0,"server_type":"Dedicated","server_os":"Linux","password":true,"vac":true,"version":"7757534","steam_id":85568392924964315,"keywords":["nocrits","nodmgspread","payload","uncletopia"],"game_id":440,"stv_port":27086,"stv_name":"Uncletopia | London | 8 | Community | STV","players":null},{"server_id":300,"name":"Uncletopia | Montréal | 1 | All Maps","name_short":"mtl-1","host":"mtl-1.ca.uncletopia.com","port":27015,"enabled":true,"region":"us-east","cc":"ca","latitude":45.50889,"longitude":-73.56167,"reserved":0,"last_update":"0001-01-01T00:00:00Z","name_a2s":"Uncletopia | Montréal | 1 | All Maps","protocol":17,"map":"koth_cascade","folder":"tf","game":"Team Fortress","app_id":440,"player_count":0,"max_players":24,"Bots":0,"server_type":"Dedicated","server_os":"Linux","password":true,"vac":true,"version":"7757534","steam_id":85568392924500087,"keywords":["cp","nocrits","nodmgspread","uncletopia"],"game_id":440,"stv_port":27016,"stv_name":"Uncletopia | Montréal | 1 | All Maps | STV","players":null},{"server_id":301,"name":"Uncletopia | Montréal | 2 | All Maps","name_short":"mtl-2","host":"mtl-1.ca.uncletopia.com","port":27025,"enabled":true,"region":"us-east","cc":"ca","latitude":45.50889,"longitude":-73.56167,"reserved":0,"last_update":"0001-01-01T00:00:00Z","name_a2s":"Uncletopia | Montréal | 2 | All Maps","protocol":17,"map":"pl_borneo","folder":"tf","game":"Team Fortress","app_id":440,"player_count":0,"max_players":24,"Bots":0,"server_type":"Dedicated","server_os":"Linux","password":true,"vac":true,"version":"7757534","steam_id":85568392924500088,"keywords":["nocrits","nodmgspread","payload","uncletopia"],"game_id":440,"stv_port":27026,"stv_name":"Uncletopia | Montréal | 2 | All Maps | STV","players":null},{"server_id":302,"name":"Uncletopia | Montréal | 3 | All Maps","name_short":"mtl-3","host":"mtl-1.ca.uncletopia.com","port":27035,"enabled":true,"region":"us-east","cc":"ca","latitude":45.50889,"longitude":-73.56167,"reserved":0,"last_update":"0001-01-01T00:00:00Z","name_a2s":"Uncletopia | Montréal | 3 | All Maps","protocol":17,"map":"cp_sunshine","folder":"tf","game":"Team Fortress","app_id":440,"player_count":0,"max_players":24,"Bots":0,"server_type":"Dedicated","server_os":"Linux","password":true,"vac":true,"version":"7757534","steam_id":85568392924500089,"keywords":["cp","nocrits","nodmgspread","uncletopia"],"game_id":440,"stv_port":27036,"stv_name":"Uncletopia | Montréal | 3 | All Maps | STV","players":null},{"server_id":303,"name":"Uncletopia | Montréal | 4 | No Payload","name_short":"mtl-4","host":"mtl-1.ca.uncletopia.com","port":27045,"enabled":true,"region":"us-east","cc":"ca","latitude":45.50889,"longitude":-73.56167,"reserved":0,"last_update":"0001-01-01T00:00:00Z","name_a2s":"Uncletopia | Montréal | 4 | No Payload","protocol":17,"map":"koth_lakeside_final","folder":"tf","game":"Team Fortress","app_id":440,"player_count":0,"max_players":24,"Bots":0,"server_type":"Dedicated","server_os":"Linux","password":true,"vac":true,"version":"7757534","steam_id":85568392924500090,"keywords":["cp","nocrits","nodmgspread","uncletopia"],"game_id":440,"stv_port":27046,"stv_name":"Uncletopia | Montréal | 4 | No Payload | STV","players":null},{"server_id":13,"name":"Uncletopia | New York City | 1 | All Maps","name_short":"nyc-1","host":"nyc-1.us.uncletopia.com","port":27015,"enabled":true,"region":"us-east","cc":"us","latitude":40.73061,"longitude":-73.93524,"reserved":0,"last_update":"0001-01-01T00:00:00Z","name_a2s":"Uncletopia | New York City | 1 | All Maps","protocol":17,"map":"pl_pier","folder":"tf","game":"Team Fortress","app_id":440,"player_count":11,"max_players":24,"Bots":0,"server_type":"Dedicated","server_os":"Linux","password":true,"vac":true,"version":"7757534","steam_id":85568392924469993,"keywords":["nocrits","nodmgspread","payload","uncletopia"],"game_id":440,"stv_port":27016,"stv_name":"Uncletopia | New York City | 1 | All Maps | STV","players":[{"user_id":7,"name":"Sour Idiot","steam_id":76561198138185255,"connected_time":1692000000000,"state":"active","ping":97},{"user_id":22,"name":"NBOMe","steam_id":76561198321899976,"connected_time":336000000000,"state":"active","ping":75},{"user_id":9,"name":"Challenger Charles","steam_id":76561198005576553,"connected_time":1485000000000,"state":"active","ping":70},{"user_id":24,"name":"carrion goat she/it","steam_id":76561198262064871,"connected_time":272000000000,"state":"active","ping":45},{"user_id":12,"name":"Chicanery","steam_id":76561198977589038,"connected_time":1043000000000,"state":"active","ping":94},{"user_id":20,"name":"Menlymen","steam_id":76561198046508051,"connected_time":391000000000,"state":"active","ping":90},{"user_id":18,"name":"Psychosis","steam_id":76561198078659070,"connected_time":532000000000,"state":"active","ping":59},{"user_id":15,"name":"Clanker","steam_id":76561198164315915,"connected_time":775000000000,"state":"active","ping":74},{"user_id":19,"name":"Professor Shaggy","steam_id":76561198276926724,"connected_time":424000000000,"state":"active","ping":37},{"user_id":21,"name":"ted twenty-two ( Triple T )","steam_id":76561198121316868,"connected_time":361000000000,"state":"active","ping":103},{"user_id":23,"name":"Peter Griffin Skinwalker","steam_id":76561198968917827,"connected_time":315000000000,"state":"active","ping":62}]},{"server_id":14,"name":"Uncletopia | New York City | 2 | All Maps","name_short":"nyc-2","host":"nyc-1.us.uncletopia.com","port":27025,"enabled":true,"region":"us-east","cc":"us","latitude":40.73061,"longitude":-73.93524,"reserved":0,"last_update":"0001-01-01T00:00:00Z","name_a2s":"Uncletopia | New York City | 2 | All Maps","protocol":17,"map":"cp_mountainlab","folder":"tf","game":"Team Fortress","app_id":440,"player_count":0,"max_players":24,"Bots":0,"server_type":"Dedicated","server_os":"Linux","password":true,"vac":true,"version":"7757534","steam_id":85568392924469994,"keywords":["cp","nocrits","nodmgspread","uncletopia"],"game_id":440,"stv_port":27026,"stv_name":"Uncletopia | New York City | 2 | All Maps | STV","players":null},{"server_id":15,"name":"Uncletopia | New York City | 3 | Stopwatch Beta","name_short":"nyc-3","host":"nyc-1.us.uncletopia.com","port":27035,"enabled":true,"region":"us-east","cc":"us","latitude":40.73061,"longitude":-73.93524,"reserved":0,"last_update":"0001-01-01T00:00:00Z","name_a2s":"Uncletopia | New York City | 3 | Stopwatch Beta","protocol":17,"map":"koth_lakeside_final","folder":"tf","game":"Team Fortress","app_id":440,"player_count":0,"max_players":24,"Bots":0,"server_type":"Dedicated","server_os":"Linux","password":true,"vac":true,"version":"7757534","steam_id":85568392924742820,"keywords":["cp","nocrits","nodmgspread","uncletopia"],"game_id":440,"stv_port":27036,"stv_name":"Uncletopia | New York City | 3 | Stopwatch Beta | STV","players":null},{"server_id":16,"name":"Uncletopia | New York City | 4 | Community","name_short":"nyc-4","host":"nyc-1.us.uncletopia.com","port":27045,"enabled":true,"region":"us-east","cc":"us","latitude":40.73061,"longitude":-73.93524,"reserved":0,"last_update":"0001-01-01T00:00:00Z","name_a2s":"Uncletopia | New York City | 4 | Community","protocol":17,"map":"workshop/pl_eruption_b9a.ugc2807898013","folder":"tf","game":"Team Fortress","app_id":440,"player_count":0,"max_players":24,"Bots":0,"server_type":"Dedicated","server_os":"Linux","password":true,"vac":true,"version":"7757534","steam_id":85568392924742821,"keywords":["nocrits","nodmgspread","payload","uncletopia"],"game_id":440,"stv_port":27046,"stv_name":"Uncletopia | New York City | 4 | Community | STV","players":null},{"server_id":142,"name":"Uncletopia | São Paulo | 1 | All Maps","name_short":"sao-1","host":"sao-1.br.uncletopia.com","port":27015,"enabled":true,"region":"sa","cc":"br","latitude":-23.533773,"longitude":-46.62529,"reserved":0,"last_update":"0001-01-01T00:00:00Z","name_a2s":"Uncletopia | São Paulo | 1 | All Maps","protocol":17,"map":"koth_cascade","folder":"tf","game":"Team Fortress","app_id":440,"player_count":0,"max_players":24,"Bots":0,"server_type":"Dedicated","server_os":"Linux","password":true,"vac":true,"version":"7757534","steam_id":85568392924469996,"keywords":["cp","nocrits","nodmgspread","uncletopia"],"game_id":440,"stv_port":27016,"stv_name":"Uncletopia | São Paulo | 1 | All Maps | STV","players":null},{"server_id":143,"name":"Uncletopia | São Paulo | 2 | All Maps","name_short":"sao-2","host":"sao-2.br.uncletopia.com","port":27015,"enabled":true,"region":"sa","cc":"br","latitude":-23.533773,"longitude":-46.62529,"reserved":0,"last_update":"0001-01-01T00:00:00Z","name_a2s":"Uncletopia | São Paulo | 2 | All Maps","protocol":17,"map":"pl_upward","folder":"tf","game":"Team Fortress","app_id":440,"player_count":0,"max_players":24,"Bots":0,"server_type":"Dedicated","server_os":"Linux","password":true,"vac":true,"version":"7757534","steam_id":85568392924485349,"keywords":["nocrits","nodmgspread","payload","uncletopia"],"game_id":440,"stv_port":27016,"stv_name":"Uncletopia | São Paulo | 2 | All Maps | STV","players":null},{"server_id":7,"name":"Uncletopia | Seattle | 1 | All Maps","name_short":"sea-1","host":"sea-1.us.uncletopia.com","port":27015,"enabled":true,"region":"us-west","cc":"us","latitude":47.608013,"longitude":-122.33517,"reserved":0,"last_update":"0001-01-01T00:00:00Z","name_a2s":"Uncletopia | Seattle | 1 | All Maps","protocol":17,"map":"pl_snowycoast","folder":"tf","game":"Team Fortress","app_id":440,"player_count":24,"max_players":24,"Bots":0,"server_type":"Dedicated","server_os":"Linux","password":true,"vac":true,"version":"7757534","steam_id":85568392924469997,"keywords":["nocrits","nodmgspread","payload","uncletopia"],"game_id":440,"stv_port":27016,"stv_name":"Uncletopia | Seattle | 1 | All Maps | STV","players":[{"user_id":92,"name":"The 80's","steam_id":76561198997807831,"connected_time":4265000000000,"state":"active","ping":99},{"user_id":134,"name":"Sloppy Joe (Extra Sauce)","steam_id":76561198359703432,"connected_time":536000000000,"state":"active","ping":75},{"user_id":103,"name":"Classic Muzz","steam_id":76561198835514043,"connected_time":3611000000000,"state":"active","ping":88},{"user_id":104,"name":"MasterAmongRust","steam_id":76561198010160233,"connected_time":3407000000000,"state":"active","ping":123},{"user_id":105,"name":"Stock Medic","steam_id":76561198065479730,"connected_time":3392000000000,"state":"active","ping":90},{"user_id":133,"name":"Ari","steam_id":76561198183269215,"connected_time":664000000000,"state":"active","ping":98},{"user_id":132,"name":"milesmoralesspiderman","steam_id":76561198105374054,"connected_time":758000000000,"state":"active","ping":89},{"user_id":118,"name":"SadFapping","steam_id":76561198076651049,"connected_time":2603000000000,"state":"active","ping":61},{"user_id":124,"name":"hey \u003c3","steam_id":76561199066567418,"connected_time":1916000000000,"state":"active","ping":48},{"user_id":67,"name":"Magic Jack","steam_id":76561198227459488,"connected_time":5930000000000,"state":"active","ping":97},{"user_id":37,"name":"〣dust〣 -she/her-","steam_id":76561198045218909,"connected_time":7047000000000,"state":"active","ping":44},{"user_id":125,"name":"Jade Jetts","steam_id":76561198206130076,"connected_time":1895000000000,"state":"active","ping":75},{"user_id":109,"name":"Tyrone","steam_id":76561198189429665,"connected_time":3250000000000,"state":"active","ping":113},{"user_id":122,"name":"passing","steam_id":76561198154081588,"connected_time":1974000000000,"state":"active","ping":92},{"user_id":121,"name":"Naeole1","steam_id":76561198240378926,"connected_time":2079000000000,"state":"active","ping":122},{"user_id":68,"name":"YungPercules","steam_id":76561198990681169,"connected_time":5909000000000,"state":"active","ping":62},{"user_id":127,"name":"The Horselords and Animal Gods","steam_id":76561197975094050,"connected_time":1445000000000,"state":"active","ping":86},{"user_id":46,"name":"THE NUT","steam_id":76561198067813626,"connected_time":6670000000000,"state":"active","ping":47},{"user_id":112,"name":"BoioftheNile","steam_id":76561198834204114,"connected_time":3114000000000,"state":"active","ping":74},{"user_id":131,"name":"DK360","steam_id":76561198796783094,"connected_time":809000000000,"state":"active","ping":53},{"user_id":126,"name":"♥stoned jester♥","steam_id":76561198079609974,"connected_time":1871000000000,"state":"active","ping":94},{"user_id":96,"name":"M.L.JEW","steam_id":76561198997375055,"connected_time":4120000000000,"state":"active","ping":135},{"user_id":135,"name":"Styx","steam_id":76561198158334494,"connected_time":536000000000,"state":"active","ping":105},{"user_id":129,"name":"Gr8butnotreally","steam_id":76561198133924450,"connected_time":1390000000000,"state":"active","ping":96}]},{"server_id":119,"name":"Uncletopia | Seattle | 2 | All Maps","name_short":"sea-2","host":"sea-1.us.uncletopia.com","port":27025,"enabled":true,"region":"us-west","cc":"us","latitude":47.608013,"longitude":-122.33517,"reserved":0,"last_update":"0001-01-01T00:00:00Z","name_a2s":"Uncletopia | Seattle | 2 | All Maps","protocol":17,"map":"cp_process_final","folder":"tf","game":"Team Fortress","app_id":440,"player_count":0,"max_players":24,"Bots":0,"server_type":"Dedicated","server_os":"Linux","password":true,"vac":true,"version":"7757534","steam_id":85568392924469998,"keywords":["cp","nocrits","nodmgspread","uncletopia"],"game_id":440,"stv_port":27026,"stv_name":"Uncletopia | Seattle | 2 | All Maps | STV","players":null},{"server_id":406,"name":"Uncletopia | Seattle | 3 | Stopwatch Beta","name_short":"sea-3","host":"sea-1.us.uncletopia.com","port":27035,"enabled":true,"region":"us-west","cc":"us","latitude":47.608013,"longitude":-122.33517,"reserved":0,"last_update":"0001-01-01T00:00:00Z","name_a2s":"Uncletopia | Seattle | 3 | Stopwatch Beta","protocol":17,"map":"cp_sunshine","folder":"tf","game":"Team Fortress","app_id":440,"player_count":0,"max_players":24,"Bots":0,"server_type":"Dedicated","server_os":"Linux","password":true,"vac":true,"version":"7757534","steam_id":85568392924515217,"keywords":["cp","nocrits","nodmgspread","uncletopia"],"game_id":440,"stv_port":27036,"stv_name":"Uncletopia | Seattle | 3 | Stopwatch Beta | STV","players":null},{"server_id":17,"name":"Uncletopia | San Francisco | 1 | All Maps","name_short":"sfo-1","host":"sfo-1.us.uncletopia.com","port":27015,"enabled":true,"region":"us-west","cc":"us","latitude":37.77397,"longitude":-122.4313,"reserved":0,"last_update":"0001-01-01T00:00:00Z","name_a2s":"Uncletopia | San Francisco | 1 | All Maps","protocol":17,"map":"pl_pier","folder":"tf","game":"Team Fortress","app_id":440,"player_count":0,"max_players":24,"Bots":0,"server_type":"Dedicated","server_os":"Linux","password":true,"vac":true,"version":"7757534","steam_id":85568392924469999,"keywords":["nocrits","nodmgspread","payload","uncletopia"],"game_id":440,"stv_port":27016,"stv_name":"Uncletopia | San Francisco | 1 | All Maps | STV","players":null},{"server_id":18,"name":"Uncletopia | San Francisco | 2 | All Maps","name_short":"sfo-2","host":"sfo-1.us.uncletopia.com","port":27025,"enabled":true,"region":"us-west","cc":"us","latitude":37.77397,"longitude":-122.4313,"reserved":0,"last_update":"0001-01-01T00:00:00Z","name_a2s":"Uncletopia | San Francisco | 2 | All Maps","protocol":17,"map":"cp_mountainlab","folder":"tf","game":"Team Fortress","app_id":440,"player_count":0,"max_players":24,"Bots":0,"server_type":"Dedicated","server_os":"Linux","password":true,"vac":true,"version":"7757534","steam_id":85568392924470000,"keywords":["cp","nocrits","nodmgspread","uncletopia"],"game_id":440,"stv_port":27026,"stv_name":"Uncletopia | San Francisco | 2 | All Maps | STV","players":null},{"server_id":19,"name":"Uncletopia | San Francisco | 3 | Stopwatch Beta","name_short":"sfo-3","host":"sfo-1.us.uncletopia.com","port":27035,"enabled":true,"region":"us-west","cc":"us","latitude":37.77397,"longitude":-122.4313,"reserved":0,"last_update":"0001-01-01T00:00:00Z","name_a2s":"Uncletopia | San Francisco | 3 | Stopwatch Beta","protocol":17,"map":"koth_viaduct","folder":"tf","game":"Team Fortress","app_id":440,"player_count":0,"max_players":24,"Bots":0,"server_type":"Dedicated","server_os":"Linux","password":true,"vac":true,"version":"7757534","steam_id":85568392924742824,"keywords":["cp","nocrits","nodmgspread","uncletopia"],"game_id":440,"stv_port":27036,"stv_name":"Uncletopia | San Francisco | 3 | Stopwatch Beta | STV","players":null},{"server_id":20,"name":"Uncletopia | San Francisco | 4 | Community","name_short":"sfo-4","host":"sfo-1.us.uncletopia.com","port":27045,"enabled":true,"region":"us-west","cc":"us","latitude":37.77397,"longitude":-122.4313,"reserved":0,"last_update":"0001-01-01T00:00:00Z","name_a2s":"Uncletopia | San Francisco | 4 | Community","protocol":17,"map":"pl_borneo","folder":"tf","game":"Team Fortress","app_id":440,"player_count":0,"max_players":24,"Bots":0,"server_type":"Dedicated","server_os":"Linux","password":true,"vac":true,"version":"7757534","steam_id":85568392924742826,"keywords":["nocrits","nodmgspread","payload","uncletopia"],"game_id":440,"stv_port":27046,"stv_name":"Uncletopia | San Francisco | 4 | Community | STV","players":null},{"server_id":141,"name":"Uncletopia | Sydney | 1 | All Maps","name_short":"syd-1","host":"syd-1.au.uncletopia.com","port":27015,"enabled":true,"region":"au","cc":"au","latitude":-33.865143,"longitude":151.2099,"reserved":0,"last_update":"0001-01-01T00:00:00Z","name_a2s":"Uncletopia | Sydney | 1 | All Maps","protocol":17,"map":"pl_upward","folder":"tf","game":"Team Fortress","app_id":440,"player_count":0,"max_players":24,"Bots":0,"server_type":"Dedicated","server_os":"Linux","password":true,"vac":true,"version":"7757534","steam_id":85568392924470001,"keywords":["nocrits","nodmgspread","payload","uncletopia"],"game_id":440,"stv_port":27016,"stv_name":"Uncletopia | Sydney | 1 | All Maps | STV","players":null},{"server_id":123,"name":"Uncletopia | Sydney | 2 | All Maps","name_short":"syd-2","host":"syd-1.au.uncletopia.com","port":27025,"enabled":true,"region":"au","cc":"au","latitude":-33.865143,"longitude":151.2099,"reserved":0,"last_update":"0001-01-01T00:00:00Z","name_a2s":"Uncletopia | Sydney | 2 | All Maps","protocol":17,"map":"koth_highpass","folder":"tf","game":"Team Fortress","app_id":440,"player_count":0,"max_players":24,"Bots":0,"server_type":"Dedicated","server_os":"Linux","password":true,"vac":true,"version":"7757534","steam_id":85568392924470002,"keywords":["cp","nocrits","nodmgspread","uncletopia"],"game_id":440,"stv_port":27026,"stv_name":"Uncletopia | Sydney | 2 | All Maps | STV","players":null},{"server_id":395,"name":"Uncletopia | Sydney | 3 | All Maps","name_short":"syd-3","host":"syd-1.au.uncletopia.com","port":27035,"enabled":true,"region":"au","cc":"au","latitude":-33.865143,"longitude":151.2099,"reserved":0,"last_update":"0001-01-01T00:00:00Z","name_a2s":"Uncletopia | Sydney | 3 | All Maps","protocol":17,"map":"koth_cascade","folder":"tf","game":"Team Fortress","app_id":440,"player_count":0,"max_players":24,"Bots":0,"server_type":"Dedicated","server_os":"Linux","password":true,"vac":true,"version":"7757534","steam_id":85568392925194467,"keywords":["cp","nocrits","nodmgspread","uncletopia"],"game_id":440,"stv_port":27036,"stv_name":"Uncletopia | Sydney | 3 | All Maps | STV","players":null},{"server_id":396,"name":"Uncletopia | Sydney | 4 | All Maps","name_short":"syd-4","host":"syd-1.au.uncletopia.com","port":27045,"enabled":true,"region":"au","cc":"au","latitude":-33.865143,"longitude":151.2099,"reserved":0,"last_update":"0001-01-01T00:00:00Z","name_a2s":"Uncletopia | Sydney | 4 | All Maps","protocol":17,"map":"koth_cascade","folder":"tf","game":"Team Fortress","app_id":440,"player_count":0,"max_players":24,"Bots":0,"server_type":"Dedicated","server_os":"Linux","password":true,"vac":true,"version":"7757534","steam_id":85568392925397958,"keywords":["cp","nocrits","nodmgspread","uncletopia"],"game_id":440,"stv_port":27046,"stv_name":"Uncletopia | Sydney | 4 | All Maps | STV","players":null},{"server_id":58,"name":"Uncletopia | Sydney | 5 | Stopwatch Beta","name_short":"syd-5","host":"syd-1.au.uncletopia.com","port":27055,"enabled":true,"region":"au","cc":"au","latitude":-33.865143,"longitude":151.2099,"reserved":0,"last_update":"0001-01-01T00:00:00Z","name_a2s":"Uncletopia | Sydney | 5 | Stopwatch Beta","protocol":17,"map":"pl_barnblitz","folder":"tf","game":"Team Fortress","app_id":440,"player_count":0,"max_players":24,"Bots":0,"server_type":"Dedicated","server_os":"Linux","password":true,"vac":true,"version":"7757534","steam_id":85568392925397959,"keywords":["nocrits","nodmgspread","payload","uncletopia"],"game_id":440,"stv_port":27056,"stv_name":"Uncletopia | Sydney | 5 | Stopwatch Beta | STV","players":null},{"server_id":59,"name":"Uncletopia | Sydney | 6 | Community","name_short":"syd-6","host":"syd-1.au.uncletopia.com","port":27065,"enabled":true,"region":"au","cc":"au","latitude":-33.865143,"longitude":151.2099,"reserved":0,"last_update":"0001-01-01T00:00:00Z","name_a2s":"Uncletopia | Sydney | 6 | Community","protocol":17,"map":"workshop/koth_ramjam_rc1.ugc459778887","folder":"tf","game":"Team Fortress","app_id":440,"player_count":0,"max_players":24,"Bots":0,"server_type":"Dedicated","server_os":"Linux","password":true,"vac":true,"version":"7757534","steam_id":85568392925397960,"keywords":["cp","nocrits","nodmgspread","uncletopia"],"game_id":440,"stv_port":27066,"stv_name":"Uncletopia | Sydney | 6 | Community | STV","players":null},{"server_id":49,"name":"Uncletopia | Warsaw | 1 | All Maps","name_short":"waw-1","host":"waw-1.pl.uncletopia.com","port":27015,"enabled":true,"region":"eu","cc":"pl","latitude":52.2297,"longitude":21.017532,"reserved":0,"last_update":"0001-01-01T00:00:00Z","name_a2s":"","protocol":0,"map":"","folder":"","game":"","app_id":0,"player_count":0,"max_players":0,"Bots":0,"server_type":"","server_os":"","password":false,"vac":false,"version":"","steam_id":0,"keywords":null,"game_id":0,"stv_port":0,"stv_name":"","players":null},{"server_id":50,"name":"Uncletopia | Warsaw | 2 | All Maps","name_short":"waw-2","host":"waw-1.pl.uncletopia.com","port":27025,"enabled":true,"region":"eu","cc":"pl","latitude":52.2297,"longitude":21.017532,"reserved":0,"last_update":"0001-01-01T00:00:00Z","name_a2s":"Uncletopia | Warsaw | 2 | All Maps","protocol":17,"map":"cp_snakewater_final1","folder":"tf","game":"Team Fortress","app_id":440,"player_count":0,"max_players":24,"Bots":0,"server_type":"Dedicated","server_os":"Linux","password":true,"vac":true,"version":"7757534","steam_id":85568392925397851,"keywords":["cp","nocrits","nodmgspread","uncletopia"],"game_id":440,"stv_port":27026,"stv_name":"Uncletopia | Warsaw | 2 | All Maps | STV","players":null},{"server_id":51,"name":"Uncletopia | Warsaw | 3 | All Maps","name_short":"waw-3","host":"waw-1.pl.uncletopia.com","port":27035,"enabled":true,"region":"eu","cc":"pl","latitude":52.2297,"longitude":21.017532,"reserved":0,"last_update":"0001-01-01T00:00:00Z","name_a2s":"Uncletopia | Warsaw | 3 | All Maps","protocol":17,"map":"koth_viaduct","folder":"tf","game":"Team Fortress","app_id":440,"player_count":2,"max_players":24,"Bots":0,"server_type":"Dedicated","server_os":"Linux","password":true,"vac":true,"version":"7757534","steam_id":85568392925397852,"keywords":["cp","nocrits","nodmgspread","uncletopia"],"game_id":440,"stv_port":27036,"stv_name":"Uncletopia | Warsaw | 3 | All Maps | STV","players":[{"user_id":343,"name":"med","steam_id":76561198216561735,"connected_time":745000000000,"state":"active","ping":215},{"user_id":347,"name":"banankgh","steam_id":76561199108845534,"connected_time":398000000000,"state":"active","ping":54}]},{"server_id":52,"name":"Uncletopia | Warsaw | 4 | All Maps","name_short":"waw-4","host":"waw-1.pl.uncletopia.com","port":27045,"enabled":true,"region":"eu","cc":"pl","latitude":52.2297,"longitude":21.017532,"reserved":0,"last_update":"0001-01-01T00:00:00Z","name_a2s":"Uncletopia | Warsaw | 4 | All Maps","protocol":17,"map":"koth_lakeside_final","folder":"tf","game":"Team Fortress","app_id":440,"player_count":0,"max_players":24,"Bots":0,"server_type":"Dedicated","server_os":"Linux","password":true,"vac":true,"version":"7757534","steam_id":85568392925397853,"keywords":["cp","nocrits","nodmgspread","uncletopia"],"game_id":440,"stv_port":27046,"stv_name":"Uncletopia | Warsaw | 4 | All Maps | STV","players":null},{"server_id":53,"name":"Uncletopia | Warsaw | 5 | Stopwatch Beta","name_short":"waw-5","host":"waw-1.pl.uncletopia.com","port":27055,"enabled":true,"region":"eu","cc":"pl","latitude":52.2297,"longitude":21.017532,"reserved":0,"last_update":"0001-01-01T00:00:00Z","name_a2s":"Uncletopia | Warsaw | 5 | Stopwatch Beta","protocol":17,"map":"pl_upward","folder":"tf","game":"Team Fortress","app_id":440,"player_count":0,"max_players":24,"Bots":0,"server_type":"Dedicated","server_os":"Linux","password":true,"vac":true,"version":"7757534","steam_id":85568392925397854,"keywords":["nocrits","nodmgspread","payload","uncletopia"],"game_id":440,"stv_port":27056,"stv_name":"Uncletopia | Warsaw | 5 | Stopwatch Beta | STV","players":null},{"server_id":54,"name":"Uncletopia | Warsaw | 6 | Community","name_short":"waw-6","host":"waw-1.pl.uncletopia.com","port":27065,"enabled":true,"region":"eu","cc":"pl","latitude":52.2297,"longitude":21.017532,"reserved":0,"last_update":"0001-01-01T00:00:00Z","name_a2s":"Uncletopia | Warsaw | 6 | Community","protocol":17,"map":"pl_barnblitz","folder":"tf","game":"Team Fortress","app_id":440,"player_count":2,"max_players":24,"Bots":0,"server_type":"Dedicated","server_os":"Linux","password":true,"vac":true,"version":"7757534","steam_id":85568392925397856,"keywords":["nocrits","nodmgspread","payload","uncletopia"],"game_id":440,"stv_port":27066,"stv_name":"Uncletopia | Warsaw | 6 | Community | STV","players":[{"user_id":4,"name":"Wojowniczek.pl","steam_id":76561199228645329,"connected_time":219000000000,"state":"active","ping":81},{"user_id":5,"name":"DominikDob12","steam_id":76561199116536199,"connected_time":62000000000,"state":"active","ping":64}]}]}