{"status":true,"message":"","result":[{"server_id":9,"name":"Uncletopia | Atlanta | 1 | All Maps","name_short":"atl-1","host":"atl-1.us.uncletopia.com","port":27015,"enabled":true,"region":"us-east","cc":"us","latitude":33.753746,"longitude":-84.38633,"reserved":0,"last_update":"0001-01-01T00:00:00Z","name_a2s":"Uncletopia | Atlanta | 1 | All Maps","protocol":17,"map":"pl_pier","folder":"tf","game":"Team Fortress","app_id":440,"player_count":24,"max_players":24,"Bots":0,"server_type":"Dedicated","server_os":"Linux","password":true,"vac":true,"version":"7757534","steam_id":85568392924469982,"keywords":["nocrits","nodmgspread","payload","uncletopia"],"game_id":440,"stv_port":27016,"stv_name":"Uncletopia | Atlanta | 1 | All Maps | STV","players":[{"user_id":152,"name":"bonk","steam_id":76561198115269587,"connected_time":6874000000000,"state":"active","ping":59},{"user_id":180,"name":"one orange braincell","steam_id":76561198319442494,"connected_time":3916000000000,"state":"active","ping":103},{"user_id":157,"name":"DFR Le4n!!!","steam_id":76561198045522596,"connected_time":6155000000000,"state":"active","ping":72},{"user_id":184,"name":"ATL1 | SparkStorm","steam_id":76561198095817025,"connected_time":2861000000000,"state":"active","ping":40},{"user_id":148,"name":"ATL1 | ma0re","steam_id":76561199231971506,"connected_time":7174000000000,"state":"active","ping":60},{"user_id":197,"name":"ShiYor","steam_id":76561199117260032,"connected_time":891000000000,"state":"active","ping":131},{"user_id":199,"name":"Onyx","steam_id":76561198275349640,"connected_time":720000000000,"state":"active","ping":73},{"user_id":195,"name":"bogginwater","steam_id":76561198155547142,"connected_time":955000000000,"state":"active","ping":89},{"user_id":192,"name":"Oddball","steam_id":76561198040440984,"connected_time":1744000000000,"state":"active","ping":86},{"user_id":181,"name":"ATL1 | Vee (very cool)","steam_id":76561198330432889,"connected_time":3880000000000,"state":"active","ping":60},{"user_id":176,"name":"Decolour","steam_id":76561199045608372,"connected_time":4114000000000,"state":"active","ping":78},{"user_id":151,"name":"Veilos","steam_id":76561198071897172,"connected_time":6878000000000,"state":"active","ping":85},{"user_id":177,"name":"ATL1 | BeastRyder","steam_id":76561198330281584,"connected_time":4107000000000,"state":"active","ping":85},{"user_id":190,"name":"Motreir","steam_id":76561198151717946,"connected_time":1915000000000,"state":"active","ping":78},{"user_id":188,"name":"ATL1 | Lancer Fan Club","steam_id":76561198355495948,"connected_time":1929000000000,"state":"active","ping":81},{"user_id":196,"name":"Intro Bonito","steam_id":76561198119478838,"connected_time":913000000000,"state":"active","ping":60},{"user_id":160,"name":"Ashes!","steam_id":76561197998475441,"connected_time":5865000000000,"state":"active","ping":93},{"user_id":204,"name":"Honolulu","steam_id":76561198106381764,"connected_time":257000000000,"state":"active","ping":42},{"user_id":200,"name":"Devilkid","steam_id":76561199082474364,"connected_time":580000000000,"state":"active","ping":76},{"user_id":202,"name":"ATL1 | Psionic Box","steam_id":76561198151019322,"connected_time":457000000000,"state":"active","ping":75},{"user_id":194,"name":"DuckKey","steam_id":76561198904477889,"connected_time":982000000000,"state":"active","ping":61},{"user_id":185,"name":"Ferguson","steam_id":76561198121349387,"connected_time":2560000000000,"state":"active","ping":71},{"user_id":187,"name":"Tay1Qr","steam_id":76561198082809935,"connected_time":1947000000000,"state":"active","ping":70},{"user_id":146,"name":"Dark-Warden","steam_id":76561198838757422,"connected_time":7555000000000,"state":"active","ping":82}]},{"server_id":400,"name":"Uncletopia | Atlanta | 3 | Stopwatch Beta","name_short":"atl-3","host":"atl-1.us.uncletopia.com","port":27035,"enabled":true,"region":"us-east","cc":"us","latitude":33.753746,"longitude":-84.38633,"reserved":0,"last_update":"0001-01-01T00:00:00Z","name_a2s":"Uncletopia | Atlanta | 3 | Stopwatch Beta","protocol":17,"map":"pl_upward","folder":"tf","game":"Team Fortress","app_id":440,"player_count":0,"max_players":24,"Bots":0,"server_type":"Dedicated","server_os":"Linux","password":true,"vac":true,"version":"7757534","steam_id":85568392924515187,"keywords":["nocrits","nodmgspread","payload","uncletopia"],"game_id":440,"stv_port":27036,"stv_name":"Uncletopia | Atlanta | 3 | Stopwatch Beta | STV","players":null},{"server_id":401,"name":"Uncletopia | Atlanta | 4 | No Payload","name_short":"atl-4","host":"atl-1.us.uncletopia.com","port":27045,"enabled":true,"region":"us-east","cc":"us","latitude":33.753746,"longitude":-84.38633,"reserved":0,"last_update":"0001-01-01T00:00:00Z","name_a2s":"Uncletopia | Atlanta | 4 | No Payload","protocol":17,"map":"pl_pier","folder":"tf","game":"Team Fortress","app_id":440,"player_count":0,"max_players":24,"Bots":0,"server_type":"Dedicated","server_os":"Linux","password":true,"vac":true,"version":"7723704","steam_id":85568392924515188,"keywords":["nocrits","nodmgspread","payload","uncletopia"],"game_id":440,"stv_port":27046,"stv_name":"Uncletopia | Atlanta | 4 | No Payload | STV","players":null},{"server_id":2,"name":"Uncletopia | Chicago | 1 | All Maps","name_short":"chi-1","host":"chi-1.us.uncletopia.com","port":27015,"enabled":true,"region":"us-central","cc":"us","latitude":41.881832,"longitude":-87.62318,"reserved":0,"last_update":"0001-01-01T00:00:00Z","name_a2s":"Uncletopia | Chicago | 1 | All Maps","protocol":17,"map":"pl_frontier_final","folder":"tf","game":"Team Fortress","app_id":440,"player_count":24,"max_players":24,"Bots":0,"server_type":"Dedicated","server_os":"Linux","password":true,"vac":true,"version":"7757534","steam_id":85568392924469984,"keywords":["nocrits","nodmgspread","payload","uncletopia"],"game_id":440,"stv_port":27016,"stv_name":"Uncletopia | Chicago | 1 | All Maps | STV","players":[{"user_id":354,"name":"snail","steam_id":76561198312155722,"connected_time":978000000000,"state":"active","ping":209},{"user_id":358,"name":"GreenApples","steam_id":76561198120559543,"connected_time":214000000000,"state":"active","ping":99},{"user_id":352,"name":".JIFF","steam_id":76561198045181760,"connected_time":1146000000000,"state":"active","ping":59},{"user_id":347,"name":"slenderman cristiano ronaldo","steam_id":76561198855935442,"connected_time":1506000000000,"state":"active","ping":70},{"user_id":359,"name":"♡Alyx♡","steam_id":76561198024303978,"connected_time":195000000000,"state":"active","ping":62},{"user_id":360,"name":"coven","steam_id":76561198078731479,"connected_time":193000000000,"state":"active","ping":73},{"user_id":355,"name":"eloressa","steam_id":76561198120330867,"connected_time":831000000000,"state":"active","ping":51},{"user_id":357,"name":"Merchants of Misery","steam_id":76561199188142396,"connected_time":228000000000,"state":"active","ping":97},{"user_id":316,"name":"[El Fail] MR.BadassMCLee","steam_id":76561198043787818,"connected_time":2717000000000,"state":"active","ping":117},{"user_id":361,"name":"Bully McGuire","steam_id":76561198084230569,"connected_time":178000000000,"state":"active","ping":48},{"user_id":317,"name":"Ras","steam_id":76561198123546775,"connected_time":2481000000000,"state":"active","ping":84},{"user_id":350,"name":"im thinkin arby's","steam_id":76561198083271257,"connected_time":1303000000000,"state":"active","ping":81},{"user_id":362,"name":"Aster","steam_id":76561198037920420,"connected_time":162000000000,"state":"active","ping":82},{"user_id":363,"name":"Wagemage","steam_id":76561198013625580,"connected_time":159000000000,"state":"active","ping":79},{"user_id":274,"name":"♥ Femboy♥Ventily ♥","steam_id":76561198157260335,"connected_time":7000000000000,"state":"active","ping":47},{"user_id":356,"name":"poggar","steam_id":76561198045815615,"connected_time":801000000000,"state":"active","ping":80},{"user_id":254,"name":"Pancreas Enjoyer","steam_id":76561199438598904,"connected_time":8131000000000,"state":"active","ping":99},{"user_id":364,"name":"INFINITE","steam_id":76561197971285557,"connected_time":148000000000,"state":"active","ping":67},{"user_id":307,"name":"ZofoJackson","steam_id":76561197998366861,"connected_time":3817000000000,"state":"active","ping":56},{"user_id":170,"name":"the deadliest pyroshark","steam_id":76561198374227766,"connected_time":14268000000000,"state":"active","ping":71},{"user_id":315,"name":"PKBEAST_7","steam_id":76561198177136537,"connected_time":2798000000000,"state":"active","ping":87},{"user_id":325,"name":"EGGOG","steam_id":76561198061430457,"connected_time":2201000000000,"state":"active","ping":76},{"user_id":324,"name":"kho","steam_id":76561198195764728,"connected_time":2237000000000,"state":"active","ping":78},{"user_id":343,"name":"Dokkibai","steam_id":76561198355935693,"connected_time":1704000000000,"state":"active","ping":50}]},{"server_id":106,"name":"Uncletopia | Chicago | 2 | All Maps","name_short":"chi-2","host":"chi-1.us.uncletopia.com","port":27025,"enabled":true,"region":"us-central","cc":"us","latitude":41.881832,"longitude":-87.62318,"reserved":0,"last_update":"0001-01-01T00:00:00Z","name_a2s":"Uncletopia | Chicago | 2 | All Maps","protocol":17,"map":"pl_snowycoast","folder":"tf","game":"Team Fortress","app_id":440,"player_count":25,"max_players":24,"Bots":0,"server_type":"Dedicated","server_os":"Linux","password":true,"vac":true,"version":"7757534","steam_id":85568392924469985,"keywords":["nocrits","nodmgspread","payload","uncletopia"],"game_id":440,"stv_port":27026,"stv_name":"Uncletopia | Chicago | 2 | All Maps | STV","players":[{"user_id":426,"name":"「Spud Wrench」","steam_id":76561198089615706,"connected_time":118000000000,"state":"active","ping":69},{"user_id":427,"name":"Pine Tree","steam_id":76561198112323877,"connected_time":83000000000,"state":"active","ping":93},{"user_id":423,"name":"Platinum","steam_id":76561198052463484,"connected_time":604000000000,"state":"active","ping":110},{"user_id":410,"name":"dingus","steam_id":76561198190077399,"connected_time":1392000000000,"state":"active","ping":56},{"user_id":428,"name":"Eightoneto","steam_id":76561198204106991,"connected_time":60000000000,"state":"active","ping":62},{"user_id":429,"name":"Ender","steam_id":76561198819439451,"connected_time":51000000000,"state":"connecting","ping":0},{"user_id":413,"name":"Joe Burning","steam_id":76561198208623275,"connected_time":1274000000000,"state":"active","ping":74},{"user_id":430,"name":"Not_Luke_Again","steam_id":76561198180891187,"connected_time":47000000000,"state":"active","ping":72},{"user_id":405,"name":"robinhood","steam_id":76561198090995027,"connected_time":1883000000000,"state":"active","ping":61},{"user_id":431,"name":"Stevie Wonder","steam_id":76561198013241277,"connected_time":33000000000,"state":"active","ping":57},{"user_id":414,"name":"Vladikr1","steam_id":76561198401495362,"connected_time":1272000000000,"state":"active","ping":65},{"user_id":370,"name":"WarpdriveEngineer","steam_id":76561198073530973,"connected_time":3490000000000,"state":"active","ping":60},{"user_id":397,"name":"emmett","steam_id":76561198096016270,"connected_time":2386000000000,"state":"active","ping":65},{"user_id":420,"name":"Megadesk","steam_id":76561198078219641,"connected_time":993000000000,"state":"active","ping":81},{"user_id":390,"name":"daemon","steam_id":76561198001541433,"connected_time":2559000000000,"state":"active","ping":60},{"user_id":407,"name":"rxcha","steam_id":76561198809392400,"connected_time":1769000000000,"state":"active","ping":78},{"user_id":432,"name":"Scrumpy Main","steam_id":76561198146302597,"connected_time":28000000000,"state":"active","ping":53},{"user_id":418,"name":"1993 Toyota MR2 Turbo","steam_id":76561199053813548,"connected_time":1157000000000,"state":"active","ping":88},{"user_id":394,"name":"Cuttle's Fish","steam_id":76561198280483257,"connected_time":2519000000000,"state":"active","ping":69},{"user_id":364,"name":"VixianUwU","steam_id":76561198948815060,"connected_time":3728000000000,"state":"active","ping":83},{"user_id":419,"name":"void","steam_id":76561198107501413,"connected_time":1134000000000,"state":"active","ping":44},{"user_id":421,"name":"poogoblin49","steam_id":76561198124866303,"connected_time":849000000000,"state":"active","ping":88},{"user_id":409,"name":"Kitt(eh) ∑:3","steam_id":76561198110858518,"connected_time":1642000000000,"state":"active","ping":55},{"user_id":425,"name":"Ping","steam_id":76561199206514106,"connected_time":305000000000,"state":"active","ping":46},{"user_id":435,"name":"memeboi22","steam_id":76561198172609874,"connected_time":20000000000,"state":"active","ping":145}]},{"server_id":402,"name":"Uncletopia | Chicago | 3 | All Maps","name_short":"chi-3","host":"chi-1.us.uncletopia.com","port":27035,"enabled":true,"region":"us-central","cc":"us","latitude":41.881832,"longitude":-87.62318,"reserved":0,"last_update":"0001-01-01T00:00:00Z","name_a2s":"Uncletopia | Chicago | 3 | All Maps","protocol":17,"map":"plr_nightfall_final","folder":"tf","game":"Team Fortress","app_id":440,"player_count":10,"max_players":24,"Bots":0,"server_type":"Dedicated","server_os":"Linux","password":true,"vac":true,"version":"7757534","steam_id":85568392924515191,"keywords":["nocrits","nodmgspread","payload","uncletopia"],"game_id":440,"stv_port":27036,"stv_name":"Uncletopia | Chicago | 3 | All Maps | STV","players":[{"user_id":246,"name":"the goop slinger","steam_id":76561198271710504,"connected_time":223000000000,"state":"active","ping":43},{"user_id":257,"name":"VLADIMIR LENIN'S CAT","steam_id":76561198182999551,"connected_time":28000000000,"state":"active","ping":56},{"user_id":211,"name":"xenolith","steam_id":76561198041496496,"connected_time":2291000000000,"state":"active","ping":80},{"user_id":256,"name":"Rock Kickass","steam_id":76561198450510841,"connected_time":45000000000,"state":"active","ping":110},{"user_id":166,"name":"Liam","steam_id":76561198129451678,"connected_time":4286000000000,"state":"active","ping":67},{"user_id":225,"name":"ThatOneKnight","steam_id":76561198388583650,"connected_time":1662000000000,"state":"active","ping":45},{"user_id":216,"name":"2STAR","steam_id":76561198126709382,"connected_time":2043000000000,"state":"active","ping":75},{"user_id":232,"name":"white woman","steam_id":76561199116679777,"connected_time":1247000000000,"state":"active","ping":98},{"user_id":223,"name":"Wengatang","steam_id":76561198021747059,"connected_time":1814000000000,"state":"active","ping":40},{"user_id":245,"name":"Killer Fish from San Diego","steam_id":76561199037594575,"connected_time":296000000000,"state":"active","ping":105}]},{"server_id":403,"name":"Uncletopia | Chicago | 4 | All Maps","name_short":"chi-4","host":"chi-1.us.uncletopia.com","port":27045,"enabled":true,"region":"us-central","cc":"us","latitude":41.881832,"longitude":-87.62318,"reserved":0,"last_update":"0001-01-01T00:00:00Z","name_a2s":"Uncletopia | Chicago | 4 | All Maps","protocol":17,"map":"pl_barnblitz","folder":"tf","game":"Team Fortress","app_id":440,"player_count":0,"max_players":24,"Bots":0,"server_type":"Dedicated","server_os":"Linux","password":true,"vac":true,"version":"7757534","steam_id":85568392924515193,"keywords":["nocrits","nodmgspread","payload","uncletopia"],"game_id":440,"stv_port":27046,"stv_name":"Uncletopia | Chicago | 4 | All Maps | STV","players":null},{"server_id":36,"name":"Uncletopia | Chicago | 5 | All Maps","name_short":"chi-5","host":"chi-2.us.uncletopia.com","port":27015,"enabled":true,"region":"us-central","cc":"us","latitude":41.881832,"longitude":-87.62318,"reserved":0,"last_update":"0001-01-01T00:00:00Z","name_a2s":"Uncletopia | Chicago | 5 | All Maps","protocol":17,"map":"cp_sunshine","folder":"tf","game":"Team Fortress","app_id":440,"player_count":24,"max_players":24,"Bots":0,"server_type":"Dedicated","server_os":"Linux","password":true,"vac":true,"version":"7757534","steam_id":85568392924866362,"keywords":["cp","nocrits","nodmgspread","uncletopia"],"game_id":440,"stv_port":27016,"stv_name":"Uncletopia | Chicago | 5 | All Maps | STV","players":[{"user_id":410,"name":"puffleman577","steam_id":76561198120638093,"connected_time":1472000000000,"state":"active","ping":84},{"user_id":367,"name":"DedGuysRule","steam_id":76561198194089591,"connected_time":3828000000000,"state":"active","ping":89},{"user_id":422,"name":"Anononomous Dumbo Octopus","steam_id":76561198252522394,"connected_time":366000000000,"state":"active","ping":68},{"user_id":308,"name":"Yayifications","steam_id":76561198066227208,"connected_time":8008000000000,"state":"active","ping":62},{"user_id":353,"name":"corygaming","steam_id":76561198035669409,"connected_time":4738000000000,"state":"active","ping":100},{"user_id":397,"name":"Salt","steam_id":76561199137060333,"connected_time":2490000000000,"state":"active","ping":72},{"user_id":411,"name":"motherfucker 2.0","steam_id":76561198141189209,"connected_time":1412000000000,"state":"active","ping":60},{"user_id":412,"name":"SCATTER [CTF2 DEV]","steam_id":76561198405168492,"connected_time":1349000000000,"state":"active","ping":80},{"user_id":405,"name":"Owl Pacino","steam_id":76561197979970666,"connected_time":1880000000000,"state":"active","ping":54},{"user_id":423,"name":"judesro","steam_id":76561198352244888,"connected_time":330000000000,"state":"active","ping":71},{"user_id":413,"name":"chad","steam_id":76561198216109017,"connected_time":1338000000000,"state":"active","ping":74},{"user_id":414,"name":"MasterAqua","steam_id":76561198044807380,"connected_time":1337000000000,"state":"active","ping":77},{"user_id":415,"name":"FiddyFoMike","steam_id":76561198057072581,"connected_time":1309000000000,"state":"active","ping":90},{"user_id":416,"name":"Mor. B","steam_id":76561199013410944,"connected_time":1287000000000,"state":"active","ping":107},{"user_id":399,"name":"Kapreesi","steam_id":76561198163361200,"connected_time":2426000000000,"state":"active","ping":70},{"user_id":389,"name":"des","steam_id":76561198079226634,"connected_time":2947000000000,"state":"active","ping":79},{"user_id":424,"name":"Crows!","steam_id":76561198150086324,"connected_time":195000000000,"state":"active","ping":62},{"user_id":417,"name":"Samwise565","steam_id":76561197996819083,"connected_time":1262000000000,"state":"active","ping":65},{"user_id":391,"name":"MountainDerBoss","steam_id":76561199147205485,"connected_time":2931000000000,"state":"active","ping":91},{"user_id":392,"name":"The Juice","steam_id":76561198065307144,"connected_time":2925000000000,"state":"active","ping":75},{"user_id":425,"name":"SneakyRocks","steam_id":76561198201694213,"connected_time":90000000000,"state":"active","ping":111},{"user_id":393,"name":"akirajimbo","steam_id":76561197979960008,"connected_time":2901000000000,"state":"active","ping":56},{"user_id":371,"name":"ButterDrippinOffAHotBiscuit","steam_id":76561198090378590,"connected_time":3771000000000,"state":"active","ping":73},{"user_id":421,"name":"squishy","steam_id":76561198015034116,"connected_time":789000000000,"state":"active","ping":54}]},{"server_id":37,"name":"Uncletopia | Chicago | 6 | All Maps","name_short":"chi-6","host":"chi-2.us.uncletopia.com","port":27025,"enabled":true,"region":"us-central","cc":"us","latitude":41.881832,"longitude":-87.62318,"reserved":0,"last_update":"0001-01-01T00:00:00Z","name_a2s":"Uncletopia | Chicago | 6 | All Maps","protocol":17,"map":"pl_upward","folder":"tf","game":"Team Fortress","app_id":440,"player_count":19,"max_players":24,"Bots":0,"server_type":"Dedicated","server_os":"Linux","password":true,"vac":true,"version":"7757534","steam_id":85568392924866363,"keywords":["nocrits","nodmgspread","payload","uncletopia"],"game_id":440,"stv_port":27026,"stv_name":"Uncletopia | Chicago | 6 | All Maps | STV","players":[{"user_id":372,"name":"Sink","steam_id":76561198192420249,"connected_time":23000000000,"state":"connecting","ping":89},{"user_id":295,"name":"innisfree","steam_id":76561198109065124,"connected_time":1761000000000,"state":"connecting","ping":97},{"user_id":328,"name":"6 million bees","steam_id":76561198400438007,"connected_time":1099000000000,"state":"connecting","ping":73},{"user_id":297,"name":"Lawrence Pemberton","steam_id":76561198180863090,"connected_time":1715000000000,"state":"connecting","ping":87},{"user_id":301,"name":"evan_is_sauce","steam_id":76561199086802383,"connected_time":1625000000000,"state":"connecting","ping":121},{"user_id":364,"name":"rice white","steam_id":76561198320732910,"connected_time":259000000000,"state":"connecting","ping":98},{"user_id":337,"name":"Mr. Tickle","steam_id":76561198126684647,"connected_time":832000000000,"state":"connecting","ping":77},{"user_id":172,"name":"Bri","steam_id":76561198089908485,"connected_time":10289000000000,"state":"connecting","ping":133},{"user_id":289,"name":"Pooryoungfrog","steam_id":76561199174779667,"connected_time":2345000000000,"state":"connecting","ping":83},{"user_id":362,"name":"Theory-ZaZa","steam_id":76561198116419931,"connected_time":301000000000,"state":"connecting","ping":137},{"user_id":302,"name":"Avg. Santa Believer (Nice list)","steam_id":76561198040444697,"connected_time":1605000000000,"state":"connecting","ping":80},{"user_id":305,"name":"Cloamker","steam_id":76561199135621544,"connected_time":1522000000000,"state":"connecting","ping":62},{"user_id":366,"name":"greg","steam_id":76561199195205705,"connected_time":148000000000,"state":"connecting","ping":89},{"user_id":308,"name":"Dusk","steam_id":76561199093333752,"connected_time":1432000000000,"state":"connecting","ping":78},{"user_id":370,"name":"nemesis","steam_id":76561198115050507,"connected_time":69000000000,"state":"connecting","ping":69},{"user_id":345,"name":"weed dragon of rad","steam_id":76561198064342804,"connected_time":665000000000,"state":"connecting","ping":225}]},{"server_id":38,"name":"Uncletopia | Chicago | 7 | Stopwatch Beta","name_short":"chi-7","host":"chi-2.us.uncletopia.com","port":27035,"enabled":true,"region":"us-central","cc":"us","latitude":41.881832,"longitude":-87.62318,"reserved":0,"last_update":"0001-01-01T00:00:00Z","name_a2s":"Uncletopia | Chicago | 7 | Stopwatch Beta","protocol":17,"map":"workshop/cp_reckoner_rc6.ugc674719999","folder":"tf","game":"Team Fortress","app_id":440,"player_count":17,"max_players":24,"Bots":0,"server_type":"Dedicated","server_os":"Linux","password":true,"vac":true,"version":"7757534","steam_id":85568392924866364,"keywords":["cp","nocrits","nodmgspread","uncletopia"],"game_id":440,"stv_port":27036,"stv_name":"Uncletopia | Chicago | 7 | Stopwatch Beta | STV","players":[{"user_id":103,"name":"cookiegenius2398.r2","steam_id":76561198970759258,"connected_time":1051000000000,"state":"active","ping":86},{"user_id":125,"name":"Ocktorock","steam_id":76561198211636619,"connected_time":144000000000,"state":"active","ping":98},{"user_id":126,"name":"cristianfrascino","steam_id":76561198029291302,"connected_time":87000000000,"state":"active","ping":206},{"user_id":118,"name":"kermitcreeper(ZAZA)","steam_id":76561199222829972,"connected_time":430000000000,"state":"active","ping":54},{"user_id":112,"name":"Tuck Tucker the truck Fucker","steam_id":76561199124365886,"connected_time":756000000000,"state":"active","ping":73},{"user_id":122,"name":"A S T R A L","steam_id":76561198350245055,"connected_time":289000000000,"state":"active","ping":64},{"user_id":127,"name":"beees?","steam_id":76561198024549500,"connected_time":64000000000,"state":"active","ping":114},{"user_id":18,"name":"Porytal","steam_id":76561198306101889,"connected_time":6241000000000,"state":"active","ping":94},{"user_id":20,"name":"girr","steam_id":76561198995114110,"connected_time":6203000000000,"state":"active","ping":115},{"user_id":81,"name":"Your Uncle named  Rick","steam_id":76561199396787833,"connected_time":2075000000000,"state":"active","ping":89},{"user_id":116,"name":":\u003c","steam_id":76561198361326855,"connected_time":604000000000,"state":"active","ping":56},{"user_id":97,"name":"kris736","steam_id":76561198038208255,"connected_time":1296000000000,"state":"active","ping":45},{"user_id":108,"name":"Ejaculation Zach","steam_id":76561198203765200,"connected_time":1014000000000,"state":"active","ping":59},{"user_id":95,"name":"Turk Turkleton","steam_id":76561198073265101,"connected_time":1367000000000,"state":"active","ping":88},{"user_id":117,"name":"Neckbeard","steam_id":76561198167546068,"connected_time":513000000000,"state":"active","ping":45},{"user_id":52,"name":"Juanelo","steam_id":76561199096390505,"connected_time":3520000000000,"state":"active","ping":101},{"user_id":124,"name":"faxxy","steam_id":76561198079621240,"connected_time":270000000000,"state":"active","ping":90}]},{"server_id":39,"name":"Uncletopia | Chicago | 8 | Community","name_short":"chi-8","host":"chi-2.us.uncletopia.com","port":27045,"enabled":true,"region":"us-central","cc":"us","latitude":41.881832,"longitude":-87.62318,"reserved":0,"last_update":"0001-01-01T00:00:00Z","name_a2s":"Uncletopia | Chicago | 8 | Community","protocol":17,"map":"workshop/koth_slaughter_rc1.ugc1712845210","folder":"tf","game":"Team Fortress","app_id":440,"player_count":0,"max_players":24,"Bots":0,"server_type":"Dedicated","server_os":"Linux","password":true,"vac":true,"version":"7757534","steam_id":85568392924866365,"keywords":["cp","nocrits","nodmgspread","uncletopia"],"game_id":440,"stv_port":27046,"stv_name":"Uncletopia | Chicago | 8 | Community | STV","players":null},{"server_id":8,"name":"Uncletopia | Dallas | 1 | All Maps","name_short":"dal-1","host":"dal-1.us.uncletopia.com","port":27015,"enabled":true,"region":"us-central","cc":"us","latitude":32.779167,"longitude":-96.80889,"reserved":0,"last_update":"0001-01-01T00:00:00Z","name_a2s":"Uncletopia | Dallas | 1 | All Maps","protocol":17,"map":"pl_barnblitz","folder":"tf","game":"Team Fortress","app_id":440,"player_count":24,"max_players":24,"Bots":0,"server_type":"Dedicated","server_os":"Linux","password":true,"vac":true,"version":"7757534","steam_id":85568392924469986,"keywords":["nocrits","nodmgspread","payload","uncletopia"],"game_id":440,"stv_port":27016,"stv_name":"Uncletopia | Dallas | 1 | All Maps | STV","players":[{"user_id":442,"name":"Fishstall","steam_id":76561198038126034,"connected_time":1041000000000,"state":"active","ping":64},{"user_id":430,"name":"vastrobotmax","steam_id":76561198417110724,"connected_time":1921000000000,"state":"active","ping":99},{"user_id":457,"name":"Johnny Lawrence #JohnnyMaxxing","steam_id":76561199367141671,"connected_time":450000000000,"state":"active","ping":89},{"user_id":452,"name":"Commodore_Perry","steam_id":76561197986675784,"connected_time":651000000000,"state":"active","ping":99},{"user_id":448,"name":"the fella","steam_id":76561198967158026,"connected_time":787000000000,"state":"active","ping":75},{"user_id":451,"name":"Screaming Fox","steam_id":76561198057546002,"connected_time":695000000000,"state":"active","ping":44},{"user_id":441,"name":"Pitch Stick","steam_id":76561198800287853,"connected_time":1159000000000,"state":"active","ping":121},{"user_id":432,"name":"Doggo","steam_id":76561198973038585,"connected_time":1854000000000,"state":"active","ping":95},{"user_id":355,"name":"Daz","steam_id":76561198041431938,"connected_time":6808000000000,"state":"active","ping":76},{"user_id":400,"name":"bendera","steam_id":76561197965486503,"connected_time":4412000000000,"state":"active","ping":89},{"user_id":403,"name":"Jhonejay","steam_id":76561198071299850,"connected_time":4300000000000,"state":"active","ping":99},{"user_id":454,"name":"Lord Foog the 2st","steam_id":76561198073106278,"connected_time":522000000000,"state":"active","ping":67},{"user_id":420,"name":"limegrass619","steam_id":76561198167789909,"connected_time":3087000000000,"state":"active","ping":88},{"user_id":455,"name":"Kenku","steam_id":76561199086762926,"connected_time":514000000000,"state":"active","ping":65},{"user_id":453,"name":"Gliglamesh","steam_id":76561198058221449,"connected_time":601000000000,"state":"active","ping":91},{"user_id":428,"name":"FG7","steam_id":76561198381197197,"connected_time":1976000000000,"state":"active","ping":106},{"user_id":409,"name":"mr ploobmeister","steam_id":76561198128908529,"connected_time":4023000000000,"state":"active","ping":54},{"user_id":438,"name":"Tribute","steam_id":76561198081594043,"connected_time":1473000000000,"state":"active","ping":58},{"user_id":446,"name":"Razor","steam_id":76561198008415797,"connected_time":922000000000,"state":"active","ping":91},{"user_id":456,"name":"floppy muppet","steam_id":76561198003076261,"connected_time":512000000000,"state":"active","ping":79},{"user_id":458,"name":"fish fingers","steam_id":76561199078516567,"connected_time":340000000000,"state":"active","ping":118},{"user_id":413,"name":"MEDIC!","steam_id":76561198149344029,"connected_time":3222000000000,"state":"active","ping":89},{"user_id":459,"name":"Jazztral","steam_id":76561198067827514,"connected_time":228000000000,"state":"active","ping":77},{"user_id":416,"name":"Pinetree w/ apples.","steam_id":76561198105411709,"connected_time":3134000000000,"state":"active","ping":108}]},{"server_id":108,"name":"Uncletopia | Dallas | 2 | All Maps","name_short":"dal-2","host":"dal-1.us.uncletopia.com","port":27025,"enabled":true,"region":"us-central","cc":"us","latitude":32.779167,"longitude":-96.80889,"reserved":0,"last_update":"0001-01-01T00:00:00Z","name_a2s":"Uncletopia | Dallas | 2 | All Maps","protocol":17,"map":"koth_viaduct","folder":"tf","game":"Team Fortress","app_id":440,"player_count":9,"max_players":24,"Bots":0,"server_type":"Dedicated","server_os":"Linux","password":true,"vac":true,"version":"7757534","steam_id":85568392924469988,"keywords":["cp","nocrits","nodmgspread","uncletopia"],"game_id":440,"stv_port":27026,"stv_name":"Uncletopia | Dallas | 2 | All Maps | STV","players":[{"user_id":269,"name":"hoOmIN","steam_id":76561198334947079,"connected_time":209000000000,"state":"active","ping":62},{"user_id":264,"name":"Kaiser_will","steam_id":76561198198680293,"connected_time":597000000000,"state":"active","ping":68},{"user_id":267,"name":"GLG MUTT","steam_id":76561198147785541,"connected_time":351000000000,"state":"active","ping":59},{"user_id":270,"name":"Woogie Woogy Boogie","steam_id":76561198269471732,"connected_time":161000000000,"state":"active","ping":46},{"user_id":259,"name":"watchfull","steam_id":76561198433266742,"connected_time":1266000000000,"state":"active","ping":103},{"user_id":268,"name":"I stole your bike seat","steam_id":76561197975625699,"connected_time":273000000000,"state":"active","ping":75},{"user_id":271,"name":"Fawny","steam_id":76561198311363172,"connected_time":119000000000,"state":"active","ping":58},{"user_id":272,"name":"Tibbs","steam_id":76561198381085658,"connected_time":114000000000,"state":"active","ping":58},{"user_id":273,"name":"X0X2","steam_id":76561198418503762,"connected_time":0,"state":"connecting","ping":0}]},{"server_id":5,"name":"Uncletopia | Frankfurt | 1 | All Maps","name_short":"frk-1","host":"frk-1.de.uncletopia.com","port":27015,"enabled":true,"region":"eu","cc":"de","latitude":50.110924,"longitude":8.682127,"reserved":0,"last_update":"0001-01-01T00:00:00Z","name_a2s":"Uncletopia | Frankfurt | 1 | All Maps","protocol":17,"map":"cp_snakewater_final1","folder":"tf","game":"Team Fortress","app_id":440,"player_count":0,"max_players":24,"Bots":0,"server_type":"Dedicated","server_os":"Linux","password":true,"vac":true,"version":"7757534","steam_id":85568392924469989,"keywords":["cp","nocrits","nodmgspread","uncletopia"],"game_id":440,"stv_port":27016,"stv_name":"Uncletopia | Frankfurt | 1 | All Maps | STV","players":null},{"server_id":110,"name":"Uncletopia | Frankfurt | 2 | All Maps","name_short":"frk-2","host":"frk-1.de.uncletopia.com","port":27025,"enabled":true,"region":"eu","cc":"de","latitude":50.110924,"longitude":8.682127,"reserved":0,"last_update":"0001-01-01T00:00:00Z","name_a2s":"Uncletopia | Frankfurt | 2 | All Maps","protocol":17,"map":"pl_swiftwater_final1","folder":"tf","game":"Team Fortress","app_id":440,"player_count":0,"max_players":24,"Bots":0,"server_type":"Dedicated","server_os":"Linux","password":true,"vac":true,"version":"7757534","steam_id":85568392924469990,"keywords":["nocrits","nodmgspread","payload","uncletopia"],"game_id":440,"stv_port":27026,"stv_name":"Uncletopia | Frankfurt | 2 | All Maps | STV","players":null},{"server_id":308,"name":"Uncletopia | Frankfurt | 3 | All Maps","name_short":"frk-3","host":"frk-1.de.uncletopia.com","port":27035,"enabled":true,"region":"eu","cc":"de","latitude":50.110924,"longitude":8.682127,"reserved":0,"last_update":"0001-01-01T00:00:00Z","name_a2s":"Uncletopia | Frankfurt | 3 | All Maps","protocol":17,"map":"pl_borneo","folder":"tf","game":"Team Fortress","app_id":440,"player_count":25,"max_players":24,"Bots":0,"server_type":"Dedicated","server_os":"Linux","password":true,"vac":true,"version":"7757534","steam_id":85568392924504274,"keywords":["nocrits","nodmgspread","payload","uncletopia"],"game_id":440,"stv_port":27036,"stv_name":"Uncletopia | Frankfurt | 3 | All Maps | STV","players":[{"user_id":784,"name":"KennyD || LFT","steam_id":76561198117763254,"connected_time":900000000000,"state":"active","ping":76},{"user_id":807,"name":"Nikita","steam_id":76561198139916298,"connected_time":174000000000,"state":"active","ping":59},{"user_id":792,"name":"Minigrim0","steam_id":76561198087819466,"connected_time":706000000000,"state":"active","ping":85},{"user_id":694,"name":"New","steam_id":76561198402195911,"connected_time":4144000000000,"state":"active","ping":110},{"user_id":701,"name":"Refurbished Boy","steam_id":76561197995834697,"connected_time":3754000000000,"state":"active","ping":89},{"user_id":799,"name":"Vezage","steam_id":76561198064916164,"connected_time":538000000000,"state":"active","ping":74},{"user_id":766,"name":"Mr.O #deletesniper","steam_id":76561198039567498,"connected_time":1464000000000,"state":"active","ping":59},{"user_id":721,"name":"miracle man","steam_id":76561199170488594,"connected_time":2947000000000,"state":"active","ping":81},{"user_id":787,"name":"Grape. \u003c3","steam_id":76561198855628966,"connected_time":777000000000,"state":"active","ping":73},{"user_id":724,"name":"Mike Kerman","steam_id":76561198038257570,"connected_time":2880000000000,"state":"active","ping":71},{"user_id":790,"name":"Arthur","steam_id":76561198114107421,"connected_time":733000000000,"state":"active","ping":81},{"user_id":768,"name":"Pvt. Grichmann","steam_id":76561197977589522,"connected_time":1447000000000,"state":"active","ping":75},{"user_id":722,"name":"SIR MEPHEDRONE","steam_id":76561198302623594,"connected_time":2946000000000,"state":"active","ping":92},{"user_id":769,"name":"Dee","steam_id":76561198257836694,"connected_time":1418000000000,"state":"active","ping":50},{"user_id":770,"name":"joachym","steam_id":76561198428579761,"connected_time":1411000000000,"state":"active","ping":56},{"user_id":771,"name":"Aesthetic Alcoholism","steam_id":76561198044418968,"connected_time":1371000000000,"state":"active","ping":49},{"user_id":772,"name":"cinny","steam_id":76561198832112629,"connected_time":1335000000000,"state":"active","ping":75},{"user_id":795,"name":"Mantis Toboggan, M.D","steam_id":76561197963562704,"connected_time":635000000000,"state":"active","ping":64},{"user_id":791,"name":"Tomaash","steam_id":76561198115542042,"connected_time":730000000000,"state":"active","ping":61},{"user_id":738,"name":"stickyspaghetti45","steam_id":76561199418489332,"connected_time":2680000000000,"state":"active","ping":62},{"user_id":760,"name":"ignatowski","steam_id":76561197960881723,"connected_time":1865000000000,"state":"active","ping":69},{"user_id":806,"name":"Gryoss","steam_id":76561197999837111,"connected_time":178000000000,"state":"active","ping":106},{"user_id":783,"name":"dnl","steam_id":76561198074156929,"connected_time":1021000000000,"state":"active","ping":86},{"user_id":745,"name":"XavierSweet","steam_id":76561198091781913,"connected_time":2607000000000,"state":"active","ping":67},{"user_id":811,"name":"YEEET","steam_id":76561198914938199,"connected_time":1000000000,"state":"spawning","ping":55}]},{"server_id":309,"name":"Uncletopia | Frankfurt | 4 | All Maps","name_short":"frk-4","host":"frk-1.de.uncletopia.com","port":27045,"enabled":true,"region":"eu","cc":"de","latitude":50.110924,"longitude":8.682127,"reserved":0,"last_update":"0001-01-01T00:00:00Z","name_a2s":"Uncletopia | Frankfurt | 4 | All Maps","protocol":17,"map":"pl_barnblitz","folder":"tf","game":"Team Fortress","app_id":440,"player_count":0,"max_players":24,"Bots":0,"server_type":"Dedicated","server_os":"Linux","password":true,"vac":true,"version":"7757534","steam_id":85568392924504275,"keywords":["nocrits","nodmgspread","payload","uncletopia"],"game_id":440,"stv_port":27046,"stv_name":"Uncletopia | Frankfurt | 4 | All Maps | STV","players":null},{"server_id":310,"name":"Uncletopia | Frankfurt | 5 | All Maps","name_short":"frk-5","host":"frk-1.de.uncletopia.com","port":27055,"enabled":true,"region":"eu","cc":"de","latitude":50.110924,"longitude":8.682127,"reserved":0,"last_update":"0001-01-01T00:00:00Z","name_a2s":"Uncletopia | Frankfurt | 5 | All Maps","protocol":17,"map":"pl_swiftwater_final1","folder":"tf","game":"Team Fortress","app_id":440,"player_count":24,"max_players":24,"Bots":0,"server_type":"Dedicated","server_os":"Linux","password":true,"vac":true,"version":"7757534","steam_id":85568392924504277,"keywords":["nocrits","nodmgspread","payload","uncletopia"],"game_id":440,"stv_port":27056,"stv_name":"Uncletopia | Frankfurt | 5 | All Maps | STV","players":[{"user_id":669,"name":"Videogamer","steam_id":76561198106012909,"connected_time":1790000000000,"state":"active","ping":62},{"user_id":687,"name":"ChickyCoop","steam_id":76561199072983488,"connected_time":506000000000,"state":"active","ping":70},{"user_id":689,"name":"travis","steam_id":76561198138119811,"connected_time":302000000000,"state":"active","ping":57},{"user_id":690,"name":"Jiant","steam_id":76561198374998274,"connected_time":283000000000,"state":"active","ping":86},{"user_id":673,"name":"GigaGuenther","steam_id":76561198257633868,"connected_time":972000000000,"state":"active","ping":54},{"user_id":651,"name":"ambatukam","steam_id":76561198175433731,"connected_time":4228000000000,"state":"active","ping":72},{"user_id":677,"name":"Reizei","steam_id":76561198148504042,"connected_time":867000000000,"state":"active","ping":67},{"user_id":637,"name":"Vosteria","steam_id":76561198290253884,"connected_time":5428000000000,"state":"active","ping":90},{"user_id":670,"name":"Aras","steam_id":76561198160394046,"connected_time":1770000000000,"state":"active","ping":106},{"user_id":678,"name":"I do hate crime","steam_id":76561198102420849,"connected_time":857000000000,"state":"active","ping":62},{"user_id":688,"name":"lit:3","steam_id":76561198164806677,"connected_time":420000000000,"state":"active","ping":74},{"user_id":672,"name":"weaselmeister","steam_id":76561199059841173,"connected_time":1007000000000,"state":"active","ping":60},{"user_id":660,"name":"s a i","steam_id":76561197970379754,"connected_time":2879000000000,"state":"active","ping":55},{"user_id":680,"name":"water connoisseur","steam_id":76561198256573643,"connected_time":831000000000,"state":"active","ping":71},{"user_id":598,"name":"im just clicking mouse","steam_id":76561198164723910,"connected_time":7797000000000,"state":"active","ping":65},{"user_id":606,"name":"Pico","steam_id":76561198063552545,"connected_time":7298000000000,"state":"active","ping":97},{"user_id":663,"name":"Val23","steam_id":76561198099480715,"connected_time":2544000000000,"state":"active","ping":48},{"user_id":671,"name":"boy","steam_id":76561198162462063,"connected_time":1624000000000,"state":"active","ping":65},{"user_id":639,"name":"Krocon","steam_id":76561198084906316,"connected_time":5366000000000,"state":"active","ping":84},{"user_id":681,"name":"minn","steam_id":76561198099101232,"connected_time":829000000000,"state":"active","ping":61},{"user_id":684,"name":"Pyr0s_Fx","steam_id":76561198057201503,"connected_time":719000000000,"state":"active","ping":55},{"user_id":617,"name":"Mr_Pulse_","steam_id":76561198095001602,"connected_time":6385000000000,"state":"active","ping":88},{"user_id":686,"name":"DemoKnight™","steam_id":76561199152186875,"connected_time":550000000000,"state":"active","ping":157},{"user_id":683,"name":"Ducc","steam_id":76561198030677425,"connected_time":805000000000,"state":"active","ping":50}]},{"server_id":311,"name":"Uncletopia | Frankfurt | 6 | All Maps","name_short":"frk-6","host":"frk-1.de.uncletopia.com","port":27065,"enabled":true,"region":"eu","cc":"de","latitude":50.110924,"longitude":8.682127,"reserved":0,"last_update":"0001-01-01T00:00:00Z","name_a2s":"Uncletopia | Frankfurt | 6 | All Maps","protocol":17,"map":"cp_process_final","folder":"tf","game":"Team Fortress","app_id":440,"player_count":0,"max_players":24,"Bots":0,"server_type":"Dedicated","server_os":"Linux","password":true,"vac":true,"version":"7757534","steam_id":85568392924504278,"keywords":["cp","nocrits","nodmgspread","uncletopia"],"game_id":440,"stv_port":27066,"stv_name":"Uncletopia | Frankfurt | 6 | All Maps | STV","players":null},{"server_id":23,"name":"Uncletopia | Frankfurt | 7 | Stopwatch Beta","name_short":"frk-7","host":"frk-1.de.uncletopia.com","port":27075,"enabled":true,"region":"eu","cc":"de","latitude":50.110924,"longitude":8.682127,"reserved":0,"last_update":"0001-01-01T00:00:00Z","name_a2s":"Uncletopia | Frankfurt | 7 | Stopwatch Beta","protocol":17,"map":"koth_lakeside_final","folder":"tf","game":"Team Fortress","app_id":440,"player_count":0,"max_players":24,"Bots":0,"server_type":"Dedicated","server_os":"Linux","password":true,"vac":true,"version":"7757534","steam_id":85568392924742827,"keywords":["cp","nocrits","nodmgspread","uncletopia"],"game_id":440,"stv_port":27076,"stv_name":"Uncletopia | Frankfurt | 7 | Stopwatch Beta | STV","players":null},{"server_id":24,"name":"Uncletopia | Frankfurt | 8 | Community","name_short":"frk-8","host":"frk-1.de.uncletopia.com","port":27085,"enabled":true,"region":"eu","cc":"de","latitude":50.110924,"longitude":8.682127,"reserved":0,"last_update":"0001-01-01T00:00:00Z","name_a2s":"Uncletopia | Frankfurt | 8 | Community","protocol":17,"map":"workshop/koth_synthetic_rc6a.ugc1549817316","folder":"tf","game":"Team Fortress","app_id":440,"player_count":0,"max_players":24,"Bots":0,"server_type":"Dedicated","server_os":"Linux","password":true,"vac":true,"version":"7757534","steam_id":85568392924742828,"keywords":["cp","nocrits","nodmgspread","uncletopia"],"game_id":440,"stv_port":27086,"stv_name":"Uncletopia | Frankfurt | 8 | Community | STV","players":null},{"server_id":202,"name":"Uncletopia | Hong Kong | 1 | All Maps","name_short":"hgk-1","host":"hgk-1.hk.uncletopia.com","port":27015,"enabled":true,"region":"asia","cc":"hk","latitude":22.302711,"longitude":114.177216,"reserved":0,"last_update":"0001-01-01T00:00:00Z","name_a2s":"Uncletopia | Hong Kong | 1 | All Maps","protocol":17,"map":"pl_frontier_final","folder":"tf","game":"Team Fortress","app_id":440,"player_count":1,"max_players":24,"Bots":0,"server_type":"Dedicated","server_os":"Linux","password":true,"vac":true,"version":"7757534","steam_id":85568392924494504,"keywords":["nocrits","nodmgspread","payload","uncletopia"],"game_id":440,"stv_port":27016,"stv_name":"Uncletopia | Hong Kong | 1 | All Maps | STV","players":[{"user_id":5,"name":"Bertengkar","steam_id":76561198213031155,"connected_time":632000000000,"state":"active","ping":87}]},{"server_id":1,"name":"Uncletopia | Los Angeles | 1 | All Maps","name_short":"lax-1","host":"lax-1.us.uncletopia.com","port":27015,"enabled":true,"region":"us-west","cc":"us","latitude":33.94279,"longitude":-118.41004,"reserved":0,"last_update":"0001-01-01T00:00:00Z","name_a2s":"Uncletopia | Los Angeles | 1 | All Maps","protocol":17,"map":"pl_snowycoast","folder":"tf","game":"Team Fortress","app_id":440,"player_count":24,"max_players":24,"Bots":0,"server_type":"Dedicated","server_os":"Linux","password":true,"vac":true,"version":"7757534","steam_id":85568392924469991,"keywords":["nocrits","nodmgspread","payload","uncletopia"],"game_id":440,"stv_port":27016,"stv_name":"Uncletopia | Los Angeles | 1 | All Maps | STV","players":[{"user_id":240,"name":"closet weeb","steam_id":76561198405434083,"connected_time":3947000000000,"state":"active","ping":37},{"user_id":242,"name":"Feel the bern","steam_id":76561198078824519,"connected_time":3819000000000,"state":"active","ping":45},{"user_id":276,"name":"walrooos ✿","steam_id":76561198024521839,"connected_time":967000000000,"state":"active","ping":48},{"user_id":255,"name":"Chad the Sex Haver","steam_id":76561198058236528,"connected_time":2657000000000,"state":"active","ping":53},{"user_id":266,"name":"corbenis","steam_id":76561199012442511,"connected_time":1625000000000,"state":"active","ping":54},{"user_id":279,"name":"Wise Mystical Tree","steam_id":76561198377835843,"connected_time":781000000000,"state":"active","ping":93},{"user_id":280,"name":"MagicSooup","steam_id":76561198988280325,"connected_time":631000000000,"state":"active","ping":91},{"user_id":277,"name":"Pulse","steam_id":76561198445854315,"connected_time":925000000000,"state":"active","ping":56},{"user_id":286,"name":"32K","steam_id":76561198145784505,"connected_time":27000000000,"state":"active","ping":46},{"user_id":270,"name":"ape (real)","steam_id":76561198379444671,"connected_time":1485000000000,"state":"active","ping":102},{"user_id":265,"name":"Melon Doge","steam_id":76561199006526991,"connected_time":1853000000000,"state":"active","ping":54},{"user_id":236,"name":"chango","steam_id":76561199164365863,"connected_time":4054000000000,"state":"active","ping":60},{"user_id":275,"name":"Killerofzombie23","steam_id":76561198799173778,"connected_time":1002000000000,"state":"active","ping":75},{"user_id":260,"name":"Honeybunch","steam_id":76561198014850580,"connected_time":2446000000000,"state":"active","ping":65},{"user_id":283,"name":"ThiccyBoi","steam_id":76561198836540230,"connected_time":349000000000,"state":"active","ping":77},{"user_id":216,"name":"Grungus","steam_id":76561198047700230,"connected_time":5315000000000,"state":"active","ping":59},{"user_id":281,"name":"Angy Santa is angry","steam_id":76561198294252200,"connected_time":629000000000,"state":"active","ping":128},{"user_id":285,"name":"Yukihana","steam_id":76561198348354629,"connected_time":260000000000,"state":"active","ping":50},{"user_id":237,"name":"Moshi Man","steam_id":76561198038249762,"connected_time":4044000000000,"state":"active","ping":105},{"user_id":217,"name":"Coolbeans4Evah","steam_id":76561198840823486,"connected_time":5242000000000,"state":"active","ping":116},{"user_id":271,"name":"Jonatello","steam_id":76561198045699189,"connected_time":1300000000000,"state":"active","ping":75},{"user_id":261,"name":"Santa Carl","steam_id":76561198058349172,"connected_time":2426000000000,"state":"active","ping":45},{"user_id":263,"name":"Ayyyy","steam_id":76561198121729211,"connected_time":2064000000000,"state":"active","ping":55},{"user_id":273,"name":"spookyturtle","steam_id":76561198079622859,"connected_time":1064000000000,"state":"active","ping":55}]},{"server_id":112,"name":"Uncletopia | Los Angeles | 2 | All Maps","name_short":"lax-2","host":"lax-1.us.uncletopia.com","port":27025,"enabled":true,"region":"us-west","cc":"us","latitude":33.94279,"longitude":-118.41004,"reserved":0,"last_update":"0001-01-01T00:00:00Z","name_a2s":"Uncletopia | Los Angeles | 2 | All Maps","protocol":17,"map":"cp_mountainlab","folder":"tf","game":"Team Fortress","app_id":440,"player_count":0,"max_players":24,"Bots":0,"server_type":"Dedicated","server_os":"Linux","password":true,"vac":true,"version":"7757534","steam_id":85568392924469992,"keywords":["cp","nocrits","nodmgspread","uncletopia"],"game_id":440,"stv_port":27026,"stv_name":"Uncletopia | Los Angeles | 2 | All Maps | STV","players":null},{"server_id":324,"name":"Uncletopia | Los Angeles | 3 | All Maps","name_short":"lax-3","host":"lax-1.us.uncletopia.com","port":27035,"enabled":true,"region":"us-west","cc":"us","latitude":33.94279,"longitude":-118.41004,"reserved":0,"last_update":"0001-01-01T00:00:00Z","name_a2s":"Uncletopia | Los Angeles | 3 | All Maps","protocol":17,"map":"koth_highpass","folder":"tf","game":"Team Fortress","app_id":440,"player_count":0,"max_players":24,"Bots":0,"server_type":"Dedicated","server_os":"Linux","password":true,"vac":true,"version":"7757534","steam_id":85568392924510198,"keywords":["cp","nocrits","nodmgspread","uncletopia"],"game_id":440,"stv_port":27036,"stv_name":"Uncletopia | Los Angeles | 3 | All Maps | STV","players":null},{"server_id":25,"name":"Uncletopia | Los Angeles | 4 | Stopwatch Beta","name_short":"lax-4","host":"lax-1.us.uncletopia.com","port":27045,"enabled":true,"region":"us-west","cc":"us","latitude":33.94279,"longitude":-118.41004,"reserved":0,"last_update":"0001-01-01T00:00:00Z","name_a2s":"Uncletopia | Los Angeles | 4 | Stopwatch Beta","protocol":17,"map":"koth_viaduct","folder":"tf","game":"Team Fortress","app_id":440,"player_count":0,"max_players":24,"Bots":0,"server_type":"Dedicated","server_os":"Linux","password":true,"vac":true,"version":"7757534","steam_id":85568392924510199,"keywords":["cp","nocrits","nodmgspread","uncletopia"],"game_id":440,"stv_port":27046,"stv_name":"Uncletopia | Los Angeles | 4 | Stopwatch Beta | STV","players":null},{"server_id":11,"name":"Uncletopia | London | 1 | All Maps","name_short":"lon-1","host":"lon-1.uk.uncletopia.com","port":27015,"enabled":true,"region":"eu","cc":"gb","latitude":51.509865,"longitude":-0.118092,"reserved":0,"last_update":"0001-01-01T00:00:00Z","name_a2s":"Uncletopia | London | 1 | All Maps","protocol":17,"map":"pl_badwater","folder":"tf","game":"Team Fortress","app_id":440,"player_count":24,"max_players":24,"Bots":0,"server_type":"Dedicated","server_os":"Linux","password":true,"vac":true,"version":"7757534","steam_id":85568392924367362,"keywords":["nocrits","nodmgspread","payload","uncletopia"],"game_id":440,"stv_port":27016,"stv_name":"Uncletopia | London | 1 | All Maps | STV","players":[{"user_id":845,"name":"Insain Bolt!","steam_id":76561198025687726,"connected_time":3444000000000,"state":"active","ping":74},{"user_id":846,"name":"ªKirukato04","steam_id":76561199059960968,"connected_time":3418000000000,"state":"active","ping":101},{"user_id":848,"name":"사과","steam_id":76561198268144086,"connected_time":3401000000000,"state":"active","ping":72},{"user_id":847,"name":"Cabbch","steam_id":76561198045955679,"connected_time":3414000000000,"state":"active","ping":45},{"user_id":888,"name":"LSKi","steam_id":76561198215470228,"connected_time":497000000000,"state":"active","ping":66},{"user_id":876,"name":"alf","steam_id":76561198060249715,"connected_time":1612000000000,"state":"active","ping":50},{"user_id":882,"name":"Bones","steam_id":76561198065081225,"connected_time":593000000000,"state":"active","ping":63},{"user_id":793,"name":"André","steam_id":76561198848885591,"connected_time":8392000000000,"state":"active","ping":99},{"user_id":891,"name":"Kupusari d.o.o.","steam_id":76561198320880046,"connected_time":301000000000,"state":"active","ping":81},{"user_id":816,"name":"Tigas","steam_id":76561198930230191,"connected_time":6104000000000,"state":"active","ping":99},{"user_id":890,"name":"Lethal","steam_id":76561198452042648,"connected_time":387000000000,"state":"active","ping":69},{"user_id":865,"name":"sora","steam_id":76561198096547662,"connected_time":2703000000000,"state":"active","ping":57},{"user_id":854,"name":"StreetYouster","steam_id":76561198150204821,"connected_time":3244000000000,"state":"active","ping":66},{"user_id":885,"name":"Control Panel","steam_id":76561198154677956,"connected_time":556000000000,"state":"active","ping":72},{"user_id":883,"name":"PluNgBe","steam_id":76561198131100420,"connected_time":592000000000,"state":"active","ping":58},{"user_id":819,"name":"EdSuedi","steam_id":76561199387956486,"connected_time":5622000000000,"state":"active","ping":60},{"user_id":877,"name":"Eco","steam_id":76561199201938256,"connected_time":1443000000000,"state":"active","ping":88},{"user_id":852,"name":"snki","steam_id":76561198324048855,"connected_time":3346000000000,"state":"active","ping":48},{"user_id":874,"name":"Uncle Owen","steam_id":76561198157999291,"connected_time":2150000000000,"state":"active","ping":82},{"user_id":853,"name":"Penis Contortionist","steam_id":76561198073663784,"connected_time":3330000000000,"state":"active","ping":47},{"user_id":879,"name":"✪ J","steam_id":76561198094911581,"connected_time":605000000000,"state":"active","ping":55},{"user_id":887,"name":"Yeet ;)","steam_id":76561199376340789,"connected_time":553000000000,"state":"active","ping":113},{"user_id":880,"name":"Jacoblock","steam_id":76561198298485043,"connected_time":603000000000,"state":"active","ping":57},{"user_id":881,"name":"Soph","steam_id":76561198131688853,"connected_time":603000000000,"state":"active","ping":45}]},{"server_id":114,"name":"Uncletopia | London | 2 | All Maps","name_short":"lon-2","host":"lon-1.uk.uncletopia.com","port":27025,"enabled":true,"region":"eu","cc":"gb","latitude":51.509865,"longitude":-0.118092,"reserved":0,"last_update":"0001-01-01T00:00:00Z","name_a2s":"Uncletopia | London | 2 | All Maps","protocol":17,"map":"pl_pier","folder":"tf","game":"Team Fortress","app_id":440,"player_count":24,"max_players":24,"Bots":0,"server_type":"Dedicated","server_os":"Linux","password":true,"vac":true,"version":"7757534","steam_id":85568392924470941,"keywords":["nocrits","nodmgspread","payload","uncletopia"],"game_id":440,"stv_port":27026,"stv_name":"Uncletopia | London | 2 | All Maps | STV","players":[{"user_id":767,"name":"Bentley","steam_id":76561197978252169,"connected_time":3941000000000,"state":"active","ping":61},{"user_id":811,"name":"Star in a pond","steam_id":76561198205501279,"connected_time":238000000000,"state":"active","ping":106},{"user_id":809,"name":"Swancky","steam_id":76561199147065433,"connected_time":675000000000,"state":"active","ping":81},{"user_id":743,"name":"E","steam_id":76561198166340115,"connected_time":5470000000000,"state":"active","ping":52},{"user_id":786,"name":"rummy","steam_id":76561197997573379,"connected_time":2142000000000,"state":"active","ping":53},{"user_id":771,"name":"Phalcon","steam_id":76561197987051394,"connected_time":3851000000000,"state":"active","ping":85},{"user_id":787,"name":"Fox","steam_id":76561198052541711,"connected_time":2133000000000,"state":"active","ping":65},{"user_id":799,"name":"Mango","steam_id":76561198139555709,"connected_time":1199000000000,"state":"active","ping":56},{"user_id":795,"name":"dems","steam_id":76561198122546674,"connected_time":1533000000000,"state":"active","ping":45},{"user_id":776,"name":"DarthMurloc_OW","steam_id":76561198075577711,"connected_time":3238000000000,"state":"active","ping":90},{"user_id":801,"name":"Fmow!","steam_id":76561198805834759,"connected_time":923000000000,"state":"active","ping":115},{"user_id":802,"name":"Intern","steam_id":76561198062744679,"connected_time":921000000000,"state":"active","ping":71},{"user_id":805,"name":"doc","steam_id":76561198000050301,"connected_time":758000000000,"state":"active","ping":46},{"user_id":773,"name":"Jarl SwagDog","steam_id":76561198097553711,"connected_time":3779000000000,"state":"active","ping":118},{"user_id":810,"name":"Milk","steam_id":76561198125876588,"connected_time":616000000000,"state":"active","ping":42},{"user_id":808,"name":"chef","steam_id":76561197991368897,"connected_time":706000000000,"state":"active","ping":60},{"user_id":760,"name":"SuntanPikachu","steam_id":76561198121242476,"connected_time":4859000000000,"state":"active","ping":57},{"user_id":804,"name":"kugs","steam_id":76561198009614820,"connected_time":832000000000,"state":"active","ping":65},{"user_id":797,"name":"scuM--","steam_id":76561198273679047,"connected_time":1378000000000,"state":"active","ping":45},{"user_id":789,"name":"homeinvasion$","steam_id":76561199111905021,"connected_time":2098000000000,"state":"active","ping":115},{"user_id":790,"name":"Scottish Fox","steam_id":76561198052990270,"connected_time":2088000000000,"state":"active","ping":58},{"user_id":766,"name":"Noodle","steam_id":76561198306486695,"connected_time":4091000000000,"state":"active","ping":73},{"user_id":806,"name":"Holz is sleepy","steam_id":76561197994205997,"connected_time":753000000000,"state":"active","ping":46},{"user_id":807,"name":"The destroyer of foreskin","steam_id":76561198135275966,"connected_time":748000000000,"state":"active","ping":156}]},{"server_id":320,"name":"Uncletopia | London | 3 | All Maps","name_short":"lon-3","host":"lon-1.uk.uncletopia.com","port":27035,"enabled":true,"region":"eu","cc":"gb","latitude":51.509865,"longitude":-0.118092,"reserved":0,"last_update":"0001-01-01T00:00:00Z","name_a2s":"Uncletopia | London | 3 | All Maps","protocol":17,"map":"pl_goldrush","folder":"tf","game":"Team Fortress","app_id":440,"player_count":23,"max_players":24,"Bots":0,"server_type":"Dedicated","server_os":"Linux","password":true,"vac":true,"version":"7757534","steam_id":85568392924510192,"keywords":["nocrits","nodmgspread","payload","uncletopia"],"game_id":440,"stv_port":27036,"stv_name":"Uncletopia | London | 3 | All Maps | STV","players":[{"user_id":1242,"name":"TaiDni","steam_id":76561198087750392,"connected_time":324000000000,"state":"active","ping":60},{"user_id":1251,"name":"Negurescu","steam_id":76561198128777349,"connected_time":17000000000,"state":"spawning","ping":71},{"user_id":1245,"name":"Odoacre","steam_id":76561198110772276,"connected_time":286000000000,"state":"active","ping":59},{"user_id":1215,"name":"ArmedWithWings","steam_id":76561198154615474,"connected_time":2351000000000,"state":"active","ping":102},{"user_id":1246,"name":"r/egg_irl enthusiast","steam_id":76561198262682428,"connected_time":232000000000,"state":"active","ping":67},{"user_id":1238,"name":"Silent Person","steam_id":76561198107763537,"connected_time":616000000000,"state":"active","ping":72},{"user_id":1202,"name":"sam-","steam_id":76561198013770973,"connected_time":2892000000000,"state":"active","ping":70},{"user_id":1227,"name":"siental","steam_id":76561198275457864,"connected_time":1730000000000,"state":"active","ping":38},{"user_id":1206,"name":"Swedde","steam_id":76561198297296440,"connected_time":2842000000000,"state":"active","ping":69},{"user_id":1217,"name":"git bash -er","steam_id":76561198072586494,"connected_time":2179000000000,"state":"active","ping":39},{"user_id":1240,"name":"memelad","steam_id":76561198031374975,"connected_time":522000000000,"state":"active","ping":159},{"user_id":1239,"name":"The Sunnyshot","steam_id":76561198086787499,"connected_time":550000000000,"state":"active","ping":104},{"user_id":1167,"name":"Gempooh","steam_id":76561198098463950,"connected_time":4845000000000,"state":"active","ping":76},{"user_id":1221,"name":"professional badass monkey","steam_id":76561198326249290,"connected_time":1946000000000,"state":"active","ping":66},{"user_id":1234,"name":"Marco Fraggaro","steam_id":76561198047375585,"connected_time":1265000000000,"state":"active","ping":98},{"user_id":1232,"name":"Benn0","steam_id":76561198301763622,"connected_time":1439000000000,"state":"active","ping":66},{"user_id":1197,"name":"proph","steam_id":76561197998803950,"connected_time":3155000000000,"state":"active","ping":62},{"user_id":1237,"name":"RIP Pop RIP Von RIP X #ganja","steam_id":76561198119528210,"connected_time":669000000000,"state":"active","ping":56},{"user_id":1235,"name":"(◔◡◔)GORGON","steam_id":76561198084271806,"connected_time":1260000000000,"state":"active","ping":47},{"user_id":1248,"name":"Depressed Wario","steam_id":76561199309745098,"connected_time":213000000000,"state":"active","ping":57},{"user_id":1249,"name":"dysesthesia","steam_id":76561198027159018,"connected_time":212000000000,"state":"active","ping":177},{"user_id":1193,"name":"LionKing","steam_id":76561198023399545,"connected_time":3588000000000,"state":"active","ping":61},{"user_id":1225,"name":"[\u003e\u003c] OTP Uncle Sam","steam_id":76561198186666399,"connected_time":1856000000000,"state":"active","ping":63}]},{"server_id":321,"name":"Uncletopia | London | 4 | All Maps","name_short":"lon-4","host":"lon-1.uk.uncletopia.com","port":27045,"enabled":true,"region":"eu","cc":"gb","latitude":51.509865,"longitude":-0.118092,"reserved":0,"last_update":"0001-01-01T00:00:00Z","name_a2s":"Uncletopia | London | 4 | All Maps","protocol":17,"map":"cp_process_final","folder":"tf","game":"Team Fortress","app_id":440,"player_count":24,"max_players":24,"Bots":0,"server_type":"Dedicated","server_os":"Linux","password":true,"vac":true,"version":"7757534","steam_id":85568392924510193,"keywords":["cp","nocrits","nodmgspread","uncletopia"],"game_id":440,"stv_port":27046,"stv_name":"Uncletopia | London | 4 | All Maps | STV","players":[{"user_id":577,"name":"bloo","steam_id":76561198071803379,"connected_time":1656000000000,"state":"active","ping":50},{"user_id":587,"name":"benny profane","steam_id":76561198123238801,"connected_time":465000000000,"state":"active","ping":54},{"user_id":578,"name":"Cosmetic brain","steam_id":76561198055936410,"connected_time":1652000000000,"state":"active","ping":75},{"user_id":562,"name":"Kvicha Kvaratskhelia","steam_id":76561198179339326,"connected_time":2538000000000,"state":"active","ping":85},{"user_id":568,"name":"Shinobu Oshino ♠","steam_id":76561198105207050,"connected_time":2263000000000,"state":"active","ping":54},{"user_id":528,"name":"nedilya","steam_id":76561198039692077,"connected_time":4666000000000,"state":"active","ping":62},{"user_id":571,"name":"Shynii","steam_id":76561198194682105,"connected_time":2138000000000,"state":"active","ping":61},{"user_id":563,"name":"Fraz #savetf2","steam_id":76561198067764552,"connected_time":2472000000000,"state":"active","ping":59},{"user_id":548,"name":"Suspicious Cabin","steam_id":76561198083261198,"connected_time":3970000000000,"state":"active","ping":131},{"user_id":583,"name":"glyph","steam_id":76561197980736364,"connected_time":1366000000000,"state":"active","ping":83},{"user_id":585,"name":"Tomex999","steam_id":76561198049587675,"connected_time":794000000000,"state":"active","ping":90},{"user_id":558,"name":"rmz.ssj","steam_id":76561198329613930,"connected_time":2825000000000,"state":"active","ping":54},{"user_id":552,"name":"Spetse","steam_id":76561197990649972,"connected_time":3806000000000,"state":"active","ping":92},{"user_id":586,"name":"Dr. Popflash","steam_id":76561198095368323,"connected_time":565000000000,"state":"active","ping":67},{"user_id":546,"name":"\"Charles\" + \"Charles\"","steam_id":76561197977122134,"connected_time":4121000000000,"state":"active","ping":71},{"user_id":532,"name":"Laxslow","steam_id":76561198065361846,"connected_time":4440000000000,"state":"active","ping":69},{"user_id":573,"name":"Gen","steam_id":76561198021775885,"connected_time":1959000000000,"state":"active","ping":57},{"user_id":582,"name":"ErakTheBrave","steam_id":76561198041198994,"connected_time":1516000000000,"state":"active","ping":64},{"user_id":580,"name":"Yangus","steam_id":76561198147796010,"connected_time":1591000000000,"state":"active","ping":59},{"user_id":588,"name":"General Antifascista","steam_id":76561198194714570,"connected_time":451000000000,"state":"active","ping":60},{"user_id":589,"name":"mohemmedmokhter2005","steam_id":76561199197650506,"connected_time":376000000000,"state":"active","ping":109},{"user_id":570,"name":"Hamst123","steam_id":76561198957312452,"connected_time":2180000000000,"state":"active","ping":70},{"user_id":581,"name":"cat","steam_id":76561198834897089,"connected_time":1587000000000,"state":"active","ping":74},{"user_id":536,"name":"Carol Olston","steam_id":76561198080257273,"connected_time":4398000000000,"state":"active","ping":43}]},{"server_id":21,"name":"Uncletopia | London | 5 | All Maps","name_short":"lon-5","host":"lon-1.uk.uncletopia.com","port":27055,"enabled":true,"region":"eu","cc":"gb","latitude":51.509865,"longitude":-0.118092,"reserved":0,"last_update":"0001-01-01T00:00:00Z","name_a2s":"Uncletopia | London | 5 | All Maps","protocol":17,"map":"koth_brazil","folder":"tf","game":"Team Fortress","app_id":440,"player_count":20,"max_players":24,"Bots":0,"server_type":"Dedicated","server_os":"Linux","password":true,"vac":true,"version":"7757534","steam_id":85568392924742829,"keywords":["cp","nocrits","nodmgspread","uncletopia"],"game_id":440,"stv_port":27056,"stv_name":"Uncletopia | London | 5 | All Maps | STV","players":[{"user_id":498,"name":"Myh","steam_id":76561198152265316,"connected_time":2800000000000,"state":"active","ping":50},{"user_id":533,"name":"swallowed 10 pennies please hel","steam_id":76561198055816412,"connected_time":923000000000,"state":"active","ping":45},{"user_id":517,"name":"Wind God Girl","steam_id":76561199435854673,"connected_time":2553000000000,"state":"active","ping":45},{"user_id":499,"name":"2Dguy","steam_id":76561198272319067,"connected_time":2797000000000,"state":"active","ping":86},{"user_id":537,"name":"UsawMed","steam_id":76561198045106141,"connected_time":341000000000,"state":"active","ping":69},{"user_id":538,"name":"Djingis Khan","steam_id":76561197967864460,"connected_time":325000000000,"state":"active","ping":53},{"user_id":528,"name":"walking sentry","steam_id":76561199225363633,"connected_time":1838000000000,"state":"active","ping":47},{"user_id":541,"name":"gjhkgfkjfh","steam_id":76561198031181349,"connected_time":126000000000,"state":"active","ping":94},{"user_id":527,"name":"Jörn","steam_id":76561198242871054,"connected_time":2025000000000,"state":"active","ping":82},{"user_id":534,"name":"Ksawery Popkowski","steam_id":76561198107197608,"connected_time":615000000000,"state":"active","ping":84},{"user_id":542,"name":"Lag","steam_id":76561198159360376,"connected_time":61000000000,"state":"active","ping":36},{"user_id":539,"name":"pouchicats","steam_id":76561199385280253,"connected_time":314000000000,"state":"active","ping":120},{"user_id":488,"name":"Gnarville","steam_id":76561198006373329,"connected_time":4536000000000,"state":"active","ping":45},{"user_id":513,"name":"Circuent","steam_id":76561198107214694,"connected_time":2625000000000,"state":"active","ping":58},{"user_id":543,"name":"moro","steam_id":76561198084174868,"connected_time":5000000000,"state":"spawning","ping":65},{"user_id":514,"name":"kaelan!","steam_id":76561198001425310,"connected_time":2622000000000,"state":"active","ping":60},{"user_id":525,"name":"Drekin","steam_id":76561198193616809,"connected_time":2094000000000,"state":"active","ping":55},{"user_id":475,"name":"GROOOAAAaaaWWW","steam_id":76561198253531365,"connected_time":5099000000000,"state":"active","ping":63},{"user_id":535,"name":"Spanns","steam_id":76561197998349793,"connected_time":366000000000,"state":"active","ping":63},{"user_id":531,"name":"rev up the bugatti wahey","steam_id":76561198079589665,"connected_time":985000000000,"state":"active","ping":59}]},{"server_id":22,"name":"Uncletopia | London | 6 | All Maps","name_short":"lon-6","host":"lon-1.uk.uncletopia.com","port":27065,"enabled":true,"region":"eu","cc":"gb","latitude":51.509865,"longitude":-0.118092,"reserved":0,"last_update":"0001-01-01T00:00:00Z","name_a2s":"Uncletopia | London | 6 | All Maps","protocol":17,"map":"koth_lakeside_final","folder":"tf","game":"Team Fortress","app_id":440,"player_count":0,"max_players":24,"Bots":0,"server_type":"Dedicated","server_os":"Linux","password":true,"vac":true,"version":"7757534","steam_id":85568392924742830,"keywords":["cp","nocrits","nodmgspread","uncletopia"],"game_id":440,"stv_port":27066,"stv_name":"Uncletopia | London | 6 | All Maps | STV","players":null},{"server_id":40,"name":"Uncletopia | London | 7 | No Payload","name_short":"lon-7","host":"lon-1.uk.uncletopia.com","port":27075,"enabled":true,"region":"eu","cc":"gb","latitude":51.509865,"longitude":-0.118092,"reserved":0,"last_update":"0001-01-01T00:00:00Z","name_a2s":"Uncletopia | London | 7 | No Payload","protocol":17,"map":"koth_harvest_final","folder":"tf","game":"Team Fortress","app_id":440,"player_count":0,"max_players":24,"Bots":0,"server_type":"Dedicated","server_os":"Linux","password":true,"vac":true,"version":"7757534","steam_id":85568392924964314,"keywords":["cp","nocrits","nodmgspread","uncletopia"],"game_id":440,"stv_port":27076,"stv_name":"Uncletopia | London | 7 | No Payload | STV","players":null},{"server_id":41,"name":"Uncletopia | London | 8 | Community","name_short":"lon-8","host":"lon-1.uk.uncletopia.com","port":27085,"enabled":true,"region":"eu","cc":"gb","latitude":51.509865,"longitude":-0.118092,"reserved":0,"last_update":"0001-01-01T00:00:00Z","name_a2s":"Uncletopia | London | 8 | Community","protocol":17,"map":"workshop/koth_ramjam_rc1.ugc459778887","folder":"tf","game":"Team Fortress","app_id":440,"player_count":0,"max_players":24,"Bots":0,"server_type":"Dedicated","server_os":"Linux","password":true,"vac":true,"version":"7757534","steam_id":85568392924964315,"keywords":["cp","nocrits","nodmgspread","uncletopia"],"game_id":440,"stv_port":27086,"stv_name":"Uncletopia | London | 8 | Community | STV","players":null},{"server_id":300,"name":"Uncletopia | Montréal | 1 | All Maps","name_short":"mtl-1","host":"mtl-1.ca.uncletopia.com","port":27015,"enabled":true,"region":"us-east","cc":"ca","latitude":45.50889,"longitude":-73.56167,"reserved":0,"last_update":"0001-01-01T00:00:00Z","name_a2s":"Uncletopia | Montréal | 1 | All Maps","protocol":17,"map":"koth_viaduct","folder":"tf","game":"Team Fortress","app_id":440,"player_count":0,"max_players":24,"Bots":0,"server_type":"Dedicated","server_os":"Linux","password":true,"vac":true,"version":"7757534","steam_id":85568392924500087,"keywords":["cp","nocrits","nodmgspread","uncletopia"],"game_id":440,"stv_port":27016,"stv_name":"Uncletopia | Montréal | 1 | All Maps | STV","players":null},{"server_id":301,"name":"Uncletopia | Montréal | 2 | All Maps","name_short":"mtl-2","host":"mtl-1.ca.uncletopia.com","port":27025,"enabled":true,"region":"us-east","cc":"ca","latitude":45.50889,"longitude":-73.56167,"reserved":0,"last_update":"0001-01-01T00:00:00Z","name_a2s":"Uncletopia | Montréal | 2 | All Maps","protocol":17,"map":"koth_highpass","folder":"tf","game":"Team Fortress","app_id":440,"player_count":0,"max_players":24,"Bots":0,"server_type":"Dedicated","server_os":"Linux","password":true,"vac":true,"version":"7757534","steam_id":85568392924500088,"keywords":["cp","nocrits","nodmgspread","uncletopia"],"game_id":440,"stv_port":27026,"stv_name":"Uncletopia | Montréal | 2 | All Maps | STV","players":null},{"server_id":302,"name":"Uncletopia | Montréal | 3 | All Maps","name_short":"mtl-3","host":"mtl-1.ca.uncletopia.com","port":27035,"enabled":true,"region":"us-east","cc":"ca","latitude":45.50889,"longitude":-73.56167,"reserved":0,"last_update":"0001-01-01T00:00:00Z","name_a2s":"Uncletopia | Montréal | 3 | All Maps","protocol":17,"map":"koth_lakeside_final","folder":"tf","game":"Team Fortress","app_id":440,"player_count":4,"max_players":24,"Bots":0,"server_type":"Dedicated","server_os":"Linux","password":true,"vac":true,"version":"7757534","steam_id":85568392924500089,"keywords":["cp","nocrits","nodmgspread","uncletopia"],"game_id":440,"stv_port":27036,"stv_name":"Uncletopia | Montréal | 3 | All Maps | STV","players":[{"user_id":8,"name":"Po","steam_id":76561198256939202,"connected_time":4121000000000,"state":"active","ping":139},{"user_id":9,"name":"Daft","steam_id":76561198077174609,"connected_time":4006000000000,"state":"active","ping":47},{"user_id":10,"name":"xXx_3m0_Pr1nC3sS_xXx","steam_id":76561198417481800,"connected_time":3120000000000,"state":"active","ping":68},{"user_id":14,"name":"medic 2","steam_id":76561198053046161,"connected_time":10000000000,"state":"spawning","ping":56}]},{"server_id":303,"name":"Uncletopia | Montréal | 4 | No Payload","name_short":"mtl-4","host":"mtl-1.ca.uncletopia.com","port":27045,"enabled":true,"region":"us-east","cc":"ca","latitude":45.50889,"longitude":-73.56167,"reserved":0,"last_update":"0001-01-01T00:00:00Z","name_a2s":"Uncletopia | Montréal | 4 | No Payload","protocol":17,"map":"koth_lakeside_final","folder":"tf","game":"Team Fortress","app_id":440,"player_count":0,"max_players":24,"Bots":0,"server_type":"Dedicated","server_os":"Linux","password":true,"vac":true,"version":"7757534","steam_id":85568392924500090,"keywords":["cp","nocrits","nodmgspread","uncletopia"],"game_id":440,"stv_port":27046,"stv_name":"Uncletopia | Montréal | 4 | No Payload | STV","players":null},{"server_id":13,"name":"Uncletopia | New York City | 1 | All Maps","name_short":"nyc-1","host":"nyc-1.us.uncletopia.com","port":27015,"enabled":true,"region":"us-east","cc":"us","latitude":40.73061,"longitude":-73.93524,"reserved":0,"last_update":"0001-01-01T00:00:00Z","name_a2s":"Uncletopia | New York City | 1 | All Maps","protocol":17,"map":"cp_process_final","folder":"tf","game":"Team Fortress","app_id":440,"player_count":23,"max_players":24,"Bots":0,"server_type":"Dedicated","server_os":"Linux","password":true,"vac":true,"version":"7757534","steam_id":85568392924469993,"keywords":["cp","nocrits","nodmgspread","uncletopia"],"game_id":440,"stv_port":27016,"stv_name":"Uncletopia | New York City | 1 | All Maps | STV","players":[{"user_id":277,"name":"theancientnut","steam_id":76561199396708880,"connected_time":2657000000000,"state":"active","ping":71},{"user_id":299,"name":"Penis but it rhymes with Venice","steam_id":76561197986420836,"connected_time":1609000000000,"state":"active","ping":96},{"user_id":308,"name":"iamnomnoms","steam_id":76561198177740091,"connected_time":1020000000000,"state":"active","ping":95},{"user_id":302,"name":"Sergeant Joker #savetf2","steam_id":76561198854616604,"connected_time":1503000000000,"state":"active","ping":62},{"user_id":310,"name":"Berries","steam_id":76561198109312962,"connected_time":762000000000,"state":"active","ping":67},{"user_id":251,"name":"֎ViddeR","steam_id":76561198038403376,"connected_time":3717000000000,"state":"active","ping":69},{"user_id":280,"name":"plaiddd","steam_id":76561198353053169,"connected_time":2462000000000,"state":"active","ping":65},{"user_id":287,"name":"white ray","steam_id":76561198026664629,"connected_time":2188000000000,"state":"active","ping":49},{"user_id":282,"name":"TheConchinator","steam_id":76561199388149092,"connected_time":2410000000000,"state":"active","ping":80},{"user_id":295,"name":"Thurricane","steam_id":76561198410724666,"connected_time":1946000000000,"state":"active","ping":47},{"user_id":245,"name":"wanwan","steam_id":76561198033351858,"connected_time":3781000000000,"state":"active","ping":46},{"user_id":312,"name":"BNTF","steam_id":76561198062740087,"connected_time":88000000000,"state":"active","ping":75},{"user_id":288,"name":"lil-timmy","steam_id":76561198294307703,"connected_time":2178000000000,"state":"active","ping":91},{"user_id":293,"name":"gremlin (real)","steam_id":76561199062414681,"connected_time":2096000000000,"state":"active","ping":102},{"user_id":311,"name":"Halo","steam_id":76561198144909435,"connected_time":148000000000,"state":"active","ping":119},{"user_id":307,"name":"kairOs.fk","steam_id":76561197972421260,"connected_time":1196000000000,"state":"active","ping":44},{"user_id":304,"name":"The Hoagie Hero","steam_id":76561198057569298,"connected_time":1478000000000,"state":"active","ping":73},{"user_id":305,"name":"crippling fumo addiction","steam_id":76561198115874625,"connected_time":1467000000000,"state":"active","ping":56},{"user_id":290,"name":"SENTIENT_DEHUMIDIFIER","steam_id":76561198041017977,"connected_time":2164000000000,"state":"active","ping":92},{"user_id":229,"name":"Mr.ToasterOven","steam_id":76561199120586450,"connected_time":5132000000000,"state":"active","ping":78},{"user_id":297,"name":"Insidiousy #ShaveTF2","steam_id":76561199018015150,"connected_time":1697000000000,"state":"active","ping":90},{"user_id":292,"name":"MLG BOOTMAN","steam_id":76561198234179320,"connected_time":2141000000000,"state":"active","ping":102},{"user_id":256,"name":"Potato_Patrick","steam_id":76561198126408165,"connected_time":3555000000000,"state":"active","ping":72}]},{"server_id":14,"name":"Uncletopia | New York City | 2 | All Maps","name_short":"nyc-2","host":"nyc-1.us.uncletopia.com","port":27025,"enabled":true,"region":"us-east","cc":"us","latitude":40.73061,"longitude":-73.93524,"reserved":0,"last_update":"0001-01-01T00:00:00Z","name_a2s":"Uncletopia | New York City | 2 | All Maps","protocol":17,"map":"cp_egypt_final","folder":"tf","game":"Team Fortress","app_id":440,"player_count":24,"max_players":24,"Bots":0,"server_type":"Dedicated","server_os":"Linux","password":true,"vac":true,"version":"7757534","steam_id":85568392924469994,"keywords":["cp","nocrits","nodmgspread","uncletopia"],"game_id":440,"stv_port":27026,"stv_name":"Uncletopia | New York City | 2 | All Maps | STV","players":[{"user_id":685,"name":"Cade","steam_id":76561199076193300,"connected_time":733000000000,"state":"active","ping":56},{"user_id":664,"name":"ansoonii","steam_id":76561198092494136,"connected_time":1685000000000,"state":"active","ping":80},{"user_id":660,"name":"the real babytron","steam_id":76561197989627918,"connected_time":2039000000000,"state":"active","ping":74},{"user_id":682,"name":"Toygar","steam_id":76561198023679830,"connected_time":799000000000,"state":"active","ping":67},{"user_id":694,"name":"Draconic Ballad","steam_id":76561198027191515,"connected_time":309000000000,"state":"active","ping":60},{"user_id":646,"name":"Matt","steam_id":76561198008108521,"connected_time":2903000000000,"state":"active","ping":60},{"user_id":647,"name":"Kevin McCarthy","steam_id":76561198014574925,"connected_time":2888000000000,"state":"active","ping":70},{"user_id":696,"name":"a table","steam_id":76561198158461279,"connected_time":178000000000,"state":"active","ping":68},{"user_id":686,"name":"♡ moarN \u003c3","steam_id":76561199048057457,"connected_time":732000000000,"state":"active","ping":57},{"user_id":677,"name":"Frankthetank64","steam_id":76561198362368253,"connected_time":1029000000000,"state":"active","ping":61},{"user_id":684,"name":"Yonn","steam_id":76561198274242643,"connected_time":797000000000,"state":"active","ping":57},{"user_id":687,"name":"Arizona","steam_id":76561198113748347,"connected_time":725000000000,"state":"active","ping":106},{"user_id":671,"name":"TheJuiceCrew","steam_id":76561198109073254,"connected_time":1461000000000,"state":"active","ping":83},{"user_id":675,"name":"TomTheF00l","steam_id":76561198829932650,"connected_time":1264000000000,"state":"active","ping":106},{"user_id":667,"name":"Snonepe","steam_id":76561197985776620,"connected_time":1665000000000,"state":"active","ping":72},{"user_id":688,"name":"Papyrus","steam_id":76561198133990817,"connected_time":720000000000,"state":"active","ping":54},{"user_id":678,"name":"JHLO","steam_id":76561198074359967,"connected_time":1011000000000,"state":"active","ping":53},{"user_id":672,"name":"Snail","steam_id":76561198153026006,"connected_time":1295000000000,"state":"active","ping":69},{"user_id":695,"name":"☘️NACHO_🍀","steam_id":76561198076618089,"connected_time":247000000000,"state":"active","ping":58},{"user_id":679,"name":"dairy","steam_id":76561198117033273,"connected_time":935000000000,"state":"active","ping":121},{"user_id":690,"name":"N0T@TR@P","steam_id":76561198323432636,"connected_time":682000000000,"state":"active","ping":76},{"user_id":691,"name":"♦","steam_id":76561198114471719,"connected_time":675000000000,"state":"active","ping":49},{"user_id":680,"name":"The Skinny One","steam_id":76561198031430046,"connected_time":880000000000,"state":"active","ping":112},{"user_id":655,"name":"Lunchboxx","steam_id":76561198079735916,"connected_time":2806000000000,"state":"active","ping":72}]},{"server_id":15,"name":"Uncletopia | New York City | 3 | Stopwatch Beta","name_short":"nyc-3","host":"nyc-1.us.uncletopia.com","port":27035,"enabled":true,"region":"us-east","cc":"us","latitude":40.73061,"longitude":-73.93524,"reserved":0,"last_update":"0001-01-01T00:00:00Z","name_a2s":"Uncletopia | New York City | 3 | Stopwatch Beta","protocol":17,"map":"workshop/pl_barnblitz_pro7.ugc582280235","folder":"tf","game":"Team Fortress","app_id":440,"player_count":0,"max_players":24,"Bots":0,"server_type":"Dedicated","server_os":"Linux","password":true,"vac":true,"version":"7757534","steam_id":85568392924742820,"keywords":["nocrits","nodmgspread","payload","uncletopia"],"game_id":440,"stv_port":27036,"stv_name":"Uncletopia | New York City | 3 | Stopwatch Beta | STV","players":null},{"server_id":16,"name":"Uncletopia | New York City | 4 | Community","name_short":"nyc-4","host":"nyc-1.us.uncletopia.com","port":27045,"enabled":true,"region":"us-east","cc":"us","latitude":40.73061,"longitude":-73.93524,"reserved":0,"last_update":"0001-01-01T00:00:00Z","name_a2s":"Uncletopia | New York City | 4 | Community","protocol":17,"map":"workshop/pl_fifthcurve_rc1.ugc648227046","folder":"tf","game":"Team Fortress","app_id":440,"player_count":24,"max_players":24,"Bots":0,"server_type":"Dedicated","server_os":"Linux","password":true,"vac":true,"version":"7757534","steam_id":85568392924742821,"keywords":["nocrits","nodmgspread","payload","uncletopia"],"game_id":440,"stv_port":27046,"stv_name":"Uncletopia | New York City | 4 | Community | STV","players":[{"user_id":373,"name":"Krusty Nut","steam_id":76561198120637924,"connected_time":48000000000,"state":"active","ping":57},{"user_id":355,"name":"[TF2Apples] Intense Green Apple","steam_id":76561198803561622,"connected_time":1615000000000,"state":"active","ping":73},{"user_id":328,"name":"Notation","steam_id":76561198119509319,"connected_time":3313000000000,"state":"active","ping":89},{"user_id":363,"name":"Bacon Boy","steam_id":76561199284869546,"connected_time":409000000000,"state":"active","ping":119},{"user_id":343,"name":"lamp","steam_id":76561198079879544,"connected_time":2815000000000,"state":"active","ping":124},{"user_id":359,"name":"Seven","steam_id":76561198259947055,"connected_time":901000000000,"state":"active","ping":87},{"user_id":364,"name":"reis","steam_id":76561199232952016,"connected_time":399000000000,"state":"active","ping":174},{"user_id":351,"name":"xeeyuh","steam_id":76561198822313775,"connected_time":2220000000000,"state":"active","ping":110},{"user_id":370,"name":"phll","steam_id":76561198110430494,"connected_time":241000000000,"state":"active","ping":58},{"user_id":319,"name":"GardinElla","steam_id":76561198123262799,"connected_time":3744000000000,"state":"active","ping":145},{"user_id":354,"name":"Chemo","steam_id":76561197961308370,"connected_time":1685000000000,"state":"active","ping":54},{"user_id":312,"name":"Bweef","steam_id":76561198069819927,"connected_time":3927000000000,"state":"active","ping":125},{"user_id":338,"name":"Ben","steam_id":76561198129254533,"connected_time":3057000000000,"state":"active","ping":96},{"user_id":356,"name":"Funny Skeleton Man","steam_id":76561198264262564,"connected_time":1581000000000,"state":"active","ping":79},{"user_id":371,"name":"sevanial","steam_id":76561198071532126,"connected_time":212000000000,"state":"active","ping":94},{"user_id":314,"name":"Samoclese","steam_id":76561198055515027,"connected_time":3914000000000,"state":"active","ping":135},{"user_id":369,"name":"Abe","steam_id":76561198079292761,"connected_time":257000000000,"state":"active","ping":84},{"user_id":362,"name":"soup","steam_id":76561198099977572,"connected_time":570000000000,"state":"active","ping":82},{"user_id":347,"name":"b4rry","steam_id":76561198365887154,"connected_time":2535000000000,"state":"active","ping":51},{"user_id":366,"name":"_(:3 」∠)_","steam_id":76561198370487545,"connected_time":383000000000,"state":"active","ping":55},{"user_id":368,"name":"ComedicSoldier","steam_id":76561199220886421,"connected_time":339000000000,"state":"active","ping":92},{"user_id":335,"name":"Joe","steam_id":76561198284468330,"connected_time":3141000000000,"state":"active","ping":93},{"user_id":349,"name":"Mr. Morrow","steam_id":76561198011333701,"connected_time":2488000000000,"state":"active","ping":109},{"user_id":350,"name":"you forgot the sauce","steam_id":76561198387016713,"connected_time":2449000000000,"state":"active","ping":60}]},{"server_id":142,"name":"Uncletopia | São Paulo | 1 | All Maps","name_short":"sao-1","host":"sao-1.br.uncletopia.com","port":27015,"enabled":true,"region":"sa","cc":"br","latitude":-23.533773,"longitude":-46.62529,"reserved":0,"last_update":"0001-01-01T00:00:00Z","name_a2s":"Uncletopia | São Paulo | 1 | All Maps","protocol":17,"map":"koth_lakeside_final","folder":"tf","game":"Team Fortress","app_id":440,"player_count":0,"max_players":24,"Bots":0,"server_type":"Dedicated","server_os":"Linux","password":true,"vac":true,"version":"7757534","steam_id":85568392924469996,"keywords":["cp","nocrits","nodmgspread","uncletopia"],"game_id":440,"stv_port":27016,"stv_name":"Uncletopia | São Paulo | 1 | All Maps | STV","players":null},{"server_id":143,"name":"Uncletopia | São Paulo | 2 | All Maps","name_short":"sao-2","host":"sao-2.br.uncletopia.com","port":27015,"enabled":true,"region":"sa","cc":"br","latitude":-23.533773,"longitude":-46.62529,"reserved":0,"last_update":"0001-01-01T00:00:00Z","name_a2s":"Uncletopia | São Paulo | 2 | All Maps","protocol":17,"map":"cp_dustbowl","folder":"tf","game":"Team Fortress","app_id":440,"player_count":0,"max_players":24,"Bots":0,"server_type":"Dedicated","server_os":"Linux","password":true,"vac":true,"version":"7757534","steam_id":85568392924485349,"keywords":["cp","nocrits","nodmgspread","uncletopia"],"game_id":440,"stv_port":27016,"stv_name":"Uncletopia | São Paulo | 2 | All Maps | STV","players":null},{"server_id":7,"name":"Uncletopia | Seattle | 1 | All Maps","name_short":"sea-1","host":"sea-1.us.uncletopia.com","port":27015,"enabled":true,"region":"us-west","cc":"us","latitude":47.608013,"longitude":-122.33517,"reserved":0,"last_update":"0001-01-01T00:00:00Z","name_a2s":"Uncletopia | Seattle | 1 | All Maps","protocol":17,"map":"pl_badwater","folder":"tf","game":"Team Fortress","app_id":440,"player_count":23,"max_players":24,"Bots":0,"server_type":"Dedicated","server_os":"Linux","password":true,"vac":true,"version":"7757534","steam_id":85568392924469997,"keywords":["nocrits","nodmgspread","payload","uncletopia"],"game_id":440,"stv_port":27016,"stv_name":"Uncletopia | Seattle | 1 | All Maps | STV","players":[{"user_id":383,"name":"you look like how my ex smelled","steam_id":76561198986534519,"connected_time":4693000000000,"state":"active","ping":59},{"user_id":416,"name":"❤ Ashley ❤","steam_id":76561198056428303,"connected_time":1972000000000,"state":"active","ping":65},{"user_id":433,"name":"trapper wit som swag+i lurk too","steam_id":76561198885055475,"connected_time":56000000000,"state":"active","ping":54},{"user_id":431,"name":"Sniff","steam_id":76561198010270922,"connected_time":80000000000,"state":"active","ping":38},{"user_id":424,"name":"Mr.Thirteen","steam_id":76561198047468836,"connected_time":743000000000,"state":"active","ping":62},{"user_id":425,"name":"Minerkid2004","steam_id":76561198044262827,"connected_time":633000000000,"state":"active","ping":61},{"user_id":421,"name":"ice cream (冰淇淋)","steam_id":76561198976530881,"connected_time":1286000000000,"state":"active","ping":60},{"user_id":407,"name":"Bendidy","steam_id":76561198041964300,"connected_time":2474000000000,"state":"active","ping":71},{"user_id":429,"name":"Swag6","steam_id":76561198064110837,"connected_time":216000000000,"state":"active","ping":71},{"user_id":402,"name":"Mouth Tea","steam_id":76561198285054047,"connected_time":3059000000000,"state":"active","ping":81},{"user_id":434,"name":"another breloom","steam_id":76561198006938024,"connected_time":30000000000,"state":"active","ping":59},{"user_id":428,"name":"Aardappel","steam_id":76561198030894676,"connected_time":321000000000,"state":"active","ping":68},{"user_id":411,"name":"Peppy","steam_id":76561198866629645,"connected_time":2111000000000,"state":"active","ping":105},{"user_id":412,"name":"LARGE","steam_id":76561198124583948,"connected_time":2092000000000,"state":"active","ping":132},{"user_id":435,"name":"KingTinkerer","steam_id":76561198226856548,"connected_time":10000000000,"state":"spawning","ping":94},{"user_id":331,"name":"Ullapool Caber","steam_id":76561198349311667,"connected_time":8609000000000,"state":"active","ping":90},{"user_id":386,"name":"Pyrotek⁴","steam_id":76561198072747672,"connected_time":4657000000000,"state":"active","ping":67},{"user_id":432,"name":"ZEKKER","steam_id":76561197967968980,"connected_time":60000000000,"state":"active","ping":46},{"user_id":388,"name":"discord kitten","steam_id":76561198210322871,"connected_time":4639000000000,"state":"active","ping":77},{"user_id":408,"name":"Qas","steam_id":76561198067564482,"connected_time":2276000000000,"state":"active","ping":110},{"user_id":377,"name":"shane","steam_id":76561198060491451,"connected_time":5081000000000,"state":"active","ping":78},{"user_id":422,"name":"sinyeon","steam_id":76561198125363469,"connected_time":1030000000000,"state":"active","ping":150},{"user_id":415,"name":"Squid121","steam_id":76561198038832034,"connected_time":2056000000000,"state":"active","ping":47}]},{"server_id":119,"name":"Uncletopia | Seattle | 2 | All Maps","name_short":"sea-2","host":"sea-1.us.uncletopia.com","port":27025,"enabled":true,"region":"us-west","cc":"us","latitude":47.608013,"longitude":-122.33517,"reserved":0,"last_update":"0001-01-01T00:00:00Z","name_a2s":"Uncletopia | Seattle | 2 | All Maps","protocol":17,"map":"pl_borneo","folder":"tf","game":"Team Fortress","app_id":440,"player_count":24,"max_players":24,"Bots":0,"server_type":"Dedicated","server_os":"Linux","password":true,"vac":true,"version":"7757534","steam_id":85568392924469998,"keywords":["nocrits","nodmgspread","payload","uncletopia"],"game_id":440,"stv_port":27026,"stv_name":"Uncletopia | Seattle | 2 | All Maps | STV","players":[{"user_id":245,"name":"Dauntless Duelist","steam_id":76561198025056018,"connected_time":3845000000000,"state":"active","ping":51},{"user_id":219,"name":"EEBIGAA","steam_id":76561198056535988,"connected_time":6111000000000,"state":"active","ping":73},{"user_id":290,"name":"That Sounds Serious","steam_id":76561198247719128,"connected_time":237000000000,"state":"active","ping":55},{"user_id":278,"name":"pizzalover_2014","steam_id":76561198870649125,"connected_time":942000000000,"state":"active","ping":71},{"user_id":276,"name":"What are you doing?!","steam_id":76561198405248691,"connected_time":1191000000000,"state":"active","ping":73},{"user_id":292,"name":"Sev","steam_id":76561198159523407,"connected_time":158000000000,"state":"active","ping":88},{"user_id":163,"name":"Themasterman75","steam_id":76561199385573293,"connected_time":9215000000000,"state":"active","ping":72},{"user_id":286,"name":"Grognak","steam_id":76561198044710527,"connected_time":423000000000,"state":"active","ping":43},{"user_id":250,"name":"sara","steam_id":76561198283462369,"connected_time":3265000000000,"state":"active","ping":74},{"user_id":275,"name":"Hakuyer","steam_id":76561198098618247,"connected_time":1353000000000,"state":"active","ping":49},{"user_id":225,"name":"Battle Pope","steam_id":76561198059627663,"connected_time":5152000000000,"state":"active","ping":79},{"user_id":285,"name":"Gary, 40, soul sucking 9-5","steam_id":76561198073812888,"connected_time":441000000000,"state":"active","ping":42},{"user_id":258,"name":"Amogous Supreme","steam_id":76561198025476774,"connected_time":2741000000000,"state":"active","ping":77},{"user_id":271,"name":"smeasly","steam_id":76561198028718812,"connected_time":1913000000000,"state":"active","ping":40},{"user_id":221,"name":"Thordude","steam_id":76561199087162916,"connected_time":5814000000000,"state":"active","ping":55},{"user_id":284,"name":"CaptainGold1","steam_id":76561198104967772,"connected_time":459000000000,"state":"active","ping":59},{"user_id":253,"name":"Drive-By-Fish-Guy","steam_id":76561198105513652,"connected_time":2889000000000,"state":"active","ping":96},{"user_id":240,"name":"SanitysEdge","steam_id":76561198130732813,"connected_time":4395000000000,"state":"active","ping":75},{"user_id":254,"name":"ZRMicrowave","steam_id":76561198288574525,"connected_time":2885000000000,"state":"active","ping":106},{"user_id":265,"name":"Kol","steam_id":76561198123204944,"connected_time":2490000000000,"state":"active","ping":92},{"user_id":293,"name":"N64Kanroji","steam_id":76561198045209288,"connected_time":33000000000,"state":"spawning","ping":396},{"user_id":259,"name":"Sticky","steam_id":76561198031581547,"connected_time":2732000000000,"state":"active","ping":75},{"user_id":248,"name":"Satori Komeiji","steam_id":76561198158211423,"connected_time":3717000000000,"state":"active","ping":72},{"user_id":280,"name":"Klopo","steam_id":76561198871108633,"connected_time":867000000000,"state":"active","ping":54}]},{"server_id":406,"name":"Uncletopia | Seattle | 3 | Stopwatch Beta","name_short":"sea-3","host":"sea-1.us.uncletopia.com","port":27035,"enabled":true,"region":"us-west","cc":"us","latitude":47.608013,"longitude":-122.33517,"reserved":0,"last_update":"0001-01-01T00:00:00Z","name_a2s":"Uncletopia | Seattle | 3 | Stopwatch Beta","protocol":17,"map":"pl_swiftwater_final1","folder":"tf","game":"Team Fortress","app_id":440,"player_count":0,"max_players":24,"Bots":0,"server_type":"Dedicated","server_os":"Linux","password":true,"vac":true,"version":"7757534","steam_id":85568392924515217,"keywords":["nocrits","nodmgspread","payload","uncletopia"],"game_id":440,"stv_port":27036,"stv_name":"Uncletopia | Seattle | 3 | Stopwatch Beta | STV","players":null},{"server_id":17,"name":"Uncletopia | San Francisco | 1 | All Maps","name_short":"sfo-1","host":"sfo-1.us.uncletopia.com","port":27015,"enabled":true,"region":"us-west","cc":"us","latitude":37.77397,"longitude":-122.4313,"reserved":0,"last_update":"0001-01-01T00:00:00Z","name_a2s":"Uncletopia | San Francisco | 1 | All Maps","protocol":17,"map":"cp_sunshine","folder":"tf","game":"Team Fortress","app_id":440,"player_count":0,"max_players":24,"Bots":0,"server_type":"Dedicated","server_os":"Linux","password":true,"vac":true,"version":"7757534","steam_id":85568392924469999,"keywords":["cp","nocrits","nodmgspread","uncletopia"],"game_id":440,"stv_port":27016,"stv_name":"Uncletopia | San Francisco | 1 | All Maps | STV","players":null},{"server_id":18,"name":"Uncletopia | San Francisco | 2 | All Maps","name_short":"sfo-2","host":"sfo-1.us.uncletopia.com","port":27025,"enabled":true,"region":"us-west","cc":"us","latitude":37.77397,"longitude":-122.4313,"reserved":0,"last_update":"0001-01-01T00:00:00Z","name_a2s":"Uncletopia | San Francisco | 2 | All Maps","protocol":17,"map":"cp_mountainlab","folder":"tf","game":"Team Fortress","app_id":440,"player_count":0,"max_players":24,"Bots":0,"server_type":"Dedicated","server_os":"Linux","password":true,"vac":true,"version":"7757534","steam_id":85568392924470000,"keywords":["cp","nocrits","nodmgspread","uncletopia"],"game_id":440,"stv_port":27026,"stv_name":"Uncletopia | San Francisco | 2 | All Maps | STV","players":null},{"server_id":19,"name":"Uncletopia | San Francisco | 3 | Stopwatch Beta","name_short":"sfo-3","host":"sfo-1.us.uncletopia.com","port":27035,"enabled":true,"region":"us-west","cc":"us","latitude":37.77397,"longitude":-122.4313,"reserved":0,"last_update":"0001-01-01T00:00:00Z","name_a2s":"Uncletopia | San Francisco | 3 | Stopwatch Beta","protocol":17,"map":"koth_viaduct","folder":"tf","game":"Team Fortress","app_id":440,"player_count":0,"max_players":24,"Bots":0,"server_type":"Dedicated","server_os":"Linux","password":true,"vac":true,"version":"7757534","steam_id":85568392924742824,"keywords":["cp","nocrits","nodmgspread","uncletopia"],"game_id":440,"stv_port":27036,"stv_name":"Uncletopia | San Francisco | 3 | Stopwatch Beta | STV","players":null},{"server_id":20,"name":"Uncletopia | San Francisco | 4 | Community","name_short":"sfo-4","host":"sfo-1.us.uncletopia.com","port":27045,"enabled":true,"region":"us-west","cc":"us","latitude":37.77397,"longitude":-122.4313,"reserved":0,"last_update":"0001-01-01T00:00:00Z","name_a2s":"Uncletopia | San Francisco | 4 | Community","protocol":17,"map":"pl_borneo","folder":"tf","game":"Team Fortress","app_id":440,"player_count":0,"max_players":24,"Bots":0,"server_type":"Dedicated","server_os":"Linux","password":true,"vac":true,"version":"7757534","steam_id":85568392924742826,"keywords":["nocrits","nodmgspread","payload","uncletopia"],"game_id":440,"stv_port":27046,"stv_name":"Uncletopia | San Francisco | 4 | Community | STV","players":null},{"server_id":141,"name":"Uncletopia | Sydney | 1 | All Maps","name_short":"syd-1","host":"syd-1.au.uncletopia.com","port":27015,"enabled":true,"region":"au","cc":"au","latitude":-33.865143,"longitude":151.2099,"reserved":0,"last_update":"0001-01-01T00:00:00Z","name_a2s":"Uncletopia | Sydney | 1 | All Maps","protocol":17,"map":"koth_lakeside_final","folder":"tf","game":"Team Fortress","app_id":440,"player_count":1,"max_players":24,"Bots":0,"server_type":"Dedicated","server_os":"Linux","password":true,"vac":true,"version":"7757534","steam_id":85568392924470001,"keywords":["cp","nocrits","nodmgspread","uncletopia"],"game_id":440,"stv_port":27016,"stv_name":"Uncletopia | Sydney | 1 | All Maps | STV","players":[{"user_id":4,"name":"doris","steam_id":76561198985688207,"connected_time":112000000000,"state":"active","ping":57}]},{"server_id":123,"name":"Uncletopia | Sydney | 2 | All Maps","name_short":"syd-2","host":"syd-1.au.uncletopia.com","port":27025,"enabled":true,"region":"au","cc":"au","latitude":-33.865143,"longitude":151.2099,"reserved":0,"last_update":"0001-01-01T00:00:00Z","name_a2s":"Uncletopia | Sydney | 2 | All Maps","protocol":17,"map":"koth_viaduct","folder":"tf","game":"Team Fortress","app_id":440,"player_count":0,"max_players":24,"Bots":0,"server_type":"Dedicated","server_os":"Linux","password":true,"vac":true,"version":"7757534","steam_id":85568392924470002,"keywords":["cp","nocrits","nodmgspread","uncletopia"],"game_id":440,"stv_port":27026,"stv_name":"Uncletopia | Sydney | 2 | All Maps | STV","players":null},{"server_id":395,"name":"Uncletopia | Sydney | 3 | All Maps","name_short":"syd-3","host":"syd-1.au.uncletopia.com","port":27035,"enabled":true,"region":"au","cc":"au","latitude":-33.865143,"longitude":151.2099,"reserved":0,"last_update":"0001-01-01T00:00:00Z","name_a2s":"Uncletopia | Sydney | 3 | All Maps","protocol":17,"map":"cp_dustbowl","folder":"tf","game":"Team Fortress","app_id":440,"player_count":0,"max_players":24,"Bots":0,"server_type":"Dedicated","server_os":"Linux","password":true,"vac":true,"version":"7757534","steam_id":85568392925194467,"keywords":["cp","nocrits","nodmgspread","uncletopia"],"game_id":440,"stv_port":27036,"stv_name":"Uncletopia | Sydney | 3 | All Maps | STV","players":null},{"server_id":396,"name":"Uncletopia | Sydney | 4 | All Maps","name_short":"syd-4","host":"syd-1.au.uncletopia.com","port":27045,"enabled":true,"region":"au","cc":"au","latitude":-33.865143,"longitude":151.2099,"reserved":0,"last_update":"0001-01-01T00:00:00Z","name_a2s":"Uncletopia | Sydney | 4 | All Maps","protocol":17,"map":"cp_snakewater_final1","folder":"tf","game":"Team Fortress","app_id":440,"player_count":0,"max_players":24,"Bots":0,"server_type":"Dedicated","server_os":"Linux","password":true,"vac":true,"version":"7757534","steam_id":85568392925397958,"keywords":["cp","nocrits","nodmgspread","uncletopia"],"game_id":440,"stv_port":27046,"stv_name":"Uncletopia | Sydney | 4 | All Maps | STV","players":null},{"server_id":58,"name":"Uncletopia | Sydney | 5 | Stopwatch Beta","name_short":"syd-5","host":"syd-1.au.uncletopia.com","port":27055,"enabled":true,"region":"au","cc":"au","latitude":-33.865143,"longitude":151.2099,"reserved":0,"last_update":"0001-01-01T00:00:00Z","name_a2s":"Uncletopia | Sydney | 5 | Stopwatch Beta","protocol":17,"map":"pl_barnblitz","folder":"tf","game":"Team Fortress","app_id":440,"player_count":0,"max_players":24,"Bots":0,"server_type":"Dedicated","server_os":"Linux","password":true,"vac":true,"version":"7757534","steam_id":85568392925397959,"keywords":["nocrits","nodmgspread","payload","uncletopia"],"game_id":440,"stv_port":27056,"stv_name":"Uncletopia | Sydney | 5 | Stopwatch Beta | STV","players":null},{"server_id":59,"name":"Uncletopia | Sydney | 6 | Community","name_short":"syd-6","host":"syd-1.au.uncletopia.com","port":27065,"enabled":true,"region":"au","cc":"au","latitude":-33.865143,"longitude":151.2099,"reserved":0,"last_update":"0001-01-01T00:00:00Z","name_a2s":"Uncletopia | Sydney | 6 | Community","protocol":17,"map":"workshop/cp_caldera_rc2.ugc2834196889","folder":"tf","game":"Team Fortress","app_id":440,"player_count":0,"max_players":24,"Bots":0,"server_type":"Dedicated","server_os":"Linux","password":true,"vac":true,"version":"7757534","steam_id":85568392925397960,"keywords":["cp","nocrits","nodmgspread","uncletopia"],"game_id":440,"stv_port":27066,"stv_name":"Uncletopia | Sydney | 6 | Community | STV","players":null},{"server_id":49,"name":"Uncletopia | Warsaw | 1 | All Maps","name_short":"waw-1","host":"waw-1.pl.uncletopia.com","port":27015,"enabled":true,"region":"eu","cc":"pl","latitude":52.2297,"longitude":21.017532,"reserved":0,"last_update":"0001-01-01T00:00:00Z","name_a2s":"","protocol":0,"map":"","folder":"","game":"","app_id":0,"player_count":0,"max_players":0,"Bots":0,"server_type":"","server_os":"","password":false,"vac":false,"version":"","steam_id":0,"keywords":null,"game_id":0,"stv_port":0,"stv_name":"","players":null},{"server_id":50,"name":"Uncletopia | Warsaw | 2 | All Maps","name_short":"waw-2","host":"waw-1.pl.uncletopia.com","port":27025,"enabled":true,"region":"eu","cc":"pl","latitude":52.2297,"longitude":21.017532,"reserved":0,"last_update":"0001-01-01T00:00:00Z","name_a2s":"Uncletopia | Warsaw | 2 | All Maps","protocol":17,"map":"pl_frontier_final","folder":"tf","game":"Team Fortress","app_id":440,"player_count":0,"max_players":24,"Bots":0,"server_type":"Dedicated","server_os":"Linux","password":true,"vac":true,"version":"7757534","steam_id":85568392925397851,"keywords":["nocrits","nodmgspread","payload","uncletopia"],"game_id":440,"stv_port":27026,"stv_name":"Uncletopia | Warsaw | 2 | All Maps | STV","players":null},{"server_id":51,"name":"Uncletopia | Warsaw | 3 | All Maps","name_short":"waw-3","host":"waw-1.pl.uncletopia.com","port":27035,"enabled":true,"region":"eu","cc":"pl","latitude":52.2297,"longitude":21.017532,"reserved":0,"last_update":"0001-01-01T00:00:00Z","name_a2s":"Uncletopia | Warsaw | 3 | All Maps","protocol":17,"map":"koth_suijin","folder":"tf","game":"Team Fortress","app_id":440,"player_count":0,"max_players":24,"Bots":0,"server_type":"Dedicated","server_os":"Linux","password":true,"vac":true,"version":"7757534","steam_id":85568392925397852,"keywords":["cp","nocrits","nodmgspread","uncletopia"],"game_id":440,"stv_port":27036,"stv_name":"Uncletopia | Warsaw | 3 | All Maps | STV","players":null},{"server_id":52,"name":"Uncletopia | Warsaw | 4 | All Maps","name_short":"waw-4","host":"waw-1.pl.uncletopia.com","port":27045,"enabled":true,"region":"eu","cc":"pl","latitude":52.2297,"longitude":21.017532,"reserved":0,"last_update":"0001-01-01T00:00:00Z","name_a2s":"Uncletopia | Warsaw | 4 | All Maps","protocol":17,"map":"pl_swiftwater_final1","folder":"tf","game":"Team Fortress","app_id":440,"player_count":0,"max_players":24,"Bots":0,"server_type":"Dedicated","server_os":"Linux","password":true,"vac":true,"version":"7757534","steam_id":85568392925397853,"keywords":["nocrits","nodmgspread","payload","uncletopia"],"game_id":440,"stv_port":27046,"stv_name":"Uncletopia | Warsaw | 4 | All Maps | STV","players":null},{"server_id":53,"name":"Uncletopia | Warsaw | 5 | Stopwatch Beta","name_short":"waw-5","host":"waw-1.pl.uncletopia.com","port":27055,"enabled":true,"region":"eu","cc":"pl","latitude":52.2297,"longitude":21.017532,"reserved":0,"last_update":"0001-01-01T00:00:00Z","name_a2s":"Uncletopia | Warsaw | 5 | Stopwatch Beta","protocol":17,"map":"workshop/koth_product_final.ugc454272353","folder":"tf","game":"Team Fortress","app_id":440,"player_count":0,"max_players":24,"Bots":0,"server_type":"Dedicated","server_os":"Linux","password":true,"vac":true,"version":"7757534","steam_id":85568392925397854,"keywords":["cp","nocrits","nodmgspread","uncletopia"],"game_id":440,"stv_port":27056,"stv_name":"Uncletopia | Warsaw | 5 | Stopwatch Beta | STV","players":null},{"server_id":54,"name":"Uncletopia | Warsaw | 6 | Community","name_short":"waw-6","host":"waw-1.pl.uncletopia.com","port":27065,"enabled":true,"region":"eu","cc":"pl","latitude":52.2297,"longitude":21.017532,"reserved":0,"last_update":"0001-01-01T00:00:00Z","name_a2s":"Uncletopia | Warsaw | 6 | Community","protocol":17,"map":"workshop/cp_villa_b19.ugc2113052569","folder":"tf","game":"Team Fortress","app_id":440,"player_count":0,"max_players":24,"Bots":0,"server_type":"Dedicated","server_os":"Linux","password":true,"vac":true,"version":"7757534","steam_id":85568392925397856,"keywords":["cp","nocrits","nodmgspread","uncletopia"],"game_id":440,"stv_port":27066,"stv_name":"Uncletopia | Warsaw | 6 | Community | STV","players":null}]}