{"status":true,"message":"","result":[{"server_id":9,"name":"Uncletopia | Atlanta | 1 | All Maps","name_short":"atl-1","host":"atl-1.us.uncletopia.com","port":27015,"enabled":true,"region":"us-east","cc":"us","latitude":33.753746,"longitude":-84.38633,"reserved":0,"last_update":"0001-01-01T00:00:00Z","name_a2s":"Uncletopia | Atlanta | 1 | All Maps","protocol":17,"map":"koth_suijin","folder":"tf","game":"Team Fortress","app_id":440,"player_count":0,"max_players":24,"Bots":0,"server_type":"Dedicated","server_os":"Linux","password":true,"vac":true,"version":"7708610","steam_id":85568392924469982,"keywords":["cp","nocrits","nodmgspread","uncletopia"],"game_id":440,"stv_port":27016,"stv_name":"Uncletopia | Atlanta | 1 | All Maps | STV","players":null},{"server_id":400,"name":"Uncletopia | Atlanta | 3 | All Maps","name_short":"atl-3","host":"atl-1.us.uncletopia.com","port":27035,"enabled":true,"region":"us-east","cc":"us","latitude":33.753746,"longitude":-84.38633,"reserved":0,"last_update":"0001-01-01T00:00:00Z","name_a2s":"Uncletopia | Atlanta | 3 | All Maps","protocol":17,"map":"koth_highpass","folder":"tf","game":"Team Fortress","app_id":440,"player_count":0,"max_players":24,"Bots":0,"server_type":"Dedicated","server_os":"Linux","password":true,"vac":true,"version":"7708610","steam_id":85568392924515187,"keywords":["cp","nocrits","nodmgspread","uncletopia"],"game_id":440,"stv_port":27036,"stv_name":"Uncletopia | Atlanta | 3 | All Maps | STV","players":null},{"server_id":401,"name":"Uncletopia | Atlanta | 4 | No Payload","name_short":"atl-4","host":"atl-1.us.uncletopia.com","port":27045,"enabled":true,"region":"us-east","cc":"us","latitude":33.753746,"longitude":-84.38633,"reserved":0,"last_update":"0001-01-01T00:00:00Z","name_a2s":"Uncletopia | Atlanta | 4 | No Payload","protocol":17,"map":"cp_altitude","folder":"tf","game":"Team Fortress","app_id":440,"player_count":0,"max_players":24,"Bots":0,"server_type":"Dedicated","server_os":"Linux","password":true,"vac":true,"version":"7708610","steam_id":85568392924515188,"keywords":["cp","nocrits","nodmgspread","uncletopia"],"game_id":440,"stv_port":27046,"stv_name":"Uncletopia | Atlanta | 4 | No Payload | STV","players":null},{"server_id":2,"name":"Uncletopia | Chicago | 1 | All Maps","name_short":"chi-1","host":"chi-1.us.uncletopia.com","port":27015,"enabled":true,"region":"us-central","cc":"us","latitude":41.881832,"longitude":-87.62318,"reserved":0,"last_update":"0001-01-01T00:00:00Z","name_a2s":"Uncletopia | Chicago | 1 | All Maps","protocol":17,"map":"pl_upward","folder":"tf","game":"Team Fortress","app_id":440,"player_count":24,"max_players":24,"Bots":0,"server_type":"Dedicated","server_os":"Linux","password":true,"vac":true,"version":"7708610","steam_id":85568392924469984,"keywords":["nocrits","nodmgspread","payload","uncletopia"],"game_id":440,"stv_port":27016,"stv_name":"Uncletopia | Chicago | 1 | All Maps | STV","players":[{"user_id":82,"name":"Rasputia","steam_id":76561198132051047,"connected_time":3645000000000,"state":"active","ping":106},{"user_id":63,"name":"Tyler\u0026Fingers","steam_id":76561198085154485,"connected_time":5438000000000,"state":"active","ping":73},{"user_id":109,"name":"fudo myoo","steam_id":76561198456258164,"connected_time":1864000000000,"state":"active","ping":73},{"user_id":120,"name":"paj","steam_id":76561198080026026,"connected_time":570000000000,"state":"active","ping":94},{"user_id":6,"name":"Atlas","steam_id":76561198127975050,"connected_time":9020000000000,"state":"active","ping":61},{"user_id":122,"name":"Dill","steam_id":76561197985091914,"connected_time":286000000000,"state":"active","ping":64},{"user_id":81,"name":"luxin","steam_id":76561198399383047,"connected_time":3700000000000,"state":"active","ping":61},{"user_id":95,"name":"venomew2","steam_id":76561198327081077,"connected_time":2662000000000,"state":"active","ping":77},{"user_id":115,"name":"OneTrueCorvid","steam_id":76561199012953221,"connected_time":934000000000,"state":"active","ping":81},{"user_id":116,"name":"Cozy","steam_id":76561198003807560,"connected_time":933000000000,"state":"active","ping":170},{"user_id":108,"name":"username","steam_id":76561198130826890,"connected_time":2033000000000,"state":"active","ping":83},{"user_id":14,"name":"defcon","steam_id":76561198100656328,"connected_time":8997000000000,"state":"active","ping":76},{"user_id":114,"name":"√íw√ì","steam_id":76561197997304387,"connected_time":937000000000,"state":"active","ping":57},{"user_id":121,"name":"DJ Chalice","steam_id":76561197974872458,"connected_time":556000000000,"state":"active","ping":62},{"user_id":113,"name":"Len","steam_id":76561199141913673,"connected_time":955000000000,"state":"active","ping":88},{"user_id":40,"name":"THE NUT","steam_id":76561198067813626,"connected_time":7763000000000,"state":"active","ping":95},{"user_id":123,"name":"Rusty","steam_id":76561197972625397,"connected_time":5000000000,"state":"spawning","ping":85},{"user_id":119,"name":"Neil Degrassy","steam_id":76561198132980934,"connected_time":709000000000,"state":"active","ping":59},{"user_id":50,"name":"kermitcreeper(ZAZA)","steam_id":76561199222829972,"connected_time":6745000000000,"state":"active","ping":58},{"user_id":25,"name":"177013","steam_id":76561198072303290,"connected_time":8913000000000,"state":"active","ping":63},{"user_id":107,"name":"amagicowl","steam_id":76561199060487814,"connected_time":2145000000000,"state":"active","ping":75},{"user_id":57,"name":"‡∂û","steam_id":76561198275101482,"connected_time":6571000000000,"state":"active","ping":140},{"user_id":104,"name":"SolForSale","steam_id":76561199254570476,"connected_time":2281000000000,"state":"active","ping":67},{"user_id":102,"name":"Splinto","steam_id":76561198111260488,"connected_time":2460000000000,"state":"active","ping":53}]},{"server_id":106,"name":"Uncletopia | Chicago | 2 | All Maps","name_short":"chi-2","host":"chi-1.us.uncletopia.com","port":27025,"enabled":true,"region":"us-central","cc":"us","latitude":41.881832,"longitude":-87.62318,"reserved":0,"last_update":"0001-01-01T00:00:00Z","name_a2s":"Uncletopia | Chicago | 2 | All Maps","protocol":17,"map":"cp_sunshine","folder":"tf","game":"Team Fortress","app_id":440,"player_count":0,"max_players":24,"Bots":0,"server_type":"Dedicated","server_os":"Linux","password":true,"vac":true,"version":"7708610","steam_id":85568392924469985,"keywords":["cp","nocrits","nodmgspread","uncletopia"],"game_id":440,"stv_port":0,"stv_name":"","players":null},{"server_id":402,"name":"Uncletopia | Chicago | 3 | All Maps","name_short":"chi-3","host":"chi-1.us.uncletopia.com","port":27035,"enabled":true,"region":"us-central","cc":"us","latitude":41.881832,"longitude":-87.62318,"reserved":0,"last_update":"0001-01-01T00:00:00Z","name_a2s":"Uncletopia | Chicago | 3 | All Maps","protocol":17,"map":"cp_dustbowl","folder":"tf","game":"Team Fortress","app_id":440,"player_count":0,"max_players":24,"Bots":0,"server_type":"Dedicated","server_os":"Linux","password":true,"vac":true,"version":"7708610","steam_id":85568392924515191,"keywords":["cp","nocrits","nodmgspread","uncletopia"],"game_id":440,"stv_port":0,"stv_name":"","players":null},{"server_id":403,"name":"Uncletopia | Chicago | 4 | All Maps","name_short":"chi-4","host":"chi-1.us.uncletopia.com","port":27045,"enabled":true,"region":"us-central","cc":"us","latitude":41.881832,"longitude":-87.62318,"reserved":0,"last_update":"0001-01-01T00:00:00Z","name_a2s":"Uncletopia | Chicago | 4 | All Maps","protocol":17,"map":"koth_lakeside_final","folder":"tf","game":"Team Fortress","app_id":440,"player_count":0,"max_players":24,"Bots":0,"server_type":"Dedicated","server_os":"Linux","password":true,"vac":true,"version":"7708610","steam_id":85568392924515193,"keywords":["cp","nocrits","nodmgspread","uncletopia"],"game_id":440,"stv_port":27046,"stv_name":"Uncletopia | Chicago | 4 | All Maps | STV","players":null},{"server_id":36,"name":"Uncletopia | Chicago | 5 | All Maps","name_short":"chi-5","host":"chi-2.us.uncletopia.com","port":27015,"enabled":true,"region":"us-central","cc":"us","latitude":41.881832,"longitude":-87.62318,"reserved":0,"last_update":"0001-01-01T00:00:00Z","name_a2s":"Uncletopia | Chicago | 5 | All Maps","protocol":17,"map":"cp_snakewater_final1","folder":"tf","game":"Team Fortress","app_id":440,"player_count":0,"max_players":24,"Bots":0,"server_type":"Dedicated","server_os":"Linux","password":true,"vac":true,"version":"7708610","steam_id":85568392924866362,"keywords":["cp","nocrits","nodmgspread","uncletopia"],"game_id":440,"stv_port":0,"stv_name":"","players":null},{"server_id":37,"name":"Uncletopia | Chicago | 6 | All Maps","name_short":"chi-6","host":"chi-2.us.uncletopia.com","port":27025,"enabled":true,"region":"us-central","cc":"us","latitude":41.881832,"longitude":-87.62318,"reserved":0,"last_update":"0001-01-01T00:00:00Z","name_a2s":"Uncletopia | Chicago | 6 | All Maps","protocol":17,"map":"koth_cascade","folder":"tf","game":"Team Fortress","app_id":440,"player_count":0,"max_players":24,"Bots":0,"server_type":"Dedicated","server_os":"Linux","password":true,"vac":true,"version":"7708610","steam_id":85568392924866363,"keywords":["cp","nocrits","nodmgspread","uncletopia"],"game_id":440,"stv_port":0,"stv_name":"","players":null},{"server_id":38,"name":"Uncletopia | Chicago | 7 | No Payload","name_short":"chi-7","host":"chi-2.us.uncletopia.com","port":27035,"enabled":true,"region":"us-central","cc":"us","latitude":41.881832,"longitude":-87.62318,"reserved":0,"last_update":"0001-01-01T00:00:00Z","name_a2s":"Uncletopia | Chicago | 7 | No Payload","protocol":17,"map":"koth_viaduct","folder":"tf","game":"Team Fortress","app_id":440,"player_count":0,"max_players":24,"Bots":0,"server_type":"Dedicated","server_os":"Linux","password":true,"vac":true,"version":"7708610","steam_id":85568392924866364,"keywords":["cp","nocrits","nodmgspread","uncletopia"],"game_id":440,"stv_port":0,"stv_name":"","players":null},{"server_id":39,"name":"Uncletopia | Chicago | 8 | Community","name_short":"chi-8","host":"chi-2.us.uncletopia.com","port":27045,"enabled":true,"region":"us-central","cc":"us","latitude":41.881832,"longitude":-87.62318,"reserved":0,"last_update":"0001-01-01T00:00:00Z","name_a2s":"Uncletopia | Chicago | 8 | Community","protocol":17,"map":"pl_pier","folder":"tf","game":"Team Fortress","app_id":440,"player_count":0,"max_players":24,"Bots":0,"server_type":"Dedicated","server_os":"Linux","password":true,"vac":true,"version":"7708610","steam_id":85568392924866365,"keywords":["nocrits","nodmgspread","payload","uncletopia"],"game_id":440,"stv_port":0,"stv_name":"","players":null},{"server_id":8,"name":"Uncletopia | Dallas | 1 | All Maps","name_short":"dal-1","host":"dal-1.us.uncletopia.com","port":27015,"enabled":true,"region":"us-central","cc":"us","latitude":32.779167,"longitude":-96.80889,"reserved":0,"last_update":"0001-01-01T00:00:00Z","name_a2s":"Uncletopia | Dallas | 1 | All Maps","protocol":17,"map":"cp_mountainlab","folder":"tf","game":"Team Fortress","app_id":440,"player_count":0,"max_players":24,"Bots":0,"server_type":"Dedicated","server_os":"Linux","password":true,"vac":true,"version":"7708610","steam_id":85568392924469986,"keywords":["cp","nocrits","nodmgspread","uncletopia"],"game_id":440,"stv_port":0,"stv_name":"","players":null},{"server_id":108,"name":"Uncletopia | Dallas | 2 | All Maps","name_short":"dal-2","host":"dal-1.us.uncletopia.com","port":27025,"enabled":true,"region":"us-central","cc":"us","latitude":32.779167,"longitude":-96.80889,"reserved":0,"last_update":"0001-01-01T00:00:00Z","name_a2s":"Uncletopia | Dallas | 2 | All Maps","protocol":17,"map":"pl_barnblitz","folder":"tf","game":"Team Fortress","app_id":440,"player_count":0,"max_players":24,"Bots":0,"server_type":"Dedicated","server_os":"Linux","password":true,"vac":true,"version":"7708610","steam_id":85568392924469988,"keywords":["nocrits","nodmgspread","payload","uncletopia"],"game_id":440,"stv_port":0,"stv_name":"","players":null},{"server_id":5,"name":"Uncletopia | Frankfurt | 1 | All Maps","name_short":"frk-1","host":"frk-1.de.uncletopia.com","port":27015,"enabled":true,"region":"eu","cc":"de","latitude":50.110924,"longitude":8.682127,"reserved":0,"last_update":"0001-01-01T00:00:00Z","name_a2s":"Uncletopia | Frankfurt | 1 | All Maps","protocol":17,"map":"pl_snowycoast","folder":"tf","game":"Team Fortress","app_id":440,"player_count":24,"max_players":24,"Bots":0,"server_type":"Dedicated","server_os":"Linux","password":true,"vac":true,"version":"7708610","steam_id":85568392924469989,"keywords":["nocrits","nodmgspread","payload","uncletopia"],"game_id":440,"stv_port":27016,"stv_name":"Uncletopia | Frankfurt | 1 | All Maps | STV","players":[{"user_id":102,"name":"Uncle Lame","steam_id":76561198089003514,"connected_time":1226000000000,"state":"active","ping":45},{"user_id":95,"name":"cosmetical","steam_id":76561198444036574,"connected_time":1372000000000,"state":"active","ping":69},{"user_id":96,"name":"Lekamies","steam_id":76561198062563606,"connected_time":1363000000000,"state":"active","ping":76},{"user_id":41,"name":"Liri ^__#DRAINGANG","steam_id":76561198328824242,"connected_time":4742000000000,"state":"active","ping":63},{"user_id":120,"name":"gion","steam_id":76561199065121816,"connected_time":788000000000,"state":"active","ping":98},{"user_id":124,"name":"Spinach_Tropphy","steam_id":76561198807233328,"connected_time":76000000000,"state":"active","ping":60},{"user_id":97,"name":"Insegura?","steam_id":76561198211621756,"connected_time":1352000000000,"state":"active","ping":54},{"user_id":98,"name":"Sasha","steam_id":76561199037894293,"connected_time":1339000000000,"state":"active","ping":71},{"user_id":116,"name":"Kareem","steam_id":76561198364462049,"connected_time":905000000000,"state":"active","ping":105},{"user_id":31,"name":"Dunboi","steam_id":76561198120949216,"connected_time":5084000000000,"state":"active","ping":61},{"user_id":103,"name":"kbbq","steam_id":76561198346638308,"connected_time":1208000000000,"state":"active","ping":57},{"user_id":118,"name":"Inhambane, Inhambane, Mozambiqu","steam_id":76561198364050027,"connected_time":876000000000,"state":"active","ping":78},{"user_id":81,"name":"Adam Sandler","steam_id":76561198310408309,"connected_time":2555000000000,"state":"active","ping":63},{"user_id":104,"name":"bruh.","steam_id":76561198144593115,"connected_time":1191000000000,"state":"active","ping":71},{"user_id":101,"name":"Octis","steam_id":76561198015536917,"connected_time":1250000000000,"state":"active","ping":73},{"user_id":75,"name":"DeCypher","steam_id":76561198171992619,"connected_time":3064000000000,"state":"active","ping":63},{"user_id":122,"name":"Animatic","steam_id":76561198186421601,"connected_time":370000000000,"state":"active","ping":169},{"user_id":106,"name":"desperate rogue","steam_id":76561199016050401,"connected_time":1182000000000,"state":"active","ping":132},{"user_id":125,"name":"tealoverr.190","steam_id":76561199028497703,"connected_time":63000000000,"state":"active","ping":102},{"user_id":88,"name":"FartGoing","steam_id":76561198122284275,"connected_time":1894000000000,"state":"active","ping":61},{"user_id":79,"name":"chocolate flavoured femboy","steam_id":76561198819353867,"connected_time":2888000000000,"state":"active","ping":51},{"user_id":119,"name":"slavik doggo","steam_id":76561198181820290,"connected_time":820000000000,"state":"active","ping":65},{"user_id":92,"name":"Cobb Salads","steam_id":76561197971140507,"connected_time":1418000000000,"state":"active","ping":77},{"user_id":111,"name":"Shiny Lucario","steam_id":76561198128837690,"connected_time":1041000000000,"state":"active","ping":71}]},{"server_id":110,"name":"Uncletopia | Frankfurt | 2 | All Maps","name_short":"frk-2","host":"frk-1.de.uncletopia.com","port":27025,"enabled":true,"region":"eu","cc":"de","latitude":50.110924,"longitude":8.682127,"reserved":0,"last_update":"0001-01-01T00:00:00Z","name_a2s":"Uncletopia | Frankfurt | 2 | All Maps","protocol":17,"map":"pl_snowycoast","folder":"tf","game":"Team Fortress","app_id":440,"player_count":24,"max_players":24,"Bots":0,"server_type":"Dedicated","server_os":"Linux","password":true,"vac":true,"version":"7708610","steam_id":85568392924469990,"keywords":["nocrits","nodmgspread","payload","uncletopia"],"game_id":440,"stv_port":27026,"stv_name":"Uncletopia | Frankfurt | 2 | All Maps | STV","players":[{"user_id":133,"name":"manure merchant","steam_id":76561198010109316,"connected_time":374000000000,"state":"active","ping":58},{"user_id":114,"name":"Jovy Kujoh","steam_id":76561198410598772,"connected_time":1000000000000,"state":"active","ping":53},{"user_id":136,"name":"E_WM","steam_id":76561198283432737,"connected_time":122000000000,"state":"active","ping":83},{"user_id":88,"name":"Redmailbox","steam_id":76561198042930322,"connected_time":2929000000000,"state":"active","ping":60},{"user_id":115,"name":"you (DK)","steam_id":76561198061472971,"connected_time":955000000000,"state":"active","ping":69},{"user_id":106,"name":"–ú—è–∫–∏—à(—Ö–ª–µ–±–Ω—ã–π)","steam_id":76561199223895282,"connected_time":1855000000000,"state":"active","ping":96},{"user_id":132,"name":"Saint","steam_id":76561198003296382,"connected_time":402000000000,"state":"active","ping":69},{"user_id":120,"name":"–ûrangePortals","steam_id":76561198282172748,"connected_time":763000000000,"state":"active","ping":114},{"user_id":134,"name":"Ffffgt","steam_id":76561198115312645,"connected_time":357000000000,"state":"active","ping":59},{"user_id":127,"name":"My left foot itches","steam_id":76561198078411001,"connected_time":602000000000,"state":"active","ping":84},{"user_id":111,"name":"RockFrenzy","steam_id":76561198005428050,"connected_time":1136000000000,"state":"active","ping":61},{"user_id":93,"name":"KeeperOfDreams","steam_id":76561198081965556,"connected_time":2765000000000,"state":"active","ping":60},{"user_id":121,"name":"Joe12000","steam_id":76561198160817969,"connected_time":715000000000,"state":"active","ping":62},{"user_id":122,"name":"F2P gameing","steam_id":76561198834713682,"connected_time":712000000000,"state":"active","ping":73},{"user_id":130,"name":"Breadcrab","steam_id":76561198015924039,"connected_time":542000000000,"state":"active","ping":69},{"user_id":89,"name":"Matteo Besho","steam_id":76561199159657855,"connected_time":2895000000000,"state":"active","ping":73},{"user_id":110,"name":"Gety0","steam_id":76561198044387185,"connected_time":1204000000000,"state":"active","ping":71},{"user_id":124,"name":"amogus","steam_id":76561198119439177,"connected_time":682000000000,"state":"active","ping":60},{"user_id":125,"name":"Lukas","steam_id":76561198009118452,"connected_time":678000000000,"state":"active","ping":52},{"user_id":135,"name":"Zazou","steam_id":76561198028076362,"connected_time":346000000000,"state":"active","ping":49},{"user_id":131,"name":"mr grips","steam_id":76561198219945364,"connected_time":499000000000,"state":"active","ping":51},{"user_id":129,"name":"„ÇØ„Éû","steam_id":76561197993892057,"connected_time":568000000000,"state":"active","ping":84},{"user_id":33,"name":"moon","steam_id":76561199212557251,"connected_time":6772000000000,"state":"active","ping":126},{"user_id":103,"name":"tuukka","steam_id":76561198890409949,"connected_time":2078000000000,"state":"active","ping":107}]},{"server_id":308,"name":"Uncletopia | Frankfurt | 3 | All Maps","name_short":"frk-3","host":"frk-1.de.uncletopia.com","port":27035,"enabled":true,"region":"eu","cc":"de","latitude":50.110924,"longitude":8.682127,"reserved":0,"last_update":"0001-01-01T00:00:00Z","name_a2s":"Uncletopia | Frankfurt | 3 | All Maps","protocol":17,"map":"koth_cascade","folder":"tf","game":"Team Fortress","app_id":440,"player_count":0,"max_players":24,"Bots":0,"server_type":"Dedicated","server_os":"Linux","password":true,"vac":true,"version":"7708610","steam_id":85568392924504274,"keywords":["cp","nocrits","nodmgspread","uncletopia"],"game_id":440,"stv_port":0,"stv_name":"","players":null},{"server_id":309,"name":"Uncletopia | Frankfurt | 4 | All Maps","name_short":"frk-4","host":"frk-1.de.uncletopia.com","port":27045,"enabled":true,"region":"eu","cc":"de","latitude":50.110924,"longitude":8.682127,"reserved":0,"last_update":"0001-01-01T00:00:00Z","name_a2s":"Uncletopia | Frankfurt | 4 | All Maps","protocol":17,"map":"koth_highpass","folder":"tf","game":"Team Fortress","app_id":440,"player_count":0,"max_players":24,"Bots":0,"server_type":"Dedicated","server_os":"Linux","password":true,"vac":true,"version":"7708610","steam_id":85568392924504275,"keywords":["cp","nocrits","nodmgspread","uncletopia"],"game_id":440,"stv_port":27046,"stv_name":"Uncletopia | Frankfurt | 4 | All Maps | STV","players":null},{"server_id":310,"name":"Uncletopia | Frankfurt | 5 | All Maps","name_short":"frk-5","host":"frk-1.de.uncletopia.com","port":27055,"enabled":true,"region":"eu","cc":"de","latitude":50.110924,"longitude":8.682127,"reserved":0,"last_update":"0001-01-01T00:00:00Z","name_a2s":"Uncletopia | Frankfurt | 5 | All Maps","protocol":17,"map":"koth_cascade","folder":"tf","game":"Team Fortress","app_id":440,"player_count":0,"max_players":24,"Bots":0,"server_type":"Dedicated","server_os":"Linux","password":true,"vac":true,"version":"7708610","steam_id":85568392924504277,"keywords":["cp","nocrits","nodmgspread","uncletopia"],"game_id":440,"stv_port":0,"stv_name":"","players":null},{"server_id":311,"name":"Uncletopia | Frankfurt | 6 | All Maps","name_short":"frk-6","host":"frk-1.de.uncletopia.com","port":27065,"enabled":true,"region":"eu","cc":"de","latitude":50.110924,"longitude":8.682127,"reserved":0,"last_update":"0001-01-01T00:00:00Z","name_a2s":"Uncletopia | Frankfurt | 6 | All Maps","protocol":17,"map":"cp_dustbowl","folder":"tf","game":"Team Fortress","app_id":440,"player_count":13,"max_players":24,"Bots":0,"server_type":"Dedicated","server_os":"Linux","password":true,"vac":true,"version":"7708610","steam_id":85568392924504278,"keywords":["cp","nocrits","nodmgspread","uncletopia"],"game_id":440,"stv_port":27066,"stv_name":"Uncletopia | Frankfurt | 6 | All Maps | STV","players":[{"user_id":257,"name":"Bob_Tostas","steam_id":76561198249006560,"connected_time":327000000000,"state":"active","ping":80},{"user_id":262,"name":"ZazyLou_","steam_id":76561198411134617,"connected_time":91000000000,"state":"active","ping":62},{"user_id":204,"name":"Tortes","steam_id":76561199049185884,"connected_time":3954000000000,"state":"active","ping":102},{"user_id":258,"name":"cyswis","steam_id":76561198404352024,"connected_time":307000000000,"state":"active","ping":82},{"user_id":259,"name":"Rex","steam_id":76561199032874487,"connected_time":199000000000,"state":"active","ping":57},{"user_id":261,"name":"Sniper, no sniping!","steam_id":76561198148074472,"connected_time":112000000000,"state":"active","ping":31},{"user_id":223,"name":"poliakov.noam","steam_id":76561199259322961,"connected_time":2658000000000,"state":"active","ping":95},{"user_id":263,"name":"L√∂ys√§ Masa","steam_id":76561198343396172,"connected_time":16000000000,"state":"spawning","ping":96},{"user_id":254,"name":"Dolcelatte","steam_id":76561198038501770,"connected_time":736000000000,"state":"active","ping":46},{"user_id":238,"name":"Vanes #savetf2","steam_id":76561198070099171,"connected_time":1806000000000,"state":"active","ping":74},{"user_id":245,"name":"Typo","steam_id":76561199177384379,"connected_time":994000000000,"state":"active","ping":145},{"user_id":253,"name":"...","steam_id":76561198969234594,"connected_time":787000000000,"state":"active","ping":70},{"user_id":236,"name":"üóªüé¥Hadrian Maloneüé¥üóª","steam_id":76561198036151103,"connected_time":2086000000000,"state":"active","ping":56}]},{"server_id":23,"name":"Uncletopia | Frankfurt | 7 | No Payload","name_short":"frk-7","host":"frk-1.de.uncletopia.com","port":27075,"enabled":true,"region":"eu","cc":"de","latitude":50.110924,"longitude":8.682127,"reserved":0,"last_update":"0001-01-01T00:00:00Z","name_a2s":"Uncletopia | Frankfurt | 7 | No Payload","protocol":17,"map":"koth_harvest_final","folder":"tf","game":"Team Fortress","app_id":440,"player_count":5,"max_players":24,"Bots":0,"server_type":"Dedicated","server_os":"Linux","password":true,"vac":true,"version":"7708610","steam_id":85568392924742827,"keywords":["cp","nocrits","nodmgspread","uncletopia"],"game_id":440,"stv_port":27076,"stv_name":"Uncletopia | Frankfurt | 7 | No Payload | STV","players":[{"user_id":12,"name":"RocketBoy08","steam_id":76561198833978944,"connected_time":1598000000000,"state":"active","ping":74},{"user_id":13,"name":"Lukero","steam_id":76561198301594341,"connected_time":1436000000000,"state":"active","ping":63},{"user_id":11,"name":"CODSWOLOP","steam_id":76561199114598660,"connected_time":2275000000000,"state":"active","ping":124},{"user_id":20,"name":"Pan Pan","steam_id":76561199074670515,"connected_time":274000000000,"state":"active","ping":157},{"user_id":16,"name":"BIGGEST MAC","steam_id":76561198847517098,"connected_time":1150000000000,"state":"active","ping":151}]},{"server_id":24,"name":"Uncletopia | Frankfurt | 8 | Community","name_short":"frk-8","host":"frk-1.de.uncletopia.com","port":27085,"enabled":true,"region":"eu","cc":"de","latitude":50.110924,"longitude":8.682127,"reserved":0,"last_update":"0001-01-01T00:00:00Z","name_a2s":"Uncletopia | Frankfurt | 8 | Community","protocol":17,"map":"workshop/pl_vigil_rc9.ugc1266210012","folder":"tf","game":"Team Fortress","app_id":440,"player_count":0,"max_players":24,"Bots":0,"server_type":"Dedicated","server_os":"Linux","password":true,"vac":true,"version":"7708610","steam_id":85568392924742828,"keywords":["nocrits","nodmgspread","payload","uncletopia"],"game_id":440,"stv_port":27086,"stv_name":"Uncletopia | Frankfurt | 8 | Community | STV","players":null},{"server_id":202,"name":"Uncletopia | Hong Kong | 1 | All Maps","name_short":"hgk-1","host":"hgk-1.hk.uncletopia.com","port":27015,"enabled":true,"region":"asia","cc":"hk","latitude":22.302711,"longitude":114.177216,"reserved":0,"last_update":"0001-01-01T00:00:00Z","name_a2s":"Uncletopia | Hong Kong | 1 | All Maps","protocol":17,"map":"cp_steel","folder":"tf","game":"Team Fortress","app_id":440,"player_count":24,"max_players":24,"Bots":0,"server_type":"Dedicated","server_os":"Linux","password":true,"vac":true,"version":"7708610","steam_id":85568392924494504,"keywords":["cp","nocrits","nodmgspread","uncletopia"],"game_id":440,"stv_port":27016,"stv_name":"Uncletopia | Hong Kong | 1 | All Maps | STV","players":[{"user_id":495,"name":"TechMaster12(F2P)#savetf2","steam_id":76561199244754236,"connected_time":2645000000000,"state":"active","ping":95},{"user_id":509,"name":"greeny","steam_id":76561198024666371,"connected_time":2031000000000,"state":"active","ping":90},{"user_id":501,"name":"Batbob","steam_id":76561198999413123,"connected_time":2170000000000,"state":"active","ping":66},{"user_id":450,"name":"Noyour","steam_id":76561198323259830,"connected_time":6184000000000,"state":"active","ping":118},{"user_id":524,"name":"val or something idk","steam_id":76561198981897135,"connected_time":918000000000,"state":"active","ping":84},{"user_id":502,"name":"Banana Milk","steam_id":76561198005156257,"connected_time":2168000000000,"state":"active","ping":124},{"user_id":525,"name":"Michael Scott","steam_id":76561198023082794,"connected_time":907000000000,"state":"active","ping":49},{"user_id":464,"name":"GreggieBoi","steam_id":76561199085200364,"connected_time":5549000000000,"state":"active","ping":56},{"user_id":498,"name":"ArcticDolphin","steam_id":76561198203626319,"connected_time":2292000000000,"state":"active","ping":138},{"user_id":528,"name":"Ïó¨Î¶Ñ","steam_id":76561198274438558,"connected_time":602000000000,"state":"active","ping":79},{"user_id":521,"name":"Violezine","steam_id":76561199000502615,"connected_time":1257000000000,"state":"active","ping":78},{"user_id":390,"name":"table","steam_id":76561198055553140,"connected_time":10949000000000,"state":"active","ping":83},{"user_id":500,"name":"cellum95","steam_id":76561198172146871,"connected_time":2180000000000,"state":"active","ping":76},{"user_id":452,"name":"paga","steam_id":76561198296718007,"connected_time":5848000000000,"state":"active","ping":104},{"user_id":523,"name":"bonito borzoi","steam_id":76561198230213828,"connected_time":1069000000000,"state":"active","ping":70},{"user_id":412,"name":"AmaiToxic","steam_id":76561199122491157,"connected_time":8589000000000,"state":"active","ping":66},{"user_id":526,"name":"bookman","steam_id":76561198989168133,"connected_time":881000000000,"state":"active","ping":84},{"user_id":510,"name":"j_rex","steam_id":76561198132473926,"connected_time":1566000000000,"state":"active","ping":59},{"user_id":503,"name":"+W+","steam_id":76561197997220367,"connected_time":2167000000000,"state":"active","ping":46},{"user_id":527,"name":"the big man","steam_id":76561198412329672,"connected_time":763000000000,"state":"active","ping":90},{"user_id":467,"name":"UwU","steam_id":76561198823521095,"connected_time":5083000000000,"state":"active","ping":48},{"user_id":477,"name":"Wakiiiz","steam_id":76561198850134590,"connected_time":4326000000000,"state":"active","ping":60},{"user_id":426,"name":"Kall","steam_id":76561197993608660,"connected_time":7623000000000,"state":"active","ping":92},{"user_id":490,"name":"Bush.exe","steam_id":76561198124385307,"connected_time":2732000000000,"state":"active","ping":68}]},{"server_id":1,"name":"Uncletopia | Los Angeles | 1 | All Maps","name_short":"lax-1","host":"lax-1.us.uncletopia.com","port":27015,"enabled":true,"region":"us-west","cc":"us","latitude":33.94279,"longitude":-118.41004,"reserved":0,"last_update":"0001-01-01T00:00:00Z","name_a2s":"Uncletopia | Los Angeles | 1 | All Maps","protocol":17,"map":"cp_process_final","folder":"tf","game":"Team Fortress","app_id":440,"player_count":0,"max_players":24,"Bots":0,"server_type":"Dedicated","server_os":"Linux","password":true,"vac":true,"version":"7708610","steam_id":85568392924469991,"keywords":["cp","nocrits","nodmgspread","uncletopia"],"game_id":440,"stv_port":0,"stv_name":"","players":null},{"server_id":112,"name":"Uncletopia | Los Angeles | 2 | All Maps","name_short":"lax-2","host":"lax-1.us.uncletopia.com","port":27025,"enabled":true,"region":"us-west","cc":"us","latitude":33.94279,"longitude":-118.41004,"reserved":0,"last_update":"0001-01-01T00:00:00Z","name_a2s":"Uncletopia | Los Angeles | 2 | All Maps","protocol":17,"map":"cp_altitude","folder":"tf","game":"Team Fortress","app_id":440,"player_count":0,"max_players":24,"Bots":0,"server_type":"Dedicated","server_os":"Linux","password":true,"vac":true,"version":"7708610","steam_id":85568392924469992,"keywords":["cp","nocrits","nodmgspread","uncletopia"],"game_id":440,"stv_port":0,"stv_name":"","players":null},{"server_id":324,"name":"Uncletopia | Los Angeles | 3 | All Maps","name_short":"lax-3","host":"lax-1.us.uncletopia.com","port":27035,"enabled":true,"region":"us-west","cc":"us","latitude":33.94279,"longitude":-118.41004,"reserved":0,"last_update":"0001-01-01T00:00:00Z","name_a2s":"Uncletopia | Los Angeles | 3 | All Maps","protocol":17,"map":"cp_altitude","folder":"tf","game":"Team Fortress","app_id":440,"player_count":0,"max_players":24,"Bots":0,"server_type":"Dedicated","server_os":"Linux","password":true,"vac":true,"version":"7708610","steam_id":85568392924510198,"keywords":["cp","nocrits","nodmgspread","uncletopia"],"game_id":440,"stv_port":0,"stv_name":"","players":null},{"server_id":25,"name":"Uncletopia | Los Angeles | 4 | No Payload","name_short":"lax-4","host":"lax-1.us.uncletopia.com","port":27045,"enabled":true,"region":"us-west","cc":"us","latitude":33.94279,"longitude":-118.41004,"reserved":0,"last_update":"0001-01-01T00:00:00Z","name_a2s":"Uncletopia | Los Angeles | 4 | No Payload","protocol":17,"map":"pl_upward","folder":"tf","game":"Team Fortress","app_id":440,"player_count":0,"max_players":24,"Bots":0,"server_type":"Dedicated","server_os":"Linux","password":true,"vac":true,"version":"7708610","steam_id":85568392924510199,"keywords":["nocrits","nodmgspread","payload","uncletopia"],"game_id":440,"stv_port":0,"stv_name":"","players":null},{"server_id":11,"name":"Uncletopia | London | 1 | All Maps","name_short":"lon-1","host":"lon-1.uk.uncletopia.com","port":27015,"enabled":true,"region":"eu","cc":"gb","latitude":51.509865,"longitude":-0.118092,"reserved":0,"last_update":"0001-01-01T00:00:00Z","name_a2s":"Uncletopia | London | 1 | All Maps","protocol":17,"map":"pl_upward","folder":"tf","game":"Team Fortress","app_id":440,"player_count":0,"max_players":24,"Bots":0,"server_type":"Dedicated","server_os":"Linux","password":true,"vac":true,"version":"7708610","steam_id":85568392924367362,"keywords":["nocrits","nodmgspread","payload","uncletopia"],"game_id":440,"stv_port":27016,"stv_name":"Uncletopia | London | 1 | All Maps | STV","players":null},{"server_id":114,"name":"Uncletopia | London | 2 | All Maps","name_short":"lon-2","host":"lon-1.uk.uncletopia.com","port":27025,"enabled":true,"region":"eu","cc":"gb","latitude":51.509865,"longitude":-0.118092,"reserved":0,"last_update":"0001-01-01T00:00:00Z","name_a2s":"Uncletopia | London | 2 | All Maps","protocol":17,"map":"koth_cascade","folder":"tf","game":"Team Fortress","app_id":440,"player_count":0,"max_players":24,"Bots":0,"server_type":"Dedicated","server_os":"Linux","password":true,"vac":true,"version":"7708610","steam_id":85568392924470941,"keywords":["cp","nocrits","nodmgspread","uncletopia"],"game_id":440,"stv_port":27026,"stv_name":"Uncletopia | London | 2 | All Maps | STV","players":null},{"server_id":320,"name":"Uncletopia | London | 3 | All Maps","name_short":"lon-3","host":"lon-1.uk.uncletopia.com","port":27035,"enabled":true,"region":"eu","cc":"gb","latitude":51.509865,"longitude":-0.118092,"reserved":0,"last_update":"0001-01-01T00:00:00Z","name_a2s":"Uncletopia | London | 3 | All Maps","protocol":17,"map":"pl_borneo","folder":"tf","game":"Team Fortress","app_id":440,"player_count":0,"max_players":24,"Bots":0,"server_type":"Dedicated","server_os":"Linux","password":true,"vac":true,"version":"7708610","steam_id":85568392924510192,"keywords":["nocrits","nodmgspread","payload","uncletopia"],"game_id":440,"stv_port":27036,"stv_name":"Uncletopia | London | 3 | All Maps | STV","players":null},{"server_id":321,"name":"Uncletopia | London | 4 | All Maps","name_short":"lon-4","host":"lon-1.uk.uncletopia.com","port":27045,"enabled":true,"region":"eu","cc":"gb","latitude":51.509865,"longitude":-0.118092,"reserved":0,"last_update":"0001-01-01T00:00:00Z","name_a2s":"Uncletopia | London | 4 | All Maps","protocol":17,"map":"pl_swiftwater_final1","folder":"tf","game":"Team Fortress","app_id":440,"player_count":0,"max_players":24,"Bots":0,"server_type":"Dedicated","server_os":"Linux","password":true,"vac":true,"version":"7708610","steam_id":85568392924510193,"keywords":["nocrits","nodmgspread","payload","uncletopia"],"game_id":440,"stv_port":27046,"stv_name":"Uncletopia | London | 4 | All Maps | STV","players":null},{"server_id":21,"name":"Uncletopia | London | 5 | All Maps","name_short":"lon-5","host":"lon-1.uk.uncletopia.com","port":27055,"enabled":true,"region":"eu","cc":"gb","latitude":51.509865,"longitude":-0.118092,"reserved":0,"last_update":"0001-01-01T00:00:00Z","name_a2s":"Uncletopia | London | 5 | All Maps","protocol":17,"map":"pl_badwater","folder":"tf","game":"Team Fortress","app_id":440,"player_count":22,"max_players":24,"Bots":0,"server_type":"Dedicated","server_os":"Linux","password":true,"vac":true,"version":"7708610","steam_id":85568392924742829,"keywords":["nocrits","nodmgspread","payload","uncletopia"],"game_id":440,"stv_port":27056,"stv_name":"Uncletopia | London | 5 | All Maps | STV","players":[{"user_id":49,"name":"Bottomest","steam_id":76561198091734693,"connected_time":616000000000,"state":"active","ping":70},{"user_id":53,"name":"MAKENTAKEN","steam_id":76561199127359587,"connected_time":383000000000,"state":"active","ping":96},{"user_id":5,"name":"WonderVaflya","steam_id":76561198077281374,"connected_time":2627000000000,"state":"active","ping":71},{"user_id":6,"name":"Andreus","steam_id":76561199403926001,"connected_time":2607000000000,"state":"active","ping":74},{"user_id":9,"name":"Adamkriaco","steam_id":76561198410311369,"connected_time":2506000000000,"state":"active","ping":97},{"user_id":52,"name":".::[SerafeTTiN]::.","steam_id":76561198009471724,"connected_time":403000000000,"state":"active","ping":94},{"user_id":44,"name":"Ritzy","steam_id":76561198381955342,"connected_time":1089000000000,"state":"active","ping":43},{"user_id":54,"name":"rly","steam_id":76561198889987634,"connected_time":382000000000,"state":"active","ping":63},{"user_id":37,"name":"RereYesnt","steam_id":76561198883188414,"connected_time":1591000000000,"state":"active","ping":83},{"user_id":64,"name":"–ò–Ω—Å–ø–µ–∫—Ç–æ—Ä –ê—Ç–∞—Å","steam_id":76561199175688390,"connected_time":63000000000,"state":"active","ping":79},{"user_id":57,"name":"BORGETENNISCLUB","steam_id":76561198049343723,"connected_time":310000000000,"state":"active","ping":48},{"user_id":58,"name":"chachiply","steam_id":76561198316355509,"connected_time":297000000000,"state":"active","ping":74},{"user_id":59,"name":"Nassu","steam_id":76561198147367577,"connected_time":277000000000,"state":"active","ping":160},{"user_id":65,"name":"SnowStorm","steam_id":76561198095817025,"connected_time":36000000000,"state":"active","ping":133},{"user_id":63,"name":"Smag","steam_id":76561198153675141,"connected_time":168000000000,"state":"active","ping":44},{"user_id":38,"name":"Kodutah","steam_id":76561198203405574,"connected_time":1583000000000,"state":"active","ping":64},{"user_id":66,"name":"Rachugh","steam_id":76561199235852578,"connected_time":17000000000,"state":"spawning","ping":179},{"user_id":25,"name":"ciliorkun18","steam_id":76561198228942500,"connected_time":2008000000000,"state":"active","ping":90},{"user_id":26,"name":"player","steam_id":76561198054474684,"connected_time":1993000000000,"state":"active","ping":84},{"user_id":62,"name":"DeepBlue","steam_id":76561198140075795,"connected_time":172000000000,"state":"active","ping":61},{"user_id":67,"name":"'Tis but a scratch","steam_id":76561198118517671,"connected_time":2000000000,"state":"spawning","ping":121},{"user_id":46,"name":"Another Creater","steam_id":76561199157485240,"connected_time":1027000000000,"state":"active","ping":65}]},{"server_id":22,"name":"Uncletopia | London | 6 | All Maps","name_short":"lon-6","host":"lon-1.uk.uncletopia.com","port":27065,"enabled":true,"region":"eu","cc":"gb","latitude":51.509865,"longitude":-0.118092,"reserved":0,"last_update":"0001-01-01T00:00:00Z","name_a2s":"Uncletopia | London | 6 | All Maps","protocol":17,"map":"pl_thundermountain","folder":"tf","game":"Team Fortress","app_id":440,"player_count":23,"max_players":24,"Bots":0,"server_type":"Dedicated","server_os":"Linux","password":true,"vac":true,"version":"7708610","steam_id":85568392924742830,"keywords":["nocrits","nodmgspread","payload","uncletopia"],"game_id":440,"stv_port":27066,"stv_name":"Uncletopia | London | 6 | All Maps | STV","players":[{"user_id":309,"name":"csnipery","steam_id":76561199435280050,"connected_time":4789000000000,"state":"active","ping":72},{"user_id":348,"name":"Zateske","steam_id":76561198047446276,"connected_time":2589000000000,"state":"active","ping":65},{"user_id":355,"name":"jt7","steam_id":76561198073655162,"connected_time":2077000000000,"state":"active","ping":76},{"user_id":376,"name":"htraB","steam_id":76561198043122677,"connected_time":1078000000000,"state":"active","ping":60},{"user_id":320,"name":"Chefatron","steam_id":76561198218808579,"connected_time":4380000000000,"state":"active","ping":38},{"user_id":361,"name":"r/sonofelicenellafece","steam_id":76561198262231733,"connected_time":1981000000000,"state":"active","ping":74},{"user_id":274,"name":"air traffic control","steam_id":76561199216923710,"connected_time":6750000000000,"state":"active","ping":138},{"user_id":381,"name":"sumweeb","steam_id":76561198311624395,"connected_time":444000000000,"state":"active","ping":44},{"user_id":377,"name":"the joy of recycling","steam_id":76561198138509827,"connected_time":1071000000000,"state":"active","ping":75},{"user_id":306,"name":"SlavaMyas","steam_id":76561199385678912,"connected_time":4840000000000,"state":"active","ping":105},{"user_id":349,"name":"LAMC","steam_id":76561199066888917,"connected_time":2544000000000,"state":"active","ping":63},{"user_id":379,"name":"Knoxx","steam_id":76561198260692541,"connected_time":824000000000,"state":"active","ping":52},{"user_id":382,"name":"ff:ff:ff:ff:ff:ff","steam_id":76561198072122983,"connected_time":199000000000,"state":"active","ping":67},{"user_id":367,"name":"Ham Fatty","steam_id":76561198071454198,"connected_time":1771000000000,"state":"active","ping":153},{"user_id":325,"name":"hushhx","steam_id":76561198216200092,"connected_time":4311000000000,"state":"active","ping":54},{"user_id":370,"name":"MagusCubed","steam_id":76561198083973944,"connected_time":1602000000000,"state":"active","ping":45},{"user_id":380,"name":"Cal","steam_id":76561198094515936,"connected_time":556000000000,"state":"active","ping":32},{"user_id":340,"name":"Joseph Stalin LFT","steam_id":76561198033199746,"connected_time":3109000000000,"state":"active","ping":47},{"user_id":378,"name":"Blockle","steam_id":76561199141459287,"connected_time":937000000000,"state":"active","ping":79},{"user_id":375,"name":"Long Legged Larry","steam_id":76561198023585856,"connected_time":1183000000000,"state":"active","ping":160},{"user_id":360,"name":"nudjura","steam_id":76561198281986139,"connected_time":2021000000000,"state":"active","ping":46},{"user_id":374,"name":"Perci gyerek","steam_id":76561198097789669,"connected_time":1235000000000,"state":"active","ping":71},{"user_id":252,"name":"Him","steam_id":76561198086400484,"connected_time":7983000000000,"state":"active","ping":62}]},{"server_id":40,"name":"Uncletopia | London | 7 | No Payload","name_short":"lon-7","host":"lon-1.uk.uncletopia.com","port":27075,"enabled":true,"region":"eu","cc":"gb","latitude":51.509865,"longitude":-0.118092,"reserved":0,"last_update":"0001-01-01T00:00:00Z","name_a2s":"Uncletopia | London | 7 | No Payload","protocol":17,"map":"plr_hightower","folder":"tf","game":"Team Fortress","app_id":440,"player_count":0,"max_players":24,"Bots":0,"server_type":"Dedicated","server_os":"Linux","password":true,"vac":true,"version":"7708610","steam_id":85568392924964314,"keywords":["nocrits","nodmgspread","payload","uncletopia"],"game_id":440,"stv_port":27076,"stv_name":"Uncletopia | London | 7 | No Payload | STV","players":null},{"server_id":41,"name":"Uncletopia | London | 8 | Community","name_short":"lon-8","host":"lon-1.uk.uncletopia.com","port":27085,"enabled":true,"region":"eu","cc":"gb","latitude":51.509865,"longitude":-0.118092,"reserved":0,"last_update":"0001-01-01T00:00:00Z","name_a2s":"Uncletopia | London | 8 | Community","protocol":17,"map":"cp_snakewater_final1","folder":"tf","game":"Team Fortress","app_id":440,"player_count":0,"max_players":24,"Bots":0,"server_type":"Dedicated","server_os":"Linux","password":true,"vac":true,"version":"7708610","steam_id":85568392924964315,"keywords":["cp","nocrits","nodmgspread","uncletopia"],"game_id":440,"stv_port":0,"stv_name":"","players":null},{"server_id":300,"name":"Uncletopia | Montr√©al | 1 | All Maps","name_short":"mtl-1","host":"mtl-1.ca.uncletopia.com","port":27015,"enabled":true,"region":"us-east","cc":"ca","latitude":45.50889,"longitude":-73.56167,"reserved":0,"last_update":"0001-01-01T00:00:00Z","name_a2s":"Uncletopia | Montr√©al | 1 | All Maps","protocol":17,"map":"koth_cascade","folder":"tf","game":"Team Fortress","app_id":440,"player_count":0,"max_players":24,"Bots":0,"server_type":"Dedicated","server_os":"Linux","password":true,"vac":true,"version":"7708610","steam_id":85568392924500087,"keywords":["cp","nocrits","nodmgspread","uncletopia"],"game_id":440,"stv_port":27016,"stv_name":"Uncletopia | Montr√©al | 1 | All Maps | STV","players":null},{"server_id":301,"name":"Uncletopia | Montr√©al | 2 | All Maps","name_short":"mtl-2","host":"mtl-1.ca.uncletopia.com","port":27025,"enabled":true,"region":"us-east","cc":"ca","latitude":45.50889,"longitude":-73.56167,"reserved":0,"last_update":"0001-01-01T00:00:00Z","name_a2s":"Uncletopia | Montr√©al | 2 | All Maps","protocol":17,"map":"pl_frontier_final","folder":"tf","game":"Team Fortress","app_id":440,"player_count":0,"max_players":24,"Bots":0,"server_type":"Dedicated","server_os":"Linux","password":true,"vac":true,"version":"7708610","steam_id":85568392924500088,"keywords":["nocrits","nodmgspread","payload","uncletopia"],"game_id":440,"stv_port":0,"stv_name":"","players":null},{"server_id":302,"name":"Uncletopia | Montr√©al | 3 | All Maps","name_short":"mtl-3","host":"mtl-1.ca.uncletopia.com","port":27035,"enabled":true,"region":"us-east","cc":"ca","latitude":45.50889,"longitude":-73.56167,"reserved":0,"last_update":"0001-01-01T00:00:00Z","name_a2s":"Uncletopia | Montr√©al | 3 | All Maps","protocol":17,"map":"pl_snowycoast","folder":"tf","game":"Team Fortress","app_id":440,"player_count":0,"max_players":24,"Bots":0,"server_type":"Dedicated","server_os":"Linux","password":true,"vac":true,"version":"7708610","steam_id":85568392924500089,"keywords":["nocrits","nodmgspread","payload","uncletopia"],"game_id":440,"stv_port":0,"stv_name":"","players":null},{"server_id":303,"name":"Uncletopia | Montr√©al | 4 | No Payload","name_short":"mtl-4","host":"mtl-1.ca.uncletopia.com","port":27045,"enabled":true,"region":"us-east","cc":"ca","latitude":45.50889,"longitude":-73.56167,"reserved":0,"last_update":"0001-01-01T00:00:00Z","name_a2s":"Uncletopia | Montr√©al | 4 | No Payload","protocol":17,"map":"pl_frontier_final","folder":"tf","game":"Team Fortress","app_id":440,"player_count":0,"max_players":24,"Bots":0,"server_type":"Dedicated","server_os":"Linux","password":true,"vac":true,"version":"7708610","steam_id":85568392924500090,"keywords":["nocrits","nodmgspread","payload","uncletopia"],"game_id":440,"stv_port":0,"stv_name":"","players":null},{"server_id":13,"name":"Uncletopia | New York City | 1 | All Maps","name_short":"nyc-1","host":"nyc-1.us.uncletopia.com","port":27015,"enabled":true,"region":"us-east","cc":"us","latitude":40.73061,"longitude":-73.93524,"reserved":0,"last_update":"0001-01-01T00:00:00Z","name_a2s":"Uncletopia | New York City | 1 | All Maps","protocol":17,"map":"koth_highpass","folder":"tf","game":"Team Fortress","app_id":440,"player_count":4,"max_players":24,"Bots":0,"server_type":"Dedicated","server_os":"Linux","password":true,"vac":true,"version":"7708610","steam_id":85568392924469993,"keywords":["cp","nocrits","nodmgspread","uncletopia"],"game_id":440,"stv_port":27016,"stv_name":"Uncletopia | New York City | 1 | All Maps | STV","players":[{"user_id":7,"name":"BrandonEvo","steam_id":76561199267138470,"connected_time":906000000000,"state":"active","ping":49},{"user_id":8,"name":"CrazyCreeper","steam_id":76561199438414603,"connected_time":795000000000,"state":"active","ping":56},{"user_id":9,"name":"Smokish","steam_id":76561199394630737,"connected_time":111000000000,"state":"active","ping":182},{"user_id":10,"name":"Benjamin Franklin","steam_id":76561198863803062,"connected_time":8000000000,"state":"active","ping":106}]},{"server_id":14,"name":"Uncletopia | New York City | 2 | All Maps","name_short":"nyc-2","host":"nyc-1.us.uncletopia.com","port":27025,"enabled":true,"region":"us-east","cc":"us","latitude":40.73061,"longitude":-73.93524,"reserved":0,"last_update":"0001-01-01T00:00:00Z","name_a2s":"Uncletopia | New York City | 2 | All Maps","protocol":17,"map":"pl_pier","folder":"tf","game":"Team Fortress","app_id":440,"player_count":0,"max_players":24,"Bots":0,"server_type":"Dedicated","server_os":"Linux","password":true,"vac":true,"version":"7708610","steam_id":85568392924469994,"keywords":["nocrits","nodmgspread","payload","uncletopia"],"game_id":440,"stv_port":27026,"stv_name":"Uncletopia | New York City | 2 | All Maps | STV","players":null},{"server_id":15,"name":"Uncletopia | New York City | 3 | All Maps","name_short":"nyc-3","host":"nyc-1.us.uncletopia.com","port":27035,"enabled":true,"region":"us-east","cc":"us","latitude":40.73061,"longitude":-73.93524,"reserved":0,"last_update":"0001-01-01T00:00:00Z","name_a2s":"Uncletopia | New York City | 3 | All Maps","protocol":17,"map":"cp_sunshine","folder":"tf","game":"Team Fortress","app_id":440,"player_count":0,"max_players":24,"Bots":0,"server_type":"Dedicated","server_os":"Linux","password":true,"vac":true,"version":"7708610","steam_id":85568392924742820,"keywords":["cp","nocrits","nodmgspread","uncletopia"],"game_id":440,"stv_port":0,"stv_name":"","players":null},{"server_id":16,"name":"Uncletopia | New York City | 4 | Community","name_short":"nyc-4","host":"nyc-1.us.uncletopia.com","port":27045,"enabled":true,"region":"us-east","cc":"us","latitude":40.73061,"longitude":-73.93524,"reserved":0,"last_update":"0001-01-01T00:00:00Z","name_a2s":"Uncletopia | New York City | 4 | Community","protocol":17,"map":"pl_badwater","folder":"tf","game":"Team Fortress","app_id":440,"player_count":0,"max_players":24,"Bots":0,"server_type":"Dedicated","server_os":"Linux","password":true,"vac":true,"version":"7708610","steam_id":85568392924742821,"keywords":["nocrits","nodmgspread","payload","uncletopia"],"game_id":440,"stv_port":0,"stv_name":"","players":null},{"server_id":142,"name":"Uncletopia | S√£o Paulo | 1 | All Maps","name_short":"sao-1","host":"sao-1.br.uncletopia.com","port":27015,"enabled":true,"region":"sa","cc":"br","latitude":-23.533773,"longitude":-46.62529,"reserved":0,"last_update":"0001-01-01T00:00:00Z","name_a2s":"Uncletopia | S√£o Paulo | 1 | All Maps","protocol":17,"map":"cp_dustbowl","folder":"tf","game":"Team Fortress","app_id":440,"player_count":12,"max_players":24,"Bots":0,"server_type":"Dedicated","server_os":"Linux","password":true,"vac":true,"version":"7708610","steam_id":85568392924469996,"keywords":["cp","nocrits","nodmgspread","uncletopia"],"game_id":440,"stv_port":27016,"stv_name":"Uncletopia | S√£o Paulo | 1 | All Maps | STV","players":[{"user_id":4,"name":"vervict","steam_id":76561198902827458,"connected_time":4032000000000,"state":"active","ping":40},{"user_id":24,"name":"VzL","steam_id":76561198135324522,"connected_time":102000000000,"state":"active","ping":45},{"user_id":7,"name":"khauz","steam_id":76561198162767783,"connected_time":3066000000000,"state":"active","ping":54},{"user_id":8,"name":"KyraZz","steam_id":76561199016767341,"connected_time":2908000000000,"state":"active","ping":63},{"user_id":26,"name":"Matheus Alves(Youtuber)","steam_id":76561198163920834,"connected_time":78000000000,"state":"active","ping":37},{"user_id":13,"name":"Edge","steam_id":76561198850405241,"connected_time":2062000000000,"state":"active","ping":41},{"user_id":14,"name":"Joji","steam_id":76561199227687766,"connected_time":1530000000000,"state":"active","ping":44},{"user_id":18,"name":"tough","steam_id":76561199011106739,"connected_time":672000000000,"state":"active","ping":185},{"user_id":19,"name":"[-LC-] Sir Crusher","steam_id":76561198124065641,"connected_time":668000000000,"state":"active","ping":62},{"user_id":20,"name":"Thompy","steam_id":76561199409024712,"connected_time":655000000000,"state":"active","ping":51},{"user_id":27,"name":"CoronelSaas","steam_id":76561199281128588,"connected_time":76000000000,"state":"active","ping":68},{"user_id":29,"name":"MINI-VELHO","steam_id":76561197990807720,"connected_time":10000000000,"state":"active","ping":71}]},{"server_id":143,"name":"Uncletopia | S√£o Paulo | 2 | All Maps","name_short":"sao-2","host":"sao-2.br.uncletopia.com","port":27015,"enabled":true,"region":"sa","cc":"br","latitude":-23.533773,"longitude":-46.62529,"reserved":0,"last_update":"0001-01-01T00:00:00Z","name_a2s":"Uncletopia | S√£o Paulo | 2 | All Maps","protocol":17,"map":"koth_lakeside_final","folder":"tf","game":"Team Fortress","app_id":440,"player_count":0,"max_players":24,"Bots":0,"server_type":"Dedicated","server_os":"Linux","password":true,"vac":true,"version":"7708610","steam_id":85568392924485349,"keywords":["cp","nocrits","nodmgspread","uncletopia"],"game_id":440,"stv_port":0,"stv_name":"","players":null},{"server_id":7,"name":"Uncletopia | Seattle | 1 | All Maps","name_short":"sea-1","host":"sea-1.us.uncletopia.com","port":27015,"enabled":true,"region":"us-west","cc":"us","latitude":47.608013,"longitude":-122.33517,"reserved":0,"last_update":"0001-01-01T00:00:00Z","name_a2s":"Uncletopia | Seattle | 1 | All Maps","protocol":17,"map":"koth_cascade","folder":"tf","game":"Team Fortress","app_id":440,"player_count":0,"max_players":24,"Bots":0,"server_type":"Dedicated","server_os":"Linux","password":true,"vac":true,"version":"7708610","steam_id":85568392924469997,"keywords":["cp","nocrits","nodmgspread","uncletopia"],"game_id":440,"stv_port":0,"stv_name":"","players":null},{"server_id":119,"name":"Uncletopia | Seattle | 2 | All Maps","name_short":"sea-2","host":"sea-1.us.uncletopia.com","port":27025,"enabled":true,"region":"us-west","cc":"us","latitude":47.608013,"longitude":-122.33517,"reserved":0,"last_update":"0001-01-01T00:00:00Z","name_a2s":"Uncletopia | Seattle | 2 | All Maps","protocol":17,"map":"cp_process_final","folder":"tf","game":"Team Fortress","app_id":440,"player_count":0,"max_players":24,"Bots":0,"server_type":"Dedicated","server_os":"Linux","password":true,"vac":true,"version":"7708610","steam_id":85568392924469998,"keywords":["cp","nocrits","nodmgspread","uncletopia"],"game_id":440,"stv_port":0,"stv_name":"","players":null},{"server_id":17,"name":"Uncletopia | San Francisco | 1 | All Maps","name_short":"sfo-1","host":"sfo-1.us.uncletopia.com","port":27015,"enabled":true,"region":"us-west","cc":"us","latitude":37.77397,"longitude":-122.4313,"reserved":0,"last_update":"0001-01-01T00:00:00Z","name_a2s":"Uncletopia | San Francisco | 1 | All Maps","protocol":17,"map":"cp_sunshine","folder":"tf","game":"Team Fortress","app_id":440,"player_count":0,"max_players":24,"Bots":0,"server_type":"Dedicated","server_os":"Linux","password":true,"vac":true,"version":"7708610","steam_id":85568392924469999,"keywords":["cp","nocrits","nodmgspread","uncletopia"],"game_id":440,"stv_port":0,"stv_name":"","players":null},{"server_id":18,"name":"Uncletopia | San Francisco | 2 | All Maps","name_short":"sfo-2","host":"sfo-1.us.uncletopia.com","port":27025,"enabled":true,"region":"us-west","cc":"us","latitude":37.77397,"longitude":-122.4313,"reserved":0,"last_update":"0001-01-01T00:00:00Z","name_a2s":"Uncletopia | San Francisco | 2 | All Maps","protocol":17,"map":"koth_cascade","folder":"tf","game":"Team Fortress","app_id":440,"player_count":0,"max_players":24,"Bots":0,"server_type":"Dedicated","server_os":"Linux","password":true,"vac":true,"version":"7708610","steam_id":85568392924470000,"keywords":["cp","nocrits","nodmgspread","uncletopia"],"game_id":440,"stv_port":0,"stv_name":"","players":null},{"server_id":19,"name":"Uncletopia | San Francisco | 3 | No Payload","name_short":"sfo-3","host":"sfo-1.us.uncletopia.com","port":27035,"enabled":true,"region":"us-west","cc":"us","latitude":37.77397,"longitude":-122.4313,"reserved":0,"last_update":"0001-01-01T00:00:00Z","name_a2s":"Uncletopia | San Francisco | 3 | No Payload","protocol":17,"map":"cp_snakewater_final1","folder":"tf","game":"Team Fortress","app_id":440,"player_count":0,"max_players":24,"Bots":0,"server_type":"Dedicated","server_os":"Linux","password":true,"vac":true,"version":"7708610","steam_id":85568392924742824,"keywords":["cp","nocrits","nodmgspread","uncletopia"],"game_id":440,"stv_port":0,"stv_name":"","players":null},{"server_id":20,"name":"Uncletopia | San Francisco | 4 | Community","name_short":"sfo-4","host":"sfo-1.us.uncletopia.com","port":27045,"enabled":true,"region":"us-west","cc":"us","latitude":37.77397,"longitude":-122.4313,"reserved":0,"last_update":"0001-01-01T00:00:00Z","name_a2s":"Uncletopia | San Francisco | 4 | Community","protocol":17,"map":"pl_barnblitz","folder":"tf","game":"Team Fortress","app_id":440,"player_count":0,"max_players":24,"Bots":0,"server_type":"Dedicated","server_os":"Linux","password":true,"vac":true,"version":"7708610","steam_id":85568392924742826,"keywords":["nocrits","nodmgspread","payload","uncletopia"],"game_id":440,"stv_port":0,"stv_name":"","players":null},{"server_id":141,"name":"Uncletopia | Sydney | 1 | All Maps","name_short":"syd-1","host":"syd-1.au.uncletopia.com","port":27015,"enabled":true,"region":"au","cc":"au","latitude":-33.865143,"longitude":151.2099,"reserved":0,"last_update":"0001-01-01T00:00:00Z","name_a2s":"Uncletopia | Sydney | 1 | All Maps","protocol":17,"map":"pl_barnblitz","folder":"tf","game":"Team Fortress","app_id":440,"player_count":18,"max_players":24,"Bots":0,"server_type":"Dedicated","server_os":"Linux","password":true,"vac":true,"version":"7708610","steam_id":85568392924470001,"keywords":["nocrits","nodmgspread","payload","uncletopia"],"game_id":440,"stv_port":27016,"stv_name":"Uncletopia | Sydney | 1 | All Maps | STV","players":[{"user_id":559,"name":"Farron","steam_id":76561198202709811,"connected_time":2747000000000,"state":"active","ping":68},{"user_id":602,"name":"B4SIC","steam_id":76561198859236021,"connected_time":9000000000,"state":"active","ping":62},{"user_id":601,"name":"Tretton","steam_id":76561198038951129,"connected_time":147000000000,"state":"active","ping":45},{"user_id":599,"name":"plainNsane","steam_id":76561198204747579,"connected_time":332000000000,"state":"active","ping":68},{"user_id":598,"name":"Lateralus","steam_id":76561198007865860,"connected_time":357000000000,"state":"active","ping":112},{"user_id":561,"name":"Moldy","steam_id":76561198824771774,"connected_time":2664000000000,"state":"active","ping":50},{"user_id":595,"name":"Baccy Beug Benefactor","steam_id":76561198158704430,"connected_time":672000000000,"state":"active","ping":55},{"user_id":584,"name":"Chingus The Chinese Bingus","steam_id":76561199442692649,"connected_time":1214000000000,"state":"active","ping":167},{"user_id":585,"name":"Milk Man","steam_id":76561198882677157,"connected_time":1196000000000,"state":"active","ping":45},{"user_id":564,"name":"Festive Royal","steam_id":76561198026482018,"connected_time":2562000000000,"state":"active","ping":47},{"user_id":563,"name":"Thriller","steam_id":76561198005950627,"connected_time":2602000000000,"state":"active","ping":44},{"user_id":590,"name":"Extra Exotic","steam_id":76561198045191981,"connected_time":844000000000,"state":"active","ping":64},{"user_id":549,"name":"Floppy","steam_id":76561198296769665,"connected_time":3033000000000,"state":"active","ping":56},{"user_id":591,"name":"ToadFungus","steam_id":76561199219667039,"connected_time":837000000000,"state":"active","ping":95},{"user_id":575,"name":"Booty Fingerer","steam_id":76561199159741578,"connected_time":2204000000000,"state":"active","ping":48},{"user_id":586,"name":"harley.harrison97","steam_id":76561198330332636,"connected_time":1187000000000,"state":"active","ping":35},{"user_id":508,"name":"tim88435","steam_id":76561198089653987,"connected_time":5643000000000,"state":"active","ping":56},{"user_id":593,"name":"BK201","steam_id":76561197961290107,"connected_time":832000000000,"state":"active","ping":85}]},{"server_id":123,"name":"Uncletopia | Sydney | 2 | All Maps","name_short":"syd-2","host":"syd-1.au.uncletopia.com","port":27025,"enabled":true,"region":"au","cc":"au","latitude":-33.865143,"longitude":151.2099,"reserved":0,"last_update":"0001-01-01T00:00:00Z","name_a2s":"Uncletopia | Sydney | 2 | All Maps","protocol":17,"map":"koth_cascade","folder":"tf","game":"Team Fortress","app_id":440,"player_count":0,"max_players":24,"Bots":0,"server_type":"Dedicated","server_os":"Linux","password":true,"vac":true,"version":"7708610","steam_id":85568392924470002,"keywords":["cp","nocrits","nodmgspread","uncletopia"],"game_id":440,"stv_port":27026,"stv_name":"Uncletopia | Sydney | 2 | All Maps | STV","players":null},{"server_id":395,"name":"Uncletopia | Sydney | 3 | All Maps","name_short":"syd-3","host":"syd-1.au.uncletopia.com","port":27035,"enabled":true,"region":"au","cc":"au","latitude":-33.865143,"longitude":151.2099,"reserved":0,"last_update":"0001-01-01T00:00:00Z","name_a2s":"Uncletopia | Sydney | 3 | All Maps","protocol":17,"map":"pl_barnblitz","folder":"tf","game":"Team Fortress","app_id":440,"player_count":0,"max_players":24,"Bots":0,"server_type":"Dedicated","server_os":"Linux","password":true,"vac":true,"version":"7708610","steam_id":85568392925194467,"keywords":["nocrits","nodmgspread","payload","uncletopia"],"game_id":440,"stv_port":27036,"stv_name":"Uncletopia | Sydney | 3 | All Maps | STV","players":null},{"server_id":396,"name":"Uncletopia | Sydney | 4 | All Maps","name_short":"syd-4","host":"syd-1.au.uncletopia.com","port":27045,"enabled":true,"region":"au","cc":"au","latitude":-33.865143,"longitude":151.2099,"reserved":0,"last_update":"0001-01-01T00:00:00Z","name_a2s":"Uncletopia | Sydney | 4 | All Maps","protocol":17,"map":"koth_cascade","folder":"tf","game":"Team Fortress","app_id":440,"player_count":0,"max_players":24,"Bots":0,"server_type":"Dedicated","server_os":"Linux","password":true,"vac":true,"version":"7708610","steam_id":85568392925397958,"keywords":["cp","nocrits","nodmgspread","uncletopia"],"game_id":440,"stv_port":27046,"stv_name":"Uncletopia | Sydney | 4 | All Maps | STV","players":null},{"server_id":58,"name":"Uncletopia | Sydney | 5 | No Payload","name_short":"syd-5","host":"syd-1.au.uncletopia.com","port":27055,"enabled":true,"region":"au","cc":"au","latitude":-33.865143,"longitude":151.2099,"reserved":0,"last_update":"0001-01-01T00:00:00Z","name_a2s":"Uncletopia | Sydney | 5 | No Payload","protocol":17,"map":"koth_cascade","folder":"tf","game":"Team Fortress","app_id":440,"player_count":0,"max_players":24,"Bots":0,"server_type":"Dedicated","server_os":"Linux","password":true,"vac":true,"version":"7708610","steam_id":85568392925397959,"keywords":["cp","nocrits","nodmgspread","uncletopia"],"game_id":440,"stv_port":0,"stv_name":"","players":null},{"server_id":59,"name":"Uncletopia | Sydney | 6 | Community","name_short":"syd-6","host":"syd-1.au.uncletopia.com","port":27065,"enabled":true,"region":"au","cc":"au","latitude":-33.865143,"longitude":151.2099,"reserved":0,"last_update":"0001-01-01T00:00:00Z","name_a2s":"Uncletopia | Sydney | 6 | Community","protocol":17,"map":"workshop/rd_asteroid_redux_rc9.ugc2154902912","folder":"tf","game":"Team Fortress","app_id":440,"player_count":0,"max_players":24,"Bots":0,"server_type":"Dedicated","server_os":"Linux","password":true,"vac":true,"version":"7708610","steam_id":85568392925397960,"keywords":["beta","nocrits","nodmgspread","rd","uncletopia"],"game_id":440,"stv_port":27066,"stv_name":"Uncletopia | Sydney | 6 | Community | STV","players":null},{"server_id":49,"name":"Uncletopia | Warsaw | 1 | All Maps","name_short":"waw-1","host":"waw-1.pl.uncletopia.com","port":27015,"enabled":true,"region":"eu","cc":"pl","latitude":52.2297,"longitude":21.017532,"reserved":0,"last_update":"0001-01-01T00:00:00Z","name_a2s":"Uncletopia | Warsaw | 1 | All Maps","protocol":17,"map":"pl_frontier_final","folder":"tf","game":"Team Fortress","app_id":440,"player_count":0,"max_players":24,"Bots":0,"server_type":"Dedicated","server_os":"Linux","password":true,"vac":true,"version":"7708610","steam_id":85568392925397850,"keywords":["nocrits","nodmgspread","payload","uncletopia"],"game_id":440,"stv_port":27016,"stv_name":"Uncletopia | Warsaw | 1 | All Maps | STV","players":null},{"server_id":50,"name":"Uncletopia | Warsaw | 2 | All Maps","name_short":"waw-2","host":"waw-1.pl.uncletopia.com","port":27025,"enabled":true,"region":"eu","cc":"pl","latitude":52.2297,"longitude":21.017532,"reserved":0,"last_update":"0001-01-01T00:00:00Z","name_a2s":"Uncletopia | Warsaw | 2 | All Maps","protocol":17,"map":"pl_frontier_final","folder":"tf","game":"Team Fortress","app_id":440,"player_count":0,"max_players":24,"Bots":0,"server_type":"Dedicated","server_os":"Linux","password":true,"vac":true,"version":"7708610","steam_id":85568392925397851,"keywords":["nocrits","nodmgspread","payload","uncletopia"],"game_id":440,"stv_port":27026,"stv_name":"Uncletopia | Warsaw | 2 | All Maps | STV","players":null},{"server_id":51,"name":"Uncletopia | Warsaw | 3 | All Maps","name_short":"waw-3","host":"waw-1.pl.uncletopia.com","port":27035,"enabled":true,"region":"eu","cc":"pl","latitude":52.2297,"longitude":21.017532,"reserved":0,"last_update":"0001-01-01T00:00:00Z","name_a2s":"Uncletopia | Warsaw | 3 | All Maps","protocol":17,"map":"koth_cascade","folder":"tf","game":"Team Fortress","app_id":440,"player_count":0,"max_players":24,"Bots":0,"server_type":"Dedicated","server_os":"Linux","password":true,"vac":true,"version":"7708610","steam_id":85568392925397852,"keywords":["cp","nocrits","nodmgspread","uncletopia"],"game_id":440,"stv_port":0,"stv_name":"","players":null},{"server_id":52,"name":"Uncletopia | Warsaw | 4 | All Maps","name_short":"waw-4","host":"waw-1.pl.uncletopia.com","port":27045,"enabled":true,"region":"eu","cc":"pl","latitude":52.2297,"longitude":21.017532,"reserved":0,"last_update":"0001-01-01T00:00:00Z","name_a2s":"Uncletopia | Warsaw | 4 | All Maps","protocol":17,"map":"cp_mountainlab","folder":"tf","game":"Team Fortress","app_id":440,"player_count":0,"max_players":24,"Bots":0,"server_type":"Dedicated","server_os":"Linux","password":true,"vac":true,"version":"7708610","steam_id":85568392925397853,"keywords":["cp","nocrits","nodmgspread","uncletopia"],"game_id":440,"stv_port":0,"stv_name":"","players":null},{"server_id":53,"name":"Uncletopia | Warsaw | 5 | No Payload","name_short":"waw-5","host":"waw-1.pl.uncletopia.com","port":27055,"enabled":true,"region":"eu","cc":"pl","latitude":52.2297,"longitude":21.017532,"reserved":0,"last_update":"0001-01-01T00:00:00Z","name_a2s":"Uncletopia | Warsaw | 5 | No Payload","protocol":17,"map":"cp_dustbowl","folder":"tf","game":"Team Fortress","app_id":440,"player_count":0,"max_players":24,"Bots":0,"server_type":"Dedicated","server_os":"Linux","password":true,"vac":true,"version":"7708610","steam_id":85568392925397854,"keywords":["cp","nocrits","nodmgspread","uncletopia"],"game_id":440,"stv_port":0,"stv_name":"","players":null},{"server_id":54,"name":"Uncletopia | Warsaw | 6 | Community","name_short":"waw-6","host":"waw-1.pl.uncletopia.com","port":27065,"enabled":true,"region":"eu","cc":"pl","latitude":52.2297,"longitude":21.017532,"reserved":0,"last_update":"0001-01-01T00:00:00Z","name_a2s":"Uncletopia | Warsaw | 6 | Community","protocol":17,"map":"koth_highpass","folder":"tf","game":"Team Fortress","app_id":440,"player_count":0,"max_players":24,"Bots":0,"server_type":"Dedicated","server_os":"Linux","password":true,"vac":true,"version":"7708610","steam_id":85568392925397856,"keywords":["cp","nocrits","nodmgspread","uncletopia"],"game_id":440,"stv_port":0,"stv_name":"","players":null}]}