{"status":true,"message":"","result":[{"server_id":9,"name":"Uncletopia | Atlanta | 1 | All Maps","name_short":"atl-1","host":"atl-1.us.uncletopia.com","port":27015,"enabled":true,"region":"us-east","cc":"us","latitude":33.753746,"longitude":-84.38633,"reserved":0,"last_update":"0001-01-01T00:00:00Z","name_a2s":"Uncletopia | Atlanta | 1 | All Maps","protocol":17,"map":"koth_cascade","folder":"tf","game":"Team Fortress","app_id":440,"player_count":24,"max_players":24,"Bots":0,"server_type":"Dedicated","server_os":"Linux","password":true,"vac":true,"version":"7708610","steam_id":85568392924469982,"keywords":["cp","nocrits","nodmgspread","uncletopia"],"game_id":440,"stv_port":27016,"stv_name":"Uncletopia | Atlanta | 1 | All Maps | STV","players":[{"user_id":40,"name":"LazyGoomba","steam_id":76561198418166083,"connected_time":319000000000,"state":"active","ping":100},{"user_id":5,"name":"abomination","steam_id":76561198167974713,"connected_time":1157000000000,"state":"active","ping":57},{"user_id":31,"name":"Partner Greg","steam_id":76561198139774967,"connected_time":929000000000,"state":"active","ping":53},{"user_id":7,"name":"Limbo_Darkness","steam_id":76561198127411819,"connected_time":1157000000000,"state":"active","ping":64},{"user_id":8,"name":"ATL1 | Crystron","steam_id":76561198880437428,"connected_time":1151000000000,"state":"active","ping":82},{"user_id":9,"name":"MissRaptor","steam_id":76561198105613110,"connected_time":1149000000000,"state":"active","ping":74},{"user_id":10,"name":"Luucyf3r","steam_id":76561198141820085,"connected_time":1144000000000,"state":"active","ping":60},{"user_id":41,"name":"ATL1 | Lancer Fan Club","steam_id":76561198355495948,"connected_time":263000000000,"state":"active","ping":84},{"user_id":12,"name":"‚ùÖAlyx‚ùÖ","steam_id":76561198024303978,"connected_time":1137000000000,"state":"active","ping":60},{"user_id":18,"name":"ATL1 | J O V A","steam_id":76561198090333536,"connected_time":1125000000000,"state":"active","ping":62},{"user_id":14,"name":"BotchyAlarm8","steam_id":76561198092682129,"connected_time":1133000000000,"state":"active","ping":54},{"user_id":28,"name":"amagicowl","steam_id":76561199060487814,"connected_time":1068000000000,"state":"active","ping":118},{"user_id":16,"name":"SnowStorm","steam_id":76561198095817025,"connected_time":1130000000000,"state":"active","ping":42},{"user_id":17,"name":"Asanez3","steam_id":76561198037381436,"connected_time":1129000000000,"state":"active","ping":66},{"user_id":19,"name":"Boop","steam_id":76561198376703875,"connected_time":1120000000000,"state":"active","ping":71},{"user_id":46,"name":"SteelChair","steam_id":76561199121525654,"connected_time":115000000000,"state":"active","ping":44},{"user_id":21,"name":"ATL1 | a very merry ma0re","steam_id":76561199231971506,"connected_time":1106000000000,"state":"active","ping":73},{"user_id":45,"name":"eryn üó∫","steam_id":76561198004433070,"connected_time":118000000000,"state":"active","ping":88},{"user_id":23,"name":"Captain Komi","steam_id":76561198057125157,"connected_time":1097000000000,"state":"active","ping":74},{"user_id":47,"name":"Universe Man","steam_id":76561197997710655,"connected_time":108000000000,"state":"active","ping":77},{"user_id":25,"name":"Inevitable","steam_id":76561198210050169,"connected_time":1092000000000,"state":"active","ping":60},{"user_id":26,"name":"Floattube","steam_id":76561198005720144,"connected_time":1088000000000,"state":"active","ping":91},{"user_id":39,"name":"spykebit","steam_id":76561198162603484,"connected_time":406000000000,"state":"active","ping":106},{"user_id":44,"name":"Fishstall","steam_id":76561198038126034,"connected_time":260000000000,"state":"active","ping":89}]},{"server_id":400,"name":"Uncletopia | Atlanta | 3 | All Maps","name_short":"atl-3","host":"atl-1.us.uncletopia.com","port":27035,"enabled":true,"region":"us-east","cc":"us","latitude":33.753746,"longitude":-84.38633,"reserved":0,"last_update":"0001-01-01T00:00:00Z","name_a2s":"Uncletopia | Atlanta | 3 | All Maps","protocol":17,"map":"cp_snakewater_final1","folder":"tf","game":"Team Fortress","app_id":440,"player_count":0,"max_players":24,"Bots":0,"server_type":"Dedicated","server_os":"Linux","password":true,"vac":true,"version":"7708610","steam_id":85568392924515187,"keywords":["cp","nocrits","nodmgspread","uncletopia"],"game_id":440,"stv_port":27036,"stv_name":"Uncletopia | Atlanta | 3 | All Maps | STV","players":null},{"server_id":401,"name":"Uncletopia | Atlanta | 4 | No Payload","name_short":"atl-4","host":"atl-1.us.uncletopia.com","port":27045,"enabled":true,"region":"us-east","cc":"us","latitude":33.753746,"longitude":-84.38633,"reserved":0,"last_update":"0001-01-01T00:00:00Z","name_a2s":"Uncletopia | Atlanta | 4 | No Payload","protocol":17,"map":"pl_snowycoast","folder":"tf","game":"Team Fortress","app_id":440,"player_count":0,"max_players":24,"Bots":0,"server_type":"Dedicated","server_os":"Linux","password":true,"vac":true,"version":"7708610","steam_id":85568392924515188,"keywords":["nocrits","nodmgspread","payload","uncletopia"],"game_id":440,"stv_port":27046,"stv_name":"Uncletopia | Atlanta | 4 | No Payload | STV","players":null},{"server_id":2,"name":"Uncletopia | Chicago | 1 | All Maps","name_short":"chi-1","host":"chi-1.us.uncletopia.com","port":27015,"enabled":true,"region":"us-central","cc":"us","latitude":41.881832,"longitude":-87.62318,"reserved":0,"last_update":"0001-01-01T00:00:00Z","name_a2s":"Uncletopia | Chicago | 1 | All Maps","protocol":17,"map":"pl_upward","folder":"tf","game":"Team Fortress","app_id":440,"player_count":25,"max_players":24,"Bots":0,"server_type":"Dedicated","server_os":"Linux","password":true,"vac":true,"version":"7708610","steam_id":85568392924469984,"keywords":["nocrits","nodmgspread","payload","uncletopia"],"game_id":440,"stv_port":27016,"stv_name":"Uncletopia | Chicago | 1 | All Maps | STV","players":[{"user_id":5,"name":"Ras","steam_id":76561198123546775,"connected_time":1144000000000,"state":"active","ping":56},{"user_id":36,"name":"radicalising santa's elves","steam_id":76561198063064857,"connected_time":677000000000,"state":"active","ping":63},{"user_id":7,"name":"asbestos","steam_id":76561198079178866,"connected_time":1125000000000,"state":"active","ping":65},{"user_id":39,"name":"Rornir","steam_id":76561198081829615,"connected_time":645000000000,"state":"active","ping":33},{"user_id":45,"name":"Do Moose go Moo?","steam_id":76561198073550620,"connected_time":43000000000,"state":"active","ping":44},{"user_id":29,"name":"uluna","steam_id":76561198284102821,"connected_time":795000000000,"state":"active","ping":48},{"user_id":13,"name":"Honolulu","steam_id":76561198106381764,"connected_time":987000000000,"state":"active","ping":40},{"user_id":15,"name":"‚õß‚∏∏‚õß‚∏∏‚õß‚∏∏","steam_id":76561198007051179,"connected_time":944000000000,"state":"active","ping":90},{"user_id":16,"name":"Pan Dulce","steam_id":76561198044444716,"connected_time":940000000000,"state":"active","ping":98},{"user_id":17,"name":"Riley","steam_id":76561198013719394,"connected_time":921000000000,"state":"active","ping":100},{"user_id":46,"name":"10footlongschlong","steam_id":76561198291160259,"connected_time":33000000000,"state":"active","ping":61},{"user_id":19,"name":"Qball","steam_id":76561198179016466,"connected_time":906000000000,"state":"active","ping":57},{"user_id":21,"name":"ÁÅ´Êòü | Marsy","steam_id":76561198014979892,"connected_time":875000000000,"state":"active","ping":65},{"user_id":22,"name":"komi","steam_id":76561198321442747,"connected_time":867000000000,"state":"active","ping":65},{"user_id":23,"name":"Quansen","steam_id":76561198151594550,"connected_time":866000000000,"state":"connecting","ping":360},{"user_id":47,"name":"Kevin Y.","steam_id":76561198364331423,"connected_time":32000000000,"state":"active","ping":82},{"user_id":40,"name":"Pep Seeman","steam_id":76561198038393007,"connected_time":359000000000,"state":"active","ping":121},{"user_id":42,"name":"murderous deer","steam_id":76561198350832152,"connected_time":87000000000,"state":"active","ping":63},{"user_id":27,"name":"rolt bagger","steam_id":76561198026664629,"connected_time":835000000000,"state":"active","ping":46},{"user_id":28,"name":"psi-skankin'","steam_id":76561198061091990,"connected_time":830000000000,"state":"active","ping":65},{"user_id":43,"name":"SKULL GOODMAN","steam_id":76561198062560907,"connected_time":49000000000,"state":"active","ping":65},{"user_id":48,"name":"BigBubble42","steam_id":76561198136286123,"connected_time":32000000000,"state":"spawning","ping":110},{"user_id":33,"name":"Approving Penguin","steam_id":76561198070959246,"connected_time":713000000000,"state":"active","ping":100},{"user_id":44,"name":"Vibey","steam_id":76561198342873474,"connected_time":49000000000,"state":"active","ping":91},{"user_id":35,"name":"money squared","steam_id":76561198046775352,"connected_time":690000000000,"state":"active","ping":91}]},{"server_id":106,"name":"Uncletopia | Chicago | 2 | All Maps","name_short":"chi-2","host":"chi-1.us.uncletopia.com","port":27025,"enabled":true,"region":"us-central","cc":"us","latitude":41.881832,"longitude":-87.62318,"reserved":0,"last_update":"0001-01-01T00:00:00Z","name_a2s":"Uncletopia | Chicago | 2 | All Maps","protocol":17,"map":"pl_frontier_final","folder":"tf","game":"Team Fortress","app_id":440,"player_count":24,"max_players":24,"Bots":0,"server_type":"Dedicated","server_os":"Linux","password":true,"vac":true,"version":"7708610","steam_id":85568392924469985,"keywords":["nocrits","nodmgspread","payload","uncletopia"],"game_id":440,"stv_port":27026,"stv_name":"Uncletopia | Chicago | 2 | All Maps | STV","players":[{"user_id":13,"name":"FatCuddlyBear","steam_id":76561198133613253,"connected_time":1121000000000,"state":"active","ping":64},{"user_id":4,"name":"√íw√ì","steam_id":76561197997304387,"connected_time":1167000000000,"state":"active","ping":53},{"user_id":5,"name":"hoboways","steam_id":76561198168035195,"connected_time":1156000000000,"state":"active","ping":87},{"user_id":6,"name":"no","steam_id":76561198248853140,"connected_time":1152000000000,"state":"active","ping":92},{"user_id":32,"name":"jambie!","steam_id":76561198296042477,"connected_time":178000000000,"state":"active","ping":47},{"user_id":8,"name":"D3AC0N 44","steam_id":76561198115695203,"connected_time":1144000000000,"state":"active","ping":67},{"user_id":9,"name":"beats","steam_id":76561199245717718,"connected_time":1142000000000,"state":"active","ping":55},{"user_id":10,"name":"Merchants of Misery","steam_id":76561199188142396,"connected_time":1140000000000,"state":"active","ping":74},{"user_id":11,"name":"Winter the Witchie","steam_id":76561198151971178,"connected_time":1139000000000,"state":"active","ping":52},{"user_id":12,"name":"Chris Peezy (yung thugger)","steam_id":76561198825658971,"connected_time":1137000000000,"state":"active","ping":90},{"user_id":14,"name":"Technomancer","steam_id":76561198137758683,"connected_time":1115000000000,"state":"active","ping":86},{"user_id":15,"name":"DIO!","steam_id":76561198425893112,"connected_time":1114000000000,"state":"active","ping":117},{"user_id":16,"name":"Ozone-flavored Starburst","steam_id":76561199163688421,"connected_time":1105000000000,"state":"active","ping":89},{"user_id":31,"name":"hej","steam_id":76561197996366940,"connected_time":394000000000,"state":"active","ping":60},{"user_id":18,"name":"Spartan_Odinson","steam_id":76561198997614097,"connected_time":1087000000000,"state":"active","ping":96},{"user_id":19,"name":"Neil Degrassy","steam_id":76561198132980934,"connected_time":1075000000000,"state":"active","ping":57},{"user_id":20,"name":"Aerguera","steam_id":76561198117613222,"connected_time":1075000000000,"state":"active","ping":71},{"user_id":21,"name":"upside down cat","steam_id":76561198028288349,"connected_time":1074000000000,"state":"active","ping":88},{"user_id":22,"name":"Fluppy","steam_id":76561199020403949,"connected_time":1071000000000,"state":"active","ping":67},{"user_id":23,"name":"MedRed‚Ñ¢ #IATAH","steam_id":76561198002962970,"connected_time":1070000000000,"state":"active","ping":103},{"user_id":24,"name":"IncogNeeto","steam_id":76561199091278006,"connected_time":1064000000000,"state":"active","ping":106},{"user_id":25,"name":"BongWater","steam_id":76561198082351263,"connected_time":1063000000000,"state":"active","ping":78},{"user_id":30,"name":"uhooter","steam_id":76561198007829078,"connected_time":638000000000,"state":"active","ping":50},{"user_id":27,"name":"Jesus","steam_id":76561198018890911,"connected_time":1060000000000,"state":"active","ping":73}]},{"server_id":402,"name":"Uncletopia | Chicago | 3 | All Maps","name_short":"chi-3","host":"chi-1.us.uncletopia.com","port":27035,"enabled":true,"region":"us-central","cc":"us","latitude":41.881832,"longitude":-87.62318,"reserved":0,"last_update":"0001-01-01T00:00:00Z","name_a2s":"Uncletopia | Chicago | 3 | All Maps","protocol":17,"map":"pl_barnblitz","folder":"tf","game":"Team Fortress","app_id":440,"player_count":25,"max_players":24,"Bots":0,"server_type":"Dedicated","server_os":"Linux","password":true,"vac":true,"version":"7708610","steam_id":85568392924515191,"keywords":["nocrits","nodmgspread","payload","uncletopia"],"game_id":440,"stv_port":27036,"stv_name":"Uncletopia | Chicago | 3 | All Maps | STV","players":[{"user_id":15,"name":"Zhenaj","steam_id":76561199209016136,"connected_time":1102000000000,"state":"active","ping":50},{"user_id":4,"name":"wyrd","steam_id":76561198156292715,"connected_time":1163000000000,"state":"active","ping":62},{"user_id":5,"name":"Rukks","steam_id":76561197993918954,"connected_time":1162000000000,"state":"active","ping":63},{"user_id":6,"name":"Toest","steam_id":76561198076061844,"connected_time":1162000000000,"state":"active","ping":50},{"user_id":7,"name":"Honeybunch","steam_id":76561198014850580,"connected_time":1155000000000,"state":"active","ping":85},{"user_id":8,"name":"Santa's Hammy Helper","steam_id":76561199013677676,"connected_time":1148000000000,"state":"active","ping":58},{"user_id":9,"name":"keffers | Chrimbus Time","steam_id":76561198202338796,"connected_time":1146000000000,"state":"active","ping":71},{"user_id":10,"name":"Holy Diver","steam_id":76561198049339994,"connected_time":1140000000000,"state":"active","ping":47},{"user_id":24,"name":"Question Mark","steam_id":76561199433313023,"connected_time":1044000000000,"state":"active","ping":90},{"user_id":12,"name":"AmirKhaan","steam_id":76561198992403254,"connected_time":1125000000000,"state":"active","ping":65},{"user_id":16,"name":"Vampire Juicebox","steam_id":76561198148652081,"connected_time":1080000000000,"state":"active","ping":56},{"user_id":17,"name":"Cuttle's Fish","steam_id":76561198280483257,"connected_time":1077000000000,"state":"active","ping":62},{"user_id":18,"name":"gonk","steam_id":76561198061206732,"connected_time":1072000000000,"state":"active","ping":86},{"user_id":19,"name":"NovaSc6ut","steam_id":76561198277163301,"connected_time":1070000000000,"state":"active","ping":66},{"user_id":20,"name":"Sea4","steam_id":76561198846451551,"connected_time":1062000000000,"state":"active","ping":93},{"user_id":38,"name":"dorcelessness","steam_id":76561198097427947,"connected_time":816000000000,"state":"active","ping":144},{"user_id":36,"name":"Copter_Boy","steam_id":76561198322921312,"connected_time":894000000000,"state":"active","ping":77},{"user_id":39,"name":"SkyGod Gaming¬Æ","steam_id":76561198000855251,"connected_time":789000000000,"state":"active","ping":98},{"user_id":34,"name":"Sone","steam_id":76561198069601032,"connected_time":929000000000,"state":"active","ping":76},{"user_id":42,"name":"BigBubble42","steam_id":76561198136286123,"connected_time":130000000000,"state":"connecting","ping":0},{"user_id":43,"name":"mentally strange","steam_id":76561198106690989,"connected_time":129000000000,"state":"active","ping":66},{"user_id":28,"name":"MenacingMekhet","steam_id":76561198053165462,"connected_time":1022000000000,"state":"active","ping":61},{"user_id":29,"name":"The Muffin Man","steam_id":76561199088286427,"connected_time":1021000000000,"state":"active","ping":106},{"user_id":31,"name":"ConJoe1138","steam_id":76561199230448358,"connected_time":1012000000000,"state":"active","ping":85},{"user_id":32,"name":"Aspxts","steam_id":76561199125254746,"connected_time":1012000000000,"state":"active","ping":60}]},{"server_id":403,"name":"Uncletopia | Chicago | 4 | All Maps","name_short":"chi-4","host":"chi-1.us.uncletopia.com","port":27045,"enabled":true,"region":"us-central","cc":"us","latitude":41.881832,"longitude":-87.62318,"reserved":0,"last_update":"0001-01-01T00:00:00Z","name_a2s":"Uncletopia | Chicago | 4 | All Maps","protocol":17,"map":"pl_frontier_final","folder":"tf","game":"Team Fortress","app_id":440,"player_count":0,"max_players":24,"Bots":0,"server_type":"Dedicated","server_os":"Linux","password":true,"vac":true,"version":"7708610","steam_id":85568392924515193,"keywords":["nocrits","nodmgspread","payload","uncletopia"],"game_id":440,"stv_port":27046,"stv_name":"Uncletopia | Chicago | 4 | All Maps | STV","players":null},{"server_id":36,"name":"Uncletopia | Chicago | 5 | All Maps","name_short":"chi-5","host":"chi-2.us.uncletopia.com","port":27015,"enabled":true,"region":"us-central","cc":"us","latitude":41.881832,"longitude":-87.62318,"reserved":0,"last_update":"0001-01-01T00:00:00Z","name_a2s":"Uncletopia | Chicago | 5 | All Maps","protocol":17,"map":"koth_lakeside_final","folder":"tf","game":"Team Fortress","app_id":440,"player_count":0,"max_players":24,"Bots":0,"server_type":"Dedicated","server_os":"Linux","password":true,"vac":true,"version":"7708610","steam_id":85568392924866362,"keywords":["cp","nocrits","nodmgspread","uncletopia"],"game_id":440,"stv_port":27016,"stv_name":"Uncletopia | Chicago | 5 | All Maps | STV","players":null},{"server_id":37,"name":"Uncletopia | Chicago | 6 | All Maps","name_short":"chi-6","host":"chi-2.us.uncletopia.com","port":27025,"enabled":true,"region":"us-central","cc":"us","latitude":41.881832,"longitude":-87.62318,"reserved":0,"last_update":"0001-01-01T00:00:00Z","name_a2s":"Uncletopia | Chicago | 6 | All Maps","protocol":17,"map":"pl_barnblitz","folder":"tf","game":"Team Fortress","app_id":440,"player_count":0,"max_players":24,"Bots":0,"server_type":"Dedicated","server_os":"Linux","password":true,"vac":true,"version":"7708610","steam_id":85568392924866363,"keywords":["nocrits","nodmgspread","payload","uncletopia"],"game_id":440,"stv_port":27026,"stv_name":"Uncletopia | Chicago | 6 | All Maps | STV","players":null},{"server_id":38,"name":"Uncletopia | Chicago | 7 | No Payload","name_short":"chi-7","host":"chi-2.us.uncletopia.com","port":27035,"enabled":true,"region":"us-central","cc":"us","latitude":41.881832,"longitude":-87.62318,"reserved":0,"last_update":"0001-01-01T00:00:00Z","name_a2s":"Uncletopia | Chicago | 7 | No Payload","protocol":17,"map":"cp_dustbowl","folder":"tf","game":"Team Fortress","app_id":440,"player_count":0,"max_players":24,"Bots":0,"server_type":"Dedicated","server_os":"Linux","password":true,"vac":true,"version":"7708610","steam_id":85568392924866364,"keywords":["cp","nocrits","nodmgspread","uncletopia"],"game_id":440,"stv_port":27036,"stv_name":"Uncletopia | Chicago | 7 | No Payload | STV","players":null},{"server_id":39,"name":"Uncletopia | Chicago | 8 | Community","name_short":"chi-8","host":"chi-2.us.uncletopia.com","port":27045,"enabled":true,"region":"us-central","cc":"us","latitude":41.881832,"longitude":-87.62318,"reserved":0,"last_update":"0001-01-01T00:00:00Z","name_a2s":"Uncletopia | Chicago | 8 | Community","protocol":17,"map":"cp_dustbowl","folder":"tf","game":"Team Fortress","app_id":440,"player_count":0,"max_players":24,"Bots":0,"server_type":"Dedicated","server_os":"Linux","password":true,"vac":true,"version":"7708610","steam_id":85568392924866365,"keywords":["cp","nocrits","nodmgspread","uncletopia"],"game_id":440,"stv_port":27046,"stv_name":"Uncletopia | Chicago | 8 | Community | STV","players":null},{"server_id":8,"name":"Uncletopia | Dallas | 1 | All Maps","name_short":"dal-1","host":"dal-1.us.uncletopia.com","port":27015,"enabled":true,"region":"us-central","cc":"us","latitude":32.779167,"longitude":-96.80889,"reserved":0,"last_update":"0001-01-01T00:00:00Z","name_a2s":"Uncletopia | Dallas | 1 | All Maps","protocol":17,"map":"cp_mountainlab","folder":"tf","game":"Team Fortress","app_id":440,"player_count":24,"max_players":24,"Bots":0,"server_type":"Dedicated","server_os":"Linux","password":true,"vac":true,"version":"7708610","steam_id":85568392924469986,"keywords":["cp","nocrits","nodmgspread","uncletopia"],"game_id":440,"stv_port":27016,"stv_name":"Uncletopia | Dallas | 1 | All Maps | STV","players":[{"user_id":3,"name":"Moonflower ‚ú¶","steam_id":76561198191782483,"connected_time":1155000000000,"state":"active","ping":48},{"user_id":4,"name":"DaDopestSon","steam_id":76561199243338957,"connected_time":1153000000000,"state":"active","ping":95},{"user_id":35,"name":"Mossy","steam_id":76561198156401277,"connected_time":336000000000,"state":"active","ping":70},{"user_id":6,"name":"Lolxdloldx","steam_id":76561198136887125,"connected_time":1140000000000,"state":"active","ping":74},{"user_id":7,"name":"I Swallowed Shampoo","steam_id":76561198075130050,"connected_time":1138000000000,"state":"active","ping":75},{"user_id":8,"name":"The Ultimate Coomer","steam_id":76561199128833757,"connected_time":1132000000000,"state":"active","ping":41},{"user_id":9,"name":"r_drawviewmodel 0 „ÉÑ","steam_id":76561198171865797,"connected_time":1117000000000,"state":"active","ping":87},{"user_id":11,"name":"Yandere Caesar","steam_id":76561198446286913,"connected_time":1052000000000,"state":"active","ping":67},{"user_id":33,"name":"JustSomeInternetGuy","steam_id":76561199066037843,"connected_time":480000000000,"state":"active","ping":46},{"user_id":13,"name":"d!eing pigs Wh3n?","steam_id":76561198963410515,"connected_time":1019000000000,"state":"active","ping":80},{"user_id":31,"name":"Pie","steam_id":76561198054721133,"connected_time":668000000000,"state":"active","ping":71},{"user_id":15,"name":"Remex","steam_id":76561198072651849,"connected_time":973000000000,"state":"active","ping":63},{"user_id":32,"name":"ChefMike","steam_id":76561198414034069,"connected_time":636000000000,"state":"active","ping":78},{"user_id":34,"name":"Bek","steam_id":76561199061086990,"connected_time":395000000000,"state":"active","ping":183},{"user_id":36,"name":"BreadBug","steam_id":76561198797355574,"connected_time":331000000000,"state":"active","ping":84},{"user_id":19,"name":"Mei","steam_id":76561198971753591,"connected_time":922000000000,"state":"active","ping":83},{"user_id":20,"name":"Olgol2","steam_id":76561198022117656,"connected_time":881000000000,"state":"active","ping":55},{"user_id":37,"name":"karbomb","steam_id":76561198120744480,"connected_time":251000000000,"state":"active","ping":47},{"user_id":22,"name":"Mad dog of Shimano","steam_id":76561198797266817,"connected_time":833000000000,"state":"active","ping":74},{"user_id":25,"name":"Genius Meme","steam_id":76561198162911254,"connected_time":763000000000,"state":"active","ping":79},{"user_id":26,"name":"uBlock Origin","steam_id":76561198296332500,"connected_time":761000000000,"state":"active","ping":59},{"user_id":27,"name":"[LINUX] F2P=S*(M/B)+H || Spy!","steam_id":76561198093538786,"connected_time":752000000000,"state":"active","ping":45},{"user_id":28,"name":"Ngsterson","steam_id":76561198162108154,"connected_time":746000000000,"state":"active","ping":84},{"user_id":29,"name":"so true","steam_id":76561198293857963,"connected_time":730000000000,"state":"active","ping":86}]},{"server_id":108,"name":"Uncletopia | Dallas | 2 | All Maps","name_short":"dal-2","host":"dal-1.us.uncletopia.com","port":27025,"enabled":true,"region":"us-central","cc":"us","latitude":32.779167,"longitude":-96.80889,"reserved":0,"last_update":"0001-01-01T00:00:00Z","name_a2s":"Uncletopia | Dallas | 2 | All Maps","protocol":17,"map":"koth_highpass","folder":"tf","game":"Team Fortress","app_id":440,"player_count":12,"max_players":24,"Bots":0,"server_type":"Dedicated","server_os":"Linux","password":true,"vac":true,"version":"7708610","steam_id":85568392924469988,"keywords":["cp","nocrits","nodmgspread","uncletopia"],"game_id":440,"stv_port":27026,"stv_name":"Uncletopia | Dallas | 2 | All Maps | STV","players":[{"user_id":12,"name":"bdkaine1","steam_id":76561198133545467,"connected_time":205000000000,"state":"active","ping":67},{"user_id":9,"name":"Blue Collar","steam_id":76561198354781722,"connected_time":311000000000,"state":"active","ping":75},{"user_id":5,"name":"xX_matias.gamer_Xx","steam_id":76561199187226776,"connected_time":1014000000000,"state":"active","ping":48},{"user_id":7,"name":"Xgrandmadestroyer7000","steam_id":76561199028337565,"connected_time":828000000000,"state":"active","ping":48},{"user_id":11,"name":"LuciD","steam_id":76561198242842394,"connected_time":241000000000,"state":"active","ping":66},{"user_id":13,"name":"EarthDessert","steam_id":76561198217887589,"connected_time":106000000000,"state":"active","ping":77},{"user_id":14,"name":"Bee_Pirate","steam_id":76561199000599111,"connected_time":91000000000,"state":"active","ping":80},{"user_id":15,"name":"XDu","steam_id":76561199058208378,"connected_time":85000000000,"state":"active","ping":141},{"user_id":16,"name":"Clint Conley","steam_id":76561198241754270,"connected_time":30000000000,"state":"active","ping":62},{"user_id":17,"name":"cacos","steam_id":76561199130242847,"connected_time":22000000000,"state":"spawning","ping":159},{"user_id":18,"name":"Frongus","steam_id":76561197979056451,"connected_time":11000000000,"state":"active","ping":126},{"user_id":19,"name":"Áµ±‰∏Ä 1216","steam_id":76561198068672882,"connected_time":7000000000,"state":"spawning","ping":91}]},{"server_id":5,"name":"Uncletopia | Frankfurt | 1 | All Maps","name_short":"frk-1","host":"frk-1.de.uncletopia.com","port":27015,"enabled":true,"region":"eu","cc":"de","latitude":50.110924,"longitude":8.682127,"reserved":0,"last_update":"0001-01-01T00:00:00Z","name_a2s":"Uncletopia | Frankfurt | 1 | All Maps","protocol":17,"map":"pl_swiftwater_final1","folder":"tf","game":"Team Fortress","app_id":440,"player_count":0,"max_players":24,"Bots":0,"server_type":"Dedicated","server_os":"Linux","password":true,"vac":true,"version":"7708610","steam_id":85568392924469989,"keywords":["nocrits","nodmgspread","payload","uncletopia"],"game_id":440,"stv_port":27016,"stv_name":"Uncletopia | Frankfurt | 1 | All Maps | STV","players":null},{"server_id":110,"name":"Uncletopia | Frankfurt | 2 | All Maps","name_short":"frk-2","host":"frk-1.de.uncletopia.com","port":27025,"enabled":true,"region":"eu","cc":"de","latitude":50.110924,"longitude":8.682127,"reserved":0,"last_update":"0001-01-01T00:00:00Z","name_a2s":"Uncletopia | Frankfurt | 2 | All Maps","protocol":17,"map":"pl_frontier_final","folder":"tf","game":"Team Fortress","app_id":440,"player_count":24,"max_players":24,"Bots":0,"server_type":"Dedicated","server_os":"Linux","password":true,"vac":true,"version":"7708610","steam_id":85568392924469990,"keywords":["nocrits","nodmgspread","payload","uncletopia"],"game_id":440,"stv_port":27026,"stv_name":"Uncletopia | Frankfurt | 2 | All Maps | STV","players":[{"user_id":5,"name":"Tomamo","steam_id":76561198258031112,"connected_time":574000000000,"state":"active","ping":79},{"user_id":4,"name":"zen","steam_id":76561198358006442,"connected_time":586000000000,"state":"active","ping":57},{"user_id":6,"name":"Kanny","steam_id":76561198058810184,"connected_time":561000000000,"state":"active","ping":60},{"user_id":9,"name":"Senator Armstrong","steam_id":76561198984346408,"connected_time":517000000000,"state":"active","ping":67},{"user_id":8,"name":"Grote piemel","steam_id":76561198166357571,"connected_time":542000000000,"state":"active","ping":56},{"user_id":10,"name":"Control Point Commando","steam_id":76561198119439177,"connected_time":512000000000,"state":"active","ping":62},{"user_id":11,"name":"casual zyzz praiser","steam_id":76561198022382969,"connected_time":502000000000,"state":"active","ping":77},{"user_id":12,"name":"Kqyt","steam_id":76561198044885742,"connected_time":497000000000,"state":"active","ping":77},{"user_id":14,"name":"mimi","steam_id":76561198060648946,"connected_time":468000000000,"state":"active","ping":59},{"user_id":15,"name":"vince","steam_id":76561198144563055,"connected_time":439000000000,"state":"active","ping":55},{"user_id":16,"name":"kolbi","steam_id":76561198006251776,"connected_time":434000000000,"state":"active","ping":68},{"user_id":17,"name":"asriel","steam_id":76561198061293740,"connected_time":414000000000,"state":"active","ping":76},{"user_id":18,"name":"Rocadinis","steam_id":76561198095910616,"connected_time":391000000000,"state":"active","ping":98},{"user_id":19,"name":"[P-roc] Cmm Bert","steam_id":76561198016658674,"connected_time":389000000000,"state":"active","ping":70},{"user_id":20,"name":"Walter H. White","steam_id":76561198079386295,"connected_time":342000000000,"state":"active","ping":65},{"user_id":21,"name":"Festdoktor","steam_id":76561198058159271,"connected_time":329000000000,"state":"active","ping":59},{"user_id":22,"name":"Nope","steam_id":76561198069066522,"connected_time":319000000000,"state":"active","ping":76},{"user_id":23,"name":"Rudebwoyyy","steam_id":76561199387956486,"connected_time":308000000000,"state":"active","ping":58},{"user_id":24,"name":"Daginberth","steam_id":76561198043811437,"connected_time":305000000000,"state":"active","ping":68},{"user_id":25,"name":"BarrackOmaha","steam_id":76561198027922724,"connected_time":303000000000,"state":"active","ping":62},{"user_id":30,"name":"glyphoglossus molossus","steam_id":76561198191291749,"connected_time":124000000000,"state":"active","ping":74},{"user_id":27,"name":"Lukas","steam_id":76561198009118452,"connected_time":265000000000,"state":"active","ping":53},{"user_id":28,"name":"Skaza","steam_id":76561198010292540,"connected_time":264000000000,"state":"active","ping":75},{"user_id":29,"name":"CAMON ENGELAND","steam_id":76561198054301125,"connected_time":228000000000,"state":"active","ping":95}]},{"server_id":308,"name":"Uncletopia | Frankfurt | 3 | All Maps","name_short":"frk-3","host":"frk-1.de.uncletopia.com","port":27035,"enabled":true,"region":"eu","cc":"de","latitude":50.110924,"longitude":8.682127,"reserved":0,"last_update":"0001-01-01T00:00:00Z","name_a2s":"Uncletopia | Frankfurt | 3 | All Maps","protocol":17,"map":"cp_process_final","folder":"tf","game":"Team Fortress","app_id":440,"player_count":0,"max_players":24,"Bots":0,"server_type":"Dedicated","server_os":"Linux","password":true,"vac":true,"version":"7708610","steam_id":85568392924504274,"keywords":["cp","nocrits","nodmgspread","uncletopia"],"game_id":440,"stv_port":27036,"stv_name":"Uncletopia | Frankfurt | 3 | All Maps | STV","players":null},{"server_id":309,"name":"Uncletopia | Frankfurt | 4 | All Maps","name_short":"frk-4","host":"frk-1.de.uncletopia.com","port":27045,"enabled":true,"region":"eu","cc":"de","latitude":50.110924,"longitude":8.682127,"reserved":0,"last_update":"0001-01-01T00:00:00Z","name_a2s":"Uncletopia | Frankfurt | 4 | All Maps","protocol":17,"map":"pl_upward","folder":"tf","game":"Team Fortress","app_id":440,"player_count":1,"max_players":24,"Bots":0,"server_type":"Dedicated","server_os":"Linux","password":true,"vac":true,"version":"7708610","steam_id":85568392924504275,"keywords":["nocrits","nodmgspread","payload","uncletopia"],"game_id":440,"stv_port":27046,"stv_name":"Uncletopia | Frankfurt | 4 | All Maps | STV","players":[{"user_id":3,"name":"MelonKing","steam_id":76561198356989722,"connected_time":14000000000,"state":"active","ping":55}]},{"server_id":310,"name":"Uncletopia | Frankfurt | 5 | All Maps","name_short":"frk-5","host":"frk-1.de.uncletopia.com","port":27055,"enabled":true,"region":"eu","cc":"de","latitude":50.110924,"longitude":8.682127,"reserved":0,"last_update":"0001-01-01T00:00:00Z","name_a2s":"Uncletopia | Frankfurt | 5 | All Maps","protocol":17,"map":"cp_sunshine","folder":"tf","game":"Team Fortress","app_id":440,"player_count":24,"max_players":24,"Bots":0,"server_type":"Dedicated","server_os":"Linux","password":true,"vac":true,"version":"7708610","steam_id":85568392924504277,"keywords":["cp","nocrits","nodmgspread","uncletopia"],"game_id":440,"stv_port":27056,"stv_name":"Uncletopia | Frankfurt | 5 | All Maps | STV","players":[{"user_id":3,"name":"L A N T E R N","steam_id":76561198136905441,"connected_time":571000000000,"state":"active","ping":68},{"user_id":4,"name":"Sylbar","steam_id":76561198065379590,"connected_time":569000000000,"state":"active","ping":62},{"user_id":8,"name":"str1k","steam_id":76561198450366153,"connected_time":530000000000,"state":"active","ping":135},{"user_id":6,"name":"Vince","steam_id":76561199103000131,"connected_time":554000000000,"state":"active","ping":60},{"user_id":7,"name":"Bad man","steam_id":76561198345972230,"connected_time":545000000000,"state":"active","ping":84},{"user_id":9,"name":"‚ú¶Fish le Patriarche‚ú¶","steam_id":76561198131419301,"connected_time":520000000000,"state":"active","ping":90},{"user_id":10,"name":"Speibsackerl","steam_id":76561198058135257,"connected_time":516000000000,"state":"active","ping":60},{"user_id":11,"name":"LaVieilleGitane","steam_id":76561198308253608,"connected_time":510000000000,"state":"active","ping":53},{"user_id":30,"name":"wieto","steam_id":76561198050626427,"connected_time":13000000000,"state":"active","ping":96},{"user_id":13,"name":"0FCKGVN","steam_id":76561198076787036,"connected_time":504000000000,"state":"active","ping":57},{"user_id":14,"name":"Proto-arc","steam_id":76561198012776747,"connected_time":490000000000,"state":"active","ping":61},{"user_id":15,"name":"ChickenMan99","steam_id":76561197961400205,"connected_time":470000000000,"state":"active","ping":71},{"user_id":16,"name":"rmz.ssj","steam_id":76561198329613930,"connected_time":465000000000,"state":"active","ping":60},{"user_id":17,"name":"Burpman","steam_id":76561198022897937,"connected_time":458000000000,"state":"active","ping":64},{"user_id":18,"name":"Yelowchy","steam_id":76561198199416121,"connected_time":452000000000,"state":"active","ping":109},{"user_id":23,"name":"wickEd_","steam_id":76561198048068999,"connected_time":431000000000,"state":"active","ping":144},{"user_id":29,"name":"Chiefdog","steam_id":76561198085102003,"connected_time":343000000000,"state":"active","ping":75},{"user_id":21,"name":"vi","steam_id":76561198303147966,"connected_time":442000000000,"state":"active","ping":62},{"user_id":22,"name":"tralalaOuiOui","steam_id":76561197963471507,"connected_time":441000000000,"state":"active","ping":59},{"user_id":24,"name":"Skampy","steam_id":76561198322822536,"connected_time":427000000000,"state":"active","ping":70},{"user_id":25,"name":"Calamant","steam_id":76561198054650483,"connected_time":421000000000,"state":"active","ping":156},{"user_id":26,"name":"brokenphilip","steam_id":76561198080960604,"connected_time":415000000000,"state":"active","ping":78},{"user_id":27,"name":"Spaenny","steam_id":76561198035850165,"connected_time":412000000000,"state":"active","ping":56},{"user_id":28,"name":"Greyhunter","steam_id":76561197960884202,"connected_time":412000000000,"state":"active","ping":51}]},{"server_id":311,"name":"Uncletopia | Frankfurt | 6 | All Maps","name_short":"frk-6","host":"frk-1.de.uncletopia.com","port":27065,"enabled":true,"region":"eu","cc":"de","latitude":50.110924,"longitude":8.682127,"reserved":0,"last_update":"0001-01-01T00:00:00Z","name_a2s":"Uncletopia | Frankfurt | 6 | All Maps","protocol":17,"map":"pl_snowycoast","folder":"tf","game":"Team Fortress","app_id":440,"player_count":4,"max_players":24,"Bots":0,"server_type":"Dedicated","server_os":"Linux","password":true,"vac":true,"version":"7708610","steam_id":85568392924504278,"keywords":["nocrits","nodmgspread","payload","uncletopia"],"game_id":440,"stv_port":27066,"stv_name":"Uncletopia | Frankfurt | 6 | All Maps | STV","players":[{"user_id":12,"name":"LadyMissfit","steam_id":76561198042236349,"connected_time":481000000000,"state":"active","ping":67},{"user_id":10,"name":"Marcus","steam_id":76561198205027963,"connected_time":540000000000,"state":"active","ping":68},{"user_id":7,"name":"Fortezza","steam_id":76561198972539903,"connected_time":562000000000,"state":"active","ping":45},{"user_id":9,"name":"Danipp","steam_id":76561198027147377,"connected_time":550000000000,"state":"active","ping":62}]},{"server_id":23,"name":"Uncletopia | Frankfurt | 7 | No Payload","name_short":"frk-7","host":"frk-1.de.uncletopia.com","port":27075,"enabled":true,"region":"eu","cc":"de","latitude":50.110924,"longitude":8.682127,"reserved":0,"last_update":"0001-01-01T00:00:00Z","name_a2s":"Uncletopia | Frankfurt | 7 | No Payload","protocol":17,"map":"koth_viaduct","folder":"tf","game":"Team Fortress","app_id":440,"player_count":0,"max_players":24,"Bots":0,"server_type":"Dedicated","server_os":"Linux","password":true,"vac":true,"version":"7708610","steam_id":85568392924742827,"keywords":["cp","nocrits","nodmgspread","uncletopia"],"game_id":440,"stv_port":27076,"stv_name":"Uncletopia | Frankfurt | 7 | No Payload | STV","players":null},{"server_id":24,"name":"Uncletopia | Frankfurt | 8 | Community","name_short":"frk-8","host":"frk-1.de.uncletopia.com","port":27085,"enabled":true,"region":"eu","cc":"de","latitude":50.110924,"longitude":8.682127,"reserved":0,"last_update":"0001-01-01T00:00:00Z","name_a2s":"Uncletopia | Frankfurt | 8 | Community","protocol":17,"map":"pl_borneo","folder":"tf","game":"Team Fortress","app_id":440,"player_count":0,"max_players":24,"Bots":0,"server_type":"Dedicated","server_os":"Linux","password":true,"vac":true,"version":"7708610","steam_id":85568392924742828,"keywords":["nocrits","nodmgspread","payload","uncletopia"],"game_id":440,"stv_port":27086,"stv_name":"Uncletopia | Frankfurt | 8 | Community | STV","players":null},{"server_id":202,"name":"Uncletopia | Hong Kong | 1 | All Maps","name_short":"hgk-1","host":"hgk-1.hk.uncletopia.com","port":27015,"enabled":true,"region":"asia","cc":"hk","latitude":22.302711,"longitude":114.177216,"reserved":0,"last_update":"0001-01-01T00:00:00Z","name_a2s":"Uncletopia | Hong Kong | 1 | All Maps","protocol":17,"map":"cp_mountainlab","folder":"tf","game":"Team Fortress","app_id":440,"player_count":6,"max_players":24,"Bots":0,"server_type":"Dedicated","server_os":"Linux","password":true,"vac":true,"version":"7708610","steam_id":85568392924494504,"keywords":["cp","nocrits","nodmgspread","uncletopia"],"game_id":440,"stv_port":27016,"stv_name":"Uncletopia | Hong Kong | 1 | All Maps | STV","players":[{"user_id":8,"name":"grammerca2","steam_id":76561198993241319,"connected_time":230000000000,"state":"active","ping":299},{"user_id":4,"name":"DjGamz","steam_id":76561198934740864,"connected_time":636000000000,"state":"active","ping":236},{"user_id":5,"name":"Pancake","steam_id":76561198803467794,"connected_time":618000000000,"state":"active","ping":274},{"user_id":6,"name":"Moderately Helpful William","steam_id":76561198148899639,"connected_time":456000000000,"state":"active","ping":77},{"user_id":7,"name":"matuh","steam_id":76561199028759413,"connected_time":390000000000,"state":"active","ping":83},{"user_id":9,"name":"Cartoon","steam_id":76561199215858531,"connected_time":166000000000,"state":"active","ping":87}]},{"server_id":1,"name":"Uncletopia | Los Angeles | 1 | All Maps","name_short":"lax-1","host":"lax-1.us.uncletopia.com","port":27015,"enabled":true,"region":"us-west","cc":"us","latitude":33.94279,"longitude":-118.41004,"reserved":0,"last_update":"0001-01-01T00:00:00Z","name_a2s":"Uncletopia | Los Angeles | 1 | All Maps","protocol":17,"map":"pl_swiftwater_final1","folder":"tf","game":"Team Fortress","app_id":440,"player_count":0,"max_players":24,"Bots":0,"server_type":"Dedicated","server_os":"Linux","password":true,"vac":true,"version":"7708610","steam_id":85568392924469991,"keywords":["nocrits","nodmgspread","payload","uncletopia"],"game_id":440,"stv_port":27016,"stv_name":"Uncletopia | Los Angeles | 1 | All Maps | STV","players":null},{"server_id":112,"name":"Uncletopia | Los Angeles | 2 | All Maps","name_short":"lax-2","host":"lax-1.us.uncletopia.com","port":27025,"enabled":true,"region":"us-west","cc":"us","latitude":33.94279,"longitude":-118.41004,"reserved":0,"last_update":"0001-01-01T00:00:00Z","name_a2s":"Uncletopia | Los Angeles | 2 | All Maps","protocol":17,"map":"pl_snowycoast","folder":"tf","game":"Team Fortress","app_id":440,"player_count":0,"max_players":24,"Bots":0,"server_type":"Dedicated","server_os":"Linux","password":true,"vac":true,"version":"7708610","steam_id":85568392924469992,"keywords":["nocrits","nodmgspread","payload","uncletopia"],"game_id":440,"stv_port":27026,"stv_name":"Uncletopia | Los Angeles | 2 | All Maps | STV","players":null},{"server_id":324,"name":"Uncletopia | Los Angeles | 3 | All Maps","name_short":"lax-3","host":"lax-1.us.uncletopia.com","port":27035,"enabled":true,"region":"us-west","cc":"us","latitude":33.94279,"longitude":-118.41004,"reserved":0,"last_update":"0001-01-01T00:00:00Z","name_a2s":"Uncletopia | Los Angeles | 3 | All Maps","protocol":17,"map":"pl_wutville_event","folder":"tf","game":"Team Fortress","app_id":440,"player_count":24,"max_players":24,"Bots":0,"server_type":"Dedicated","server_os":"Linux","password":true,"vac":true,"version":"7708610","steam_id":85568392924510198,"keywords":["nocrits","nodmgspread","payload","uncletopia"],"game_id":440,"stv_port":27036,"stv_name":"Uncletopia | Los Angeles | 3 | All Maps | STV","players":[{"user_id":57,"name":"Loafus","steam_id":76561198154561111,"connected_time":77000000000,"state":"active","ping":116},{"user_id":15,"name":"Shmeaty","steam_id":76561198198704538,"connected_time":1112000000000,"state":"active","ping":56},{"user_id":5,"name":"young thug weaponry","steam_id":76561198363821364,"connected_time":1151000000000,"state":"active","ping":46},{"user_id":10,"name":"soapboxracer360","steam_id":76561198316394688,"connected_time":1150000000000,"state":"active","ping":51},{"user_id":21,"name":"flabbergasted","steam_id":76561199247494538,"connected_time":1012000000000,"state":"active","ping":42},{"user_id":33,"name":"beans","steam_id":76561199082781884,"connected_time":740000000000,"state":"active","ping":66},{"user_id":13,"name":"BasedGod","steam_id":76561198061177973,"connected_time":1139000000000,"state":"active","ping":52},{"user_id":48,"name":"paint thinner victim","steam_id":76561198176069217,"connected_time":395000000000,"state":"active","ping":89},{"user_id":16,"name":"benglengler","steam_id":76561198150137369,"connected_time":1058000000000,"state":"active","ping":61},{"user_id":17,"name":"flo rida","steam_id":76561198226169704,"connected_time":1048000000000,"state":"active","ping":59},{"user_id":35,"name":"BlockBurst","steam_id":76561199220851075,"connected_time":672000000000,"state":"active","ping":33},{"user_id":19,"name":"AngelDirk","steam_id":76561197997642776,"connected_time":1024000000000,"state":"active","ping":102},{"user_id":56,"name":"Donuts","steam_id":76561198209147332,"connected_time":102000000000,"state":"active","ping":120},{"user_id":37,"name":"Mittens the Rancor","steam_id":76561198028640976,"connected_time":595000000000,"state":"active","ping":85},{"user_id":52,"name":"viciousbeatmaker","steam_id":76561198086876652,"connected_time":228000000000,"state":"active","ping":57},{"user_id":59,"name":"Zeemii","steam_id":76561198809299581,"connected_time":51000000000,"state":"spawning","ping":97},{"user_id":41,"name":"Coffeemelon","steam_id":76561198285891257,"connected_time":533000000000,"state":"active","ping":58},{"user_id":26,"name":"Harold","steam_id":76561198057317770,"connected_time":908000000000,"state":"active","ping":48},{"user_id":42,"name":"ChipperGunslinger","steam_id":76561199100483140,"connected_time":524000000000,"state":"active","ping":46},{"user_id":49,"name":"lokm","steam_id":76561198030374238,"connected_time":379000000000,"state":"active","ping":55},{"user_id":60,"name":"THE NUT","steam_id":76561198067813626,"connected_time":43000000000,"state":"spawning","ping":86},{"user_id":45,"name":"DAS SCHNITZELSTIEN","steam_id":76561198051137159,"connected_time":489000000000,"state":"active","ping":71},{"user_id":54,"name":"mewzmybro","steam_id":76561199222572726,"connected_time":189000000000,"state":"active","ping":143},{"user_id":55,"name":"Piece o' Piss","steam_id":76561198376807150,"connected_time":184000000000,"state":"active","ping":98}]},{"server_id":25,"name":"Uncletopia | Los Angeles | 4 | No Payload","name_short":"lax-4","host":"lax-1.us.uncletopia.com","port":27045,"enabled":true,"region":"us-west","cc":"us","latitude":33.94279,"longitude":-118.41004,"reserved":0,"last_update":"0001-01-01T00:00:00Z","name_a2s":"Uncletopia | Los Angeles | 4 | No Payload","protocol":17,"map":"cp_mountainlab","folder":"tf","game":"Team Fortress","app_id":440,"player_count":0,"max_players":24,"Bots":0,"server_type":"Dedicated","server_os":"Linux","password":true,"vac":true,"version":"7708610","steam_id":85568392924510199,"keywords":["cp","nocrits","nodmgspread","uncletopia"],"game_id":440,"stv_port":27046,"stv_name":"Uncletopia | Los Angeles | 4 | No Payload | STV","players":null},{"server_id":11,"name":"Uncletopia | London | 1 | All Maps","name_short":"lon-1","host":"lon-1.uk.uncletopia.com","port":27015,"enabled":true,"region":"eu","cc":"gb","latitude":51.509865,"longitude":-0.118092,"reserved":0,"last_update":"0001-01-01T00:00:00Z","name_a2s":"Uncletopia | London | 1 | All Maps","protocol":17,"map":"cp_snakewater_final1","folder":"tf","game":"Team Fortress","app_id":440,"player_count":25,"max_players":24,"Bots":0,"server_type":"Dedicated","server_os":"Linux","password":true,"vac":true,"version":"7708610","steam_id":85568392924367362,"keywords":["cp","nocrits","nodmgspread","uncletopia"],"game_id":440,"stv_port":27016,"stv_name":"Uncletopia | London | 1 | All Maps | STV","players":[{"user_id":3,"name":"‚ú™ J","steam_id":76561198094911581,"connected_time":595000000000,"state":"active","ping":48},{"user_id":36,"name":"crafteen","steam_id":76561198362185755,"connected_time":309000000000,"state":"active","ping":48},{"user_id":5,"name":"Dale ‚ù§","steam_id":76561197995189004,"connected_time":595000000000,"state":"active","ping":46},{"user_id":6,"name":"Baklava Enjoyer","steam_id":76561198990679631,"connected_time":595000000000,"state":"active","ping":117},{"user_id":7,"name":"Pocket","steam_id":76561198051358894,"connected_time":594000000000,"state":"active","ping":56},{"user_id":8,"name":"Ferore","steam_id":76561198152824336,"connected_time":593000000000,"state":"active","ping":46},{"user_id":9,"name":"Mango","steam_id":76561198139555709,"connected_time":588000000000,"state":"active","ping":52},{"user_id":10,"name":"Leah","steam_id":76561198217794171,"connected_time":588000000000,"state":"active","ping":60},{"user_id":11,"name":"zero","steam_id":76561198055365234,"connected_time":578000000000,"state":"active","ping":80},{"user_id":12,"name":"Vibing Wave [IR]","steam_id":76561198866358613,"connected_time":576000000000,"state":"active","ping":154},{"user_id":13,"name":"BreadBaubbles","steam_id":76561198174332826,"connected_time":575000000000,"state":"active","ping":56},{"user_id":32,"name":"nedilya","steam_id":76561198039692077,"connected_time":363000000000,"state":"active","ping":62},{"user_id":15,"name":"Ineluctable Sex Predator","steam_id":76561197995971061,"connected_time":572000000000,"state":"active","ping":109},{"user_id":30,"name":"dec","steam_id":76561198009660168,"connected_time":466000000000,"state":"active","ping":56},{"user_id":17,"name":"teddy","steam_id":76561198007436837,"connected_time":569000000000,"state":"active","ping":43},{"user_id":18,"name":"Saken","steam_id":76561198049075295,"connected_time":568000000000,"state":"active","ping":71},{"user_id":19,"name":"worry about it","steam_id":76561199414716848,"connected_time":563000000000,"state":"active","ping":75},{"user_id":20,"name":"Wellpapp","steam_id":76561198032638065,"connected_time":562000000000,"state":"active","ping":75},{"user_id":21,"name":"Scrubbey","steam_id":76561197962091948,"connected_time":559000000000,"state":"active","ping":73},{"user_id":22,"name":"undertime warrior","steam_id":76561198029399151,"connected_time":558000000000,"state":"active","ping":65},{"user_id":23,"name":"Snowmotion","steam_id":76561198075022454,"connected_time":558000000000,"state":"active","ping":61},{"user_id":24,"name":"rozen","steam_id":76561198119167317,"connected_time":558000000000,"state":"active","ping":54},{"user_id":35,"name":"akirajimbo","steam_id":76561197979960008,"connected_time":326000000000,"state":"active","ping":117},{"user_id":27,"name":"festive jones","steam_id":76561198073975078,"connected_time":548000000000,"state":"active","ping":45},{"user_id":52,"name":"Thors","steam_id":76561197968739075,"connected_time":2000000000,"state":"spawning","ping":54}]},{"server_id":114,"name":"Uncletopia | London | 2 | All Maps","name_short":"lon-2","host":"lon-1.uk.uncletopia.com","port":27025,"enabled":true,"region":"eu","cc":"gb","latitude":51.509865,"longitude":-0.118092,"reserved":0,"last_update":"0001-01-01T00:00:00Z","name_a2s":"Uncletopia | London | 2 | All Maps","protocol":17,"map":"cp_sunshine","folder":"tf","game":"Team Fortress","app_id":440,"player_count":1,"max_players":24,"Bots":0,"server_type":"Dedicated","server_os":"Linux","password":true,"vac":true,"version":"7708610","steam_id":85568392924470941,"keywords":["cp","nocrits","nodmgspread","uncletopia"],"game_id":440,"stv_port":27026,"stv_name":"Uncletopia | London | 2 | All Maps | STV","players":[{"user_id":6,"name":"Vitamin Weee","steam_id":76561199183937747,"connected_time":48000000000,"state":"active","ping":78}]},{"server_id":320,"name":"Uncletopia | London | 3 | All Maps","name_short":"lon-3","host":"lon-1.uk.uncletopia.com","port":27035,"enabled":true,"region":"eu","cc":"gb","latitude":51.509865,"longitude":-0.118092,"reserved":0,"last_update":"0001-01-01T00:00:00Z","name_a2s":"Uncletopia | London | 3 | All Maps","protocol":17,"map":"koth_cascade","folder":"tf","game":"Team Fortress","app_id":440,"player_count":0,"max_players":24,"Bots":0,"server_type":"Dedicated","server_os":"Linux","password":true,"vac":true,"version":"7708610","steam_id":85568392924510192,"keywords":["cp","nocrits","nodmgspread","uncletopia"],"game_id":440,"stv_port":27036,"stv_name":"Uncletopia | London | 3 | All Maps | STV","players":null},{"server_id":321,"name":"Uncletopia | London | 4 | All Maps","name_short":"lon-4","host":"lon-1.uk.uncletopia.com","port":27045,"enabled":true,"region":"eu","cc":"gb","latitude":51.509865,"longitude":-0.118092,"reserved":0,"last_update":"0001-01-01T00:00:00Z","name_a2s":"Uncletopia | London | 4 | All Maps","protocol":17,"map":"pl_upward","folder":"tf","game":"Team Fortress","app_id":440,"player_count":0,"max_players":24,"Bots":0,"server_type":"Dedicated","server_os":"Linux","password":true,"vac":true,"version":"7708610","steam_id":85568392924510193,"keywords":["nocrits","nodmgspread","payload","uncletopia"],"game_id":440,"stv_port":27046,"stv_name":"Uncletopia | London | 4 | All Maps | STV","players":null},{"server_id":21,"name":"Uncletopia | London | 5 | All Maps","name_short":"lon-5","host":"lon-1.uk.uncletopia.com","port":27055,"enabled":true,"region":"eu","cc":"gb","latitude":51.509865,"longitude":-0.118092,"reserved":0,"last_update":"0001-01-01T00:00:00Z","name_a2s":"Uncletopia | London | 5 | All Maps","protocol":17,"map":"pl_badwater","folder":"tf","game":"Team Fortress","app_id":440,"player_count":5,"max_players":24,"Bots":0,"server_type":"Dedicated","server_os":"Linux","password":true,"vac":true,"version":"7708610","steam_id":85568392924742829,"keywords":["nocrits","nodmgspread","payload","uncletopia"],"game_id":440,"stv_port":27056,"stv_name":"Uncletopia | London | 5 | All Maps | STV","players":[{"user_id":6,"name":"i eat white kids","steam_id":76561198259668029,"connected_time":508000000000,"state":"active","ping":97},{"user_id":10,"name":"COMPUTER BECOMES SENTIENT O_O","steam_id":76561198108020471,"connected_time":370000000000,"state":"active","ping":98},{"user_id":7,"name":"Wee Hoose Rice","steam_id":76561198423902979,"connected_time":505000000000,"state":"active","ping":48},{"user_id":8,"name":"random_player691","steam_id":76561199209946306,"connected_time":505000000000,"state":"active","ping":59},{"user_id":13,"name":"Dr.Disrespect","steam_id":76561198043820228,"connected_time":39000000000,"state":"active","ping":49}]},{"server_id":22,"name":"Uncletopia | London | 6 | All Maps","name_short":"lon-6","host":"lon-1.uk.uncletopia.com","port":27065,"enabled":true,"region":"eu","cc":"gb","latitude":51.509865,"longitude":-0.118092,"reserved":0,"last_update":"0001-01-01T00:00:00Z","name_a2s":"Uncletopia | London | 6 | All Maps","protocol":17,"map":"pl_frontier_final","folder":"tf","game":"Team Fortress","app_id":440,"player_count":0,"max_players":24,"Bots":0,"server_type":"Dedicated","server_os":"Linux","password":true,"vac":true,"version":"7708610","steam_id":85568392924742830,"keywords":["nocrits","nodmgspread","payload","uncletopia"],"game_id":440,"stv_port":27066,"stv_name":"Uncletopia | London | 6 | All Maps | STV","players":null},{"server_id":40,"name":"Uncletopia | London | 7 | No Payload","name_short":"lon-7","host":"lon-1.uk.uncletopia.com","port":27075,"enabled":true,"region":"eu","cc":"gb","latitude":51.509865,"longitude":-0.118092,"reserved":0,"last_update":"0001-01-01T00:00:00Z","name_a2s":"Uncletopia | London | 7 | No Payload","protocol":17,"map":"pl_barnblitz","folder":"tf","game":"Team Fortress","app_id":440,"player_count":0,"max_players":24,"Bots":0,"server_type":"Dedicated","server_os":"Linux","password":true,"vac":true,"version":"7708610","steam_id":85568392924964314,"keywords":["nocrits","nodmgspread","payload","uncletopia"],"game_id":440,"stv_port":27076,"stv_name":"Uncletopia | London | 7 | No Payload | STV","players":null},{"server_id":41,"name":"Uncletopia | London | 8 | Community","name_short":"lon-8","host":"lon-1.uk.uncletopia.com","port":27085,"enabled":true,"region":"eu","cc":"gb","latitude":51.509865,"longitude":-0.118092,"reserved":0,"last_update":"0001-01-01T00:00:00Z","name_a2s":"Uncletopia | London | 8 | Community","protocol":17,"map":"pl_pier","folder":"tf","game":"Team Fortress","app_id":440,"player_count":0,"max_players":24,"Bots":0,"server_type":"Dedicated","server_os":"Linux","password":true,"vac":true,"version":"7708610","steam_id":85568392924964315,"keywords":["nocrits","nodmgspread","payload","uncletopia"],"game_id":440,"stv_port":27086,"stv_name":"Uncletopia | London | 8 | Community | STV","players":null},{"server_id":300,"name":"Uncletopia | Montr√©al | 1 | All Maps","name_short":"mtl-1","host":"mtl-1.ca.uncletopia.com","port":27015,"enabled":true,"region":"us-east","cc":"ca","latitude":45.50889,"longitude":-73.56167,"reserved":0,"last_update":"0001-01-01T00:00:00Z","name_a2s":"Uncletopia | Montr√©al | 1 | All Maps","protocol":17,"map":"koth_viaduct","folder":"tf","game":"Team Fortress","app_id":440,"player_count":0,"max_players":24,"Bots":0,"server_type":"Dedicated","server_os":"Linux","password":true,"vac":true,"version":"7708610","steam_id":85568392924500087,"keywords":["cp","nocrits","nodmgspread","uncletopia"],"game_id":440,"stv_port":27016,"stv_name":"Uncletopia | Montr√©al | 1 | All Maps | STV","players":null},{"server_id":301,"name":"Uncletopia | Montr√©al | 2 | All Maps","name_short":"mtl-2","host":"mtl-1.ca.uncletopia.com","port":27025,"enabled":true,"region":"us-east","cc":"ca","latitude":45.50889,"longitude":-73.56167,"reserved":0,"last_update":"0001-01-01T00:00:00Z","name_a2s":"Uncletopia | Montr√©al | 2 | All Maps","protocol":17,"map":"koth_cascade","folder":"tf","game":"Team Fortress","app_id":440,"player_count":0,"max_players":24,"Bots":0,"server_type":"Dedicated","server_os":"Linux","password":true,"vac":true,"version":"7708610","steam_id":85568392924500088,"keywords":["cp","nocrits","nodmgspread","uncletopia"],"game_id":440,"stv_port":27026,"stv_name":"Uncletopia | Montr√©al | 2 | All Maps | STV","players":null},{"server_id":302,"name":"Uncletopia | Montr√©al | 3 | All Maps","name_short":"mtl-3","host":"mtl-1.ca.uncletopia.com","port":27035,"enabled":true,"region":"us-east","cc":"ca","latitude":45.50889,"longitude":-73.56167,"reserved":0,"last_update":"0001-01-01T00:00:00Z","name_a2s":"Uncletopia | Montr√©al | 3 | All Maps","protocol":17,"map":"pl_barnblitz","folder":"tf","game":"Team Fortress","app_id":440,"player_count":0,"max_players":24,"Bots":0,"server_type":"Dedicated","server_os":"Linux","password":true,"vac":true,"version":"7708610","steam_id":85568392924500089,"keywords":["nocrits","nodmgspread","payload","uncletopia"],"game_id":440,"stv_port":27036,"stv_name":"Uncletopia | Montr√©al | 3 | All Maps | STV","players":null},{"server_id":303,"name":"Uncletopia | Montr√©al | 4 | No Payload","name_short":"mtl-4","host":"mtl-1.ca.uncletopia.com","port":27045,"enabled":true,"region":"us-east","cc":"ca","latitude":45.50889,"longitude":-73.56167,"reserved":0,"last_update":"0001-01-01T00:00:00Z","name_a2s":"Uncletopia | Montr√©al | 4 | No Payload","protocol":17,"map":"cp_process_final","folder":"tf","game":"Team Fortress","app_id":440,"player_count":0,"max_players":24,"Bots":0,"server_type":"Dedicated","server_os":"Linux","password":true,"vac":true,"version":"7708610","steam_id":85568392924500090,"keywords":["cp","nocrits","nodmgspread","uncletopia"],"game_id":440,"stv_port":27046,"stv_name":"Uncletopia | Montr√©al | 4 | No Payload | STV","players":null},{"server_id":13,"name":"Uncletopia | New York City | 1 | All Maps","name_short":"nyc-1","host":"nyc-1.us.uncletopia.com","port":27015,"enabled":true,"region":"us-east","cc":"us","latitude":40.73061,"longitude":-73.93524,"reserved":0,"last_update":"0001-01-01T00:00:00Z","name_a2s":"Uncletopia | New York City | 1 | All Maps","protocol":17,"map":"pl_barnblitz","folder":"tf","game":"Team Fortress","app_id":440,"player_count":24,"max_players":24,"Bots":0,"server_type":"Dedicated","server_os":"Linux","password":true,"vac":true,"version":"7708610","steam_id":85568392924469993,"keywords":["nocrits","nodmgspread","payload","uncletopia"],"game_id":440,"stv_port":27016,"stv_name":"Uncletopia | New York City | 1 | All Maps | STV","players":[{"user_id":3,"name":"Doctor Ice","steam_id":76561198003136573,"connected_time":1161000000000,"state":"active","ping":83},{"user_id":4,"name":"Cypress","steam_id":76561197992487995,"connected_time":1150000000000,"state":"active","ping":48},{"user_id":5,"name":"Shortround","steam_id":76561197999943914,"connected_time":1141000000000,"state":"active","ping":105},{"user_id":6,"name":"Pie‚Ñ¢","steam_id":76561198158312625,"connected_time":1137000000000,"state":"active","ping":120},{"user_id":7,"name":"yougotsauled","steam_id":76561198880754695,"connected_time":1131000000000,"state":"active","ping":51},{"user_id":11,"name":"Monolate","steam_id":76561199081379410,"connected_time":1059000000000,"state":"active","ping":72},{"user_id":31,"name":"fluffy brain stab #deleteC++","steam_id":76561198055867856,"connected_time":228000000000,"state":"active","ping":37},{"user_id":10,"name":"Kritzburgh","steam_id":76561198149466938,"connected_time":1109000000000,"state":"active","ping":59},{"user_id":12,"name":"Chechens Spotted","steam_id":76561199028910893,"connected_time":1031000000000,"state":"active","ping":62},{"user_id":13,"name":"bardy","steam_id":76561198043639662,"connected_time":1000000000000,"state":"active","ping":63},{"user_id":14,"name":"stealthy","steam_id":76561198071386492,"connected_time":996000000000,"state":"active","ping":55},{"user_id":15,"name":"Sprinklingmydoughnut","steam_id":76561198168009092,"connected_time":920000000000,"state":"active","ping":63},{"user_id":16,"name":"[chef] iron","steam_id":76561197970888616,"connected_time":903000000000,"state":"active","ping":73},{"user_id":17,"name":"Redaly","steam_id":76561199089493733,"connected_time":866000000000,"state":"active","ping":43},{"user_id":18,"name":"Markus Velafi","steam_id":76561198063193924,"connected_time":836000000000,"state":"active","ping":58},{"user_id":19,"name":"PapaPatrick","steam_id":76561199017975241,"connected_time":833000000000,"state":"active","ping":85},{"user_id":20,"name":"Mr.Kingboo","steam_id":76561198141543180,"connected_time":827000000000,"state":"active","ping":60},{"user_id":28,"name":"shmoke","steam_id":76561198056996952,"connected_time":540000000000,"state":"active","ping":61},{"user_id":30,"name":"MrLactosee","steam_id":76561198810912066,"connected_time":255000000000,"state":"active","ping":98},{"user_id":23,"name":"ventus51701","steam_id":76561198207372741,"connected_time":792000000000,"state":"active","ping":45},{"user_id":24,"name":"pablo","steam_id":76561199190247198,"connected_time":782000000000,"state":"active","ping":154},{"user_id":25,"name":"Sicko Mode (Chris Pratt Cover)","steam_id":76561198315786174,"connected_time":764000000000,"state":"active","ping":50},{"user_id":26,"name":"Zigadox","steam_id":76561198079813479,"connected_time":748000000000,"state":"active","ping":83},{"user_id":29,"name":"Munch","steam_id":76561197987788807,"connected_time":368000000000,"state":"active","ping":84}]},{"server_id":14,"name":"Uncletopia | New York City | 2 | All Maps","name_short":"nyc-2","host":"nyc-1.us.uncletopia.com","port":27025,"enabled":true,"region":"us-east","cc":"us","latitude":40.73061,"longitude":-73.93524,"reserved":0,"last_update":"0001-01-01T00:00:00Z","name_a2s":"Uncletopia | New York City | 2 | All Maps","protocol":17,"map":"cp_altitude","folder":"tf","game":"Team Fortress","app_id":440,"player_count":3,"max_players":24,"Bots":0,"server_type":"Dedicated","server_os":"Linux","password":true,"vac":true,"version":"7708610","steam_id":85568392924469994,"keywords":["cp","nocrits","nodmgspread","uncletopia"],"game_id":440,"stv_port":27026,"stv_name":"Uncletopia | New York City | 2 | All Maps | STV","players":[{"user_id":7,"name":"Hellen Keller Denier","steam_id":76561198106600085,"connected_time":43000000000,"state":"spawning","ping":51},{"user_id":8,"name":"\u003e\u003e Thomas","steam_id":76561198058349742,"connected_time":29000000000,"state":"active","ping":40},{"user_id":9,"name":"maximusbabaximus","steam_id":76561198419378913,"connected_time":23000000000,"state":"active","ping":110}]},{"server_id":15,"name":"Uncletopia | New York City | 3 | All Maps","name_short":"nyc-3","host":"nyc-1.us.uncletopia.com","port":27035,"enabled":true,"region":"us-east","cc":"us","latitude":40.73061,"longitude":-73.93524,"reserved":0,"last_update":"0001-01-01T00:00:00Z","name_a2s":"Uncletopia | New York City | 3 | All Maps","protocol":17,"map":"cp_mountainlab","folder":"tf","game":"Team Fortress","app_id":440,"player_count":0,"max_players":24,"Bots":0,"server_type":"Dedicated","server_os":"Linux","password":true,"vac":true,"version":"7708610","steam_id":85568392924742820,"keywords":["cp","nocrits","nodmgspread","uncletopia"],"game_id":440,"stv_port":27036,"stv_name":"Uncletopia | New York City | 3 | All Maps | STV","players":null},{"server_id":16,"name":"Uncletopia | New York City | 4 | Community","name_short":"nyc-4","host":"nyc-1.us.uncletopia.com","port":27045,"enabled":true,"region":"us-east","cc":"us","latitude":40.73061,"longitude":-73.93524,"reserved":0,"last_update":"0001-01-01T00:00:00Z","name_a2s":"Uncletopia | New York City | 4 | Community","protocol":17,"map":"pl_barnblitz","folder":"tf","game":"Team Fortress","app_id":440,"player_count":24,"max_players":24,"Bots":0,"server_type":"Dedicated","server_os":"Linux","password":true,"vac":true,"version":"7708610","steam_id":85568392924742821,"keywords":["nocrits","nodmgspread","payload","uncletopia"],"game_id":440,"stv_port":27046,"stv_name":"Uncletopia | New York City | 4 | Community | STV","players":[{"user_id":38,"name":"hackersan","steam_id":76561199130583553,"connected_time":77000000000,"state":"active","ping":51},{"user_id":30,"name":"Zeora","steam_id":76561198799145251,"connected_time":301000000000,"state":"active","ping":96},{"user_id":36,"name":"The Bravest of Warriors","steam_id":76561198048289242,"connected_time":202000000000,"state":"active","ping":132},{"user_id":12,"name":"Professional Brohamad","steam_id":76561198824025210,"connected_time":723000000000,"state":"active","ping":63},{"user_id":7,"name":"Water Cup","steam_id":76561198201114219,"connected_time":1140000000000,"state":"active","ping":135},{"user_id":8,"name":"Lt.Lag","steam_id":76561199032443415,"connected_time":1135000000000,"state":"active","ping":164},{"user_id":9,"name":"FaZe Corn Nuts","steam_id":76561198376710211,"connected_time":1124000000000,"state":"active","ping":122},{"user_id":37,"name":"Czarus","steam_id":76561198041774469,"connected_time":180000000000,"state":"active","ping":47},{"user_id":14,"name":"Dunmaglass","steam_id":76561198128928443,"connected_time":668000000000,"state":"active","ping":55},{"user_id":17,"name":"Centerpoint360","steam_id":76561198038968126,"connected_time":589000000000,"state":"active","ping":77},{"user_id":16,"name":"valentine","steam_id":76561198131876013,"connected_time":658000000000,"state":"active","ping":45},{"user_id":21,"name":"scouty","steam_id":76561198288491241,"connected_time":519000000000,"state":"active","ping":57},{"user_id":32,"name":"Zelohs","steam_id":76561198177899722,"connected_time":242000000000,"state":"active","ping":74},{"user_id":20,"name":"Challenger Charles","steam_id":76561198005576553,"connected_time":570000000000,"state":"active","ping":71},{"user_id":29,"name":"MackenDoodle","steam_id":76561199196896608,"connected_time":311000000000,"state":"active","ping":55},{"user_id":24,"name":"hoodie (illteriate)","steam_id":76561198354284591,"connected_time":408000000000,"state":"active","ping":108},{"user_id":25,"name":"themadlad67","steam_id":76561199309554436,"connected_time":398000000000,"state":"active","ping":111},{"user_id":26,"name":"student watches porn","steam_id":76561198986534519,"connected_time":390000000000,"state":"active","ping":124},{"user_id":27,"name":"OlympicChamp_12 | Trade.tf","steam_id":76561198830574526,"connected_time":388000000000,"state":"active","ping":132},{"user_id":28,"name":"NoonCity","steam_id":76561198010165479,"connected_time":380000000000,"state":"active","ping":52},{"user_id":31,"name":"LocaKola","steam_id":76561198173435430,"connected_time":289000000000,"state":"active","ping":63},{"user_id":33,"name":"fartmungus","steam_id":76561198120757569,"connected_time":241000000000,"state":"active","ping":45},{"user_id":34,"name":"Rooster Miami Man","steam_id":76561199001393067,"connected_time":234000000000,"state":"active","ping":117},{"user_id":35,"name":"Ay I'm Walkin' Here!","steam_id":76561198023967485,"connected_time":230000000000,"state":"active","ping":147}]},{"server_id":142,"name":"Uncletopia | S√£o Paulo | 1 | All Maps","name_short":"sao-1","host":"sao-1.br.uncletopia.com","port":27015,"enabled":true,"region":"sa","cc":"br","latitude":-23.533773,"longitude":-46.62529,"reserved":0,"last_update":"0001-01-01T00:00:00Z","name_a2s":"Uncletopia | S√£o Paulo | 1 | All Maps","protocol":17,"map":"pl_borneo","folder":"tf","game":"Team Fortress","app_id":440,"player_count":20,"max_players":24,"Bots":0,"server_type":"Dedicated","server_os":"Linux","password":true,"vac":true,"version":"7708610","steam_id":85568392924469996,"keywords":["nocrits","nodmgspread","payload","uncletopia"],"game_id":440,"stv_port":27016,"stv_name":"Uncletopia | S√£o Paulo | 1 | All Maps | STV","players":[{"user_id":3,"name":"delta","steam_id":76561198288966901,"connected_time":938000000000,"state":"active","ping":50},{"user_id":4,"name":"Zoom!","steam_id":76561198289562649,"connected_time":935000000000,"state":"active","ping":42},{"user_id":5,"name":"james o artista de circo","steam_id":76561198361425040,"connected_time":922000000000,"state":"active","ping":74},{"user_id":6,"name":"Salieri","steam_id":76561198357580158,"connected_time":894000000000,"state":"active","ping":98},{"user_id":7,"name":"W¬¥","steam_id":76561198163472504,"connected_time":890000000000,"state":"active","ping":94},{"user_id":9,"name":"G. Pretendedor","steam_id":76561198145966888,"connected_time":857000000000,"state":"active","ping":61},{"user_id":19,"name":"LeaoMartelo","steam_id":76561199124639382,"connected_time":529000000000,"state":"active","ping":42},{"user_id":11,"name":"Emperor Reinhard","steam_id":76561198181006839,"connected_time":792000000000,"state":"active","ping":60},{"user_id":14,"name":"rsk1","steam_id":76561198199413370,"connected_time":708000000000,"state":"active","ping":54},{"user_id":15,"name":"CATS","steam_id":76561198103172108,"connected_time":696000000000,"state":"active","ping":67},{"user_id":16,"name":"Thiuli","steam_id":76561198881946746,"connected_time":681000000000,"state":"active","ping":85},{"user_id":32,"name":"leavesunderatree","steam_id":76561199259911911,"connected_time":35000000000,"state":"active","ping":186},{"user_id":25,"name":"Liniker","steam_id":76561198948736406,"connected_time":189000000000,"state":"active","ping":49},{"user_id":20,"name":"elite level gamer","steam_id":76561199165054714,"connected_time":520000000000,"state":"active","ping":51},{"user_id":21,"name":"ghostluck","steam_id":76561198073311719,"connected_time":363000000000,"state":"active","ping":57},{"user_id":26,"name":"asdadsadasdasda","steam_id":76561198415484497,"connected_time":135000000000,"state":"active","ping":60},{"user_id":30,"name":"C-Monkey","steam_id":76561199246417086,"connected_time":90000000000,"state":"active","ping":207},{"user_id":33,"name":"TomatoSandwich","steam_id":76561199080817141,"connected_time":11000000000,"state":"spawning","ping":90},{"user_id":34,"name":"Gogoyle50","steam_id":76561198148524228,"connected_time":0,"state":"spawning","ping":50},{"user_id":31,"name":"CJAIME01345","steam_id":76561199091599141,"connected_time":79000000000,"state":"active","ping":88}]},{"server_id":143,"name":"Uncletopia | S√£o Paulo | 2 | All Maps","name_short":"sao-2","host":"sao-2.br.uncletopia.com","port":27015,"enabled":true,"region":"sa","cc":"br","latitude":-23.533773,"longitude":-46.62529,"reserved":0,"last_update":"0001-01-01T00:00:00Z","name_a2s":"Uncletopia | S√£o Paulo | 2 | All Maps","protocol":17,"map":"koth_viaduct","folder":"tf","game":"Team Fortress","app_id":440,"player_count":0,"max_players":24,"Bots":0,"server_type":"Dedicated","server_os":"Linux","password":true,"vac":true,"version":"7708610","steam_id":85568392924485349,"keywords":["cp","nocrits","nodmgspread","uncletopia"],"game_id":440,"stv_port":27016,"stv_name":"Uncletopia | S√£o Paulo | 2 | All Maps | STV","players":null},{"server_id":7,"name":"Uncletopia | Seattle | 1 | All Maps","name_short":"sea-1","host":"sea-1.us.uncletopia.com","port":27015,"enabled":true,"region":"us-west","cc":"us","latitude":47.608013,"longitude":-122.33517,"reserved":0,"last_update":"0001-01-01T00:00:00Z","name_a2s":"Uncletopia | Seattle | 1 | All Maps","protocol":17,"map":"pl_barnblitz","folder":"tf","game":"Team Fortress","app_id":440,"player_count":24,"max_players":24,"Bots":0,"server_type":"Dedicated","server_os":"Linux","password":true,"vac":true,"version":"7708610","steam_id":85568392924469997,"keywords":["nocrits","nodmgspread","payload","uncletopia"],"game_id":440,"stv_port":27016,"stv_name":"Uncletopia | Seattle | 1 | All Maps | STV","players":[{"user_id":52,"name":"Saint Laurent Don","steam_id":76561198116820706,"connected_time":793000000000,"state":"active","ping":72},{"user_id":4,"name":"Gachalover","steam_id":76561199231552074,"connected_time":1154000000000,"state":"active","ping":148},{"user_id":5,"name":"Shah","steam_id":76561198047508851,"connected_time":1151000000000,"state":"active","ping":59},{"user_id":27,"name":"Ghost Lord","steam_id":76561198088956723,"connected_time":1092000000000,"state":"active","ping":152},{"user_id":7,"name":"Ahzain","steam_id":76561198035894333,"connected_time":1149000000000,"state":"active","ping":80},{"user_id":54,"name":"Hedgey","steam_id":76561199072934471,"connected_time":32000000000,"state":"active","ping":53},{"user_id":14,"name":"The Best Healer","steam_id":76561198079452621,"connected_time":1138000000000,"state":"active","ping":55},{"user_id":10,"name":"mhmyeah_yeahmhm","steam_id":76561198341190679,"connected_time":1148000000000,"state":"active","ping":58},{"user_id":11,"name":"nfseskimo","steam_id":76561198078745666,"connected_time":1147000000000,"state":"active","ping":45},{"user_id":12,"name":"marquis","steam_id":76561198042941628,"connected_time":1140000000000,"state":"active","ping":78},{"user_id":13,"name":"Rhutebeer","steam_id":76561198018302761,"connected_time":1140000000000,"state":"active","ping":137},{"user_id":15,"name":"Greskrendtregk","steam_id":76561197969553142,"connected_time":1137000000000,"state":"active","ping":61},{"user_id":16,"name":"SesataPomang","steam_id":76561198145133059,"connected_time":1131000000000,"state":"active","ping":92},{"user_id":17,"name":"Amogous Supreme","steam_id":76561198025476774,"connected_time":1129000000000,"state":"active","ping":70},{"user_id":35,"name":"Caspian","steam_id":76561199041466962,"connected_time":1058000000000,"state":"active","ping":76},{"user_id":21,"name":"dearender","steam_id":76561199427644498,"connected_time":1107000000000,"state":"active","ping":60},{"user_id":22,"name":"DrD","steam_id":76561198067266383,"connected_time":1103000000000,"state":"active","ping":39},{"user_id":23,"name":"johnman gooberguy","steam_id":76561199014859764,"connected_time":1099000000000,"state":"active","ping":71},{"user_id":47,"name":"Jonatello","steam_id":76561198045699189,"connected_time":895000000000,"state":"active","ping":77},{"user_id":25,"name":"Red on Red","steam_id":76561198802356746,"connected_time":1096000000000,"state":"active","ping":90},{"user_id":37,"name":"Super Mighty G","steam_id":76561198020932806,"connected_time":1043000000000,"state":"active","ping":81},{"user_id":53,"name":"Soap Man","steam_id":76561198000490235,"connected_time":759000000000,"state":"active","ping":66},{"user_id":30,"name":"Lactose ‡πëÔ≠•","steam_id":76561198208256987,"connected_time":1073000000000,"state":"active","ping":88},{"user_id":46,"name":"Soap","steam_id":76561197994893383,"connected_time":910000000000,"state":"active","ping":84}]},{"server_id":119,"name":"Uncletopia | Seattle | 2 | All Maps","name_short":"sea-2","host":"sea-1.us.uncletopia.com","port":27025,"enabled":true,"region":"us-west","cc":"us","latitude":47.608013,"longitude":-122.33517,"reserved":0,"last_update":"0001-01-01T00:00:00Z","name_a2s":"Uncletopia | Seattle | 2 | All Maps","protocol":17,"map":"pl_pier","folder":"tf","game":"Team Fortress","app_id":440,"player_count":0,"max_players":24,"Bots":0,"server_type":"Dedicated","server_os":"Linux","password":true,"vac":true,"version":"7708610","steam_id":85568392924469998,"keywords":["nocrits","nodmgspread","payload","uncletopia"],"game_id":440,"stv_port":27026,"stv_name":"Uncletopia | Seattle | 2 | All Maps | STV","players":null},{"server_id":17,"name":"Uncletopia | San Francisco | 1 | All Maps","name_short":"sfo-1","host":"sfo-1.us.uncletopia.com","port":27015,"enabled":true,"region":"us-west","cc":"us","latitude":37.77397,"longitude":-122.4313,"reserved":0,"last_update":"0001-01-01T00:00:00Z","name_a2s":"Uncletopia | San Francisco | 1 | All Maps","protocol":17,"map":"pl_barnblitz","folder":"tf","game":"Team Fortress","app_id":440,"player_count":0,"max_players":24,"Bots":0,"server_type":"Dedicated","server_os":"Linux","password":true,"vac":true,"version":"7708610","steam_id":85568392924469999,"keywords":["nocrits","nodmgspread","payload","uncletopia"],"game_id":440,"stv_port":27016,"stv_name":"Uncletopia | San Francisco | 1 | All Maps | STV","players":null},{"server_id":18,"name":"Uncletopia | San Francisco | 2 | All Maps","name_short":"sfo-2","host":"sfo-1.us.uncletopia.com","port":27025,"enabled":true,"region":"us-west","cc":"us","latitude":37.77397,"longitude":-122.4313,"reserved":0,"last_update":"0001-01-01T00:00:00Z","name_a2s":"Uncletopia | San Francisco | 2 | All Maps","protocol":17,"map":"pl_upward","folder":"tf","game":"Team Fortress","app_id":440,"player_count":0,"max_players":24,"Bots":0,"server_type":"Dedicated","server_os":"Linux","password":true,"vac":true,"version":"7708610","steam_id":85568392924470000,"keywords":["nocrits","nodmgspread","payload","uncletopia"],"game_id":440,"stv_port":27026,"stv_name":"Uncletopia | San Francisco | 2 | All Maps | STV","players":null},{"server_id":19,"name":"Uncletopia | San Francisco | 3 | No Payload","name_short":"sfo-3","host":"sfo-1.us.uncletopia.com","port":27035,"enabled":true,"region":"us-west","cc":"us","latitude":37.77397,"longitude":-122.4313,"reserved":0,"last_update":"0001-01-01T00:00:00Z","name_a2s":"Uncletopia | San Francisco | 3 | No Payload","protocol":17,"map":"pl_borneo","folder":"tf","game":"Team Fortress","app_id":440,"player_count":0,"max_players":24,"Bots":0,"server_type":"Dedicated","server_os":"Linux","password":true,"vac":true,"version":"7708610","steam_id":85568392924742824,"keywords":["nocrits","nodmgspread","payload","uncletopia"],"game_id":440,"stv_port":27036,"stv_name":"Uncletopia | San Francisco | 3 | No Payload | STV","players":null},{"server_id":20,"name":"Uncletopia | San Francisco | 4 | Community","name_short":"sfo-4","host":"sfo-1.us.uncletopia.com","port":27045,"enabled":true,"region":"us-west","cc":"us","latitude":37.77397,"longitude":-122.4313,"reserved":0,"last_update":"0001-01-01T00:00:00Z","name_a2s":"Uncletopia | San Francisco | 4 | Community","protocol":17,"map":"pl_frontier_final","folder":"tf","game":"Team Fortress","app_id":440,"player_count":0,"max_players":24,"Bots":0,"server_type":"Dedicated","server_os":"Linux","password":true,"vac":true,"version":"7708610","steam_id":85568392924742826,"keywords":["nocrits","nodmgspread","payload","uncletopia"],"game_id":440,"stv_port":27046,"stv_name":"Uncletopia | San Francisco | 4 | Community | STV","players":null},{"server_id":141,"name":"Uncletopia | Sydney | 1 | All Maps","name_short":"syd-1","host":"syd-1.au.uncletopia.com","port":27015,"enabled":true,"region":"au","cc":"au","latitude":-33.865143,"longitude":151.2099,"reserved":0,"last_update":"0001-01-01T00:00:00Z","name_a2s":"Uncletopia | Sydney | 1 | All Maps","protocol":17,"map":"koth_cascade","folder":"tf","game":"Team Fortress","app_id":440,"player_count":0,"max_players":24,"Bots":0,"server_type":"Dedicated","server_os":"Linux","password":true,"vac":true,"version":"7708610","steam_id":85568392924470001,"keywords":["cp","nocrits","nodmgspread","uncletopia"],"game_id":440,"stv_port":27016,"stv_name":"Uncletopia | Sydney | 1 | All Maps | STV","players":null},{"server_id":123,"name":"Uncletopia | Sydney | 2 | All Maps","name_short":"syd-2","host":"syd-1.au.uncletopia.com","port":27025,"enabled":true,"region":"au","cc":"au","latitude":-33.865143,"longitude":151.2099,"reserved":0,"last_update":"0001-01-01T00:00:00Z","name_a2s":"Uncletopia | Sydney | 2 | All Maps","protocol":17,"map":"pl_barnblitz","folder":"tf","game":"Team Fortress","app_id":440,"player_count":0,"max_players":24,"Bots":0,"server_type":"Dedicated","server_os":"Linux","password":true,"vac":true,"version":"7708610","steam_id":85568392924470002,"keywords":["nocrits","nodmgspread","payload","uncletopia"],"game_id":440,"stv_port":27026,"stv_name":"Uncletopia | Sydney | 2 | All Maps | STV","players":null},{"server_id":395,"name":"Uncletopia | Sydney | 3 | All Maps","name_short":"syd-3","host":"syd-1.au.uncletopia.com","port":27035,"enabled":true,"region":"au","cc":"au","latitude":-33.865143,"longitude":151.2099,"reserved":0,"last_update":"0001-01-01T00:00:00Z","name_a2s":"Uncletopia | Sydney | 3 | All Maps","protocol":17,"map":"koth_viaduct","folder":"tf","game":"Team Fortress","app_id":440,"player_count":0,"max_players":24,"Bots":0,"server_type":"Dedicated","server_os":"Linux","password":true,"vac":true,"version":"7708610","steam_id":85568392925194467,"keywords":["cp","nocrits","nodmgspread","uncletopia"],"game_id":440,"stv_port":27036,"stv_name":"Uncletopia | Sydney | 3 | All Maps | STV","players":null},{"server_id":396,"name":"Uncletopia | Sydney | 4 | All Maps","name_short":"syd-4","host":"syd-1.au.uncletopia.com","port":27045,"enabled":true,"region":"au","cc":"au","latitude":-33.865143,"longitude":151.2099,"reserved":0,"last_update":"0001-01-01T00:00:00Z","name_a2s":"Uncletopia | Sydney | 4 | All Maps","protocol":17,"map":"pl_frontier_final","folder":"tf","game":"Team Fortress","app_id":440,"player_count":0,"max_players":24,"Bots":0,"server_type":"Dedicated","server_os":"Linux","password":true,"vac":true,"version":"7708610","steam_id":85568392925397958,"keywords":["nocrits","nodmgspread","payload","uncletopia"],"game_id":440,"stv_port":27046,"stv_name":"Uncletopia | Sydney | 4 | All Maps | STV","players":null},{"server_id":58,"name":"Uncletopia | Sydney | 5 | No Payload","name_short":"syd-5","host":"syd-1.au.uncletopia.com","port":27055,"enabled":true,"region":"au","cc":"au","latitude":-33.865143,"longitude":151.2099,"reserved":0,"last_update":"0001-01-01T00:00:00Z","name_a2s":"Uncletopia | Sydney | 5 | No Payload","protocol":17,"map":"pl_pier","folder":"tf","game":"Team Fortress","app_id":440,"player_count":0,"max_players":24,"Bots":0,"server_type":"Dedicated","server_os":"Linux","password":true,"vac":true,"version":"7708610","steam_id":85568392925397959,"keywords":["nocrits","nodmgspread","payload","uncletopia"],"game_id":440,"stv_port":27056,"stv_name":"Uncletopia | Sydney | 5 | No Payload | STV","players":null},{"server_id":59,"name":"Uncletopia | Sydney | 6 | Community","name_short":"syd-6","host":"syd-1.au.uncletopia.com","port":27065,"enabled":true,"region":"au","cc":"au","latitude":-33.865143,"longitude":151.2099,"reserved":0,"last_update":"0001-01-01T00:00:00Z","name_a2s":"Uncletopia | Sydney | 6 | Community","protocol":17,"map":"pl_badwater","folder":"tf","game":"Team Fortress","app_id":440,"player_count":1,"max_players":24,"Bots":0,"server_type":"Dedicated","server_os":"Linux","password":true,"vac":true,"version":"7708610","steam_id":85568392925397960,"keywords":["nocrits","nodmgspread","payload","uncletopia"],"game_id":440,"stv_port":27066,"stv_name":"Uncletopia | Sydney | 6 | Community | STV","players":[{"user_id":4,"name":"Blueberry Rat","steam_id":76561198149219455,"connected_time":22000000000,"state":"active","ping":49}]},{"server_id":49,"name":"Uncletopia | Warsaw | 1 | All Maps","name_short":"waw-1","host":"waw-1.pl.uncletopia.com","port":27015,"enabled":true,"region":"eu","cc":"pl","latitude":52.2297,"longitude":21.017532,"reserved":0,"last_update":"0001-01-01T00:00:00Z","name_a2s":"Uncletopia | Warsaw | 1 | All Maps","protocol":17,"map":"pl_snowycoast","folder":"tf","game":"Team Fortress","app_id":440,"player_count":0,"max_players":24,"Bots":0,"server_type":"Dedicated","server_os":"Linux","password":true,"vac":true,"version":"7708610","steam_id":85568392925397850,"keywords":["nocrits","nodmgspread","payload","uncletopia"],"game_id":440,"stv_port":27016,"stv_name":"Uncletopia | Warsaw | 1 | All Maps | STV","players":null},{"server_id":50,"name":"Uncletopia | Warsaw | 2 | All Maps","name_short":"waw-2","host":"waw-1.pl.uncletopia.com","port":27025,"enabled":true,"region":"eu","cc":"pl","latitude":52.2297,"longitude":21.017532,"reserved":0,"last_update":"0001-01-01T00:00:00Z","name_a2s":"Uncletopia | Warsaw | 2 | All Maps","protocol":17,"map":"pl_barnblitz","folder":"tf","game":"Team Fortress","app_id":440,"player_count":0,"max_players":24,"Bots":0,"server_type":"Dedicated","server_os":"Linux","password":true,"vac":true,"version":"7708610","steam_id":85568392925397851,"keywords":["nocrits","nodmgspread","payload","uncletopia"],"game_id":440,"stv_port":27026,"stv_name":"Uncletopia | Warsaw | 2 | All Maps | STV","players":null},{"server_id":51,"name":"Uncletopia | Warsaw | 3 | All Maps","name_short":"waw-3","host":"waw-1.pl.uncletopia.com","port":27035,"enabled":true,"region":"eu","cc":"pl","latitude":52.2297,"longitude":21.017532,"reserved":0,"last_update":"0001-01-01T00:00:00Z","name_a2s":"Uncletopia | Warsaw | 3 | All Maps","protocol":17,"map":"pl_badwater","folder":"tf","game":"Team Fortress","app_id":440,"player_count":0,"max_players":24,"Bots":0,"server_type":"Dedicated","server_os":"Linux","password":true,"vac":true,"version":"7708610","steam_id":85568392925397852,"keywords":["nocrits","nodmgspread","payload","uncletopia"],"game_id":440,"stv_port":27036,"stv_name":"Uncletopia | Warsaw | 3 | All Maps | STV","players":null},{"server_id":52,"name":"Uncletopia | Warsaw | 4 | All Maps","name_short":"waw-4","host":"waw-1.pl.uncletopia.com","port":27045,"enabled":true,"region":"eu","cc":"pl","latitude":52.2297,"longitude":21.017532,"reserved":0,"last_update":"0001-01-01T00:00:00Z","name_a2s":"Uncletopia | Warsaw | 4 | All Maps","protocol":17,"map":"pl_pier","folder":"tf","game":"Team Fortress","app_id":440,"player_count":0,"max_players":24,"Bots":0,"server_type":"Dedicated","server_os":"Linux","password":true,"vac":true,"version":"7708610","steam_id":85568392925397853,"keywords":["nocrits","nodmgspread","payload","uncletopia"],"game_id":440,"stv_port":27046,"stv_name":"Uncletopia | Warsaw | 4 | All Maps | STV","players":null},{"server_id":53,"name":"Uncletopia | Warsaw | 5 | No Payload","name_short":"waw-5","host":"waw-1.pl.uncletopia.com","port":27055,"enabled":true,"region":"eu","cc":"pl","latitude":52.2297,"longitude":21.017532,"reserved":0,"last_update":"0001-01-01T00:00:00Z","name_a2s":"Uncletopia | Warsaw | 5 | No Payload","protocol":17,"map":"pl_borneo","folder":"tf","game":"Team Fortress","app_id":440,"player_count":0,"max_players":24,"Bots":0,"server_type":"Dedicated","server_os":"Linux","password":true,"vac":true,"version":"7708610","steam_id":85568392925397854,"keywords":["nocrits","nodmgspread","payload","uncletopia"],"game_id":440,"stv_port":27056,"stv_name":"Uncletopia | Warsaw | 5 | No Payload | STV","players":null},{"server_id":54,"name":"Uncletopia | Warsaw | 6 | Community","name_short":"waw-6","host":"waw-1.pl.uncletopia.com","port":27065,"enabled":true,"region":"eu","cc":"pl","latitude":52.2297,"longitude":21.017532,"reserved":0,"last_update":"0001-01-01T00:00:00Z","name_a2s":"Uncletopia | Warsaw | 6 | Community","protocol":17,"map":"pl_swiftwater_final1","folder":"tf","game":"Team Fortress","app_id":440,"player_count":0,"max_players":24,"Bots":0,"server_type":"Dedicated","server_os":"Linux","password":true,"vac":true,"version":"7708610","steam_id":85568392925397856,"keywords":["nocrits","nodmgspread","payload","uncletopia"],"game_id":440,"stv_port":27066,"stv_name":"Uncletopia | Warsaw | 6 | Community | STV","players":null}]}