{"status":true,"message":"","result":[{"server_id":9,"name":"Uncletopia | Atlanta | 1 | All Maps","name_short":"atl-1","host":"atl-1.us.uncletopia.com","port":27015,"enabled":true,"region":"us-east","cc":"us","latitude":33.753746,"longitude":-84.38633,"reserved":0,"last_update":"0001-01-01T00:00:00Z","name_a2s":"Uncletopia | Atlanta | 1 | All Maps","protocol":17,"map":"koth_highpass","folder":"tf","game":"Team Fortress","app_id":440,"player_count":24,"max_players":24,"Bots":0,"server_type":"Dedicated","server_os":"Linux","password":true,"vac":true,"version":"7757534","steam_id":85568392924469982,"keywords":["cp","nocrits","nodmgspread","uncletopia"],"game_id":440,"stv_port":27016,"stv_name":"Uncletopia | Atlanta | 1 | All Maps | STV","players":[{"user_id":147,"name":"mcdoubble","steam_id":76561198089126832,"connected_time":1586000000000,"state":"active","ping":86},{"user_id":124,"name":"oiljacket","steam_id":76561199162111049,"connected_time":3698000000000,"state":"active","ping":69},{"user_id":22,"name":"Towns","steam_id":76561198984662863,"connected_time":10684000000000,"state":"active","ping":59},{"user_id":171,"name":"gaboomonsteralexander","steam_id":76561199004659792,"connected_time":140000000000,"state":"active","ping":81},{"user_id":102,"name":"ATL1 | on my hunting trip","steam_id":76561198315341646,"connected_time":5054000000000,"state":"active","ping":72},{"user_id":164,"name":"Oddball","steam_id":76561198040440984,"connected_time":245000000000,"state":"active","ping":85},{"user_id":121,"name":"Ashes!","steam_id":76561197998475441,"connected_time":3994000000000,"state":"active","ping":69},{"user_id":100,"name":"[txc] garf","steam_id":76561198083078030,"connected_time":5745000000000,"state":"active","ping":49},{"user_id":126,"name":"Shy","steam_id":76561198394890836,"connected_time":3348000000000,"state":"active","ping":53},{"user_id":160,"name":"Jammburger","steam_id":76561198091716240,"connected_time":1358000000000,"state":"active","ping":78},{"user_id":165,"name":"Betting Snow","steam_id":76561198170577499,"connected_time":241000000000,"state":"active","ping":46},{"user_id":162,"name":"‚ô°Alyx‚ô°","steam_id":76561198024303978,"connected_time":354000000000,"state":"active","ping":60},{"user_id":168,"name":"Takumi Fujiwara","steam_id":76561198146281101,"connected_time":192000000000,"state":"active","ping":71},{"user_id":145,"name":"BLU1| Inky (Coolest)","steam_id":76561198968337022,"connected_time":1597000000000,"state":"active","ping":56},{"user_id":146,"name":"G_Bob","steam_id":76561198098133233,"connected_time":1591000000000,"state":"active","ping":59},{"user_id":172,"name":"Don't Fuckle with Shuckle","steam_id":76561199020102367,"connected_time":31000000000,"state":"active","ping":93},{"user_id":107,"name":"Broken Cereal‚àö","steam_id":76561198087489795,"connected_time":4680000000000,"state":"active","ping":62},{"user_id":117,"name":"Dr.Zarann","steam_id":76561198163952958,"connected_time":4225000000000,"state":"active","ping":62},{"user_id":78,"name":"Onyx","steam_id":76561198275349640,"connected_time":7495000000000,"state":"active","ping":75},{"user_id":161,"name":"Karma","steam_id":76561198030565234,"connected_time":1220000000000,"state":"active","ping":82},{"user_id":169,"name":"spiderland","steam_id":76561198335992132,"connected_time":188000000000,"state":"active","ping":125},{"user_id":170,"name":"hunchback of gay paris","steam_id":76561198116741891,"connected_time":185000000000,"state":"active","ping":62},{"user_id":125,"name":"MyamE","steam_id":76561198133278462,"connected_time":3362000000000,"state":"active","ping":72},{"user_id":132,"name":"Mikhaila","steam_id":76561198065005979,"connected_time":2947000000000,"state":"active","ping":109}]},{"server_id":400,"name":"Uncletopia | Atlanta | 3 | Community","name_short":"atl-3","host":"atl-1.us.uncletopia.com","port":27035,"enabled":true,"region":"us-east","cc":"us","latitude":33.753746,"longitude":-84.38633,"reserved":0,"last_update":"0001-01-01T00:00:00Z","name_a2s":"Uncletopia | Atlanta | 3 | Community","protocol":17,"map":"workshop/cp_kalinka_rc6a.ugc1272700588","folder":"tf","game":"Team Fortress","app_id":440,"player_count":0,"max_players":24,"Bots":0,"server_type":"Dedicated","server_os":"Linux","password":true,"vac":true,"version":"7757534","steam_id":85568392924515187,"keywords":["cp","nocrits","nodmgspread","uncletopia"],"game_id":440,"stv_port":27036,"stv_name":"Uncletopia | Atlanta | 3 | Community | STV","players":null},{"server_id":401,"name":"Uncletopia | Atlanta | 4 | No Payload","name_short":"atl-4","host":"atl-1.us.uncletopia.com","port":27045,"enabled":true,"region":"us-east","cc":"us","latitude":33.753746,"longitude":-84.38633,"reserved":0,"last_update":"0001-01-01T00:00:00Z","name_a2s":"","protocol":0,"map":"","folder":"","game":"","app_id":0,"player_count":0,"max_players":0,"Bots":0,"server_type":"","server_os":"","password":false,"vac":false,"version":"","steam_id":0,"keywords":null,"game_id":0,"stv_port":0,"stv_name":"","players":null},{"server_id":2,"name":"Uncletopia | Chicago | 1 | All Maps","name_short":"chi-1","host":"chi-1.us.uncletopia.com","port":27015,"enabled":true,"region":"us-central","cc":"us","latitude":41.881832,"longitude":-87.62318,"reserved":0,"last_update":"0001-01-01T00:00:00Z","name_a2s":"Uncletopia | Chicago | 1 | All Maps","protocol":17,"map":"cp_process_final","folder":"tf","game":"Team Fortress","app_id":440,"player_count":24,"max_players":24,"Bots":0,"server_type":"Dedicated","server_os":"Linux","password":true,"vac":true,"version":"7757534","steam_id":85568392924469984,"keywords":["cp","nocrits","nodmgspread","uncletopia"],"game_id":440,"stv_port":27016,"stv_name":"Uncletopia | Chicago | 1 | All Maps | STV","players":[{"user_id":283,"name":"Dark Saturday","steam_id":76561198152056777,"connected_time":287000000000,"state":"active","ping":76},{"user_id":274,"name":"PKBEAST_7","steam_id":76561198177136537,"connected_time":686000000000,"state":"active","ping":87},{"user_id":281,"name":"shadow wizard","steam_id":76561198165212575,"connected_time":361000000000,"state":"active","ping":73},{"user_id":253,"name":"John Dungus (the real one)","steam_id":76561198049191027,"connected_time":2564000000000,"state":"active","ping":60},{"user_id":285,"name":";-;","steam_id":76561198044443985,"connected_time":223000000000,"state":"active","ping":89},{"user_id":240,"name":"Bond","steam_id":76561198089262776,"connected_time":3474000000000,"state":"active","ping":80},{"user_id":286,"name":"PTSleepyHead","steam_id":76561198037748705,"connected_time":193000000000,"state":"active","ping":99},{"user_id":276,"name":"jolo","steam_id":76561198042831480,"connected_time":655000000000,"state":"active","ping":70},{"user_id":270,"name":"Universal Knowledge Allah","steam_id":76561198855935442,"connected_time":1528000000000,"state":"active","ping":75},{"user_id":188,"name":"General Jimbo","steam_id":76561198075426735,"connected_time":7733000000000,"state":"active","ping":80},{"user_id":246,"name":"Nati0n","steam_id":76561198151827926,"connected_time":3421000000000,"state":"active","ping":67},{"user_id":256,"name":"Yarn","steam_id":76561199227148369,"connected_time":2377000000000,"state":"active","ping":94},{"user_id":262,"name":"BetoelAff es","steam_id":76561198377842585,"connected_time":2161000000000,"state":"active","ping":120},{"user_id":277,"name":"A Zoo Keeper","steam_id":76561198013732450,"connected_time":649000000000,"state":"active","ping":59},{"user_id":287,"name":"Valious","steam_id":76561198119675193,"connected_time":52000000000,"state":"active","ping":53},{"user_id":233,"name":"GPLv2","steam_id":76561198113096772,"connected_time":4456000000000,"state":"active","ping":120},{"user_id":223,"name":"Crab Rangoon","steam_id":76561198059310510,"connected_time":5204000000000,"state":"active","ping":75},{"user_id":197,"name":"Owl Pacino","steam_id":76561197979970666,"connected_time":6709000000000,"state":"active","ping":58},{"user_id":247,"name":"Skullypoo","steam_id":76561198067912022,"connected_time":3415000000000,"state":"active","ping":72},{"user_id":259,"name":"McdonaldsCoke","steam_id":76561199090988312,"connected_time":2271000000000,"state":"active","ping":92},{"user_id":261,"name":"Macko","steam_id":76561198452005461,"connected_time":2224000000000,"state":"active","ping":80},{"user_id":288,"name":"Big Phony","steam_id":76561199092395311,"connected_time":51000000000,"state":"active","ping":49},{"user_id":234,"name":"Wiggles","steam_id":76561197964143762,"connected_time":4409000000000,"state":"active","ping":75},{"user_id":271,"name":"Kaleb","steam_id":76561198331013248,"connected_time":1134000000000,"state":"active","ping":61}]},{"server_id":106,"name":"Uncletopia | Chicago | 2 | All Maps","name_short":"chi-2","host":"chi-1.us.uncletopia.com","port":27025,"enabled":true,"region":"us-central","cc":"us","latitude":41.881832,"longitude":-87.62318,"reserved":0,"last_update":"0001-01-01T00:00:00Z","name_a2s":"Uncletopia | Chicago | 2 | All Maps","protocol":17,"map":"pl_borneo","folder":"tf","game":"Team Fortress","app_id":440,"player_count":24,"max_players":24,"Bots":0,"server_type":"Dedicated","server_os":"Linux","password":true,"vac":true,"version":"7757534","steam_id":85568392924469985,"keywords":["nocrits","nodmgspread","payload","uncletopia"],"game_id":440,"stv_port":27026,"stv_name":"Uncletopia | Chicago | 2 | All Maps | STV","players":[{"user_id":233,"name":".jpg","steam_id":76561198137237377,"connected_time":5922000000000,"state":"active","ping":64},{"user_id":320,"name":"years","steam_id":76561197994098627,"connected_time":4172000000000,"state":"active","ping":119},{"user_id":413,"name":"GreekGoat_Coffee","steam_id":76561198129331088,"connected_time":306000000000,"state":"active","ping":48},{"user_id":414,"name":"Ametrines","steam_id":76561198981184670,"connected_time":270000000000,"state":"active","ping":62},{"user_id":412,"name":"Shaquille Oatmeal","steam_id":76561198283213819,"connected_time":317000000000,"state":"active","ping":72},{"user_id":425,"name":"Cusven","steam_id":76561198319658526,"connected_time":29000000000,"state":"active","ping":94},{"user_id":303,"name":"EvilCoopz","steam_id":76561198080014161,"connected_time":4497000000000,"state":"active","ping":72},{"user_id":384,"name":"Fiendish Frog","steam_id":76561198029478821,"connected_time":2316000000000,"state":"active","ping":75},{"user_id":358,"name":"Chimpanzee","steam_id":76561198850387282,"connected_time":3241000000000,"state":"active","ping":83},{"user_id":419,"name":"A Fruit","steam_id":76561198951830050,"connected_time":188000000000,"state":"active","ping":72},{"user_id":403,"name":"soundwave | sfm comms open!","steam_id":76561198454725718,"connected_time":1238000000000,"state":"active","ping":45},{"user_id":395,"name":"BamboozleMcdoozle","steam_id":76561198166510167,"connected_time":1706000000000,"state":"active","ping":91},{"user_id":421,"name":"your colonoscopy results","steam_id":76561198017705248,"connected_time":165000000000,"state":"active","ping":46},{"user_id":396,"name":"madg00mba","steam_id":76561198334418685,"connected_time":1688000000000,"state":"active","ping":45},{"user_id":420,"name":"LG_Fridge_User","steam_id":76561198977815014,"connected_time":178000000000,"state":"active","ping":76},{"user_id":418,"name":"PrinceGrotle","steam_id":76561198206131603,"connected_time":219000000000,"state":"active","ping":77},{"user_id":406,"name":"Volks","steam_id":76561198018552479,"connected_time":1200000000000,"state":"active","ping":82},{"user_id":411,"name":"A Shiny Meat Bicycle","steam_id":76561198358757709,"connected_time":539000000000,"state":"active","ping":95},{"user_id":422,"name":"Jaydyn","steam_id":76561198140326797,"connected_time":161000000000,"state":"active","ping":81},{"user_id":398,"name":"PageBoiSkull","steam_id":76561198237353578,"connected_time":1617000000000,"state":"active","ping":112},{"user_id":423,"name":"B. Scrub","steam_id":76561198053931212,"connected_time":147000000000,"state":"active","ping":74},{"user_id":408,"name":"Thequirka","steam_id":76561198968058652,"connected_time":1089000000000,"state":"active","ping":100},{"user_id":326,"name":"MidMilk","steam_id":76561198285631030,"connected_time":4121000000000,"state":"active","ping":57},{"user_id":424,"name":"Jelly","steam_id":76561199223817927,"connected_time":134000000000,"state":"active","ping":97}]},{"server_id":402,"name":"Uncletopia | Chicago | 3 | All Maps","name_short":"chi-3","host":"chi-1.us.uncletopia.com","port":27035,"enabled":true,"region":"us-central","cc":"us","latitude":41.881832,"longitude":-87.62318,"reserved":0,"last_update":"0001-01-01T00:00:00Z","name_a2s":"Uncletopia | Chicago | 3 | All Maps","protocol":17,"map":"pl_borneo","folder":"tf","game":"Team Fortress","app_id":440,"player_count":24,"max_players":24,"Bots":0,"server_type":"Dedicated","server_os":"Linux","password":true,"vac":true,"version":"7757534","steam_id":85568392924515191,"keywords":["nocrits","nodmgspread","payload","uncletopia"],"game_id":440,"stv_port":27036,"stv_name":"Uncletopia | Chicago | 3 | All Maps | STV","players":[{"user_id":276,"name":"King Kinyon","steam_id":76561198080525234,"connected_time":1070000000000,"state":"active","ping":82},{"user_id":289,"name":"‚ù§Blunt.Boy420‚ù§","steam_id":76561198112590142,"connected_time":231000000000,"state":"active","ping":93},{"user_id":286,"name":"‚úøBlunt.Babe420‚úø","steam_id":76561199014055970,"connected_time":475000000000,"state":"active","ping":61},{"user_id":246,"name":"Clean Lines","steam_id":76561197960691518,"connected_time":3456000000000,"state":"active","ping":51},{"user_id":269,"name":"Ejaculation Zach","steam_id":76561198203765200,"connected_time":1161000000000,"state":"active","ping":62},{"user_id":287,"name":"Joe Grumbo","steam_id":76561198048485190,"connected_time":314000000000,"state":"active","ping":71},{"user_id":284,"name":"Poppy","steam_id":76561198311745553,"connected_time":633000000000,"state":"active","ping":93},{"user_id":272,"name":"diesel_carsuite","steam_id":76561198229903328,"connected_time":1126000000000,"state":"active","ping":73},{"user_id":288,"name":"UNITED WE STAND","steam_id":76561198282764599,"connected_time":313000000000,"state":"active","ping":47},{"user_id":232,"name":"Young-OG","steam_id":76561198058800479,"connected_time":4420000000000,"state":"active","ping":82},{"user_id":252,"name":"centuronstar","steam_id":76561198277177841,"connected_time":2870000000000,"state":"active","ping":75},{"user_id":273,"name":"Your Local NPR Station","steam_id":76561198143830279,"connected_time":1125000000000,"state":"active","ping":61},{"user_id":210,"name":"nnobi","steam_id":76561198878729277,"connected_time":6246000000000,"state":"active","ping":62},{"user_id":264,"name":"Nolan","steam_id":76561198169648081,"connected_time":1431000000000,"state":"active","ping":81},{"user_id":218,"name":"McSpazatron","steam_id":76561198955942148,"connected_time":5618000000000,"state":"active","ping":93},{"user_id":251,"name":"6t26j","steam_id":76561198278282836,"connected_time":2983000000000,"state":"active","ping":62},{"user_id":283,"name":"Cooldude_15","steam_id":76561198346713382,"connected_time":715000000000,"state":"active","ping":44},{"user_id":259,"name":"BrightestHammer","steam_id":76561198142343467,"connected_time":1953000000000,"state":"active","ping":66},{"user_id":278,"name":"Cerebral","steam_id":76561198408258313,"connected_time":1014000000000,"state":"active","ping":87},{"user_id":260,"name":"thecal","steam_id":76561198307893384,"connected_time":1940000000000,"state":"active","ping":53},{"user_id":208,"name":"Fresh0c0","steam_id":76561198271933283,"connected_time":6444000000000,"state":"active","ping":60},{"user_id":279,"name":"Nodin","steam_id":76561198135757376,"connected_time":959000000000,"state":"active","ping":87},{"user_id":266,"name":"gabagool","steam_id":76561198012131766,"connected_time":1357000000000,"state":"active","ping":57},{"user_id":245,"name":"Am I Good At The Video Game?","steam_id":76561198046053281,"connected_time":3582000000000,"state":"active","ping":73}]},{"server_id":403,"name":"Uncletopia | Chicago | 4 | All Maps","name_short":"chi-4","host":"chi-1.us.uncletopia.com","port":27045,"enabled":true,"region":"us-central","cc":"us","latitude":41.881832,"longitude":-87.62318,"reserved":0,"last_update":"0001-01-01T00:00:00Z","name_a2s":"Uncletopia | Chicago | 4 | All Maps","protocol":17,"map":"cp_process_final","folder":"tf","game":"Team Fortress","app_id":440,"player_count":24,"max_players":24,"Bots":0,"server_type":"Dedicated","server_os":"Linux","password":true,"vac":true,"version":"7757534","steam_id":85568392924515193,"keywords":["cp","nocrits","nodmgspread","uncletopia"],"game_id":440,"stv_port":27046,"stv_name":"Uncletopia | Chicago | 4 | All Maps | STV","players":[{"user_id":265,"name":"neet","steam_id":76561197968115168,"connected_time":4974000000000,"state":"active","ping":59},{"user_id":321,"name":"Lawnmower","steam_id":76561198186680197,"connected_time":46000000000,"state":"active","ping":79},{"user_id":318,"name":"IPlayGamez","steam_id":76561198041387508,"connected_time":536000000000,"state":"active","ping":70},{"user_id":291,"name":"huh6750","steam_id":76561199094058555,"connected_time":2818000000000,"state":"active","ping":59},{"user_id":301,"name":"The local hobo","steam_id":76561198289650060,"connected_time":1496000000000,"state":"active","ping":79},{"user_id":272,"name":"CeigeBirb","steam_id":76561198068538473,"connected_time":4576000000000,"state":"active","ping":76},{"user_id":284,"name":"DeadErebus","steam_id":76561198286117045,"connected_time":3397000000000,"state":"active","ping":40},{"user_id":249,"name":"Bobato Chaps","steam_id":76561198065103552,"connected_time":6095000000000,"state":"active","ping":51},{"user_id":312,"name":"KingSteve42","steam_id":76561198409455888,"connected_time":869000000000,"state":"active","ping":114},{"user_id":306,"name":"Shinies","steam_id":76561198169459631,"connected_time":1270000000000,"state":"active","ping":67},{"user_id":316,"name":"globefrotter","steam_id":76561198185980055,"connected_time":782000000000,"state":"active","ping":65},{"user_id":275,"name":"üé£ I'd Rather Be Gooning","steam_id":76561198062410522,"connected_time":4008000000000,"state":"active","ping":60},{"user_id":222,"name":"RedSock","steam_id":76561198161243404,"connected_time":8515000000000,"state":"active","ping":45},{"user_id":315,"name":"rE_d0","steam_id":76561198975450630,"connected_time":818000000000,"state":"active","ping":91},{"user_id":313,"name":"Ace","steam_id":76561198309637160,"connected_time":847000000000,"state":"active","ping":45},{"user_id":319,"name":"gyozaking","steam_id":76561197972312696,"connected_time":491000000000,"state":"active","ping":39},{"user_id":311,"name":"Zornplays","steam_id":76561199175292302,"connected_time":1000000000000,"state":"active","ping":142},{"user_id":304,"name":"mrsquiggles143","steam_id":76561198359646419,"connected_time":1398000000000,"state":"active","ping":63},{"user_id":317,"name":"Lunacy","steam_id":76561199386273760,"connected_time":682000000000,"state":"active","ping":109},{"user_id":273,"name":"Fluffeline","steam_id":76561198352909489,"connected_time":4354000000000,"state":"active","ping":137},{"user_id":308,"name":"Metbol","steam_id":76561198001362410,"connected_time":1220000000000,"state":"active","ping":80},{"user_id":299,"name":"Hoob.egfug","steam_id":76561197980557818,"connected_time":1612000000000,"state":"active","ping":83},{"user_id":300,"name":"Nolan","steam_id":76561198047844747,"connected_time":1588000000000,"state":"active","ping":72},{"user_id":320,"name":"Varveer","steam_id":76561198218897383,"connected_time":448000000000,"state":"active","ping":74}]},{"server_id":36,"name":"Uncletopia | Chicago | 5 | All Maps","name_short":"chi-5","host":"chi-2.us.uncletopia.com","port":27015,"enabled":true,"region":"us-central","cc":"us","latitude":41.881832,"longitude":-87.62318,"reserved":0,"last_update":"0001-01-01T00:00:00Z","name_a2s":"Uncletopia | Chicago | 5 | All Maps","protocol":17,"map":"cp_gorge","folder":"tf","game":"Team Fortress","app_id":440,"player_count":24,"max_players":24,"Bots":0,"server_type":"Dedicated","server_os":"Linux","password":true,"vac":true,"version":"7757534","steam_id":85568392924866362,"keywords":["cp","nocrits","nodmgspread","uncletopia"],"game_id":440,"stv_port":27016,"stv_name":"Uncletopia | Chicago | 5 | All Maps | STV","players":[{"user_id":8,"name":"The World's Softest Sandwich","steam_id":76561198015577707,"connected_time":9738000000000,"state":"active","ping":75},{"user_id":9,"name":"Fresh Lychee","steam_id":76561198045399559,"connected_time":9599000000000,"state":"active","ping":59},{"user_id":90,"name":"Smoeker","steam_id":76561198166723053,"connected_time":1525000000000,"state":"active","ping":53},{"user_id":104,"name":"Discourse","steam_id":76561198984286678,"connected_time":528000000000,"state":"active","ping":57},{"user_id":78,"name":"BambuBabyPackRunner","steam_id":76561198320866421,"connected_time":2649000000000,"state":"active","ping":70},{"user_id":113,"name":"Crazy__Biscuit","steam_id":76561198399851872,"connected_time":232000000000,"state":"active","ping":75},{"user_id":114,"name":"jorjor wells","steam_id":76561199073429082,"connected_time":108000000000,"state":"active","ping":61},{"user_id":30,"name":"The Goose","steam_id":76561199006093549,"connected_time":5749000000000,"state":"active","ping":69},{"user_id":115,"name":"Crazy Cane","steam_id":76561198993941174,"connected_time":67000000000,"state":"active","ping":72},{"user_id":87,"name":"puppyonline_","steam_id":76561198253574099,"connected_time":2028000000000,"state":"active","ping":53},{"user_id":28,"name":"virtuous autistic","steam_id":76561198292444376,"connected_time":5993000000000,"state":"active","ping":88},{"user_id":83,"name":"sweppy","steam_id":76561198035457667,"connected_time":2464000000000,"state":"active","ping":62},{"user_id":106,"name":"Donk","steam_id":76561198803472441,"connected_time":400000000000,"state":"active","ping":63},{"user_id":109,"name":"CoffeeTheCake","steam_id":76561198065318169,"connected_time":334000000000,"state":"active","ping":60},{"user_id":94,"name":"Krusty Nut","steam_id":76561198120637924,"connected_time":1366000000000,"state":"active","ping":61},{"user_id":116,"name":"Elizabeth truss","steam_id":76561198058250979,"connected_time":39000000000,"state":"active","ping":70},{"user_id":111,"name":"Paolo","steam_id":76561198048134549,"connected_time":325000000000,"state":"active","ping":68},{"user_id":48,"name":"Jester","steam_id":76561198153102922,"connected_time":4605000000000,"state":"active","ping":75},{"user_id":112,"name":"evan_is_sauce","steam_id":76561199086802383,"connected_time":287000000000,"state":"active","ping":104},{"user_id":52,"name":"Cheeeeeeeen","steam_id":76561198986388085,"connected_time":4551000000000,"state":"active","ping":109},{"user_id":54,"name":"Mister36","steam_id":76561198019132100,"connected_time":4540000000000,"state":"active","ping":48},{"user_id":82,"name":"Geloman","steam_id":76561198005501322,"connected_time":2595000000000,"state":"active","ping":80},{"user_id":95,"name":"evil autistic","steam_id":76561198367954353,"connected_time":1355000000000,"state":"active","ping":45},{"user_id":103,"name":"gamer girl looking for a bf","steam_id":76561198279901162,"connected_time":947000000000,"state":"active","ping":66}]},{"server_id":37,"name":"Uncletopia | Chicago | 6 | All Maps","name_short":"chi-6","host":"chi-2.us.uncletopia.com","port":27025,"enabled":true,"region":"us-central","cc":"us","latitude":41.881832,"longitude":-87.62318,"reserved":0,"last_update":"0001-01-01T00:00:00Z","name_a2s":"Uncletopia | Chicago | 6 | All Maps","protocol":17,"map":"pl_borneo","folder":"tf","game":"Team Fortress","app_id":440,"player_count":24,"max_players":24,"Bots":0,"server_type":"Dedicated","server_os":"Linux","password":true,"vac":true,"version":"7757534","steam_id":85568392924866363,"keywords":["nocrits","nodmgspread","payload","uncletopia"],"game_id":440,"stv_port":27026,"stv_name":"Uncletopia | Chicago | 6 | All Maps | STV","players":[{"user_id":211,"name":"twitch.tv/cccilytf2","steam_id":76561198322125595,"connected_time":1359000000000,"state":"active","ping":102},{"user_id":195,"name":"MelonLikeAFelon","steam_id":76561198060170336,"connected_time":1875000000000,"state":"active","ping":72},{"user_id":208,"name":"floppy muppet","steam_id":76561198003076261,"connected_time":1540000000000,"state":"active","ping":80},{"user_id":179,"name":"NeoN","steam_id":76561198117608366,"connected_time":3450000000000,"state":"active","ping":45},{"user_id":216,"name":"financial recession","steam_id":76561198313695660,"connected_time":1012000000000,"state":"active","ping":64},{"user_id":159,"name":"Seven","steam_id":76561198259947055,"connected_time":5088000000000,"state":"active","ping":63},{"user_id":225,"name":"Antonin Scalia","steam_id":76561198080687598,"connected_time":233000000000,"state":"active","ping":58},{"user_id":196,"name":"Youtube/FrostSnail","steam_id":76561197989859175,"connected_time":1852000000000,"state":"active","ping":146},{"user_id":198,"name":"webbstuff","steam_id":76561198230705448,"connected_time":1790000000000,"state":"active","ping":59},{"user_id":197,"name":"merektd","steam_id":76561198123109185,"connected_time":1837000000000,"state":"active","ping":60},{"user_id":199,"name":"Windex","steam_id":76561198105561395,"connected_time":1780000000000,"state":"active","ping":89},{"user_id":200,"name":"shibaba bababool","steam_id":76561197972601902,"connected_time":1777000000000,"state":"active","ping":82},{"user_id":209,"name":"Riot Wyatt","steam_id":76561199012624181,"connected_time":1488000000000,"state":"active","ping":68},{"user_id":164,"name":"Dot.","steam_id":76561198149463984,"connected_time":4121000000000,"state":"active","ping":43},{"user_id":221,"name":"Good Vibrations","steam_id":76561198018734187,"connected_time":740000000000,"state":"active","ping":59},{"user_id":64,"name":"Average Engineer Main","steam_id":76561197999657118,"connected_time":10670000000000,"state":"active","ping":91},{"user_id":215,"name":"brobtlcehc","steam_id":76561198043558709,"connected_time":1167000000000,"state":"active","ping":90},{"user_id":202,"name":"Gingersnaps","steam_id":76561198118844443,"connected_time":1771000000000,"state":"active","ping":112},{"user_id":213,"name":"BattlePants","steam_id":76561198345056717,"connected_time":1305000000000,"state":"active","ping":94},{"user_id":147,"name":"[TF2Apples] Intense Green Apple","steam_id":76561198803561622,"connected_time":5379000000000,"state":"active","ping":89},{"user_id":187,"name":"CaptainHouse!","steam_id":76561198039690228,"connected_time":3005000000000,"state":"active","ping":79},{"user_id":223,"name":"Milk.","steam_id":76561198219223604,"connected_time":646000000000,"state":"active","ping":63},{"user_id":110,"name":"Training Arc","steam_id":76561198038832034,"connected_time":7532000000000,"state":"active","ping":108},{"user_id":157,"name":"Affy","steam_id":76561198056511949,"connected_time":5190000000000,"state":"active","ping":60}]},{"server_id":38,"name":"Uncletopia | Chicago | 7 | Stopwatch Beta","name_short":"chi-7","host":"chi-2.us.uncletopia.com","port":27035,"enabled":true,"region":"us-central","cc":"us","latitude":41.881832,"longitude":-87.62318,"reserved":0,"last_update":"0001-01-01T00:00:00Z","name_a2s":"Uncletopia | Chicago | 7 | Stopwatch Beta","protocol":17,"map":"koth_viaduct","folder":"tf","game":"Team Fortress","app_id":440,"player_count":0,"max_players":24,"Bots":0,"server_type":"Dedicated","server_os":"Linux","password":true,"vac":true,"version":"7757534","steam_id":85568392924866364,"keywords":["cp","nocrits","nodmgspread","uncletopia"],"game_id":440,"stv_port":27036,"stv_name":"Uncletopia | Chicago | 7 | Stopwatch Beta | STV","players":null},{"server_id":39,"name":"Uncletopia | Chicago | 8 | Community","name_short":"chi-8","host":"chi-2.us.uncletopia.com","port":27045,"enabled":true,"region":"us-central","cc":"us","latitude":41.881832,"longitude":-87.62318,"reserved":0,"last_update":"0001-01-01T00:00:00Z","name_a2s":"Uncletopia | Chicago | 8 | Community","protocol":17,"map":"koth_lakeside_final","folder":"tf","game":"Team Fortress","app_id":440,"player_count":0,"max_players":24,"Bots":0,"server_type":"Dedicated","server_os":"Linux","password":true,"vac":true,"version":"7757534","steam_id":85568392924866365,"keywords":["cp","nocrits","nodmgspread","uncletopia"],"game_id":440,"stv_port":27046,"stv_name":"Uncletopia | Chicago | 8 | Community | STV","players":null},{"server_id":8,"name":"Uncletopia | Dallas | 1 | All Maps","name_short":"dal-1","host":"dal-1.us.uncletopia.com","port":27015,"enabled":true,"region":"us-central","cc":"us","latitude":32.779167,"longitude":-96.80889,"reserved":0,"last_update":"0001-01-01T00:00:00Z","name_a2s":"Uncletopia | Dallas | 1 | All Maps","protocol":17,"map":"cp_yukon_final","folder":"tf","game":"Team Fortress","app_id":440,"player_count":24,"max_players":24,"Bots":0,"server_type":"Dedicated","server_os":"Linux","password":true,"vac":true,"version":"7757534","steam_id":85568392924469986,"keywords":["cp","nocrits","nodmgspread","uncletopia"],"game_id":440,"stv_port":27016,"stv_name":"Uncletopia | Dallas | 1 | All Maps | STV","players":[{"user_id":213,"name":"Baseball Billy","steam_id":76561199060742929,"connected_time":474000000000,"state":"active","ping":59},{"user_id":144,"name":"[√òWQJ√ò]chubacaalatake","steam_id":76561198136201697,"connected_time":4362000000000,"state":"active","ping":119},{"user_id":216,"name":"teatimesukka","steam_id":76561198978749594,"connected_time":135000000000,"state":"active","ping":45},{"user_id":212,"name":"Sagertooth","steam_id":76561198060863894,"connected_time":508000000000,"state":"active","ping":59},{"user_id":176,"name":"Dictator Noodle","steam_id":76561198277243768,"connected_time":2238000000000,"state":"active","ping":84},{"user_id":194,"name":"yuki","steam_id":76561198388123421,"connected_time":1368000000000,"state":"active","ping":75},{"user_id":215,"name":"GOD EMPEROR","steam_id":76561198089852954,"connected_time":207000000000,"state":"active","ping":77},{"user_id":190,"name":"Zamboni","steam_id":76561199084964927,"connected_time":1766000000000,"state":"active","ping":81},{"user_id":204,"name":"GatorAIDS","steam_id":76561198043220092,"connected_time":685000000000,"state":"active","ping":58},{"user_id":172,"name":"Dr. Dynamo","steam_id":76561198114569365,"connected_time":2383000000000,"state":"active","ping":64},{"user_id":211,"name":"inzang","steam_id":76561198088318074,"connected_time":536000000000,"state":"active","ping":56},{"user_id":207,"name":"5ytty5","steam_id":76561198041643833,"connected_time":636000000000,"state":"active","ping":61},{"user_id":184,"name":"waster","steam_id":76561198078395002,"connected_time":2015000000000,"state":"active","ping":80},{"user_id":149,"name":"chiswola","steam_id":76561198046920142,"connected_time":3903000000000,"state":"active","ping":99},{"user_id":208,"name":"Alkimia","steam_id":76561198385763137,"connected_time":627000000000,"state":"active","ping":139},{"user_id":198,"name":"Phat_nibba29","steam_id":76561198165661855,"connected_time":870000000000,"state":"active","ping":73},{"user_id":148,"name":"barker bill","steam_id":76561198018451994,"connected_time":3956000000000,"state":"active","ping":62},{"user_id":150,"name":"sebjzy ‚ô•","steam_id":76561198009959034,"connected_time":3898000000000,"state":"active","ping":47},{"user_id":209,"name":"K.A.R.M.A.","steam_id":76561198240750142,"connected_time":583000000000,"state":"active","ping":75},{"user_id":197,"name":"???","steam_id":76561198200155343,"connected_time":1038000000000,"state":"active","ping":45},{"user_id":199,"name":"Greg Boberton 2012","steam_id":76561198983566026,"connected_time":764000000000,"state":"active","ping":88},{"user_id":210,"name":"Beep Boop Head","steam_id":76561198368008413,"connected_time":576000000000,"state":"active","ping":151},{"user_id":200,"name":"CadenLCheese","steam_id":76561199105517435,"connected_time":764000000000,"state":"active","ping":129},{"user_id":187,"name":"Vand","steam_id":76561199016300216,"connected_time":1986000000000,"state":"active","ping":104}]},{"server_id":108,"name":"Uncletopia | Dallas | 2 | All Maps","name_short":"dal-2","host":"dal-1.us.uncletopia.com","port":27025,"enabled":true,"region":"us-central","cc":"us","latitude":32.779167,"longitude":-96.80889,"reserved":0,"last_update":"0001-01-01T00:00:00Z","name_a2s":"Uncletopia | Dallas | 2 | All Maps","protocol":17,"map":"koth_viaduct","folder":"tf","game":"Team Fortress","app_id":440,"player_count":24,"max_players":24,"Bots":0,"server_type":"Dedicated","server_os":"Linux","password":true,"vac":true,"version":"7757534","steam_id":85568392924469988,"keywords":["cp","nocrits","nodmgspread","uncletopia"],"game_id":440,"stv_port":27026,"stv_name":"Uncletopia | Dallas | 2 | All Maps | STV","players":[{"user_id":17,"name":"Chol","steam_id":76561198122054259,"connected_time":4572000000000,"state":"active","ping":77},{"user_id":18,"name":"glop shitto bounter hunter","steam_id":76561198063138457,"connected_time":4513000000000,"state":"active","ping":90},{"user_id":91,"name":"Killerofzombie23","steam_id":76561198799173778,"connected_time":27000000000,"state":"active","ping":92},{"user_id":84,"name":"Xruffel :3 (high)","steam_id":76561198067697879,"connected_time":917000000000,"state":"active","ping":76},{"user_id":54,"name":"Crabby","steam_id":76561198040023173,"connected_time":2645000000000,"state":"active","ping":114},{"user_id":22,"name":"Mellou","steam_id":76561198212048740,"connected_time":3895000000000,"state":"active","ping":50},{"user_id":69,"name":"bottom pride burger","steam_id":76561198322247602,"connected_time":2011000000000,"state":"active","ping":86},{"user_id":24,"name":"Dopteros","steam_id":76561198096732072,"connected_time":3745000000000,"state":"active","ping":92},{"user_id":80,"name":"Flooder","steam_id":76561198043792818,"connected_time":1106000000000,"state":"active","ping":117},{"user_id":89,"name":"pipe","steam_id":76561199059257565,"connected_time":410000000000,"state":"active","ping":84},{"user_id":85,"name":"victordead121","steam_id":76561199180843121,"connected_time":607000000000,"state":"active","ping":100},{"user_id":28,"name":"The Gamer For God","steam_id":76561198095916325,"connected_time":3641000000000,"state":"active","ping":74},{"user_id":75,"name":"MightyMouse162","steam_id":76561198018665390,"connected_time":1664000000000,"state":"active","ping":67},{"user_id":90,"name":"vncnt","steam_id":76561198046113319,"connected_time":367000000000,"state":"active","ping":32},{"user_id":32,"name":"zrsp1","steam_id":76561199030845505,"connected_time":3546000000000,"state":"active","ping":99},{"user_id":33,"name":"CYBERZ0NED","steam_id":76561198190318030,"connected_time":3543000000000,"state":"active","ping":95},{"user_id":83,"name":"merge without looking","steam_id":76561198056702628,"connected_time":1075000000000,"state":"active","ping":38},{"user_id":62,"name":"„ÇÑ„ÇãÊ∞ó„ÅÆ„ÅÇ„Çã","steam_id":76561198332464311,"connected_time":2395000000000,"state":"active","ping":73},{"user_id":78,"name":"pour","steam_id":76561198127525888,"connected_time":1321000000000,"state":"active","ping":51},{"user_id":87,"name":"Icy","steam_id":76561198125015366,"connected_time":530000000000,"state":"active","ping":111},{"user_id":38,"name":"Dat_Idiot","steam_id":76561198305729837,"connected_time":3527000000000,"state":"active","ping":76},{"user_id":88,"name":"BladedBloom4611","steam_id":76561198416655215,"connected_time":477000000000,"state":"active","ping":167},{"user_id":59,"name":"Jammedpurse","steam_id":76561198998294201,"connected_time":2498000000000,"state":"active","ping":60},{"user_id":74,"name":"Breadman","steam_id":76561198097979919,"connected_time":1860000000000,"state":"active","ping":132}]},{"server_id":5,"name":"Uncletopia | Frankfurt | 1 | All Maps","name_short":"frk-1","host":"frk-1.de.uncletopia.com","port":27015,"enabled":true,"region":"eu","cc":"de","latitude":50.110924,"longitude":8.682127,"reserved":0,"last_update":"0001-01-01T00:00:00Z","name_a2s":"Uncletopia | Frankfurt | 1 | All Maps","protocol":17,"map":"pl_badwater","folder":"tf","game":"Team Fortress","app_id":440,"player_count":24,"max_players":24,"Bots":0,"server_type":"Dedicated","server_os":"Linux","password":true,"vac":true,"version":"7757534","steam_id":85568392924469989,"keywords":["nocrits","nodmgspread","payload","uncletopia"],"game_id":440,"stv_port":27016,"stv_name":"Uncletopia | Frankfurt | 1 | All Maps | STV","players":[{"user_id":566,"name":"Carrotcracker","steam_id":76561198034862396,"connected_time":1652000000000,"state":"active","ping":70},{"user_id":558,"name":"Laxslow","steam_id":76561198065361846,"connected_time":2116000000000,"state":"active","ping":56},{"user_id":555,"name":"Fuvuk","steam_id":76561198044458593,"connected_time":2167000000000,"state":"active","ping":90},{"user_id":557,"name":"Sigma","steam_id":76561199088506542,"connected_time":2138000000000,"state":"active","ping":52},{"user_id":503,"name":"Aroo","steam_id":76561198132601368,"connected_time":6033000000000,"state":"active","ping":72},{"user_id":559,"name":"eeeeee","steam_id":76561198017786875,"connected_time":2106000000000,"state":"active","ping":58},{"user_id":579,"name":"…π«ùu ço s…•…ìƒ±…•‚ä•","steam_id":76561198986703944,"connected_time":366000000000,"state":"active","ping":87},{"user_id":523,"name":"Counter-Life‚Ñ¢","steam_id":76561197977875927,"connected_time":4550000000000,"state":"active","ping":45},{"user_id":577,"name":"ricky pee pee","steam_id":76561198152620745,"connected_time":380000000000,"state":"active","ping":80},{"user_id":575,"name":"GogsCrunchyNuts","steam_id":76561198150599213,"connected_time":418000000000,"state":"active","ping":116},{"user_id":569,"name":"MRLOLENO","steam_id":76561198450911838,"connected_time":1268000000000,"state":"active","ping":60},{"user_id":560,"name":"Phiphler","steam_id":76561197994055715,"connected_time":2039000000000,"state":"active","ping":71},{"user_id":561,"name":"‚àö(-Wolf)","steam_id":76561198024769704,"connected_time":2027000000000,"state":"active","ping":98},{"user_id":571,"name":"La-Li-Lu-Le-Lo","steam_id":76561198047990600,"connected_time":1029000000000,"state":"active","ping":59},{"user_id":563,"name":"Ecton","steam_id":76561198025103720,"connected_time":1888000000000,"state":"active","ping":64},{"user_id":578,"name":"kaelan!","steam_id":76561198001425310,"connected_time":373000000000,"state":"active","ping":80},{"user_id":499,"name":"doopsuiker","steam_id":76561198025916703,"connected_time":6117000000000,"state":"active","ping":82},{"user_id":567,"name":"Pats","steam_id":76561198418538887,"connected_time":1581000000000,"state":"active","ping":92},{"user_id":496,"name":"Raivop","steam_id":76561197980854307,"connected_time":6772000000000,"state":"active","ping":104},{"user_id":564,"name":"Pepegi","steam_id":76561198001230113,"connected_time":1883000000000,"state":"active","ping":81},{"user_id":532,"name":"Cane","steam_id":76561197976831215,"connected_time":4254000000000,"state":"active","ping":104},{"user_id":570,"name":"ghost","steam_id":76561198189940229,"connected_time":1045000000000,"state":"active","ping":66},{"user_id":574,"name":"Flash","steam_id":76561198067379855,"connected_time":838000000000,"state":"active","ping":60},{"user_id":552,"name":"Silent Person","steam_id":76561198107763537,"connected_time":2742000000000,"state":"active","ping":74}]},{"server_id":110,"name":"Uncletopia | Frankfurt | 2 | All Maps","name_short":"frk-2","host":"frk-1.de.uncletopia.com","port":27025,"enabled":true,"region":"eu","cc":"de","latitude":50.110924,"longitude":8.682127,"reserved":0,"last_update":"0001-01-01T00:00:00Z","name_a2s":"Uncletopia | Frankfurt | 2 | All Maps","protocol":17,"map":"pl_upward","folder":"tf","game":"Team Fortress","app_id":440,"player_count":19,"max_players":24,"Bots":0,"server_type":"Dedicated","server_os":"Linux","password":true,"vac":true,"version":"7757534","steam_id":85568392924469990,"keywords":["nocrits","nodmgspread","payload","uncletopia"],"game_id":440,"stv_port":27026,"stv_name":"Uncletopia | Frankfurt | 2 | All Maps | STV","players":[{"user_id":1061,"name":"AWJ ÀÜ-ÀÜ","steam_id":76561198053628243,"connected_time":744000000000,"state":"active","ping":60},{"user_id":1062,"name":"Slimeby","steam_id":76561198353438688,"connected_time":711000000000,"state":"active","ping":99},{"user_id":1072,"name":"Amandus","steam_id":76561198036281079,"connected_time":10000000000,"state":"spawning","ping":57},{"user_id":1047,"name":"Per√§miehen√§","steam_id":76561197968945306,"connected_time":1405000000000,"state":"active","ping":74},{"user_id":1030,"name":"Mozza","steam_id":76561198035915570,"connected_time":2217000000000,"state":"active","ping":61},{"user_id":1040,"name":"zazuza","steam_id":76561198049820905,"connected_time":1633000000000,"state":"active","ping":74},{"user_id":1060,"name":"Deacon Dracul","steam_id":76561198046880663,"connected_time":785000000000,"state":"active","ping":91},{"user_id":1055,"name":"fabacher","steam_id":76561198057905272,"connected_time":982000000000,"state":"active","ping":59},{"user_id":1069,"name":"MetalBand_Enjoyer","steam_id":76561199196988042,"connected_time":171000000000,"state":"active","ping":74},{"user_id":1070,"name":"Videogamer","steam_id":76561198106012909,"connected_time":93000000000,"state":"active","ping":64},{"user_id":1014,"name":"‚ô• TRANS RIGHTS ‚ô•","steam_id":76561198066258544,"connected_time":2829000000000,"state":"active","ping":45},{"user_id":1065,"name":"mei","steam_id":76561198028078806,"connected_time":559000000000,"state":"active","ping":54},{"user_id":1066,"name":"addicted","steam_id":76561199129801006,"connected_time":428000000000,"state":"active","ping":48},{"user_id":1045,"name":"Rendeto","steam_id":76561198271955247,"connected_time":1507000000000,"state":"active","ping":81},{"user_id":1046,"name":"New","steam_id":76561198402195911,"connected_time":1428000000000,"state":"active","ping":126},{"user_id":1059,"name":"Bobo","steam_id":76561198052308399,"connected_time":913000000000,"state":"active","ping":61},{"user_id":1052,"name":"Trumpetdude2000","steam_id":76561198905888008,"connected_time":1098000000000,"state":"active","ping":63},{"user_id":1053,"name":"earl","steam_id":76561199004370870,"connected_time":1073000000000,"state":"active","ping":81},{"user_id":1064,"name":"Waffles","steam_id":76561199086942763,"connected_time":654000000000,"state":"active","ping":77}]},{"server_id":308,"name":"Uncletopia | Frankfurt | 3 | All Maps","name_short":"frk-3","host":"frk-1.de.uncletopia.com","port":27035,"enabled":true,"region":"eu","cc":"de","latitude":50.110924,"longitude":8.682127,"reserved":0,"last_update":"0001-01-01T00:00:00Z","name_a2s":"Uncletopia | Frankfurt | 3 | All Maps","protocol":17,"map":"pl_upward","folder":"tf","game":"Team Fortress","app_id":440,"player_count":24,"max_players":24,"Bots":0,"server_type":"Dedicated","server_os":"Linux","password":true,"vac":true,"version":"7757534","steam_id":85568392924504274,"keywords":["nocrits","nodmgspread","payload","uncletopia"],"game_id":440,"stv_port":27036,"stv_name":"Uncletopia | Frankfurt | 3 | All Maps | STV","players":[{"user_id":381,"name":"A cuber","steam_id":76561199193038669,"connected_time":264000000000,"state":"active","ping":70},{"user_id":309,"name":"Kakograf","steam_id":76561198148375639,"connected_time":6067000000000,"state":"active","ping":81},{"user_id":339,"name":"s a i","steam_id":76561197970379754,"connected_time":3388000000000,"state":"active","ping":48},{"user_id":383,"name":"kotamine","steam_id":76561198068907991,"connected_time":160000000000,"state":"active","ping":60},{"user_id":379,"name":"Gandhi the Grater","steam_id":76561198051198555,"connected_time":710000000000,"state":"active","ping":72},{"user_id":321,"name":"Spieller","steam_id":76561198057197847,"connected_time":4668000000000,"state":"active","ping":74},{"user_id":305,"name":"sysanin","steam_id":76561198056649495,"connected_time":6104000000000,"state":"active","ping":82},{"user_id":318,"name":"Yassine","steam_id":76561198140565712,"connected_time":5110000000000,"state":"active","ping":54},{"user_id":352,"name":"cazador","steam_id":76561198123096922,"connected_time":2211000000000,"state":"active","ping":90},{"user_id":366,"name":"Zogg","steam_id":76561198352683491,"connected_time":1418000000000,"state":"active","ping":58},{"user_id":385,"name":"thekdp","steam_id":76561198036103131,"connected_time":50000000000,"state":"spawning","ping":89},{"user_id":378,"name":"wadiyatalkinabeet","steam_id":76561198045505082,"connected_time":999000000000,"state":"active","ping":72},{"user_id":376,"name":"Marquis de Hoto","steam_id":76561198080687708,"connected_time":1210000000000,"state":"active","ping":65},{"user_id":384,"name":"Cuthbert","steam_id":76561198204649481,"connected_time":87000000000,"state":"active","ping":95},{"user_id":308,"name":"Milca_11","steam_id":76561198848650365,"connected_time":6086000000000,"state":"active","ping":1079},{"user_id":369,"name":"balanced diet","steam_id":76561198240320806,"connected_time":1395000000000,"state":"active","ping":75},{"user_id":370,"name":"Kestrel","steam_id":76561198144033005,"connected_time":1331000000000,"state":"active","ping":72},{"user_id":380,"name":"Mr.Cold","steam_id":76561198356368580,"connected_time":294000000000,"state":"active","ping":73},{"user_id":386,"name":"JimJam","steam_id":76561199002957746,"connected_time":33000000000,"state":"active","ping":83},{"user_id":372,"name":"–¢—Ä—É–ø –í–æ–ª–æ–¥—è","steam_id":76561198035718457,"connected_time":1279000000000,"state":"active","ping":89},{"user_id":342,"name":"king","steam_id":76561198881197962,"connected_time":3361000000000,"state":"active","ping":92},{"user_id":375,"name":"astigmatic","steam_id":76561199103959197,"connected_time":1223000000000,"state":"active","ping":87},{"user_id":362,"name":"Pyrolander","steam_id":76561198050785450,"connected_time":1719000000000,"state":"active","ping":55},{"user_id":349,"name":"zaleek69","steam_id":76561198058877595,"connected_time":2477000000000,"state":"active","ping":68}]},{"server_id":309,"name":"Uncletopia | Frankfurt | 4 | All Maps","name_short":"frk-4","host":"frk-1.de.uncletopia.com","port":27045,"enabled":true,"region":"eu","cc":"de","latitude":50.110924,"longitude":8.682127,"reserved":0,"last_update":"0001-01-01T00:00:00Z","name_a2s":"Uncletopia | Frankfurt | 4 | All Maps","protocol":17,"map":"cp_snakewater_final1","folder":"tf","game":"Team Fortress","app_id":440,"player_count":24,"max_players":24,"Bots":0,"server_type":"Dedicated","server_os":"Linux","password":true,"vac":true,"version":"7757534","steam_id":85568392924504275,"keywords":["cp","nocrits","nodmgspread","uncletopia"],"game_id":440,"stv_port":27046,"stv_name":"Uncletopia | Frankfurt | 4 | All Maps | STV","players":[{"user_id":233,"name":"FJADL","steam_id":76561198237008214,"connected_time":332000000000,"state":"active","ping":59},{"user_id":193,"name":"‰∫∫ √ò–ê–ê–ê√ò‰∫∫","steam_id":76561198944032480,"connected_time":3810000000000,"state":"active","ping":95},{"user_id":195,"name":"Raymus","steam_id":76561198021330407,"connected_time":3464000000000,"state":"active","ping":45},{"user_id":232,"name":"Welder","steam_id":76561198355300561,"connected_time":669000000000,"state":"active","ping":68},{"user_id":229,"name":"miev","steam_id":76561198078278737,"connected_time":925000000000,"state":"active","ping":85},{"user_id":227,"name":"yurkur","steam_id":76561198407108497,"connected_time":1018000000000,"state":"active","ping":48},{"user_id":230,"name":"Preacher Carl","steam_id":76561197994713485,"connected_time":912000000000,"state":"active","ping":59},{"user_id":214,"name":"Renolox","steam_id":76561198036590182,"connected_time":1606000000000,"state":"active","ping":63},{"user_id":102,"name":"Fat Pigeon","steam_id":76561198817940142,"connected_time":10729000000000,"state":"active","ping":47},{"user_id":231,"name":"Nugget","steam_id":76561198338916407,"connected_time":771000000000,"state":"active","ping":79},{"user_id":215,"name":"Egor Pomidor","steam_id":76561199175688390,"connected_time":1604000000000,"state":"active","ping":75},{"user_id":225,"name":"_Cpt.Decoder_","steam_id":76561198236937010,"connected_time":1138000000000,"state":"active","ping":88},{"user_id":218,"name":"kektuse","steam_id":76561198088426580,"connected_time":1588000000000,"state":"active","ping":55},{"user_id":219,"name":"R!not","steam_id":76561197986328786,"connected_time":1568000000000,"state":"active","ping":46},{"user_id":205,"name":"xd","steam_id":76561198066523881,"connected_time":2067000000000,"state":"active","ping":59},{"user_id":89,"name":"PizzaPete123","steam_id":76561198089478290,"connected_time":12035000000000,"state":"active","ping":65},{"user_id":220,"name":"Captain HandicappedCock","steam_id":76561198109850402,"connected_time":1545000000000,"state":"active","ping":68},{"user_id":191,"name":"yoursbzt","steam_id":76561198201866574,"connected_time":3828000000000,"state":"active","ping":86},{"user_id":192,"name":"kpn","steam_id":76561198063512694,"connected_time":3826000000000,"state":"active","ping":70},{"user_id":166,"name":"X-tis","steam_id":76561198043837480,"connected_time":6444000000000,"state":"active","ping":75},{"user_id":235,"name":"bat","steam_id":76561198019511460,"connected_time":235000000000,"state":"active","ping":74},{"user_id":202,"name":"Operunter","steam_id":76561198059937616,"connected_time":3178000000000,"state":"active","ping":61},{"user_id":200,"name":"jt7","steam_id":76561198073655162,"connected_time":3296000000000,"state":"active","ping":68},{"user_id":201,"name":"AiRBiscuiT","steam_id":76561198348655114,"connected_time":3276000000000,"state":"active","ping":72}]},{"server_id":310,"name":"Uncletopia | Frankfurt | 5 | All Maps","name_short":"frk-5","host":"frk-1.de.uncletopia.com","port":27055,"enabled":true,"region":"eu","cc":"de","latitude":50.110924,"longitude":8.682127,"reserved":0,"last_update":"0001-01-01T00:00:00Z","name_a2s":"Uncletopia | Frankfurt | 5 | All Maps","protocol":17,"map":"pl_barnblitz","folder":"tf","game":"Team Fortress","app_id":440,"player_count":24,"max_players":24,"Bots":0,"server_type":"Dedicated","server_os":"Linux","password":true,"vac":true,"version":"7757534","steam_id":85568392924504277,"keywords":["nocrits","nodmgspread","payload","uncletopia"],"game_id":440,"stv_port":27056,"stv_name":"Uncletopia | Frankfurt | 5 | All Maps | STV","players":[{"user_id":107,"name":"Reisen","steam_id":76561199174579733,"connected_time":746000000000,"state":"active","ping":154},{"user_id":108,"name":"Hanƒ±mSever23","steam_id":76561198142124751,"connected_time":744000000000,"state":"active","ping":104},{"user_id":109,"name":"hedwig","steam_id":76561199091114467,"connected_time":707000000000,"state":"active","ping":120},{"user_id":122,"name":"Uncle Moomin","steam_id":76561198011628656,"connected_time":394000000000,"state":"active","ping":83},{"user_id":111,"name":"Stragnov‚òÜ","steam_id":76561198074702465,"connected_time":683000000000,"state":"active","ping":51},{"user_id":112,"name":"Mankor","steam_id":76561198020439322,"connected_time":602000000000,"state":"active","ping":48},{"user_id":68,"name":"DrauconeTMDS","steam_id":76561198083510257,"connected_time":3294000000000,"state":"active","ping":43},{"user_id":113,"name":"fugv","steam_id":76561199472302896,"connected_time":601000000000,"state":"active","ping":97},{"user_id":71,"name":"Rubi","steam_id":76561198139410003,"connected_time":3159000000000,"state":"active","ping":91},{"user_id":115,"name":"Ged","steam_id":76561198079288943,"connected_time":479000000000,"state":"active","ping":105},{"user_id":121,"name":"rob","steam_id":76561198122211848,"connected_time":432000000000,"state":"active","ping":134},{"user_id":98,"name":"joelttyjoel","steam_id":76561198035036816,"connected_time":2195000000000,"state":"active","ping":74},{"user_id":117,"name":"Lewylow","steam_id":76561198005425686,"connected_time":460000000000,"state":"active","ping":75},{"user_id":118,"name":"paranoia","steam_id":76561198274105878,"connected_time":449000000000,"state":"active","ping":85},{"user_id":128,"name":"Kjat","steam_id":76561198839433592,"connected_time":157000000000,"state":"active","ping":58},{"user_id":120,"name":"Big Balls Bill","steam_id":76561198045998627,"connected_time":443000000000,"state":"active","ping":64},{"user_id":81,"name":"The Punch","steam_id":76561198212488780,"connected_time":3018000000000,"state":"active","ping":60},{"user_id":123,"name":"zak","steam_id":76561197998895428,"connected_time":338000000000,"state":"active","ping":59},{"user_id":124,"name":"SantiThePug #ReviveTheCaber","steam_id":76561199049615996,"connected_time":331000000000,"state":"active","ping":68},{"user_id":125,"name":"20BB Raxor","steam_id":76561198239927434,"connected_time":309000000000,"state":"active","ping":75},{"user_id":126,"name":"Miiukade","steam_id":76561198089157860,"connected_time":259000000000,"state":"active","ping":156},{"user_id":127,"name":"f0x","steam_id":76561198072921704,"connected_time":257000000000,"state":"active","ping":55},{"user_id":129,"name":"Based Vrillionaire Trapstar","steam_id":76561198324813535,"connected_time":146000000000,"state":"active","ping":85},{"user_id":130,"name":"Eidolyss","steam_id":76561198066997041,"connected_time":136000000000,"state":"active","ping":57}]},{"server_id":311,"name":"Uncletopia | Frankfurt | 6 | All Maps","name_short":"frk-6","host":"frk-1.de.uncletopia.com","port":27065,"enabled":true,"region":"eu","cc":"de","latitude":50.110924,"longitude":8.682127,"reserved":0,"last_update":"0001-01-01T00:00:00Z","name_a2s":"Uncletopia | Frankfurt | 6 | All Maps","protocol":17,"map":"cp_dustbowl","folder":"tf","game":"Team Fortress","app_id":440,"player_count":20,"max_players":24,"Bots":0,"server_type":"Dedicated","server_os":"Linux","password":true,"vac":true,"version":"7757534","steam_id":85568392924504278,"keywords":["cp","nocrits","nodmgspread","uncletopia"],"game_id":440,"stv_port":27066,"stv_name":"Uncletopia | Frankfurt | 6 | All Maps | STV","players":[{"user_id":530,"name":"0","steam_id":76561198267909207,"connected_time":1731000000000,"state":"active","ping":80},{"user_id":558,"name":"Roe Jogan","steam_id":76561198871991529,"connected_time":72000000000,"state":"active","ping":90},{"user_id":532,"name":"Furno","steam_id":76561197999723047,"connected_time":1635000000000,"state":"active","ping":47},{"user_id":508,"name":"Borat","steam_id":76561198122226417,"connected_time":3091000000000,"state":"active","ping":60},{"user_id":550,"name":"arim","steam_id":76561197994600818,"connected_time":894000000000,"state":"active","ping":45},{"user_id":559,"name":"THVG","steam_id":76561199156685368,"connected_time":49000000000,"state":"active","ping":74},{"user_id":557,"name":"Eivind","steam_id":76561198159927980,"connected_time":98000000000,"state":"active","ping":71},{"user_id":535,"name":"BŒ£NZOIC","steam_id":76561198875665995,"connected_time":1584000000000,"state":"active","ping":78},{"user_id":551,"name":"sniff.DZ","steam_id":76561199266754351,"connected_time":875000000000,"state":"active","ping":103},{"user_id":538,"name":"EGirl | Klarra","steam_id":76561198077745407,"connected_time":1518000000000,"state":"active","ping":64},{"user_id":537,"name":"Roro Cyr","steam_id":76561198091380517,"connected_time":1550000000000,"state":"active","ping":67},{"user_id":511,"name":"lofimonkeyjazz","steam_id":76561198117059662,"connected_time":3059000000000,"state":"active","ping":84},{"user_id":512,"name":"Scazzing","steam_id":76561198052954318,"connected_time":3056000000000,"state":"active","ping":57},{"user_id":560,"name":"Gunslinger BOT","steam_id":76561198126762760,"connected_time":38000000000,"state":"active","ping":68},{"user_id":561,"name":"alvinulv","steam_id":76561198024487177,"connected_time":28000000000,"state":"active","ping":60},{"user_id":555,"name":"CalThePal","steam_id":76561198084842126,"connected_time":794000000000,"state":"active","ping":70},{"user_id":542,"name":"Vershal Smershal","steam_id":76561198116223995,"connected_time":1375000000000,"state":"active","ping":60},{"user_id":543,"name":"my head + the wall = \u003c3","steam_id":76561198058012525,"connected_time":1368000000000,"state":"active","ping":73},{"user_id":548,"name":"hananamanna","steam_id":76561198006570285,"connected_time":1054000000000,"state":"active","ping":114},{"user_id":554,"name":"sareena","steam_id":76561198810194062,"connected_time":797000000000,"state":"active","ping":78}]},{"server_id":23,"name":"Uncletopia | Frankfurt | 7 | Stopwatch Beta","name_short":"frk-7","host":"frk-1.de.uncletopia.com","port":27075,"enabled":true,"region":"eu","cc":"de","latitude":50.110924,"longitude":8.682127,"reserved":0,"last_update":"0001-01-01T00:00:00Z","name_a2s":"Uncletopia | Frankfurt | 7 | Stopwatch Beta","protocol":17,"map":"pl_borneo","folder":"tf","game":"Team Fortress","app_id":440,"player_count":0,"max_players":24,"Bots":0,"server_type":"Dedicated","server_os":"Linux","password":true,"vac":true,"version":"7757534","steam_id":85568392924742827,"keywords":["nocrits","nodmgspread","payload","uncletopia"],"game_id":440,"stv_port":27076,"stv_name":"Uncletopia | Frankfurt | 7 | Stopwatch Beta | STV","players":null},{"server_id":24,"name":"Uncletopia | Frankfurt | 8 | Community","name_short":"frk-8","host":"frk-1.de.uncletopia.com","port":27085,"enabled":true,"region":"eu","cc":"de","latitude":50.110924,"longitude":8.682127,"reserved":0,"last_update":"0001-01-01T00:00:00Z","name_a2s":"Uncletopia | Frankfurt | 8 | Community","protocol":17,"map":"workshop/pl_vigil_rc9.ugc1266210012","folder":"tf","game":"Team Fortress","app_id":440,"player_count":0,"max_players":24,"Bots":0,"server_type":"Dedicated","server_os":"Linux","password":true,"vac":true,"version":"7757534","steam_id":85568392924742828,"keywords":["nocrits","nodmgspread","payload","uncletopia"],"game_id":440,"stv_port":27086,"stv_name":"Uncletopia | Frankfurt | 8 | Community | STV","players":null},{"server_id":202,"name":"Uncletopia | Hong Kong | 1 | All Maps","name_short":"hgk-1","host":"hgk-1.hk.uncletopia.com","port":27015,"enabled":true,"region":"asia","cc":"hk","latitude":22.302711,"longitude":114.177216,"reserved":0,"last_update":"0001-01-01T00:00:00Z","name_a2s":"Uncletopia | Hong Kong | 1 | All Maps","protocol":17,"map":"koth_viaduct","folder":"tf","game":"Team Fortress","app_id":440,"player_count":0,"max_players":24,"Bots":0,"server_type":"Dedicated","server_os":"Linux","password":true,"vac":true,"version":"7757534","steam_id":85568392924494504,"keywords":["cp","nocrits","nodmgspread","uncletopia"],"game_id":440,"stv_port":27016,"stv_name":"Uncletopia | Hong Kong | 1 | All Maps | STV","players":null},{"server_id":1,"name":"Uncletopia | Los Angeles | 1 | All Maps","name_short":"lax-1","host":"lax-1.us.uncletopia.com","port":27015,"enabled":true,"region":"us-west","cc":"us","latitude":33.94279,"longitude":-118.41004,"reserved":0,"last_update":"0001-01-01T00:00:00Z","name_a2s":"Uncletopia | Los Angeles | 1 | All Maps","protocol":17,"map":"pl_barnblitz","folder":"tf","game":"Team Fortress","app_id":440,"player_count":0,"max_players":24,"Bots":0,"server_type":"Dedicated","server_os":"Linux","password":true,"vac":true,"version":"7757534","steam_id":85568392924469991,"keywords":["nocrits","nodmgspread","payload","uncletopia"],"game_id":440,"stv_port":27016,"stv_name":"Uncletopia | Los Angeles | 1 | All Maps | STV","players":null},{"server_id":112,"name":"Uncletopia | Los Angeles | 2 | All Maps","name_short":"lax-2","host":"lax-1.us.uncletopia.com","port":27025,"enabled":true,"region":"us-west","cc":"us","latitude":33.94279,"longitude":-118.41004,"reserved":0,"last_update":"0001-01-01T00:00:00Z","name_a2s":"Uncletopia | Los Angeles | 2 | All Maps","protocol":17,"map":"koth_highpass","folder":"tf","game":"Team Fortress","app_id":440,"player_count":0,"max_players":24,"Bots":0,"server_type":"Dedicated","server_os":"Linux","password":true,"vac":true,"version":"7757534","steam_id":85568392924469992,"keywords":["cp","nocrits","nodmgspread","uncletopia"],"game_id":440,"stv_port":27026,"stv_name":"Uncletopia | Los Angeles | 2 | All Maps | STV","players":null},{"server_id":324,"name":"Uncletopia | Los Angeles | 3 | All Maps","name_short":"lax-3","host":"lax-1.us.uncletopia.com","port":27035,"enabled":true,"region":"us-west","cc":"us","latitude":33.94279,"longitude":-118.41004,"reserved":0,"last_update":"0001-01-01T00:00:00Z","name_a2s":"Uncletopia | Los Angeles | 3 | All Maps","protocol":17,"map":"pl_pier","folder":"tf","game":"Team Fortress","app_id":440,"player_count":0,"max_players":24,"Bots":0,"server_type":"Dedicated","server_os":"Linux","password":true,"vac":true,"version":"7757534","steam_id":85568392924510198,"keywords":["nocrits","nodmgspread","payload","uncletopia"],"game_id":440,"stv_port":27036,"stv_name":"Uncletopia | Los Angeles | 3 | All Maps | STV","players":null},{"server_id":25,"name":"Uncletopia | Los Angeles | 4 | Stopwatch Beta","name_short":"lax-4","host":"lax-1.us.uncletopia.com","port":27045,"enabled":true,"region":"us-west","cc":"us","latitude":33.94279,"longitude":-118.41004,"reserved":0,"last_update":"0001-01-01T00:00:00Z","name_a2s":"Uncletopia | Los Angeles | 4 | Stopwatch Beta","protocol":17,"map":"cp_dustbowl","folder":"tf","game":"Team Fortress","app_id":440,"player_count":1,"max_players":24,"Bots":0,"server_type":"Dedicated","server_os":"Linux","password":true,"vac":true,"version":"7757534","steam_id":85568392924510199,"keywords":["cp","nocrits","nodmgspread","uncletopia"],"game_id":440,"stv_port":27046,"stv_name":"Uncletopia | Los Angeles | 4 | Stopwatch Beta | STV","players":[{"user_id":5,"name":"SpaghettiMaster420","steam_id":76561199024321120,"connected_time":949000000000,"state":"active","ping":216}]},{"server_id":11,"name":"Uncletopia | London | 1 | All Maps","name_short":"lon-1","host":"lon-1.uk.uncletopia.com","port":27015,"enabled":true,"region":"eu","cc":"gb","latitude":51.509865,"longitude":-0.118092,"reserved":0,"last_update":"0001-01-01T00:00:00Z","name_a2s":"Uncletopia | London | 1 | All Maps","protocol":17,"map":"pl_rumford_event","folder":"tf","game":"Team Fortress","app_id":440,"player_count":24,"max_players":24,"Bots":0,"server_type":"Dedicated","server_os":"Linux","password":true,"vac":true,"version":"7757534","steam_id":85568392924367362,"keywords":["nocrits","nodmgspread","payload","uncletopia"],"game_id":440,"stv_port":27016,"stv_name":"Uncletopia | London | 1 | All Maps | STV","players":[{"user_id":289,"name":"Yakko","steam_id":76561198044170177,"connected_time":3465000000000,"state":"active","ping":68},{"user_id":358,"name":"Lukas","steam_id":76561198009118452,"connected_time":46000000000,"state":"active","ping":71},{"user_id":356,"name":"GoatLord1","steam_id":76561198157964544,"connected_time":112000000000,"state":"active","ping":55},{"user_id":357,"name":"$13 hand-crank","steam_id":76561198029998773,"connected_time":91000000000,"state":"active","ping":51},{"user_id":327,"name":"·†å·†å ·†å ·†å ·†å ·†å ·†å·†å","steam_id":76561198139659854,"connected_time":1812000000000,"state":"active","ping":78},{"user_id":355,"name":"Planet","steam_id":76561198044626616,"connected_time":230000000000,"state":"active","ping":60},{"user_id":326,"name":"nudjura","steam_id":76561198281986139,"connected_time":2015000000000,"state":"active","ping":36},{"user_id":344,"name":"Bawower","steam_id":76561198347769261,"connected_time":653000000000,"state":"active","ping":132},{"user_id":314,"name":"Son Goku","steam_id":76561199383437138,"connected_time":2349000000000,"state":"active","ping":124},{"user_id":345,"name":"Axter","steam_id":76561198118747192,"connected_time":645000000000,"state":"active","ping":95},{"user_id":318,"name":"sneb","steam_id":76561198039381855,"connected_time":2320000000000,"state":"active","ping":67},{"user_id":340,"name":"gojoel","steam_id":76561198251181946,"connected_time":913000000000,"state":"active","ping":41},{"user_id":354,"name":"Meddler","steam_id":76561198033001402,"connected_time":236000000000,"state":"active","ping":43},{"user_id":346,"name":"Angrymonkeybird","steam_id":76561198073896677,"connected_time":636000000000,"state":"active","ping":71},{"user_id":321,"name":"dominus.","steam_id":76561199065917088,"connected_time":2292000000000,"state":"active","ping":58},{"user_id":298,"name":"Liza–Ødl–ß","steam_id":76561198176750238,"connected_time":3290000000000,"state":"active","ping":72},{"user_id":351,"name":"Russenluster","steam_id":76561198118016220,"connected_time":569000000000,"state":"active","ping":70},{"user_id":349,"name":"pepperonikorv","steam_id":76561198040665006,"connected_time":612000000000,"state":"active","ping":69},{"user_id":338,"name":"Kylul_","steam_id":76561198042981061,"connected_time":1007000000000,"state":"active","ping":30},{"user_id":352,"name":"[waffles]","steam_id":76561198951206047,"connected_time":547000000000,"state":"active","ping":93},{"user_id":348,"name":"Marothen","steam_id":76561198069539056,"connected_time":632000000000,"state":"active","ping":71},{"user_id":307,"name":"Wc Biere","steam_id":76561198200886539,"connected_time":2828000000000,"state":"active","ping":122},{"user_id":336,"name":"TheFriendZonedGuy","steam_id":76561198068862574,"connected_time":1071000000000,"state":"active","ping":77},{"user_id":273,"name":"dotdotdot","steam_id":76561198057628751,"connected_time":4915000000000,"state":"active","ping":65}]},{"server_id":114,"name":"Uncletopia | London | 2 | All Maps","name_short":"lon-2","host":"lon-1.uk.uncletopia.com","port":27025,"enabled":true,"region":"eu","cc":"gb","latitude":51.509865,"longitude":-0.118092,"reserved":0,"last_update":"0001-01-01T00:00:00Z","name_a2s":"Uncletopia | London | 2 | All Maps","protocol":17,"map":"pl_borneo","folder":"tf","game":"Team Fortress","app_id":440,"player_count":24,"max_players":24,"Bots":0,"server_type":"Dedicated","server_os":"Linux","password":true,"vac":true,"version":"7757534","steam_id":85568392924470941,"keywords":["nocrits","nodmgspread","payload","uncletopia"],"game_id":440,"stv_port":27026,"stv_name":"Uncletopia | London | 2 | All Maps | STV","players":[{"user_id":438,"name":"Joseph Stalin","steam_id":76561198033199746,"connected_time":1239000000000,"state":"active","ping":59},{"user_id":399,"name":"Memesus","steam_id":76561199362236174,"connected_time":4925000000000,"state":"active","ping":74},{"user_id":444,"name":"Bonca","steam_id":76561198137503531,"connected_time":846000000000,"state":"active","ping":76},{"user_id":403,"name":"Ches subtly into Pizzaboo","steam_id":76561198067204908,"connected_time":4291000000000,"state":"active","ping":59},{"user_id":441,"name":"umbrella leaf","steam_id":76561198299372487,"connected_time":959000000000,"state":"active","ping":61},{"user_id":455,"name":"Skinny101","steam_id":76561197985599360,"connected_time":119000000000,"state":"active","ping":55},{"user_id":456,"name":"relic_","steam_id":76561199053114167,"connected_time":79000000000,"state":"active","ping":115},{"user_id":354,"name":"gibb (official)","steam_id":76561198074097655,"connected_time":8159000000000,"state":"active","ping":43},{"user_id":379,"name":"SuperBob103","steam_id":76561199175360012,"connected_time":5723000000000,"state":"active","ping":48},{"user_id":384,"name":"biofun (santa is real)","steam_id":76561198170609049,"connected_time":5515000000000,"state":"active","ping":70},{"user_id":428,"name":"Shezza","steam_id":76561198903969123,"connected_time":1830000000000,"state":"active","ping":79},{"user_id":457,"name":"kaa","steam_id":76561198044061430,"connected_time":71000000000,"state":"active","ping":60},{"user_id":396,"name":"Croy","steam_id":76561197972552579,"connected_time":5183000000000,"state":"active","ping":40},{"user_id":426,"name":"Dispenser(Dispenser)","steam_id":76561199211831658,"connected_time":2036000000000,"state":"active","ping":57},{"user_id":445,"name":"kursim","steam_id":76561198107767058,"connected_time":841000000000,"state":"active","ping":91},{"user_id":420,"name":"BlobsOfWax","steam_id":76561198041752402,"connected_time":3059000000000,"state":"active","ping":43},{"user_id":387,"name":"gneeda","steam_id":76561198147249160,"connected_time":5504000000000,"state":"active","ping":118},{"user_id":402,"name":"Lyell","steam_id":76561198350329389,"connected_time":4309000000000,"state":"active","ping":85},{"user_id":437,"name":"Mogwai","steam_id":76561198078832314,"connected_time":1274000000000,"state":"active","ping":99},{"user_id":446,"name":"TryX","steam_id":76561199356781475,"connected_time":532000000000,"state":"active","ping":84},{"user_id":458,"name":"Lone Stranger","steam_id":76561198994639500,"connected_time":68000000000,"state":"active","ping":101},{"user_id":390,"name":"pizzaboob (birds arent real)","steam_id":76561198097507847,"connected_time":5495000000000,"state":"active","ping":87},{"user_id":459,"name":"DarthPaul8181","steam_id":76561198373050455,"connected_time":65000000000,"state":"active","ping":56},{"user_id":425,"name":"Zerfesh","steam_id":76561198117534358,"connected_time":2175000000000,"state":"active","ping":105}]},{"server_id":320,"name":"Uncletopia | London | 3 | All Maps","name_short":"lon-3","host":"lon-1.uk.uncletopia.com","port":27035,"enabled":true,"region":"eu","cc":"gb","latitude":51.509865,"longitude":-0.118092,"reserved":0,"last_update":"0001-01-01T00:00:00Z","name_a2s":"Uncletopia | London | 3 | All Maps","protocol":17,"map":"pl_pier","folder":"tf","game":"Team Fortress","app_id":440,"player_count":24,"max_players":24,"Bots":0,"server_type":"Dedicated","server_os":"Linux","password":true,"vac":true,"version":"7757534","steam_id":85568392924510192,"keywords":["nocrits","nodmgspread","payload","uncletopia"],"game_id":440,"stv_port":27036,"stv_name":"Uncletopia | London | 3 | All Maps | STV","players":[{"user_id":702,"name":"‚ú™ m_br3","steam_id":76561198044981990,"connected_time":1000000000000,"state":"active","ping":75},{"user_id":688,"name":"Dr. Funkenstein","steam_id":76561197977816210,"connected_time":1605000000000,"state":"active","ping":47},{"user_id":481,"name":"Xoukz","steam_id":76561198356014540,"connected_time":12809000000000,"state":"active","ping":104},{"user_id":717,"name":"Felix","steam_id":76561198282987297,"connected_time":590000000000,"state":"active","ping":76},{"user_id":698,"name":"Dr.Sees [F2P]","steam_id":76561199219233587,"connected_time":1123000000000,"state":"active","ping":83},{"user_id":718,"name":"SoberOnion","steam_id":76561198987711995,"connected_time":566000000000,"state":"active","ping":100},{"user_id":690,"name":"Sabesaroo","steam_id":76561198098751074,"connected_time":1594000000000,"state":"active","ping":47},{"user_id":692,"name":"Jyghc","steam_id":76561198405980575,"connected_time":1578000000000,"state":"active","ping":88},{"user_id":723,"name":"Thors","steam_id":76561197968739075,"connected_time":339000000000,"state":"active","ping":57},{"user_id":696,"name":"tapeworms!","steam_id":76561198069649097,"connected_time":1259000000000,"state":"active","ping":45},{"user_id":710,"name":"Laru","steam_id":76561197998838438,"connected_time":774000000000,"state":"active","ping":66},{"user_id":703,"name":"Grumtsior","steam_id":76561198043563111,"connected_time":983000000000,"state":"active","ping":195},{"user_id":705,"name":"silicon based life form","steam_id":76561199127121346,"connected_time":938000000000,"state":"active","ping":57},{"user_id":684,"name":"The Irish Eejit","steam_id":76561198027738057,"connected_time":1927000000000,"state":"active","ping":70},{"user_id":719,"name":"Bigson","steam_id":76561198114214362,"connected_time":561000000000,"state":"active","ping":55},{"user_id":623,"name":"Caskye","steam_id":76561198165430888,"connected_time":4815000000000,"state":"active","ping":72},{"user_id":720,"name":".Fourbee (4b)","steam_id":76561198249832770,"connected_time":547000000000,"state":"active","ping":47},{"user_id":714,"name":"Garden Freeman","steam_id":76561199073314677,"connected_time":673000000000,"state":"active","ping":135},{"user_id":708,"name":"Robzy","steam_id":76561198082387972,"connected_time":813000000000,"state":"active","ping":65},{"user_id":726,"name":"Bullen","steam_id":76561198063853292,"connected_time":97000000000,"state":"active","ping":88},{"user_id":666,"name":"The Great Bullet","steam_id":76561198191253947,"connected_time":3140000000000,"state":"active","ping":123},{"user_id":712,"name":"Sim","steam_id":76561198086641180,"connected_time":739000000000,"state":"active","ping":92},{"user_id":713,"name":"Max Andrew","steam_id":76561198158955194,"connected_time":702000000000,"state":"active","ping":71},{"user_id":715,"name":"harrison","steam_id":76561198990132243,"connected_time":661000000000,"state":"active","ping":67}]},{"server_id":321,"name":"Uncletopia | London | 4 | All Maps","name_short":"lon-4","host":"lon-1.uk.uncletopia.com","port":27045,"enabled":true,"region":"eu","cc":"gb","latitude":51.509865,"longitude":-0.118092,"reserved":0,"last_update":"0001-01-01T00:00:00Z","name_a2s":"Uncletopia | London | 4 | All Maps","protocol":17,"map":"cp_sunshine","folder":"tf","game":"Team Fortress","app_id":440,"player_count":0,"max_players":24,"Bots":0,"server_type":"Dedicated","server_os":"Linux","password":true,"vac":true,"version":"7757534","steam_id":85568392924510193,"keywords":["cp","nocrits","nodmgspread","uncletopia"],"game_id":440,"stv_port":27046,"stv_name":"Uncletopia | London | 4 | All Maps | STV","players":null},{"server_id":21,"name":"Uncletopia | London | 5 | All Maps","name_short":"lon-5","host":"lon-1.uk.uncletopia.com","port":27055,"enabled":true,"region":"eu","cc":"gb","latitude":51.509865,"longitude":-0.118092,"reserved":0,"last_update":"0001-01-01T00:00:00Z","name_a2s":"Uncletopia | London | 5 | All Maps","protocol":17,"map":"koth_viaduct","folder":"tf","game":"Team Fortress","app_id":440,"player_count":0,"max_players":24,"Bots":0,"server_type":"Dedicated","server_os":"Linux","password":true,"vac":true,"version":"7757534","steam_id":85568392924742829,"keywords":["cp","nocrits","nodmgspread","uncletopia"],"game_id":440,"stv_port":27056,"stv_name":"Uncletopia | London | 5 | All Maps | STV","players":null},{"server_id":22,"name":"Uncletopia | London | 6 | All Maps","name_short":"lon-6","host":"lon-1.uk.uncletopia.com","port":27065,"enabled":true,"region":"eu","cc":"gb","latitude":51.509865,"longitude":-0.118092,"reserved":0,"last_update":"0001-01-01T00:00:00Z","name_a2s":"Uncletopia | London | 6 | All Maps","protocol":17,"map":"koth_highpass","folder":"tf","game":"Team Fortress","app_id":440,"player_count":0,"max_players":24,"Bots":0,"server_type":"Dedicated","server_os":"Linux","password":true,"vac":true,"version":"7757534","steam_id":85568392924742830,"keywords":["cp","nocrits","nodmgspread","uncletopia"],"game_id":440,"stv_port":27066,"stv_name":"Uncletopia | London | 6 | All Maps | STV","players":null},{"server_id":40,"name":"Uncletopia | London | 7 | No Payload","name_short":"lon-7","host":"lon-1.uk.uncletopia.com","port":27075,"enabled":true,"region":"eu","cc":"gb","latitude":51.509865,"longitude":-0.118092,"reserved":0,"last_update":"0001-01-01T00:00:00Z","name_a2s":"Uncletopia | London | 7 | No Payload","protocol":17,"map":"koth_highpass","folder":"tf","game":"Team Fortress","app_id":440,"player_count":0,"max_players":24,"Bots":0,"server_type":"Dedicated","server_os":"Linux","password":true,"vac":true,"version":"7757534","steam_id":85568392924964314,"keywords":["cp","nocrits","nodmgspread","uncletopia"],"game_id":440,"stv_port":27076,"stv_name":"Uncletopia | London | 7 | No Payload | STV","players":null},{"server_id":41,"name":"Uncletopia | London | 8 | Community","name_short":"lon-8","host":"lon-1.uk.uncletopia.com","port":27085,"enabled":true,"region":"eu","cc":"gb","latitude":51.509865,"longitude":-0.118092,"reserved":0,"last_update":"0001-01-01T00:00:00Z","name_a2s":"Uncletopia | London | 8 | Community","protocol":17,"map":"workshop/koth_trenchfoot_b1a.ugc731436616","folder":"tf","game":"Team Fortress","app_id":440,"player_count":0,"max_players":24,"Bots":0,"server_type":"Dedicated","server_os":"Linux","password":true,"vac":true,"version":"7757534","steam_id":85568392924964315,"keywords":["cp","nocrits","nodmgspread","uncletopia"],"game_id":440,"stv_port":27086,"stv_name":"Uncletopia | London | 8 | Community | STV","players":null},{"server_id":300,"name":"Uncletopia | Montr√©al | 1 | All Maps","name_short":"mtl-1","host":"mtl-1.ca.uncletopia.com","port":27015,"enabled":true,"region":"us-east","cc":"ca","latitude":45.50889,"longitude":-73.56167,"reserved":0,"last_update":"0001-01-01T00:00:00Z","name_a2s":"Uncletopia | Montr√©al | 1 | All Maps","protocol":17,"map":"cp_altitude","folder":"tf","game":"Team Fortress","app_id":440,"player_count":2,"max_players":24,"Bots":0,"server_type":"Dedicated","server_os":"Linux","password":true,"vac":true,"version":"7757534","steam_id":85568392924500087,"keywords":["cp","nocrits","nodmgspread","uncletopia"],"game_id":440,"stv_port":27016,"stv_name":"Uncletopia | Montr√©al | 1 | All Maps | STV","players":[{"user_id":4,"name":"Piyono","steam_id":76561197962188504,"connected_time":692000000000,"state":"active","ping":60},{"user_id":5,"name":"Husky Acres Employee","steam_id":76561199027981643,"connected_time":586000000000,"state":"active","ping":73}]},{"server_id":301,"name":"Uncletopia | Montr√©al | 2 | All Maps","name_short":"mtl-2","host":"mtl-1.ca.uncletopia.com","port":27025,"enabled":true,"region":"us-east","cc":"ca","latitude":45.50889,"longitude":-73.56167,"reserved":0,"last_update":"0001-01-01T00:00:00Z","name_a2s":"Uncletopia | Montr√©al | 2 | All Maps","protocol":17,"map":"cp_sunshine","folder":"tf","game":"Team Fortress","app_id":440,"player_count":0,"max_players":24,"Bots":0,"server_type":"Dedicated","server_os":"Linux","password":true,"vac":true,"version":"7757534","steam_id":85568392924500088,"keywords":["cp","nocrits","nodmgspread","uncletopia"],"game_id":440,"stv_port":27026,"stv_name":"Uncletopia | Montr√©al | 2 | All Maps | STV","players":null},{"server_id":302,"name":"Uncletopia | Montr√©al | 3 | All Maps","name_short":"mtl-3","host":"mtl-1.ca.uncletopia.com","port":27035,"enabled":true,"region":"us-east","cc":"ca","latitude":45.50889,"longitude":-73.56167,"reserved":0,"last_update":"0001-01-01T00:00:00Z","name_a2s":"Uncletopia | Montr√©al | 3 | All Maps","protocol":17,"map":"pl_badwater","folder":"tf","game":"Team Fortress","app_id":440,"player_count":0,"max_players":24,"Bots":0,"server_type":"Dedicated","server_os":"Linux","password":true,"vac":true,"version":"7757534","steam_id":85568392924500089,"keywords":["nocrits","nodmgspread","payload","uncletopia"],"game_id":440,"stv_port":27036,"stv_name":"Uncletopia | Montr√©al | 3 | All Maps | STV","players":null},{"server_id":303,"name":"Uncletopia | Montr√©al | 4 | No Payload","name_short":"mtl-4","host":"mtl-1.ca.uncletopia.com","port":27045,"enabled":true,"region":"us-east","cc":"ca","latitude":45.50889,"longitude":-73.56167,"reserved":0,"last_update":"0001-01-01T00:00:00Z","name_a2s":"Uncletopia | Montr√©al | 4 | No Payload","protocol":17,"map":"pl_pier","folder":"tf","game":"Team Fortress","app_id":440,"player_count":0,"max_players":24,"Bots":0,"server_type":"Dedicated","server_os":"Linux","password":true,"vac":true,"version":"7757534","steam_id":85568392924500090,"keywords":["nocrits","nodmgspread","payload","uncletopia"],"game_id":440,"stv_port":27046,"stv_name":"Uncletopia | Montr√©al | 4 | No Payload | STV","players":null},{"server_id":13,"name":"Uncletopia | New York City | 1 | All Maps","name_short":"nyc-1","host":"nyc-1.us.uncletopia.com","port":27015,"enabled":true,"region":"us-east","cc":"us","latitude":40.73061,"longitude":-73.93524,"reserved":0,"last_update":"0001-01-01T00:00:00Z","name_a2s":"Uncletopia | New York City | 1 | All Maps","protocol":17,"map":"koth_highpass","folder":"tf","game":"Team Fortress","app_id":440,"player_count":2,"max_players":24,"Bots":0,"server_type":"Dedicated","server_os":"Linux","password":true,"vac":true,"version":"7757534","steam_id":85568392924469993,"keywords":["cp","nocrits","nodmgspread","uncletopia"],"game_id":440,"stv_port":27016,"stv_name":"Uncletopia | New York City | 1 | All Maps | STV","players":[{"user_id":23,"name":"Beep","steam_id":76561199024804191,"connected_time":252000000000,"state":"active","ping":240},{"user_id":24,"name":"TenderBender","steam_id":76561199198187762,"connected_time":231000000000,"state":"active","ping":281}]},{"server_id":14,"name":"Uncletopia | New York City | 2 | All Maps","name_short":"nyc-2","host":"nyc-1.us.uncletopia.com","port":27025,"enabled":true,"region":"us-east","cc":"us","latitude":40.73061,"longitude":-73.93524,"reserved":0,"last_update":"0001-01-01T00:00:00Z","name_a2s":"Uncletopia | New York City | 2 | All Maps","protocol":17,"map":"cp_sunshine","folder":"tf","game":"Team Fortress","app_id":440,"player_count":13,"max_players":24,"Bots":0,"server_type":"Dedicated","server_os":"Linux","password":true,"vac":true,"version":"7757534","steam_id":85568392924469994,"keywords":["cp","nocrits","nodmgspread","uncletopia"],"game_id":440,"stv_port":27026,"stv_name":"Uncletopia | New York City | 2 | All Maps | STV","players":[{"user_id":124,"name":"Kevin the Minion","steam_id":76561198052380794,"connected_time":460000000000,"state":"active","ping":74},{"user_id":119,"name":"gnome (wanted felon)","steam_id":76561199229771413,"connected_time":982000000000,"state":"active","ping":83},{"user_id":129,"name":"JO√ÉO MIGUEL","steam_id":76561198066297489,"connected_time":121000000000,"state":"active","ping":133},{"user_id":130,"name":"arii","steam_id":76561198247905096,"connected_time":113000000000,"state":"active","ping":71},{"user_id":131,"name":"Post nut clarity","steam_id":76561198060246831,"connected_time":17000000000,"state":"active","ping":73},{"user_id":132,"name":"üÖúüÖîüÖîüÖöüÖ¢üÖ£üÖî\ufffd\ufffd\ufffd","steam_id":76561197999748343,"connected_time":17000000000,"state":"active","ping":67},{"user_id":127,"name":"fuckface","steam_id":76561198010059466,"connected_time":208000000000,"state":"active","ping":44},{"user_id":133,"name":"Blitzy","steam_id":76561198149472890,"connected_time":15000000000,"state":"spawning","ping":92},{"user_id":108,"name":"Reisen","steam_id":76561197968832019,"connected_time":1590000000000,"state":"active","ping":40},{"user_id":122,"name":"Fly_Johnson","steam_id":76561198882285873,"connected_time":889000000000,"state":"active","ping":46},{"user_id":121,"name":"TwOFAsT","steam_id":76561198992543924,"connected_time":965000000000,"state":"active","ping":70},{"user_id":111,"name":"demonstrations man","steam_id":76561198362195862,"connected_time":1569000000000,"state":"active","ping":75},{"user_id":116,"name":"Chaotic Rushu","steam_id":76561198170054407,"connected_time":1182000000000,"state":"active","ping":62}]},{"server_id":15,"name":"Uncletopia | New York City | 3 | Stopwatch Beta","name_short":"nyc-3","host":"nyc-1.us.uncletopia.com","port":27035,"enabled":true,"region":"us-east","cc":"us","latitude":40.73061,"longitude":-73.93524,"reserved":0,"last_update":"0001-01-01T00:00:00Z","name_a2s":"Uncletopia | New York City | 3 | Stopwatch Beta","protocol":17,"map":"workshop/pl_summercoast_rc8e.ugc1761528829","folder":"tf","game":"Team Fortress","app_id":440,"player_count":0,"max_players":24,"Bots":0,"server_type":"Dedicated","server_os":"Linux","password":true,"vac":true,"version":"7757534","steam_id":85568392924742820,"keywords":["nocrits","nodmgspread","payload","uncletopia"],"game_id":440,"stv_port":27036,"stv_name":"Uncletopia | New York City | 3 | Stopwatch Beta | STV","players":null},{"server_id":16,"name":"Uncletopia | New York City | 4 | Community","name_short":"nyc-4","host":"nyc-1.us.uncletopia.com","port":27045,"enabled":true,"region":"us-east","cc":"us","latitude":40.73061,"longitude":-73.93524,"reserved":0,"last_update":"0001-01-01T00:00:00Z","name_a2s":"Uncletopia | New York City | 4 | Community","protocol":17,"map":"workshop/pl_corrode_rc2.ugc546577989","folder":"tf","game":"Team Fortress","app_id":440,"player_count":0,"max_players":24,"Bots":0,"server_type":"Dedicated","server_os":"Linux","password":true,"vac":true,"version":"7757534","steam_id":85568392924742821,"keywords":["nocrits","nodmgspread","payload","uncletopia"],"game_id":440,"stv_port":27046,"stv_name":"Uncletopia | New York City | 4 | Community | STV","players":null},{"server_id":142,"name":"Uncletopia | S√£o Paulo | 1 | All Maps","name_short":"sao-1","host":"sao-1.br.uncletopia.com","port":27015,"enabled":true,"region":"sa","cc":"br","latitude":-23.533773,"longitude":-46.62529,"reserved":0,"last_update":"0001-01-01T00:00:00Z","name_a2s":"Uncletopia | S√£o Paulo | 1 | All Maps","protocol":17,"map":"cp_snakewater_final1","folder":"tf","game":"Team Fortress","app_id":440,"player_count":0,"max_players":24,"Bots":0,"server_type":"Dedicated","server_os":"Linux","password":true,"vac":true,"version":"7757534","steam_id":85568392924469996,"keywords":["cp","nocrits","nodmgspread","uncletopia"],"game_id":440,"stv_port":27016,"stv_name":"Uncletopia | S√£o Paulo | 1 | All Maps | STV","players":null},{"server_id":143,"name":"Uncletopia | S√£o Paulo | 2 | All Maps","name_short":"sao-2","host":"sao-2.br.uncletopia.com","port":27015,"enabled":true,"region":"sa","cc":"br","latitude":-23.533773,"longitude":-46.62529,"reserved":0,"last_update":"0001-01-01T00:00:00Z","name_a2s":"Uncletopia | S√£o Paulo | 2 | All Maps","protocol":17,"map":"cp_sunshine","folder":"tf","game":"Team Fortress","app_id":440,"player_count":0,"max_players":24,"Bots":0,"server_type":"Dedicated","server_os":"Linux","password":true,"vac":true,"version":"7757534","steam_id":85568392924485349,"keywords":["cp","nocrits","nodmgspread","uncletopia"],"game_id":440,"stv_port":27016,"stv_name":"Uncletopia | S√£o Paulo | 2 | All Maps | STV","players":null},{"server_id":7,"name":"Uncletopia | Seattle | 1 | All Maps","name_short":"sea-1","host":"sea-1.us.uncletopia.com","port":27015,"enabled":true,"region":"us-west","cc":"us","latitude":47.608013,"longitude":-122.33517,"reserved":0,"last_update":"0001-01-01T00:00:00Z","name_a2s":"Uncletopia | Seattle | 1 | All Maps","protocol":17,"map":"pl_borneo","folder":"tf","game":"Team Fortress","app_id":440,"player_count":24,"max_players":24,"Bots":0,"server_type":"Dedicated","server_os":"Linux","password":true,"vac":true,"version":"7757534","steam_id":85568392924469997,"keywords":["nocrits","nodmgspread","payload","uncletopia"],"game_id":440,"stv_port":27016,"stv_name":"Uncletopia | Seattle | 1 | All Maps | STV","players":[{"user_id":249,"name":"Chin","steam_id":76561198247426906,"connected_time":4832000000000,"state":"active","ping":146},{"user_id":295,"name":"jawnymac","steam_id":76561198179529599,"connected_time":1374000000000,"state":"active","ping":67},{"user_id":270,"name":"WACKY JIM","steam_id":76561198961641122,"connected_time":3356000000000,"state":"active","ping":58},{"user_id":327,"name":"Straight White Male","steam_id":76561199234350287,"connected_time":314000000000,"state":"active","ping":115},{"user_id":293,"name":"Saint Pablo","steam_id":76561198083300159,"connected_time":1388000000000,"state":"active","ping":70},{"user_id":294,"name":"FireFighter_Jeffery","steam_id":76561198070823022,"connected_time":1388000000000,"state":"active","ping":71},{"user_id":259,"name":"Donkitus","steam_id":76561198101336551,"connected_time":4032000000000,"state":"active","ping":40},{"user_id":291,"name":"Mignyanne :3","steam_id":76561198048754056,"connected_time":1480000000000,"state":"active","ping":66},{"user_id":297,"name":"rat eater","steam_id":76561198955453886,"connected_time":1005000000000,"state":"active","ping":86},{"user_id":238,"name":"Hottodoggu","steam_id":76561198084080712,"connected_time":5294000000000,"state":"active","ping":92},{"user_id":331,"name":"demomanfan2008","steam_id":76561198077030486,"connected_time":282000000000,"state":"active","ping":66},{"user_id":266,"name":"„Ä£dust„Ä£ -she/it-","steam_id":76561198045218909,"connected_time":3440000000000,"state":"active","ping":40},{"user_id":287,"name":"Eris","steam_id":76561199471434875,"connected_time":2205000000000,"state":"active","ping":38},{"user_id":332,"name":"Smyles","steam_id":76561198856210005,"connected_time":275000000000,"state":"active","ping":115},{"user_id":342,"name":"H4V0C","steam_id":76561199129350925,"connected_time":30000000000,"state":"active","ping":59},{"user_id":283,"name":"‚úø PoutyBun ‚úø","steam_id":76561197965762847,"connected_time":2573000000000,"state":"active","ping":32},{"user_id":292,"name":"GalacticQuasaur","steam_id":76561199066172937,"connected_time":1396000000000,"state":"active","ping":91},{"user_id":290,"name":"Sticky Ethan","steam_id":76561198277211625,"connected_time":1602000000000,"state":"active","ping":78},{"user_id":281,"name":"Luca","steam_id":76561198125087140,"connected_time":2685000000000,"state":"active","ping":37},{"user_id":260,"name":"jacix3 [gay wolfgirl]{she/it}","steam_id":76561198205004165,"connected_time":4032000000000,"state":"active","ping":62},{"user_id":333,"name":"jungus","steam_id":76561198129862008,"connected_time":274000000000,"state":"active","ping":76},{"user_id":340,"name":"Google","steam_id":76561198857237473,"connected_time":163000000000,"state":"active","ping":46},{"user_id":341,"name":"JellyParrot","steam_id":76561199190990163,"connected_time":56000000000,"state":"active","ping":114},{"user_id":210,"name":"1dk","steam_id":76561198135104742,"connected_time":7307000000000,"state":"active","ping":54}]},{"server_id":119,"name":"Uncletopia | Seattle | 2 | All Maps","name_short":"sea-2","host":"sea-1.us.uncletopia.com","port":27025,"enabled":true,"region":"us-west","cc":"us","latitude":47.608013,"longitude":-122.33517,"reserved":0,"last_update":"0001-01-01T00:00:00Z","name_a2s":"Uncletopia | Seattle | 2 | All Maps","protocol":17,"map":"cp_process_final","folder":"tf","game":"Team Fortress","app_id":440,"player_count":24,"max_players":24,"Bots":0,"server_type":"Dedicated","server_os":"Linux","password":true,"vac":true,"version":"7757534","steam_id":85568392924469998,"keywords":["cp","nocrits","nodmgspread","uncletopia"],"game_id":440,"stv_port":27026,"stv_name":"Uncletopia | Seattle | 2 | All Maps | STV","players":[{"user_id":148,"name":"Lazy","steam_id":76561198802747832,"connected_time":163000000000,"state":"active","ping":49},{"user_id":114,"name":"Nibotshooter","steam_id":76561199284825579,"connected_time":2759000000000,"state":"active","ping":93},{"user_id":98,"name":"Sprucelass","steam_id":76561197998391724,"connected_time":4007000000000,"state":"active","ping":90},{"user_id":143,"name":"Elongated Muskrat","steam_id":76561198314501346,"connected_time":662000000000,"state":"active","ping":42},{"user_id":126,"name":"TheCowledWiz","steam_id":76561198016735868,"connected_time":2021000000000,"state":"active","ping":47},{"user_id":86,"name":"The Dumper","steam_id":76561198147302569,"connected_time":4770000000000,"state":"active","ping":144},{"user_id":88,"name":"Dietrich","steam_id":76561198028163840,"connected_time":4575000000000,"state":"active","ping":90},{"user_id":141,"name":"2008 Toyota Corolla","steam_id":76561199014681829,"connected_time":1050000000000,"state":"active","ping":59},{"user_id":125,"name":"oil","steam_id":76561198099980149,"connected_time":2110000000000,"state":"active","ping":78},{"user_id":129,"name":"Quansen","steam_id":76561198151594550,"connected_time":1563000000000,"state":"active","ping":94},{"user_id":142,"name":"garfield","steam_id":76561198114119308,"connected_time":690000000000,"state":"active","ping":105},{"user_id":130,"name":"obese farts","steam_id":76561198206922028,"connected_time":1544000000000,"state":"active","ping":80},{"user_id":80,"name":"ejschild745","steam_id":76561199013388867,"connected_time":5219000000000,"state":"active","ping":69},{"user_id":128,"name":"BlitzBrom","steam_id":76561197962231714,"connected_time":1694000000000,"state":"active","ping":59},{"user_id":104,"name":"Gooner Witch","steam_id":76561198305488625,"connected_time":3411000000000,"state":"active","ping":72},{"user_id":144,"name":"Five","steam_id":76561198026640473,"connected_time":590000000000,"state":"active","ping":53},{"user_id":149,"name":"worker","steam_id":76561198039608940,"connected_time":1000000000,"state":"spawning","ping":30},{"user_id":145,"name":"peep lord","steam_id":76561198127485122,"connected_time":498000000000,"state":"active","ping":61},{"user_id":147,"name":"heimdall","steam_id":76561198069380992,"connected_time":325000000000,"state":"active","ping":113},{"user_id":137,"name":"Cheese Fiend","steam_id":76561198053602591,"connected_time":1372000000000,"state":"active","ping":108},{"user_id":134,"name":"Quietsharp","steam_id":76561198277968438,"connected_time":1399000000000,"state":"active","ping":82},{"user_id":116,"name":"grugposter","steam_id":76561198035805348,"connected_time":2713000000000,"state":"active","ping":33},{"user_id":146,"name":"Gato","steam_id":76561198063521721,"connected_time":401000000000,"state":"active","ping":106},{"user_id":78,"name":"Mike's Pimento Cheese Sandwich","steam_id":76561198978499219,"connected_time":5549000000000,"state":"active","ping":79}]},{"server_id":406,"name":"Uncletopia | Seattle | 3 | Stopwatch Beta","name_short":"sea-3","host":"sea-1.us.uncletopia.com","port":27035,"enabled":true,"region":"us-west","cc":"us","latitude":47.608013,"longitude":-122.33517,"reserved":0,"last_update":"0001-01-01T00:00:00Z","name_a2s":"Uncletopia | Seattle | 3 | Stopwatch Beta","protocol":17,"map":"koth_highpass","folder":"tf","game":"Team Fortress","app_id":440,"player_count":3,"max_players":24,"Bots":0,"server_type":"Dedicated","server_os":"Linux","password":true,"vac":true,"version":"7757534","steam_id":85568392924515217,"keywords":["cp","nocrits","nodmgspread","uncletopia"],"game_id":440,"stv_port":27036,"stv_name":"Uncletopia | Seattle | 3 | Stopwatch Beta | STV","players":[{"user_id":7,"name":"Dad 2","steam_id":76561198138546187,"connected_time":884000000000,"state":"active","ping":125},{"user_id":9,"name":"Become girl, transition gender","steam_id":76561198200961750,"connected_time":841000000000,"state":"active","ping":70},{"user_id":10,"name":"Ilovermenderman","steam_id":76561199106098061,"connected_time":410000000000,"state":"active","ping":87}]},{"server_id":17,"name":"Uncletopia | San Francisco | 1 | All Maps","name_short":"sfo-1","host":"sfo-1.us.uncletopia.com","port":27015,"enabled":true,"region":"us-west","cc":"us","latitude":37.77397,"longitude":-122.4313,"reserved":0,"last_update":"0001-01-01T00:00:00Z","name_a2s":"Uncletopia | San Francisco | 1 | All Maps","protocol":17,"map":"cp_steel","folder":"tf","game":"Team Fortress","app_id":440,"player_count":24,"max_players":24,"Bots":0,"server_type":"Dedicated","server_os":"Linux","password":true,"vac":true,"version":"7757534","steam_id":85568392924469999,"keywords":["cp","nocrits","nodmgspread","uncletopia"],"game_id":440,"stv_port":27016,"stv_name":"Uncletopia | San Francisco | 1 | All Maps | STV","players":[{"user_id":238,"name":"Derpydude2002","steam_id":76561198811719519,"connected_time":2798000000000,"state":"active","ping":123},{"user_id":271,"name":"/r/circumcision","steam_id":76561198045926594,"connected_time":613000000000,"state":"active","ping":60},{"user_id":267,"name":"Pine Tree","steam_id":76561198112323877,"connected_time":1256000000000,"state":"active","ping":138},{"user_id":269,"name":"Antonpirulero10","steam_id":76561198253036781,"connected_time":829000000000,"state":"active","ping":97},{"user_id":250,"name":"BasedGod","steam_id":76561198061177973,"connected_time":1963000000000,"state":"active","ping":45},{"user_id":255,"name":"Green‚Ñ¢","steam_id":76561198136522734,"connected_time":1768000000000,"state":"active","ping":116},{"user_id":235,"name":"Zoboomafoo","steam_id":76561198046073848,"connected_time":2854000000000,"state":"active","ping":60},{"user_id":261,"name":"Chasubi","steam_id":76561197971618983,"connected_time":1467000000000,"state":"active","ping":90},{"user_id":263,"name":"DavisE","steam_id":76561198075504309,"connected_time":1306000000000,"state":"active","ping":86},{"user_id":237,"name":"Grzegorz Brzƒôczyszczykiewicz","steam_id":76561198229010452,"connected_time":2844000000000,"state":"active","ping":76},{"user_id":262,"name":"Drive-By-Fish-Guy","steam_id":76561198105513652,"connected_time":1451000000000,"state":"active","ping":66},{"user_id":268,"name":"MrHope","steam_id":76561197970434154,"connected_time":1223000000000,"state":"active","ping":85},{"user_id":272,"name":"Goymer","steam_id":76561198095445183,"connected_time":612000000000,"state":"active","ping":69},{"user_id":233,"name":"Skullgirls enjoyer","steam_id":76561198077811162,"connected_time":2877000000000,"state":"active","ping":58},{"user_id":210,"name":"Megumin The Queen of Explosion","steam_id":76561198078791160,"connected_time":3804000000000,"state":"active","ping":163},{"user_id":260,"name":"TriHerdOmniFlow","steam_id":76561198088688531,"connected_time":1571000000000,"state":"active","ping":135},{"user_id":239,"name":"rmbl","steam_id":76561198150137369,"connected_time":2692000000000,"state":"active","ping":59},{"user_id":244,"name":"ForAPessimistImPrettyOptimistic","steam_id":76561198170128009,"connected_time":2377000000000,"state":"active","ping":59},{"user_id":274,"name":"r u guys going trick or treatin","steam_id":76561199074585110,"connected_time":20000000000,"state":"spawning","ping":91},{"user_id":266,"name":"Julia","steam_id":76561198175727790,"connected_time":1277000000000,"state":"active","ping":50},{"user_id":270,"name":"butcher pete","steam_id":76561197963872739,"connected_time":746000000000,"state":"active","ping":32},{"user_id":246,"name":"Brando","steam_id":76561198078306678,"connected_time":2201000000000,"state":"active","ping":68},{"user_id":248,"name":"Ogre Commander","steam_id":76561198124066405,"connected_time":2144000000000,"state":"active","ping":56},{"user_id":273,"name":"mr.edderkopper","steam_id":76561198152614478,"connected_time":346000000000,"state":"active","ping":99}]},{"server_id":18,"name":"Uncletopia | San Francisco | 2 | All Maps","name_short":"sfo-2","host":"sfo-1.us.uncletopia.com","port":27025,"enabled":true,"region":"us-west","cc":"us","latitude":37.77397,"longitude":-122.4313,"reserved":0,"last_update":"0001-01-01T00:00:00Z","name_a2s":"Uncletopia | San Francisco | 2 | All Maps","protocol":17,"map":"koth_viaduct","folder":"tf","game":"Team Fortress","app_id":440,"player_count":0,"max_players":24,"Bots":0,"server_type":"Dedicated","server_os":"Linux","password":true,"vac":true,"version":"7757534","steam_id":85568392924470000,"keywords":["cp","nocrits","nodmgspread","uncletopia"],"game_id":440,"stv_port":27026,"stv_name":"Uncletopia | San Francisco | 2 | All Maps | STV","players":null},{"server_id":19,"name":"Uncletopia | San Francisco | 3 | Stopwatch Beta","name_short":"sfo-3","host":"sfo-1.us.uncletopia.com","port":27035,"enabled":true,"region":"us-west","cc":"us","latitude":37.77397,"longitude":-122.4313,"reserved":0,"last_update":"0001-01-01T00:00:00Z","name_a2s":"Uncletopia | San Francisco | 3 | Stopwatch Beta","protocol":17,"map":"workshop/pl_barnblitz_pro7.ugc582280235","folder":"tf","game":"Team Fortress","app_id":440,"player_count":0,"max_players":24,"Bots":0,"server_type":"Dedicated","server_os":"Linux","password":true,"vac":true,"version":"7757534","steam_id":85568392924742824,"keywords":["nocrits","nodmgspread","payload","uncletopia"],"game_id":440,"stv_port":27036,"stv_name":"Uncletopia | San Francisco | 3 | Stopwatch Beta | STV","players":null},{"server_id":20,"name":"Uncletopia | San Francisco | 4 | Community","name_short":"sfo-4","host":"sfo-1.us.uncletopia.com","port":27045,"enabled":true,"region":"us-west","cc":"us","latitude":37.77397,"longitude":-122.4313,"reserved":0,"last_update":"0001-01-01T00:00:00Z","name_a2s":"Uncletopia | San Francisco | 4 | Community","protocol":17,"map":"workshop/cp_kalinka_rc6a.ugc1272700588","folder":"tf","game":"Team Fortress","app_id":440,"player_count":0,"max_players":24,"Bots":0,"server_type":"Dedicated","server_os":"Linux","password":true,"vac":true,"version":"7757534","steam_id":85568392924742826,"keywords":["cp","nocrits","nodmgspread","uncletopia"],"game_id":440,"stv_port":27046,"stv_name":"Uncletopia | San Francisco | 4 | Community | STV","players":null},{"server_id":141,"name":"Uncletopia | Sydney | 1 | All Maps","name_short":"syd-1","host":"syd-1.au.uncletopia.com","port":27015,"enabled":true,"region":"au","cc":"au","latitude":-33.865143,"longitude":151.2099,"reserved":0,"last_update":"0001-01-01T00:00:00Z","name_a2s":"Uncletopia | Sydney | 1 | All Maps","protocol":17,"map":"pl_borneo","folder":"tf","game":"Team Fortress","app_id":440,"player_count":0,"max_players":24,"Bots":0,"server_type":"Dedicated","server_os":"Linux","password":true,"vac":true,"version":"7757534","steam_id":85568392924470001,"keywords":["nocrits","nodmgspread","payload","uncletopia"],"game_id":440,"stv_port":27016,"stv_name":"Uncletopia | Sydney | 1 | All Maps | STV","players":null},{"server_id":123,"name":"Uncletopia | Sydney | 2 | All Maps","name_short":"syd-2","host":"syd-1.au.uncletopia.com","port":27025,"enabled":true,"region":"au","cc":"au","latitude":-33.865143,"longitude":151.2099,"reserved":0,"last_update":"0001-01-01T00:00:00Z","name_a2s":"Uncletopia | Sydney | 2 | All Maps","protocol":17,"map":"cp_snakewater_final1","folder":"tf","game":"Team Fortress","app_id":440,"player_count":0,"max_players":24,"Bots":0,"server_type":"Dedicated","server_os":"Linux","password":true,"vac":true,"version":"7757534","steam_id":85568392924470002,"keywords":["cp","nocrits","nodmgspread","uncletopia"],"game_id":440,"stv_port":27026,"stv_name":"Uncletopia | Sydney | 2 | All Maps | STV","players":null},{"server_id":395,"name":"Uncletopia | Sydney | 3 | All Maps","name_short":"syd-3","host":"syd-1.au.uncletopia.com","port":27035,"enabled":true,"region":"au","cc":"au","latitude":-33.865143,"longitude":151.2099,"reserved":0,"last_update":"0001-01-01T00:00:00Z","name_a2s":"Uncletopia | Sydney | 3 | All Maps","protocol":17,"map":"koth_highpass","folder":"tf","game":"Team Fortress","app_id":440,"player_count":0,"max_players":24,"Bots":0,"server_type":"Dedicated","server_os":"Linux","password":true,"vac":true,"version":"7757534","steam_id":85568392925194467,"keywords":["cp","nocrits","nodmgspread","uncletopia"],"game_id":440,"stv_port":27036,"stv_name":"Uncletopia | Sydney | 3 | All Maps | STV","players":null},{"server_id":396,"name":"Uncletopia | Sydney | 4 | All Maps","name_short":"syd-4","host":"syd-1.au.uncletopia.com","port":27045,"enabled":true,"region":"au","cc":"au","latitude":-33.865143,"longitude":151.2099,"reserved":0,"last_update":"0001-01-01T00:00:00Z","name_a2s":"Uncletopia | Sydney | 4 | All Maps","protocol":17,"map":"pl_snowycoast","folder":"tf","game":"Team Fortress","app_id":440,"player_count":0,"max_players":24,"Bots":0,"server_type":"Dedicated","server_os":"Linux","password":true,"vac":true,"version":"7757534","steam_id":85568392925397958,"keywords":["nocrits","nodmgspread","payload","uncletopia"],"game_id":440,"stv_port":27046,"stv_name":"Uncletopia | Sydney | 4 | All Maps | STV","players":null},{"server_id":58,"name":"Uncletopia | Sydney | 5 | Stopwatch Beta","name_short":"syd-5","host":"syd-1.au.uncletopia.com","port":27055,"enabled":true,"region":"au","cc":"au","latitude":-33.865143,"longitude":151.2099,"reserved":0,"last_update":"0001-01-01T00:00:00Z","name_a2s":"Uncletopia | Sydney | 5 | Stopwatch Beta","protocol":17,"map":"koth_cascade","folder":"tf","game":"Team Fortress","app_id":440,"player_count":0,"max_players":24,"Bots":0,"server_type":"Dedicated","server_os":"Linux","password":true,"vac":true,"version":"7757534","steam_id":85568392925397959,"keywords":["cp","nocrits","nodmgspread","uncletopia"],"game_id":440,"stv_port":27056,"stv_name":"Uncletopia | Sydney | 5 | Stopwatch Beta | STV","players":null},{"server_id":59,"name":"Uncletopia | Sydney | 6 | Community","name_short":"syd-6","host":"syd-1.au.uncletopia.com","port":27065,"enabled":true,"region":"au","cc":"au","latitude":-33.865143,"longitude":151.2099,"reserved":0,"last_update":"0001-01-01T00:00:00Z","name_a2s":"Uncletopia | Sydney | 6 | Community","protocol":17,"map":"pl_badwater","folder":"tf","game":"Team Fortress","app_id":440,"player_count":0,"max_players":24,"Bots":0,"server_type":"Dedicated","server_os":"Linux","password":true,"vac":true,"version":"7757534","steam_id":85568392925397960,"keywords":["nocrits","nodmgspread","payload","uncletopia"],"game_id":440,"stv_port":27066,"stv_name":"Uncletopia | Sydney | 6 | Community | STV","players":null},{"server_id":49,"name":"Uncletopia | Warsaw | 1 | All Maps","name_short":"waw-1","host":"waw-1.pl.uncletopia.com","port":27015,"enabled":true,"region":"eu","cc":"pl","latitude":52.2297,"longitude":21.017532,"reserved":0,"last_update":"0001-01-01T00:00:00Z","name_a2s":"","protocol":0,"map":"","folder":"","game":"","app_id":0,"player_count":0,"max_players":0,"Bots":0,"server_type":"","server_os":"","password":false,"vac":false,"version":"","steam_id":0,"keywords":null,"game_id":0,"stv_port":0,"stv_name":"","players":null},{"server_id":50,"name":"Uncletopia | Warsaw | 2 | All Maps","name_short":"waw-2","host":"waw-1.pl.uncletopia.com","port":27025,"enabled":true,"region":"eu","cc":"pl","latitude":52.2297,"longitude":21.017532,"reserved":0,"last_update":"0001-01-01T00:00:00Z","name_a2s":"Uncletopia | Warsaw | 2 | All Maps","protocol":17,"map":"koth_highpass","folder":"tf","game":"Team Fortress","app_id":440,"player_count":0,"max_players":24,"Bots":0,"server_type":"Dedicated","server_os":"Linux","password":true,"vac":true,"version":"7757534","steam_id":85568392925397851,"keywords":["cp","nocrits","nodmgspread","uncletopia"],"game_id":440,"stv_port":27026,"stv_name":"Uncletopia | Warsaw | 2 | All Maps | STV","players":null},{"server_id":51,"name":"Uncletopia | Warsaw | 3 | All Maps","name_short":"waw-3","host":"waw-1.pl.uncletopia.com","port":27035,"enabled":true,"region":"eu","cc":"pl","latitude":52.2297,"longitude":21.017532,"reserved":0,"last_update":"0001-01-01T00:00:00Z","name_a2s":"Uncletopia | Warsaw | 3 | All Maps","protocol":17,"map":"koth_lakeside_final","folder":"tf","game":"Team Fortress","app_id":440,"player_count":0,"max_players":24,"Bots":0,"server_type":"Dedicated","server_os":"Linux","password":true,"vac":true,"version":"7757534","steam_id":85568392925397852,"keywords":["cp","nocrits","nodmgspread","uncletopia"],"game_id":440,"stv_port":27036,"stv_name":"Uncletopia | Warsaw | 3 | All Maps | STV","players":null},{"server_id":52,"name":"Uncletopia | Warsaw | 4 | All Maps","name_short":"waw-4","host":"waw-1.pl.uncletopia.com","port":27045,"enabled":true,"region":"eu","cc":"pl","latitude":52.2297,"longitude":21.017532,"reserved":0,"last_update":"0001-01-01T00:00:00Z","name_a2s":"Uncletopia | Warsaw | 4 | All Maps","protocol":17,"map":"cp_process_final","folder":"tf","game":"Team Fortress","app_id":440,"player_count":0,"max_players":24,"Bots":0,"server_type":"Dedicated","server_os":"Linux","password":true,"vac":true,"version":"7757534","steam_id":85568392925397853,"keywords":["cp","nocrits","nodmgspread","uncletopia"],"game_id":440,"stv_port":27046,"stv_name":"Uncletopia | Warsaw | 4 | All Maps | STV","players":null},{"server_id":53,"name":"Uncletopia | Warsaw | 5 | Stopwatch Beta","name_short":"waw-5","host":"waw-1.pl.uncletopia.com","port":27055,"enabled":true,"region":"eu","cc":"pl","latitude":52.2297,"longitude":21.017532,"reserved":0,"last_update":"0001-01-01T00:00:00Z","name_a2s":"Uncletopia | Warsaw | 5 | Stopwatch Beta","protocol":17,"map":"pl_pier","folder":"tf","game":"Team Fortress","app_id":440,"player_count":0,"max_players":24,"Bots":0,"server_type":"Dedicated","server_os":"Linux","password":true,"vac":true,"version":"7757534","steam_id":85568392925397854,"keywords":["nocrits","nodmgspread","payload","uncletopia"],"game_id":440,"stv_port":27056,"stv_name":"Uncletopia | Warsaw | 5 | Stopwatch Beta | STV","players":null},{"server_id":54,"name":"Uncletopia | Warsaw | 6 | Community","name_short":"waw-6","host":"waw-1.pl.uncletopia.com","port":27065,"enabled":true,"region":"eu","cc":"pl","latitude":52.2297,"longitude":21.017532,"reserved":0,"last_update":"0001-01-01T00:00:00Z","name_a2s":"Uncletopia | Warsaw | 6 | Community","protocol":17,"map":"koth_highpass","folder":"tf","game":"Team Fortress","app_id":440,"player_count":0,"max_players":24,"Bots":0,"server_type":"Dedicated","server_os":"Linux","password":true,"vac":true,"version":"7757534","steam_id":85568392925397856,"keywords":["cp","nocrits","nodmgspread","uncletopia"],"game_id":440,"stv_port":27066,"stv_name":"Uncletopia | Warsaw | 6 | Community | STV","players":null}]}