{"status":true,"message":"","result":[{"server_id":9,"name":"Uncletopia | Atlanta | 1 | All Maps","name_short":"atl-1","host":"atl-1.us.uncletopia.com","port":27015,"enabled":true,"region":"us-east","cc":"us","latitude":33.753746,"longitude":-84.38633,"reserved":0,"last_update":"0001-01-01T00:00:00Z","name_a2s":"Uncletopia | Atlanta | 1 | All Maps","protocol":17,"map":"cp_snakewater_final1","folder":"tf","game":"Team Fortress","app_id":440,"player_count":0,"max_players":24,"Bots":0,"server_type":"Dedicated","server_os":"Linux","password":false,"vac":true,"version":"7961495","steam_id":85568392924469982,"keywords":["cp","nocrits","nodmgspread","uncletopia"],"game_id":440,"stv_port":27016,"stv_name":"Uncletopia | Atlanta | 1 | All Maps | STV","players":null},{"server_id":104,"name":"Uncletopia | Atlanta | 2 | All Maps","name_short":"atl-2","host":"atl-1.us.uncletopia.com","port":27025,"enabled":true,"region":"us-east","cc":"us","latitude":33.753746,"longitude":-84.38633,"reserved":0,"last_update":"0001-01-01T00:00:00Z","name_a2s":"Uncletopia | Atlanta | 2 | All Maps","protocol":17,"map":"cp_mountainlab","folder":"tf","game":"Team Fortress","app_id":440,"player_count":0,"max_players":24,"Bots":0,"server_type":"Dedicated","server_os":"Linux","password":false,"vac":true,"version":"7961495","steam_id":85568392924469983,"keywords":["cp","nocrits","nodmgspread","uncletopia"],"game_id":440,"stv_port":27026,"stv_name":"Uncletopia | Atlanta | 2 | All Maps | STV","players":null},{"server_id":400,"name":"Uncletopia | Atlanta | 3 | All Maps","name_short":"atl-3","host":"atl-1.us.uncletopia.com","port":27035,"enabled":true,"region":"us-east","cc":"us","latitude":33.753746,"longitude":-84.38633,"reserved":0,"last_update":"0001-01-01T00:00:00Z","name_a2s":"Uncletopia | Atlanta | 3 | All Maps","protocol":17,"map":"cp_process_final","folder":"tf","game":"Team Fortress","app_id":440,"player_count":0,"max_players":24,"Bots":0,"server_type":"Dedicated","server_os":"Linux","password":false,"vac":true,"version":"7961495","steam_id":85568392924515187,"keywords":["cp","nocrits","nodmgspread","uncletopia"],"game_id":440,"stv_port":27036,"stv_name":"Uncletopia | Atlanta | 3 | All Maps | STV","players":null},{"server_id":401,"name":"Uncletopia | Atlanta | 4 | Community","name_short":"atl-4","host":"atl-1.us.uncletopia.com","port":27045,"enabled":true,"region":"us-east","cc":"us","latitude":33.753746,"longitude":-84.38633,"reserved":0,"last_update":"0001-01-01T00:00:00Z","name_a2s":"Uncletopia | Atlanta | 4 | Community","protocol":17,"map":"koth_lakeside_final","folder":"tf","game":"Team Fortress","app_id":440,"player_count":0,"max_players":24,"Bots":0,"server_type":"Dedicated","server_os":"Linux","password":false,"vac":true,"version":"7961495","steam_id":85568392924515188,"keywords":["cp","nocrits","nodmgspread","uncletopia"],"game_id":440,"stv_port":27046,"stv_name":"Uncletopia | Atlanta | 4 | Community | STV","players":null},{"server_id":2,"name":"Uncletopia | Chicago | 1 | All Maps","name_short":"chi-1","host":"chi-1.us.uncletopia.com","port":27015,"enabled":true,"region":"us-central","cc":"us","latitude":41.881832,"longitude":-87.62318,"reserved":0,"last_update":"0001-01-01T00:00:00Z","name_a2s":"Uncletopia | Chicago | 1 | All Maps","protocol":17,"map":"pl_borneo","folder":"tf","game":"Team Fortress","app_id":440,"player_count":24,"max_players":24,"Bots":0,"server_type":"Dedicated","server_os":"Linux","password":true,"vac":true,"version":"7961495","steam_id":85568392924469984,"keywords":["nocrits","nodmgspread","payload","uncletopia"],"game_id":440,"stv_port":27016,"stv_name":"Uncletopia | Chicago | 1 | All Maps | STV","players":[{"user_id":59,"name":"Maverick","steam_id":76561198322829814,"connected_time":6536000000000,"state":"active","ping":78},{"user_id":122,"name":"Undertime Slopper","steam_id":76561198396789061,"connected_time":2707000000000,"state":"active","ping":86},{"user_id":120,"name":"Flowers","steam_id":76561198031669899,"connected_time":2781000000000,"state":"active","ping":85},{"user_id":148,"name":"Manchurian Bandit","steam_id":76561198072410042,"connected_time":166000000000,"state":"active","ping":107},{"user_id":142,"name":"DinkleBerg","steam_id":76561198891626233,"connected_time":587000000000,"state":"active","ping":62},{"user_id":103,"name":"Obelisk","steam_id":76561198049416866,"connected_time":4004000000000,"state":"active","ping":76},{"user_id":141,"name":"Soladach","steam_id":76561198091616441,"connected_time":595000000000,"state":"active","ping":77},{"user_id":139,"name":"Draconic Ballad","steam_id":76561198027191515,"connected_time":1078000000000,"state":"active","ping":46},{"user_id":38,"name":"blob","steam_id":76561198122375328,"connected_time":7342000000000,"state":"active","ping":59},{"user_id":91,"name":"Ras","steam_id":76561198123546775,"connected_time":4691000000000,"state":"active","ping":84},{"user_id":133,"name":"Twilight Princess","steam_id":76561198049460281,"connected_time":1591000000000,"state":"active","ping":62},{"user_id":143,"name":"smiscaasi","steam_id":76561198237041600,"connected_time":579000000000,"state":"active","ping":83},{"user_id":83,"name":"Milkmur","steam_id":76561198210043821,"connected_time":5421000000000,"state":"active","ping":65},{"user_id":137,"name":"Mug Moment Gaming","steam_id":76561198233098136,"connected_time":1564000000000,"state":"active","ping":56},{"user_id":136,"name":"Chode Mode","steam_id":76561198353840477,"connected_time":1572000000000,"state":"active","ping":45},{"user_id":138,"name":"Kainz","steam_id":76561197974267310,"connected_time":1361000000000,"state":"active","ping":84},{"user_id":76,"name":"Apetometrist","steam_id":76561198045391635,"connected_time":5630000000000,"state":"active","ping":64},{"user_id":144,"name":"Brown_Dream","steam_id":76561198975766145,"connected_time":573000000000,"state":"active","ping":84},{"user_id":147,"name":"tulpa","steam_id":76561198013253513,"connected_time":491000000000,"state":"active","ping":78},{"user_id":131,"name":"DinoGoof","steam_id":76561198998427283,"connected_time":1598000000000,"state":"active","ping":73},{"user_id":146,"name":"level 2 slime","steam_id":76561198830293087,"connected_time":525000000000,"state":"active","ping":43},{"user_id":110,"name":"Jango","steam_id":76561198084589742,"connected_time":3752000000000,"state":"active","ping":78},{"user_id":140,"name":"K. O. E.","steam_id":76561198025188490,"connected_time":1005000000000,"state":"active","ping":83},{"user_id":130,"name":"Hey All","steam_id":76561198303100290,"connected_time":1679000000000,"state":"active","ping":93}]},{"server_id":106,"name":"Uncletopia | Chicago | 2 | All Maps","name_short":"chi-2","host":"chi-1.us.uncletopia.com","port":27025,"enabled":true,"region":"us-central","cc":"us","latitude":41.881832,"longitude":-87.62318,"reserved":0,"last_update":"0001-01-01T00:00:00Z","name_a2s":"Uncletopia | Chicago | 2 | All Maps","protocol":17,"map":"pl_pier","folder":"tf","game":"Team Fortress","app_id":440,"player_count":24,"max_players":24,"Bots":0,"server_type":"Dedicated","server_os":"Linux","password":true,"vac":true,"version":"7961495","steam_id":85568392924469985,"keywords":["nocrits","nodmgspread","payload","uncletopia"],"game_id":440,"stv_port":27026,"stv_name":"Uncletopia | Chicago | 2 | All Maps | STV","players":[{"user_id":242,"name":"money getting 1 percenter","steam_id":76561198012796388,"connected_time":4140000000000,"state":"active","ping":49},{"user_id":253,"name":"Mr. Cheesey","steam_id":76561198153462183,"connected_time":3852000000000,"state":"active","ping":63},{"user_id":279,"name":"[NAME-REDACTED]","steam_id":76561198035682975,"connected_time":3054000000000,"state":"active","ping":66},{"user_id":296,"name":"he munch","steam_id":76561198339644583,"connected_time":2152000000000,"state":"active","ping":56},{"user_id":211,"name":"NorthStarGamer","steam_id":76561198308866066,"connected_time":4897000000000,"state":"active","ping":71},{"user_id":291,"name":"JamesBlakeFan11","steam_id":76561198440539769,"connected_time":2420000000000,"state":"active","ping":102},{"user_id":286,"name":"codeine demon","steam_id":76561198051015496,"connected_time":2661000000000,"state":"active","ping":101},{"user_id":303,"name":"skaska4","steam_id":76561198080606141,"connected_time":1246000000000,"state":"active","ping":75},{"user_id":282,"name":"merlin","steam_id":76561199164347838,"connected_time":2998000000000,"state":"active","ping":67},{"user_id":272,"name":"dolph","steam_id":76561198341304816,"connected_time":3597000000000,"state":"active","ping":92},{"user_id":304,"name":"DogsRNice","steam_id":76561198211490864,"connected_time":1220000000000,"state":"active","ping":85},{"user_id":284,"name":"Nibelsnarf","steam_id":76561198137642054,"connected_time":2724000000000,"state":"active","ping":60},{"user_id":280,"name":"Easey","steam_id":76561198230316868,"connected_time":3021000000000,"state":"active","ping":63},{"user_id":290,"name":"tris","steam_id":76561198160335315,"connected_time":2463000000000,"state":"active","ping":43},{"user_id":306,"name":"Garrett","steam_id":76561199215798445,"connected_time":1010000000000,"state":"active","ping":60},{"user_id":285,"name":"coffee bagel","steam_id":76561198141198352,"connected_time":2723000000000,"state":"active","ping":42},{"user_id":283,"name":"Aster","steam_id":76561198037920420,"connected_time":2864000000000,"state":"active","ping":78},{"user_id":309,"name":"lili","steam_id":76561199391478575,"connected_time":377000000000,"state":"active","ping":114},{"user_id":301,"name":"TheGrassMan (He/Him)","steam_id":76561198118984048,"connected_time":1355000000000,"state":"active","ping":74},{"user_id":307,"name":"Rein","steam_id":76561198300340427,"connected_time":591000000000,"state":"active","ping":61},{"user_id":305,"name":"Sucsubot","steam_id":76561198106456128,"connected_time":1161000000000,"state":"active","ping":69},{"user_id":299,"name":"ameritech","steam_id":76561198064769089,"connected_time":1980000000000,"state":"active","ping":55},{"user_id":300,"name":"A_Plush","steam_id":76561198147582451,"connected_time":1432000000000,"state":"active","ping":70},{"user_id":308,"name":"LazyLink76","steam_id":76561199013587983,"connected_time":579000000000,"state":"active","ping":91}]},{"server_id":402,"name":"Uncletopia | Chicago | 3 | All Maps","name_short":"chi-3","host":"chi-1.us.uncletopia.com","port":27035,"enabled":true,"region":"us-central","cc":"us","latitude":41.881832,"longitude":-87.62318,"reserved":0,"last_update":"0001-01-01T00:00:00Z","name_a2s":"Uncletopia | Chicago | 3 | All Maps","protocol":17,"map":"pl_upward","folder":"tf","game":"Team Fortress","app_id":440,"player_count":24,"max_players":24,"Bots":0,"server_type":"Dedicated","server_os":"Linux","password":true,"vac":true,"version":"7961495","steam_id":85568392924515191,"keywords":["nocrits","nodmgspread","payload","uncletopia"],"game_id":440,"stv_port":27036,"stv_name":"Uncletopia | Chicago | 3 | All Maps | STV","players":[{"user_id":609,"name":"viagra addict","steam_id":76561198017705248,"connected_time":215000000000,"state":"active","ping":47},{"user_id":578,"name":"MILKY","steam_id":76561198073114061,"connected_time":868000000000,"state":"active","ping":70},{"user_id":505,"name":"Kritzburgh","steam_id":76561198149466938,"connected_time":2024000000000,"state":"active","ping":61},{"user_id":499,"name":"juanGonzales_2008","steam_id":76561199133120527,"connected_time":2082000000000,"state":"active","ping":111},{"user_id":354,"name":"i46","steam_id":76561198031675881,"connected_time":10681000000000,"state":"active","ping":44},{"user_id":573,"name":"Bajanga.co","steam_id":76561199122049654,"connected_time":963000000000,"state":"active","ping":88},{"user_id":447,"name":"oknotok03","steam_id":76561198842006846,"connected_time":3787000000000,"state":"active","ping":64},{"user_id":464,"name":"Hertz","steam_id":76561198245322982,"connected_time":2956000000000,"state":"active","ping":46},{"user_id":478,"name":"I have no idea what I am doing?","steam_id":76561198093152207,"connected_time":2584000000000,"state":"active","ping":73},{"user_id":556,"name":"e doctor","steam_id":76561198081851446,"connected_time":1301000000000,"state":"active","ping":45},{"user_id":594,"name":"LilDreamer","steam_id":76561198804054102,"connected_time":499000000000,"state":"active","ping":60},{"user_id":406,"name":"DaMultiversalist","steam_id":76561198239552412,"connected_time":6511000000000,"state":"active","ping":70},{"user_id":612,"name":"drunk driver","steam_id":76561198400058665,"connected_time":125000000000,"state":"active","ping":71},{"user_id":474,"name":"Node‚ãÑ","steam_id":76561198219359475,"connected_time":2743000000000,"state":"active","ping":88},{"user_id":529,"name":"tesagi","steam_id":76561198026664629,"connected_time":1697000000000,"state":"active","ping":50},{"user_id":592,"name":"Wagemage","steam_id":76561198013625580,"connected_time":530000000000,"state":"active","ping":63},{"user_id":531,"name":"turnip","steam_id":76561197999375941,"connected_time":1672000000000,"state":"active","ping":77},{"user_id":426,"name":"GangstaPuddin","steam_id":76561198045414782,"connected_time":4802000000000,"state":"active","ping":64},{"user_id":563,"name":"Menlymen","steam_id":76561198046508051,"connected_time":1110000000000,"state":"active","ping":70},{"user_id":593,"name":"Thewaffleman141","steam_id":76561198083068694,"connected_time":514000000000,"state":"active","ping":70},{"user_id":615,"name":"Ulrich Stern","steam_id":76561198101739682,"connected_time":50000000000,"state":"spawning","ping":75},{"user_id":583,"name":"mikey","steam_id":76561198095803763,"connected_time":743000000000,"state":"active","ping":75},{"user_id":510,"name":"Jeramiah985","steam_id":76561199002452936,"connected_time":1958000000000,"state":"active","ping":58},{"user_id":466,"name":"josh","steam_id":76561198077902438,"connected_time":2928000000000,"state":"active","ping":75}]},{"server_id":403,"name":"Uncletopia | Chicago | 4 | All Maps","name_short":"chi-4","host":"chi-1.us.uncletopia.com","port":27045,"enabled":true,"region":"us-central","cc":"us","latitude":41.881832,"longitude":-87.62318,"reserved":0,"last_update":"0001-01-01T00:00:00Z","name_a2s":"Uncletopia | Chicago | 4 | All Maps","protocol":17,"map":"ctf_2fort","folder":"tf","game":"Team Fortress","app_id":440,"player_count":24,"max_players":24,"Bots":0,"server_type":"Dedicated","server_os":"Linux","password":true,"vac":true,"version":"7961495","steam_id":85568392924515193,"keywords":["ctf","nocrits","nodmgspread","uncletopia"],"game_id":440,"stv_port":27046,"stv_name":"Uncletopia | Chicago | 4 | All Maps | STV","players":[{"user_id":532,"name":"ohhhl0rd","steam_id":76561199066793578,"connected_time":779000000000,"state":"active","ping":66},{"user_id":533,"name":"Jag","steam_id":76561198001220471,"connected_time":661000000000,"state":"active","ping":54},{"user_id":527,"name":"ElephantHydrogen4277882","steam_id":76561198175741741,"connected_time":894000000000,"state":"active","ping":70},{"user_id":524,"name":"vriska serket","steam_id":76561199345823430,"connected_time":947000000000,"state":"active","ping":66},{"user_id":528,"name":"Nooblord","steam_id":76561199105123730,"connected_time":855000000000,"state":"active","ping":99},{"user_id":501,"name":"bobby wasabi","steam_id":76561198380018244,"connected_time":2797000000000,"state":"active","ping":74},{"user_id":537,"name":"BirBinGo","steam_id":76561198356529600,"connected_time":412000000000,"state":"active","ping":75},{"user_id":545,"name":"Topfix","steam_id":76561198038899333,"connected_time":17000000000,"state":"active","ping":76},{"user_id":477,"name":"blanch","steam_id":76561198850629951,"connected_time":4087000000000,"state":"active","ping":77},{"user_id":538,"name":"bobbymcbobington","steam_id":76561199089411172,"connected_time":350000000000,"state":"active","ping":117},{"user_id":497,"name":"Bones Maloy","steam_id":76561198130472659,"connected_time":2870000000000,"state":"active","ping":76},{"user_id":536,"name":"Church","steam_id":76561199214866732,"connected_time":497000000000,"state":"active","ping":65},{"user_id":539,"name":"Pixel","steam_id":76561198156746320,"connected_time":334000000000,"state":"active","ping":44},{"user_id":476,"name":"Hindmost","steam_id":76561199081837220,"connected_time":4175000000000,"state":"active","ping":85},{"user_id":540,"name":"Cheese Wizzard","steam_id":76561199473114241,"connected_time":327000000000,"state":"active","ping":68},{"user_id":541,"name":"88","steam_id":76561198165212575,"connected_time":253000000000,"state":"active","ping":74},{"user_id":468,"name":"Ballsack Shaver","steam_id":76561199011739378,"connected_time":4318000000000,"state":"active","ping":70},{"user_id":522,"name":"Polar","steam_id":76561198271964253,"connected_time":1224000000000,"state":"active","ping":77},{"user_id":512,"name":"NikoOS (NO SOUND)","steam_id":76561198180020521,"connected_time":2025000000000,"state":"active","ping":104},{"user_id":530,"name":"Mighty","steam_id":76561198096569755,"connected_time":834000000000,"state":"active","ping":94},{"user_id":429,"name":"..!","steam_id":76561198882483441,"connected_time":6544000000000,"state":"active","ping":85},{"user_id":544,"name":"Batman","steam_id":76561198122599533,"connected_time":139000000000,"state":"active","ping":72},{"user_id":515,"name":"Local Skeleton Pirate Captain","steam_id":76561199387783793,"connected_time":1910000000000,"state":"active","ping":90},{"user_id":521,"name":"breathing meat donut","steam_id":76561198123566649,"connected_time":1619000000000,"state":"active","ping":123}]},{"server_id":36,"name":"Uncletopia | Chicago | 5 | All Maps","name_short":"chi-5","host":"chi-2.us.uncletopia.com","port":27015,"enabled":true,"region":"us-central","cc":"us","latitude":41.881832,"longitude":-87.62318,"reserved":0,"last_update":"0001-01-01T00:00:00Z","name_a2s":"Uncletopia | Chicago | 5 | All Maps","protocol":17,"map":"pl_badwater","folder":"tf","game":"Team Fortress","app_id":440,"player_count":24,"max_players":24,"Bots":0,"server_type":"Dedicated","server_os":"Linux","password":true,"vac":true,"version":"7961495","steam_id":85568392924866362,"keywords":["nocrits","nodmgspread","payload","uncletopia"],"game_id":440,"stv_port":27016,"stv_name":"Uncletopia | Chicago | 5 | All Maps | STV","players":[{"user_id":6,"name":"Tri-Dot","steam_id":76561199075186597,"connected_time":3480000000000,"state":"active","ping":61},{"user_id":8,"name":"Rec","steam_id":76561198022813906,"connected_time":2279000000000,"state":"active","ping":52},{"user_id":9,"name":"Mindset","steam_id":76561198107074449,"connected_time":2157000000000,"state":"active","ping":55},{"user_id":11,"name":"Mkwhackertracker","steam_id":76561198128343704,"connected_time":1911000000000,"state":"active","ping":64},{"user_id":12,"name":"Sketch","steam_id":76561198170692678,"connected_time":1884000000000,"state":"active","ping":83},{"user_id":49,"name":"Seller of Waffles","steam_id":76561198296018138,"connected_time":198000000000,"state":"active","ping":58},{"user_id":24,"name":"emeraldrhymes","steam_id":76561198842486176,"connected_time":1573000000000,"state":"active","ping":83},{"user_id":50,"name":"Toripollo","steam_id":76561198251665862,"connected_time":63000000000,"state":"active","ping":100},{"user_id":16,"name":"test gamer please ignore","steam_id":76561198007464245,"connected_time":1778000000000,"state":"active","ping":75},{"user_id":30,"name":"Wilhelmktx","steam_id":76561198158102295,"connected_time":1432000000000,"state":"active","ping":45},{"user_id":41,"name":"ADRIEN BRODY","steam_id":76561198009299473,"connected_time":984000000000,"state":"active","ping":67},{"user_id":26,"name":"ChillyJones","steam_id":76561198017658702,"connected_time":1524000000000,"state":"active","ping":81},{"user_id":40,"name":"CoffeeZombee","steam_id":76561198172708053,"connected_time":1286000000000,"state":"active","ping":97},{"user_id":47,"name":"brains","steam_id":76561198197388678,"connected_time":580000000000,"state":"active","ping":95},{"user_id":48,"name":"BlasterPrime","steam_id":76561198084154062,"connected_time":545000000000,"state":"active","ping":61},{"user_id":31,"name":"Triple-Edged","steam_id":76561198308472155,"connected_time":1424000000000,"state":"active","ping":46},{"user_id":32,"name":"BEES","steam_id":76561198811545874,"connected_time":1394000000000,"state":"active","ping":64},{"user_id":33,"name":"Extro","steam_id":76561198178908694,"connected_time":1387000000000,"state":"active","ping":59},{"user_id":34,"name":"Lil' Diabeetus","steam_id":76561198330119627,"connected_time":1385000000000,"state":"active","ping":75},{"user_id":42,"name":"Bonibunz","steam_id":76561198878583402,"connected_time":967000000000,"state":"active","ping":103},{"user_id":45,"name":"why","steam_id":76561199059732212,"connected_time":700000000000,"state":"active","ping":73},{"user_id":37,"name":"marconaples111","steam_id":76561199418673046,"connected_time":1319000000000,"state":"active","ping":77},{"user_id":38,"name":"‚ù§Breadshot (She)‚ù§","steam_id":76561199005756738,"connected_time":1303000000000,"state":"active","ping":55},{"user_id":39,"name":"MothBoi","steam_id":76561198311422010,"connected_time":1297000000000,"state":"active","ping":102}]},{"server_id":37,"name":"Uncletopia | Chicago | 6 | All Maps","name_short":"chi-6","host":"chi-2.us.uncletopia.com","port":27025,"enabled":true,"region":"us-central","cc":"us","latitude":41.881832,"longitude":-87.62318,"reserved":0,"last_update":"0001-01-01T00:00:00Z","name_a2s":"Uncletopia | Chicago | 6 | All Maps","protocol":17,"map":"koth_cascade","folder":"tf","game":"Team Fortress","app_id":440,"player_count":0,"max_players":24,"Bots":0,"server_type":"Dedicated","server_os":"Linux","password":true,"vac":true,"version":"7961495","steam_id":85568392924866363,"keywords":["cp","nocrits","nodmgspread","uncletopia"],"game_id":440,"stv_port":27026,"stv_name":"Uncletopia | Chicago | 6 | All Maps | STV","players":null},{"server_id":38,"name":"Uncletopia | Chicago | 7 | Stopwatch Beta","name_short":"chi-7","host":"chi-2.us.uncletopia.com","port":27035,"enabled":true,"region":"us-central","cc":"us","latitude":41.881832,"longitude":-87.62318,"reserved":0,"last_update":"0001-01-01T00:00:00Z","name_a2s":"Uncletopia | Chicago | 7 | Stopwatch Beta","protocol":17,"map":"pl_badwater","folder":"tf","game":"Team Fortress","app_id":440,"player_count":0,"max_players":24,"Bots":0,"server_type":"Dedicated","server_os":"Linux","password":true,"vac":true,"version":"7961495","steam_id":85568392924866364,"keywords":["nocrits","nodmgspread","payload","uncletopia"],"game_id":440,"stv_port":27036,"stv_name":"Uncletopia | Chicago | 7 | Stopwatch Beta | STV","players":null},{"server_id":39,"name":"Uncletopia | Chicago | 8 | Community","name_short":"chi-8","host":"chi-2.us.uncletopia.com","port":27045,"enabled":true,"region":"us-central","cc":"us","latitude":41.881832,"longitude":-87.62318,"reserved":0,"last_update":"0001-01-01T00:00:00Z","name_a2s":"Uncletopia | Chicago | 8 | Community","protocol":17,"map":"workshop/cp_bruhstbowl_b6.ugc2878604990","folder":"tf","game":"Team Fortress","app_id":440,"player_count":24,"max_players":24,"Bots":0,"server_type":"Dedicated","server_os":"Linux","password":true,"vac":true,"version":"7961495","steam_id":85568392924866365,"keywords":["cp","nocrits","nodmgspread","uncletopia"],"game_id":440,"stv_port":27046,"stv_name":"Uncletopia | Chicago | 8 | Community | STV","players":[{"user_id":79,"name":"mr_random_mr","steam_id":76561199485678347,"connected_time":1162000000000,"state":"active","ping":52},{"user_id":99,"name":"Owl Daddy","steam_id":76561198006250352,"connected_time":6000000000,"state":"spawning","ping":86},{"user_id":85,"name":"–®eevil","steam_id":76561198081260791,"connected_time":905000000000,"state":"active","ping":62},{"user_id":12,"name":"magickxanadu","steam_id":76561199117360103,"connected_time":4833000000000,"state":"active","ping":83},{"user_id":90,"name":"harold","steam_id":76561199016285746,"connected_time":426000000000,"state":"active","ping":77},{"user_id":74,"name":"Team Fortress","steam_id":76561198058722801,"connected_time":1397000000000,"state":"active","ping":156},{"user_id":87,"name":"Guile (Not A Tree?)","steam_id":76561197995840607,"connected_time":657000000000,"state":"active","ping":50},{"user_id":98,"name":"Mr.AAPN","steam_id":76561198073763769,"connected_time":34000000000,"state":"active","ping":132},{"user_id":89,"name":"sartre","steam_id":76561198885376777,"connected_time":602000000000,"state":"active","ping":70},{"user_id":81,"name":"Poberl","steam_id":76561198823051158,"connected_time":1077000000000,"state":"active","ping":60},{"user_id":82,"name":"Nivet Fox","steam_id":76561198135362867,"connected_time":1024000000000,"state":"active","ping":45},{"user_id":92,"name":"Copland OS","steam_id":76561198041800378,"connected_time":396000000000,"state":"active","ping":75},{"user_id":100,"name":"brewmen","steam_id":76561197983860881,"connected_time":3000000000,"state":"spawning","ping":70},{"user_id":63,"name":"Astrozombeez","steam_id":76561198113754079,"connected_time":1633000000000,"state":"active","ping":100},{"user_id":73,"name":"SouperBad","steam_id":76561198116690686,"connected_time":1401000000000,"state":"active","ping":46},{"user_id":96,"name":"primordialheath","steam_id":76561199386942638,"connected_time":228000000000,"state":"active","ping":61},{"user_id":59,"name":"LILGI4THAW","steam_id":76561198403803842,"connected_time":2624000000000,"state":"active","ping":115},{"user_id":50,"name":"Xy¬©","steam_id":76561198043111000,"connected_time":2832000000000,"state":"active","ping":79},{"user_id":97,"name":"Wehttam","steam_id":76561199229493583,"connected_time":165000000000,"state":"active","ping":89},{"user_id":65,"name":"I'm not real you're real","steam_id":76561199491138825,"connected_time":1578000000000,"state":"active","ping":75},{"user_id":54,"name":"Gluppo","steam_id":76561198379320087,"connected_time":2751000000000,"state":"active","ping":75},{"user_id":55,"name":"Grease Magician","steam_id":76561198285410854,"connected_time":2738000000000,"state":"active","ping":82},{"user_id":72,"name":"DizastaMasta","steam_id":76561199204461283,"connected_time":1404000000000,"state":"active","ping":86},{"user_id":84,"name":"jon.cinnamon","steam_id":76561198127316418,"connected_time":988000000000,"state":"active","ping":64}]},{"server_id":8,"name":"Uncletopia | Dallas | 1 | All Maps","name_short":"dal-1","host":"dal-1.us.uncletopia.com","port":27015,"enabled":true,"region":"us-central","cc":"us","latitude":32.779167,"longitude":-96.80889,"reserved":0,"last_update":"0001-01-01T00:00:00Z","name_a2s":"Uncletopia | Dallas | 1 | All Maps","protocol":17,"map":"pl_pier","folder":"tf","game":"Team Fortress","app_id":440,"player_count":24,"max_players":24,"Bots":0,"server_type":"Dedicated","server_os":"Linux","password":true,"vac":true,"version":"7961495","steam_id":85568392924469986,"keywords":["nocrits","nodmgspread","payload","uncletopia"],"game_id":440,"stv_port":27016,"stv_name":"Uncletopia | Dallas | 1 | All Maps | STV","players":[{"user_id":410,"name":"CORGI.EXE","steam_id":76561198077093432,"connected_time":2002000000000,"state":"active","ping":90},{"user_id":419,"name":"Phatbuda","steam_id":76561198447969000,"connected_time":1224000000000,"state":"active","ping":139},{"user_id":417,"name":"Kaloop5","steam_id":76561198971254775,"connected_time":1294000000000,"state":"active","ping":131},{"user_id":430,"name":"Ya Boi Grant","steam_id":76561198050913950,"connected_time":682000000000,"state":"active","ping":78},{"user_id":424,"name":"BatJet","steam_id":76561198147738441,"connected_time":1024000000000,"state":"active","ping":105},{"user_id":432,"name":"Fox Milk","steam_id":76561198004652591,"connected_time":667000000000,"state":"active","ping":96},{"user_id":441,"name":"puddles","steam_id":76561198110832624,"connected_time":404000000000,"state":"active","ping":64},{"user_id":390,"name":"artichoke","steam_id":76561198980994364,"connected_time":3145000000000,"state":"active","ping":101},{"user_id":438,"name":"Johnny Lawrence #JohnnyMaxxing","steam_id":76561199367141671,"connected_time":589000000000,"state":"active","ping":75},{"user_id":404,"name":"Dreszerg","steam_id":76561198838757422,"connected_time":2096000000000,"state":"active","ping":92},{"user_id":437,"name":"Captain Bong Rips","steam_id":76561198065946939,"connected_time":602000000000,"state":"active","ping":97},{"user_id":423,"name":"Unk","steam_id":76561198031717617,"connected_time":1036000000000,"state":"active","ping":76},{"user_id":444,"name":"PandzRL1f3","steam_id":76561198832985754,"connected_time":33000000000,"state":"active","ping":89},{"user_id":425,"name":"tonybaloney","steam_id":76561199434233117,"connected_time":1014000000000,"state":"active","ping":45},{"user_id":422,"name":"Ichiro Suzuki","steam_id":76561198060477567,"connected_time":1087000000000,"state":"active","ping":72},{"user_id":445,"name":"flippercurve","steam_id":76561199238295034,"connected_time":26000000000,"state":"active","ping":73},{"user_id":429,"name":"Tanner The Fish Man","steam_id":76561198372696640,"connected_time":724000000000,"state":"active","ping":63},{"user_id":435,"name":"C^a^L","steam_id":76561198241124222,"connected_time":630000000000,"state":"active","ping":90},{"user_id":446,"name":"ATL1 | on my hunting trip","steam_id":76561198315341646,"connected_time":16000000000,"state":"active","ping":91},{"user_id":427,"name":"TechnoBear2099","steam_id":76561198238863596,"connected_time":756000000000,"state":"active","ping":47},{"user_id":439,"name":"PissJar","steam_id":76561199205120538,"connected_time":447000000000,"state":"active","ping":71},{"user_id":436,"name":"Peepster","steam_id":76561198297854733,"connected_time":625000000000,"state":"active","ping":99},{"user_id":428,"name":"Ghoulenoir","steam_id":76561198074314573,"connected_time":729000000000,"state":"active","ping":60},{"user_id":440,"name":"Anonymous Redneck","steam_id":76561198006140954,"connected_time":446000000000,"state":"active","ping":147}]},{"server_id":108,"name":"Uncletopia | Dallas | 2 | All Maps","name_short":"dal-2","host":"dal-1.us.uncletopia.com","port":27025,"enabled":true,"region":"us-central","cc":"us","latitude":32.779167,"longitude":-96.80889,"reserved":0,"last_update":"0001-01-01T00:00:00Z","name_a2s":"Uncletopia | Dallas | 2 | All Maps","protocol":17,"map":"pl_barnblitz","folder":"tf","game":"Team Fortress","app_id":440,"player_count":24,"max_players":24,"Bots":0,"server_type":"Dedicated","server_os":"Linux","password":true,"vac":true,"version":"7961495","steam_id":85568392924469988,"keywords":["nocrits","nodmgspread","payload","uncletopia"],"game_id":440,"stv_port":27026,"stv_name":"Uncletopia | Dallas | 2 | All Maps | STV","players":[{"user_id":365,"name":"Skinny pete","steam_id":76561198801608576,"connected_time":2345000000000,"state":"active","ping":51},{"user_id":363,"name":"GlizzLord","steam_id":76561198321010427,"connected_time":2383000000000,"state":"active","ping":83},{"user_id":312,"name":"hforce11","steam_id":76561198087647130,"connected_time":7072000000000,"state":"active","ping":61},{"user_id":383,"name":"Willem Dafoe","steam_id":76561198037453253,"connected_time":1078000000000,"state":"active","ping":78},{"user_id":389,"name":"slowdance","steam_id":76561198097427947,"connected_time":259000000000,"state":"active","ping":124},{"user_id":388,"name":"Dabbledornk","steam_id":76561198065241300,"connected_time":290000000000,"state":"active","ping":75},{"user_id":390,"name":"Richthegamerguy","steam_id":76561198119595413,"connected_time":247000000000,"state":"active","ping":86},{"user_id":375,"name":"Liebestr√§ume","steam_id":76561198038862034,"connected_time":1894000000000,"state":"active","ping":70},{"user_id":355,"name":"Gelliterate","steam_id":76561198107233070,"connected_time":3718000000000,"state":"active","ping":49},{"user_id":351,"name":"kermitcreeper(ZAZA)","steam_id":76561199222829972,"connected_time":4016000000000,"state":"active","ping":65},{"user_id":382,"name":"icm2008 #SaveTF2","steam_id":76561199277408836,"connected_time":1154000000000,"state":"active","ping":89},{"user_id":378,"name":"gaminpanda52","steam_id":76561199090922778,"connected_time":1397000000000,"state":"active","ping":91},{"user_id":387,"name":"Doctor Emerald(real)","steam_id":76561199123003872,"connected_time":562000000000,"state":"active","ping":86},{"user_id":386,"name":"Gamba","steam_id":76561198069264650,"connected_time":744000000000,"state":"active","ping":79},{"user_id":380,"name":"Mephistopheles","steam_id":76561198253731826,"connected_time":1234000000000,"state":"active","ping":94},{"user_id":324,"name":"Deadline","steam_id":76561199079078845,"connected_time":6403000000000,"state":"active","ping":97},{"user_id":384,"name":"IlTrashPanda","steam_id":76561198447864095,"connected_time":878000000000,"state":"active","ping":61},{"user_id":391,"name":"Zycron0","steam_id":76561199122983789,"connected_time":191000000000,"state":"active","ping":104},{"user_id":392,"name":"schmuck","steam_id":76561198143789773,"connected_time":189000000000,"state":"active","ping":56},{"user_id":354,"name":"Panda Loser","steam_id":76561198828745176,"connected_time":3797000000000,"state":"active","ping":92},{"user_id":370,"name":"Rockhead","steam_id":76561197995196535,"connected_time":2271000000000,"state":"active","ping":87},{"user_id":362,"name":"Plague Doctor Moose","steam_id":76561199027129554,"connected_time":2528000000000,"state":"active","ping":96},{"user_id":377,"name":"Els (F2P)","steam_id":76561199129761684,"connected_time":1789000000000,"state":"active","ping":79},{"user_id":325,"name":"[√òWQJ√ò]chubacaalatake","steam_id":76561198136201697,"connected_time":6402000000000,"state":"active","ping":143}]},{"server_id":404,"name":"Uncletopia | Dallas | 3 | All Maps","name_short":"dal-3","host":"dal-1.us.uncletopia.com","port":27035,"enabled":true,"region":"us-central","cc":"us","latitude":32.779167,"longitude":-96.80889,"reserved":0,"last_update":"0001-01-01T00:00:00Z","name_a2s":"Uncletopia | Dallas | 3 | All Maps","protocol":17,"map":"pl_frontier_final","folder":"tf","game":"Team Fortress","app_id":440,"player_count":24,"max_players":24,"Bots":0,"server_type":"Dedicated","server_os":"Linux","password":true,"vac":true,"version":"7961495","steam_id":85568392924515219,"keywords":["nocrits","nodmgspread","payload","uncletopia"],"game_id":440,"stv_port":27036,"stv_name":"Uncletopia | Dallas | 3 | All Maps | STV","players":[{"user_id":217,"name":"CorgiYasu","steam_id":76561198082298201,"connected_time":528000000000,"state":"active","ping":75},{"user_id":210,"name":"JayRawgTV","steam_id":76561198044402840,"connected_time":1208000000000,"state":"active","ping":45},{"user_id":198,"name":"Missing Minus","steam_id":76561198120822928,"connected_time":1517000000000,"state":"active","ping":64},{"user_id":205,"name":"The Spanked Monkey","steam_id":76561198128293111,"connected_time":1379000000000,"state":"active","ping":84},{"user_id":213,"name":"Voodo133","steam_id":76561198042670351,"connected_time":891000000000,"state":"active","ping":102},{"user_id":175,"name":"Chunk Stuffer","steam_id":76561198856508573,"connected_time":2538000000000,"state":"active","ping":37},{"user_id":209,"name":"dweamy","steam_id":76561198119181880,"connected_time":1347000000000,"state":"active","ping":62},{"user_id":218,"name":"Meep","steam_id":76561198044645661,"connected_time":516000000000,"state":"active","ping":89},{"user_id":214,"name":"H2OBourne","steam_id":76561198396293109,"connected_time":886000000000,"state":"active","ping":66},{"user_id":163,"name":"‰Ω†Â•Ω","steam_id":76561198873043242,"connected_time":3962000000000,"state":"active","ping":145},{"user_id":224,"name":"Chhaam","steam_id":76561198058508132,"connected_time":134000000000,"state":"active","ping":75},{"user_id":219,"name":"Prime","steam_id":76561198218218705,"connected_time":465000000000,"state":"active","ping":90},{"user_id":199,"name":"Mr.Pwesident","steam_id":76561198058114703,"connected_time":1507000000000,"state":"active","ping":91},{"user_id":222,"name":"Wheat","steam_id":76561198106270789,"connected_time":394000000000,"state":"active","ping":78},{"user_id":202,"name":"Rhea","steam_id":76561198066626240,"connected_time":1447000000000,"state":"active","ping":60},{"user_id":223,"name":"JohnsBriefcase","steam_id":76561198117657002,"connected_time":201000000000,"state":"active","ping":95},{"user_id":220,"name":"A Fruit","steam_id":76561198951830050,"connected_time":453000000000,"state":"active","ping":45},{"user_id":164,"name":"Sakura Futaba","steam_id":76561198017153764,"connected_time":3497000000000,"state":"active","ping":89},{"user_id":216,"name":"G‡∂ûMER","steam_id":76561198340389876,"connected_time":878000000000,"state":"active","ping":86},{"user_id":200,"name":"dog","steam_id":76561198263873491,"connected_time":1502000000000,"state":"active","ping":62},{"user_id":208,"name":"DoctrZoot","steam_id":76561199171835450,"connected_time":1356000000000,"state":"active","ping":82},{"user_id":225,"name":"[chef] iron","steam_id":76561197970888616,"connected_time":33000000000,"state":"active","ping":64},{"user_id":161,"name":"Prez Pineapple","steam_id":76561198253755258,"connected_time":4164000000000,"state":"active","ping":107},{"user_id":221,"name":"In-N-Out Double Double","steam_id":76561198104086771,"connected_time":436000000000,"state":"active","ping":76}]},{"server_id":405,"name":"Uncletopia | Dallas | 4 | Community","name_short":"dal-4","host":"dal-1.us.uncletopia.com","port":27045,"enabled":true,"region":"us-central","cc":"us","latitude":32.779167,"longitude":-96.80889,"reserved":0,"last_update":"0001-01-01T00:00:00Z","name_a2s":"Uncletopia | Dallas | 4 | Community","protocol":17,"map":"workshop/cp_croissant_final.ugc458840209","folder":"tf","game":"Team Fortress","app_id":440,"player_count":0,"max_players":24,"Bots":0,"server_type":"Dedicated","server_os":"Linux","password":true,"vac":true,"version":"7961495","steam_id":85568392924515220,"keywords":["cp","nocrits","nodmgspread","uncletopia"],"game_id":440,"stv_port":27046,"stv_name":"Uncletopia | Dallas | 4 | Community | STV","players":null},{"server_id":5,"name":"Uncletopia | Frankfurt | 1 | All Maps","name_short":"frk-1","host":"frk-1.de.uncletopia.com","port":27015,"enabled":true,"region":"eu","cc":"de","latitude":50.110924,"longitude":8.682127,"reserved":0,"last_update":"0001-01-01T00:00:00Z","name_a2s":"Uncletopia | Frankfurt | 1 | All Maps","protocol":17,"map":"cp_snakewater_final1","folder":"tf","game":"Team Fortress","app_id":440,"player_count":6,"max_players":24,"Bots":0,"server_type":"Dedicated","server_os":"Linux","password":true,"vac":true,"version":"7961495","steam_id":85568392924469989,"keywords":["cp","nocrits","nodmgspread","uncletopia"],"game_id":440,"stv_port":27016,"stv_name":"Uncletopia | Frankfurt | 1 | All Maps | STV","players":[{"user_id":176,"name":"Moonman","steam_id":76561198117135753,"connected_time":793000000000,"state":"active","ping":177},{"user_id":170,"name":"avalon","steam_id":76561198003212528,"connected_time":1165000000000,"state":"active","ping":60},{"user_id":172,"name":"Kahvi","steam_id":76561198723244199,"connected_time":1093000000000,"state":"active","ping":89},{"user_id":177,"name":"Meru #rustclash #clashGG","steam_id":76561198801799275,"connected_time":747000000000,"state":"active","ping":161},{"user_id":166,"name":"Crisps","steam_id":76561198088973774,"connected_time":1581000000000,"state":"active","ping":45},{"user_id":165,"name":"–æ–Ω","steam_id":76561198172046813,"connected_time":1673000000000,"state":"active","ping":74}]},{"server_id":110,"name":"Uncletopia | Frankfurt | 2 | All Maps","name_short":"frk-2","host":"frk-1.de.uncletopia.com","port":27025,"enabled":true,"region":"eu","cc":"de","latitude":50.110924,"longitude":8.682127,"reserved":0,"last_update":"0001-01-01T00:00:00Z","name_a2s":"Uncletopia | Frankfurt | 2 | All Maps","protocol":17,"map":"pl_borneo","folder":"tf","game":"Team Fortress","app_id":440,"player_count":17,"max_players":24,"Bots":0,"server_type":"Dedicated","server_os":"Linux","password":true,"vac":true,"version":"7961495","steam_id":85568392924469990,"keywords":["nocrits","nodmgspread","payload","uncletopia"],"game_id":440,"stv_port":27026,"stv_name":"Uncletopia | Frankfurt | 2 | All Maps | STV","players":[{"user_id":192,"name":"Quantum","steam_id":76561198324439066,"connected_time":44000000000,"state":"active","ping":149},{"user_id":193,"name":"Joseph","steam_id":76561198848031955,"connected_time":6000000000,"state":"spawning","ping":140},{"user_id":157,"name":"RedCloud","steam_id":76561198091543759,"connected_time":3181000000000,"state":"active","ping":61},{"user_id":97,"name":"LordTrap.exe","steam_id":76561198318089716,"connected_time":7487000000000,"state":"active","ping":57},{"user_id":151,"name":"Nobody","steam_id":76561198151116796,"connected_time":3905000000000,"state":"active","ping":77},{"user_id":135,"name":"takumi fujara","steam_id":76561198078928120,"connected_time":5124000000000,"state":"active","ping":68},{"user_id":185,"name":"Niemen","steam_id":76561198021559905,"connected_time":418000000000,"state":"active","ping":79},{"user_id":162,"name":"Broint","steam_id":76561198041658071,"connected_time":2369000000000,"state":"active","ping":64},{"user_id":183,"name":"berahne khosh hal","steam_id":76561198327135462,"connected_time":738000000000,"state":"active","ping":166},{"user_id":182,"name":"punchmypotatoes","steam_id":76561198091255731,"connected_time":812000000000,"state":"active","ping":65},{"user_id":165,"name":"Lanky Hank","steam_id":76561198124243120,"connected_time":2245000000000,"state":"active","ping":56},{"user_id":188,"name":"miiq130","steam_id":76561198188010666,"connected_time":291000000000,"state":"active","ping":73},{"user_id":152,"name":"JoJo","steam_id":76561198067837685,"connected_time":3776000000000,"state":"active","ping":56},{"user_id":189,"name":"why rum gone","steam_id":76561198158484784,"connected_time":285000000000,"state":"active","ping":59},{"user_id":167,"name":"YeeterSkeeter","steam_id":76561198015380933,"connected_time":2184000000000,"state":"active","ping":55},{"user_id":181,"name":"domek","steam_id":76561198048447632,"connected_time":994000000000,"state":"active","ping":65},{"user_id":191,"name":"Jude!","steam_id":76561197983597798,"connected_time":260000000000,"state":"active","ping":46}]},{"server_id":308,"name":"Uncletopia | Frankfurt | 3 | All Maps","name_short":"frk-3","host":"frk-1.de.uncletopia.com","port":27035,"enabled":true,"region":"eu","cc":"de","latitude":50.110924,"longitude":8.682127,"reserved":0,"last_update":"0001-01-01T00:00:00Z","name_a2s":"Uncletopia | Frankfurt | 3 | All Maps","protocol":17,"map":"pl_pier","folder":"tf","game":"Team Fortress","app_id":440,"player_count":21,"max_players":24,"Bots":0,"server_type":"Dedicated","server_os":"Linux","password":true,"vac":true,"version":"7961495","steam_id":85568392924504274,"keywords":["nocrits","nodmgspread","payload","uncletopia"],"game_id":440,"stv_port":27036,"stv_name":"Uncletopia | Frankfurt | 3 | All Maps | STV","players":[{"user_id":365,"name":"Cabbch","steam_id":76561198045955679,"connected_time":188000000000,"state":"active","ping":59},{"user_id":363,"name":"Liko","steam_id":76561197994660517,"connected_time":585000000000,"state":"active","ping":74},{"user_id":360,"name":"üòà COCKDESTROYER üòà","steam_id":76561198042846999,"connected_time":1126000000000,"state":"active","ping":71},{"user_id":354,"name":"hasansaeedifar","steam_id":76561198974563618,"connected_time":1409000000000,"state":"spawning","ping":265},{"user_id":361,"name":"quarks and stuff","steam_id":76561198137869662,"connected_time":829000000000,"state":"active","ping":52},{"user_id":317,"name":"\u003e:(","steam_id":76561199233979726,"connected_time":4006000000000,"state":"active","ping":105},{"user_id":343,"name":"Lyncurion","steam_id":76561199260022725,"connected_time":2639000000000,"state":"active","ping":69},{"user_id":356,"name":"generic alias","steam_id":76561198271607226,"connected_time":1364000000000,"state":"active","ping":91},{"user_id":346,"name":"Just Navlis","steam_id":76561198090479609,"connected_time":2608000000000,"state":"active","ping":44},{"user_id":335,"name":"Toxic_Cicity","steam_id":76561198165753440,"connected_time":3259000000000,"state":"active","ping":108},{"user_id":368,"name":"etc","steam_id":76561197998394797,"connected_time":13000000000,"state":"spawning","ping":54},{"user_id":367,"name":"Vince","steam_id":76561199103000131,"connected_time":67000000000,"state":"active","ping":45},{"user_id":364,"name":"Shadow Wizard Chapsticky","steam_id":76561198148185178,"connected_time":571000000000,"state":"active","ping":60},{"user_id":349,"name":"Huskey","steam_id":76561198152392309,"connected_time":2296000000000,"state":"active","ping":57},{"user_id":339,"name":"Dzigi2014","steam_id":76561198146147595,"connected_time":3054000000000,"state":"active","ping":61},{"user_id":324,"name":"Rigby","steam_id":76561198021552128,"connected_time":3897000000000,"state":"active","ping":87},{"user_id":314,"name":"Welder","steam_id":76561198355300561,"connected_time":4063000000000,"state":"active","ping":61},{"user_id":357,"name":"[T]aKer","steam_id":76561198001778013,"connected_time":1347000000000,"state":"active","ping":59},{"user_id":332,"name":"pissed","steam_id":76561197996079017,"connected_time":3445000000000,"state":"active","ping":40},{"user_id":338,"name":"MatarArg","steam_id":76561198280246498,"connected_time":3202000000000,"state":"active","ping":105},{"user_id":366,"name":"Sezolas","steam_id":76561198305409704,"connected_time":86000000000,"state":"active","ping":100}]},{"server_id":309,"name":"Uncletopia | Frankfurt | 4 | All Maps","name_short":"frk-4","host":"frk-1.de.uncletopia.com","port":27045,"enabled":true,"region":"eu","cc":"de","latitude":50.110924,"longitude":8.682127,"reserved":0,"last_update":"0001-01-01T00:00:00Z","name_a2s":"Uncletopia | Frankfurt | 4 | All Maps","protocol":17,"map":"pl_swiftwater_final1","folder":"tf","game":"Team Fortress","app_id":440,"player_count":24,"max_players":24,"Bots":0,"server_type":"Dedicated","server_os":"Linux","password":true,"vac":true,"version":"7961495","steam_id":85568392924504275,"keywords":["nocrits","nodmgspread","payload","uncletopia"],"game_id":440,"stv_port":27046,"stv_name":"Uncletopia | Frankfurt | 4 | All Maps | STV","players":[{"user_id":155,"name":"froge","steam_id":76561198304959766,"connected_time":1940000000000,"state":"active","ping":111},{"user_id":172,"name":"iq drops","steam_id":76561198035795130,"connected_time":945000000000,"state":"active","ping":68},{"user_id":185,"name":"Dapper Pan Man","steam_id":76561197981874399,"connected_time":457000000000,"state":"active","ping":84},{"user_id":145,"name":"Pepis the smelly","steam_id":76561198191369066,"connected_time":2395000000000,"state":"active","ping":116},{"user_id":175,"name":"Dawidowski","steam_id":76561199137466824,"connected_time":867000000000,"state":"active","ping":61},{"user_id":184,"name":"Winthworth","steam_id":76561198344675206,"connected_time":507000000000,"state":"active","ping":55},{"user_id":125,"name":"kalid","steam_id":76561198051468640,"connected_time":3089000000000,"state":"active","ping":59},{"user_id":158,"name":"Dream Brover","steam_id":76561198201002934,"connected_time":1856000000000,"state":"active","ping":73},{"user_id":187,"name":"travis","steam_id":76561198138119811,"connected_time":428000000000,"state":"active","ping":61},{"user_id":171,"name":"Middle","steam_id":76561198039147753,"connected_time":1005000000000,"state":"active","ping":54},{"user_id":165,"name":"xarks","steam_id":76561198026236701,"connected_time":1642000000000,"state":"active","ping":75},{"user_id":168,"name":"bitkomet","steam_id":76561198058232147,"connected_time":1501000000000,"state":"active","ping":75},{"user_id":176,"name":"Jeg","steam_id":76561197994059603,"connected_time":863000000000,"state":"active","ping":76},{"user_id":163,"name":"Fwebbie","steam_id":76561199006875621,"connected_time":1700000000000,"state":"active","ping":66},{"user_id":157,"name":"Flostro","steam_id":76561198259793697,"connected_time":1890000000000,"state":"active","ping":72},{"user_id":121,"name":"heal","steam_id":76561198046754534,"connected_time":3349000000000,"state":"active","ping":90},{"user_id":151,"name":"T-90","steam_id":76561198091109552,"connected_time":2312000000000,"state":"active","ping":102},{"user_id":177,"name":"Mat-Shades","steam_id":76561198013998031,"connected_time":853000000000,"state":"active","ping":176},{"user_id":154,"name":"o_o","steam_id":76561198113045011,"connected_time":2032000000000,"state":"active","ping":91},{"user_id":178,"name":"Aqua188","steam_id":76561198817772963,"connected_time":841000000000,"state":"active","ping":105},{"user_id":179,"name":"Zm4j","steam_id":76561198259465946,"connected_time":840000000000,"state":"active","ping":82},{"user_id":136,"name":"rob","steam_id":76561198122211848,"connected_time":2759000000000,"state":"active","ping":89},{"user_id":152,"name":"pakin157","steam_id":76561198035125667,"connected_time":2193000000000,"state":"active","ping":81},{"user_id":183,"name":"Villdjack","steam_id":76561197999480096,"connected_time":602000000000,"state":"active","ping":71}]},{"server_id":310,"name":"Uncletopia | Frankfurt | 5 | All Maps","name_short":"frk-5","host":"frk-1.de.uncletopia.com","port":27055,"enabled":true,"region":"eu","cc":"de","latitude":50.110924,"longitude":8.682127,"reserved":0,"last_update":"0001-01-01T00:00:00Z","name_a2s":"Uncletopia | Frankfurt | 5 | All Maps","protocol":17,"map":"pl_borneo","folder":"tf","game":"Team Fortress","app_id":440,"player_count":20,"max_players":24,"Bots":0,"server_type":"Dedicated","server_os":"Linux","password":true,"vac":true,"version":"7961495","steam_id":85568392924504277,"keywords":["nocrits","nodmgspread","payload","uncletopia"],"game_id":440,"stv_port":27056,"stv_name":"Uncletopia | Frankfurt | 5 | All Maps | STV","players":[{"user_id":169,"name":"yush","steam_id":76561198121688934,"connected_time":188000000000,"state":"active","ping":69},{"user_id":150,"name":"üÉî Katarina","steam_id":76561198065652251,"connected_time":1264000000000,"state":"active","ping":35},{"user_id":120,"name":"Kron Krian","steam_id":76561198122541754,"connected_time":3056000000000,"state":"active","ping":62},{"user_id":102,"name":"Buddy","steam_id":76561198050185582,"connected_time":4078000000000,"state":"active","ping":67},{"user_id":142,"name":"Baskin","steam_id":76561198275982976,"connected_time":1408000000000,"state":"active","ping":112},{"user_id":162,"name":"–∏–≥–ª–∞","steam_id":76561198120760515,"connected_time":550000000000,"state":"active","ping":84},{"user_id":163,"name":"tone","steam_id":76561197975301462,"connected_time":409000000000,"state":"active","ping":87},{"user_id":170,"name":"Rustyunderscore","steam_id":76561198277177996,"connected_time":178000000000,"state":"active","ping":67},{"user_id":145,"name":"B≈Å√§ck..","steam_id":76561198300644952,"connected_time":1343000000000,"state":"active","ping":133},{"user_id":171,"name":"[ALT_F4]dottor_cacabula_m8","steam_id":76561198173192267,"connected_time":178000000000,"state":"active","ping":78},{"user_id":139,"name":"Vitamin Weee","steam_id":76561199183937747,"connected_time":1568000000000,"state":"active","ping":76},{"user_id":166,"name":"Doctor Marijuana","steam_id":76561198288289879,"connected_time":316000000000,"state":"active","ping":61},{"user_id":174,"name":"Hleno","steam_id":76561198060442619,"connected_time":126000000000,"state":"active","ping":45},{"user_id":148,"name":"Germanium_Ge","steam_id":76561198130561775,"connected_time":1275000000000,"state":"active","ping":60},{"user_id":130,"name":"I jazzed myself","steam_id":76561198203016603,"connected_time":2110000000000,"state":"active","ping":79},{"user_id":160,"name":"fernandobmwm355555","steam_id":76561198086609447,"connected_time":1017000000000,"state":"active","ping":45},{"user_id":152,"name":"void_tech_1234","steam_id":76561198245254406,"connected_time":1243000000000,"state":"active","ping":75},{"user_id":124,"name":"Max Power","steam_id":76561198019269089,"connected_time":2800000000000,"state":"active","ping":51},{"user_id":135,"name":"Dokuro","steam_id":76561198005413903,"connected_time":2000000000000,"state":"active","ping":71},{"user_id":154,"name":"jge","steam_id":76561198123186387,"connected_time":1231000000000,"state":"active","ping":55}]},{"server_id":311,"name":"Uncletopia | Frankfurt | 6 | All Maps","name_short":"frk-6","host":"frk-1.de.uncletopia.com","port":27065,"enabled":true,"region":"eu","cc":"de","latitude":50.110924,"longitude":8.682127,"reserved":0,"last_update":"0001-01-01T00:00:00Z","name_a2s":"Uncletopia | Frankfurt | 6 | All Maps","protocol":17,"map":"cp_sunshine","folder":"tf","game":"Team Fortress","app_id":440,"player_count":0,"max_players":24,"Bots":0,"server_type":"Dedicated","server_os":"Linux","password":true,"vac":true,"version":"7961495","steam_id":85568392924504278,"keywords":["cp","nocrits","nodmgspread","uncletopia"],"game_id":440,"stv_port":27066,"stv_name":"Uncletopia | Frankfurt | 6 | All Maps | STV","players":null},{"server_id":23,"name":"Uncletopia | Frankfurt | 7 | Stopwatch Beta","name_short":"frk-7","host":"frk-1.de.uncletopia.com","port":27075,"enabled":true,"region":"eu","cc":"de","latitude":50.110924,"longitude":8.682127,"reserved":0,"last_update":"0001-01-01T00:00:00Z","name_a2s":"Uncletopia | Frankfurt | 7 | Stopwatch Beta","protocol":17,"map":"workshop/koth_bagel_rc6.ugc2514036946","folder":"tf","game":"Team Fortress","app_id":440,"player_count":0,"max_players":24,"Bots":0,"server_type":"Dedicated","server_os":"Linux","password":true,"vac":true,"version":"7961495","steam_id":85568392924742827,"keywords":["cp","nocrits","nodmgspread","uncletopia"],"game_id":440,"stv_port":27076,"stv_name":"Uncletopia | Frankfurt | 7 | Stopwatch Beta | STV","players":null},{"server_id":24,"name":"Uncletopia | Frankfurt | 8 | Community","name_short":"frk-8","host":"frk-1.de.uncletopia.com","port":27085,"enabled":true,"region":"eu","cc":"de","latitude":50.110924,"longitude":8.682127,"reserved":0,"last_update":"0001-01-01T00:00:00Z","name_a2s":"Uncletopia | Frankfurt | 8 | Community","protocol":17,"map":"workshop/koth_ashville_final.ugc2130459942","folder":"tf","game":"Team Fortress","app_id":440,"player_count":0,"max_players":24,"Bots":0,"server_type":"Dedicated","server_os":"Linux","password":true,"vac":true,"version":"7961495","steam_id":85568392924742828,"keywords":["cp","nocrits","nodmgspread","uncletopia"],"game_id":440,"stv_port":27086,"stv_name":"Uncletopia | Frankfurt | 8 | Community | STV","players":null},{"server_id":202,"name":"Uncletopia | Hong Kong | 1 | All Maps","name_short":"hgk-1","host":"hgk-1.hk.uncletopia.com","port":27015,"enabled":true,"region":"asia","cc":"hk","latitude":22.302711,"longitude":114.177216,"reserved":0,"last_update":"0001-01-01T00:00:00Z","name_a2s":"Uncletopia | Hong Kong | 1 | All Maps","protocol":17,"map":"koth_highpass","folder":"tf","game":"Team Fortress","app_id":440,"player_count":0,"max_players":24,"Bots":0,"server_type":"Dedicated","server_os":"Linux","password":true,"vac":true,"version":"7961495","steam_id":85568392924494504,"keywords":["cp","nocrits","nodmgspread","uncletopia"],"game_id":440,"stv_port":27016,"stv_name":"Uncletopia | Hong Kong | 1 | All Maps | STV","players":null},{"server_id":1,"name":"Uncletopia | Los Angeles | 1 | All Maps","name_short":"lax-1","host":"lax-1.us.uncletopia.com","port":27015,"enabled":true,"region":"us-west","cc":"us","latitude":33.94279,"longitude":-118.41004,"reserved":0,"last_update":"0001-01-01T00:00:00Z","name_a2s":"Uncletopia | Los Angeles | 1 | All Maps","protocol":17,"map":"cp_dustbowl","folder":"tf","game":"Team Fortress","app_id":440,"player_count":24,"max_players":24,"Bots":0,"server_type":"Dedicated","server_os":"Linux","password":true,"vac":true,"version":"7961495","steam_id":85568392924469991,"keywords":["cp","nocrits","nodmgspread","uncletopia"],"game_id":440,"stv_port":27016,"stv_name":"Uncletopia | Los Angeles | 1 | All Maps | STV","players":[{"user_id":6,"name":"Imnotnuggets","steam_id":76561198886670414,"connected_time":4971000000000,"state":"active","ping":76},{"user_id":5,"name":"awesomebrololo","steam_id":76561198374283489,"connected_time":5225000000000,"state":"active","ping":105},{"user_id":63,"name":"Maxmind24","steam_id":76561198859888778,"connected_time":1189000000000,"state":"active","ping":82},{"user_id":51,"name":"BurdBrain","steam_id":76561197962097737,"connected_time":1871000000000,"state":"active","ping":67},{"user_id":12,"name":"Jimmy","steam_id":76561198857959855,"connected_time":3916000000000,"state":"active","ping":44},{"user_id":46,"name":"Komrade-Patata","steam_id":76561198406745219,"connected_time":2128000000000,"state":"active","ping":124},{"user_id":69,"name":"Bonky","steam_id":76561198965756070,"connected_time":149000000000,"state":"active","ping":62},{"user_id":70,"name":"Ralph Kramden (Slim Charles)","steam_id":76561197981687895,"connected_time":144000000000,"state":"active","ping":62},{"user_id":49,"name":"D.Porter","steam_id":76561198396340174,"connected_time":2086000000000,"state":"active","ping":113},{"user_id":54,"name":"KlassicLoL","steam_id":76561198081815303,"connected_time":1454000000000,"state":"active","ping":45},{"user_id":64,"name":"pumpkin patch","steam_id":76561198381020239,"connected_time":1164000000000,"state":"active","ping":56},{"user_id":71,"name":"andyiscolorless","steam_id":76561199239870921,"connected_time":85000000000,"state":"active","ping":169},{"user_id":22,"name":"tazifer","steam_id":76561198111070843,"connected_time":2996000000000,"state":"active","ping":93},{"user_id":56,"name":"turkeysarefriendsz","steam_id":76561199074521322,"connected_time":1399000000000,"state":"active","ping":72},{"user_id":58,"name":"ShadowZiki","steam_id":76561198145930013,"connected_time":1346000000000,"state":"active","ping":45},{"user_id":65,"name":"Kiilys","steam_id":76561198326068377,"connected_time":1119000000000,"state":"active","ping":71},{"user_id":72,"name":"John McCain","steam_id":76561198052496567,"connected_time":69000000000,"state":"active","ping":82},{"user_id":73,"name":"thatguywhoalwaysdies","steam_id":76561198824724631,"connected_time":51000000000,"state":"active","ping":111},{"user_id":32,"name":"Superman123389","steam_id":76561198267472539,"connected_time":2732000000000,"state":"active","ping":91},{"user_id":74,"name":"CrazyKermitRubes","steam_id":76561198009065204,"connected_time":47000000000,"state":"active","ping":121},{"user_id":75,"name":"Alyx","steam_id":76561198046526130,"connected_time":45000000000,"state":"active","ping":159},{"user_id":45,"name":"jovial","steam_id":76561198297130941,"connected_time":2197000000000,"state":"active","ping":47},{"user_id":76,"name":"Papillon","steam_id":76561198049725849,"connected_time":38000000000,"state":"active","ping":119},{"user_id":62,"name":"Smiles","steam_id":76561198107197973,"connected_time":1203000000000,"state":"active","ping":109}]},{"server_id":112,"name":"Uncletopia | Los Angeles | 2 | All Maps","name_short":"lax-2","host":"lax-1.us.uncletopia.com","port":27025,"enabled":true,"region":"us-west","cc":"us","latitude":33.94279,"longitude":-118.41004,"reserved":0,"last_update":"0001-01-01T00:00:00Z","name_a2s":"Uncletopia | Los Angeles | 2 | All Maps","protocol":17,"map":"cp_snakewater_final1","folder":"tf","game":"Team Fortress","app_id":440,"player_count":0,"max_players":24,"Bots":0,"server_type":"Dedicated","server_os":"Linux","password":true,"vac":true,"version":"7961495","steam_id":85568392924469992,"keywords":["cp","nocrits","nodmgspread","uncletopia"],"game_id":440,"stv_port":27026,"stv_name":"Uncletopia | Los Angeles | 2 | All Maps | STV","players":null},{"server_id":324,"name":"Uncletopia | Los Angeles | 3 | All Maps","name_short":"lax-3","host":"lax-1.us.uncletopia.com","port":27035,"enabled":true,"region":"us-west","cc":"us","latitude":33.94279,"longitude":-118.41004,"reserved":0,"last_update":"0001-01-01T00:00:00Z","name_a2s":"Uncletopia | Los Angeles | 3 | All Maps","protocol":17,"map":"cp_snakewater_final1","folder":"tf","game":"Team Fortress","app_id":440,"player_count":5,"max_players":24,"Bots":0,"server_type":"Dedicated","server_os":"Linux","password":true,"vac":true,"version":"7961495","steam_id":85568392924510198,"keywords":["cp","nocrits","nodmgspread","uncletopia"],"game_id":440,"stv_port":27036,"stv_name":"Uncletopia | Los Angeles | 3 | All Maps | STV","players":[{"user_id":7,"name":"Tralf Hardy","steam_id":76561197973818765,"connected_time":1220000000000,"state":"active","ping":63},{"user_id":8,"name":"MrTrollku","steam_id":76561199445559225,"connected_time":1219000000000,"state":"active","ping":124},{"user_id":9,"name":"Dreamzapp","steam_id":76561199084936632,"connected_time":509000000000,"state":"active","ping":64},{"user_id":10,"name":"The Rat Smacker (I smack rats)","steam_id":76561198048587348,"connected_time":465000000000,"state":"active","ping":218},{"user_id":11,"name":"purpledrake08","steam_id":76561199155657280,"connected_time":318000000000,"state":"active","ping":70}]},{"server_id":25,"name":"Uncletopia | Los Angeles | 4 | Stopwatch Beta","name_short":"lax-4","host":"lax-1.us.uncletopia.com","port":27045,"enabled":true,"region":"us-west","cc":"us","latitude":33.94279,"longitude":-118.41004,"reserved":0,"last_update":"0001-01-01T00:00:00Z","name_a2s":"Uncletopia | Los Angeles | 4 | Stopwatch Beta","protocol":17,"map":"pl_upward","folder":"tf","game":"Team Fortress","app_id":440,"player_count":0,"max_players":24,"Bots":0,"server_type":"Dedicated","server_os":"Linux","password":true,"vac":true,"version":"7961495","steam_id":85568392924510199,"keywords":["nocrits","nodmgspread","payload","uncletopia"],"game_id":440,"stv_port":27046,"stv_name":"Uncletopia | Los Angeles | 4 | Stopwatch Beta | STV","players":null},{"server_id":11,"name":"Uncletopia | London | 1 | All Maps","name_short":"lon-1","host":"lon-1.uk.uncletopia.com","port":27015,"enabled":true,"region":"eu","cc":"gb","latitude":51.509865,"longitude":-0.118092,"reserved":0,"last_update":"0001-01-01T00:00:00Z","name_a2s":"Uncletopia | London | 1 | All Maps","protocol":17,"map":"cp_5gorge","folder":"tf","game":"Team Fortress","app_id":440,"player_count":24,"max_players":24,"Bots":0,"server_type":"Dedicated","server_os":"Linux","password":true,"vac":true,"version":"7961495","steam_id":85568392924367362,"keywords":["cp","nocrits","nodmgspread","uncletopia"],"game_id":440,"stv_port":27016,"stv_name":"Uncletopia | London | 1 | All Maps | STV","players":[{"user_id":523,"name":"SOPHIIEE (JESSIE GANG)","steam_id":76561198443798981,"connected_time":553000000000,"state":"active","ping":50},{"user_id":524,"name":"teddy","steam_id":76561198007436837,"connected_time":450000000000,"state":"active","ping":43},{"user_id":519,"name":"Minimi","steam_id":76561198873850443,"connected_time":760000000000,"state":"active","ping":46},{"user_id":482,"name":"Kphi(i)","steam_id":76561198970587061,"connected_time":4147000000000,"state":"active","ping":56},{"user_id":509,"name":"Alone","steam_id":76561199050383942,"connected_time":1948000000000,"state":"active","ping":53},{"user_id":413,"name":"EngineOil","steam_id":76561198372077749,"connected_time":8936000000000,"state":"active","ping":44},{"user_id":515,"name":"Son Goku","steam_id":76561199383437138,"connected_time":1265000000000,"state":"active","ping":118},{"user_id":507,"name":"BreadBubbles","steam_id":76561198174332826,"connected_time":2108000000000,"state":"active","ping":57},{"user_id":527,"name":"Pantroglodytestherapy","steam_id":76561198236015392,"connected_time":69000000000,"state":"active","ping":120},{"user_id":512,"name":"joni","steam_id":76561197997323419,"connected_time":1617000000000,"state":"active","ping":85},{"user_id":522,"name":"Egtu","steam_id":76561198013757235,"connected_time":629000000000,"state":"active","ping":76},{"user_id":525,"name":"CheekiBreekiBoi","steam_id":76561198089977062,"connected_time":229000000000,"state":"active","ping":66},{"user_id":472,"name":"Average Medic Enjoyer","steam_id":76561198048867302,"connected_time":4844000000000,"state":"active","ping":66},{"user_id":521,"name":"owo","steam_id":76561198158209651,"connected_time":725000000000,"state":"active","ping":66},{"user_id":497,"name":"Baked Beans Gaming","steam_id":76561199177778966,"connected_time":2832000000000,"state":"active","ping":48},{"user_id":513,"name":"jack","steam_id":76561199397626760,"connected_time":1593000000000,"state":"active","ping":54},{"user_id":526,"name":"ZiggyStardust","steam_id":76561199121717685,"connected_time":212000000000,"state":"active","ping":66},{"user_id":458,"name":"killer of noob, winner of game","steam_id":76561198190583242,"connected_time":6514000000000,"state":"active","ping":82},{"user_id":520,"name":"sora","steam_id":76561198096547662,"connected_time":759000000000,"state":"active","ping":51},{"user_id":435,"name":"Snake-chan","steam_id":76561199044755854,"connected_time":8308000000000,"state":"active","ping":79},{"user_id":314,"name":"halow","steam_id":76561198061505163,"connected_time":14198000000000,"state":"active","ping":99},{"user_id":502,"name":"Illy","steam_id":76561198045537823,"connected_time":2570000000000,"state":"active","ping":61},{"user_id":438,"name":"Lyra","steam_id":76561198043601838,"connected_time":7958000000000,"state":"active","ping":75},{"user_id":489,"name":"krayy (she/her)","steam_id":76561198035037830,"connected_time":3557000000000,"state":"active","ping":77}]},{"server_id":114,"name":"Uncletopia | London | 2 | All Maps","name_short":"lon-2","host":"lon-1.uk.uncletopia.com","port":27025,"enabled":true,"region":"eu","cc":"gb","latitude":51.509865,"longitude":-0.118092,"reserved":0,"last_update":"0001-01-01T00:00:00Z","name_a2s":"Uncletopia | London | 2 | All Maps","protocol":17,"map":"pl_barnblitz","folder":"tf","game":"Team Fortress","app_id":440,"player_count":14,"max_players":24,"Bots":0,"server_type":"Dedicated","server_os":"Linux","password":true,"vac":true,"version":"7961495","steam_id":85568392924470941,"keywords":["nocrits","nodmgspread","payload","uncletopia"],"game_id":440,"stv_port":27026,"stv_name":"Uncletopia | London | 2 | All Maps | STV","players":[{"user_id":391,"name":"padillacampos","steam_id":76561198161923970,"connected_time":26000000000,"state":"spawning","ping":87},{"user_id":377,"name":"ratot","steam_id":76561198063132645,"connected_time":1681000000000,"state":"active","ping":45},{"user_id":365,"name":"G.R.E","steam_id":76561197979806514,"connected_time":2250000000000,"state":"active","ping":40},{"user_id":388,"name":"anor londo","steam_id":76561198056197307,"connected_time":910000000000,"state":"active","ping":55},{"user_id":367,"name":"bluecheesemints","steam_id":76561199490357988,"connected_time":2220000000000,"state":"active","ping":59},{"user_id":325,"name":"ne0n","steam_id":76561198032101031,"connected_time":5877000000000,"state":"active","ping":98},{"user_id":267,"name":"jona3838","steam_id":76561199097658195,"connected_time":9448000000000,"state":"active","ping":100},{"user_id":353,"name":"Popop","steam_id":76561198004793795,"connected_time":3771000000000,"state":"active","ping":44},{"user_id":368,"name":"Atoma","steam_id":76561198798637372,"connected_time":2131000000000,"state":"active","ping":113},{"user_id":354,"name":"JeanCorben","steam_id":76561197965133561,"connected_time":3619000000000,"state":"active","ping":44},{"user_id":390,"name":"Brian","steam_id":76561198077756206,"connected_time":230000000000,"state":"active","ping":35},{"user_id":386,"name":"Mish","steam_id":76561198302973642,"connected_time":1607000000000,"state":"active","ping":77},{"user_id":348,"name":"Silvestro","steam_id":76561198021660066,"connected_time":4440000000000,"state":"active","ping":96},{"user_id":349,"name":"El Gato Volador","steam_id":76561198021296882,"connected_time":4431000000000,"state":"active","ping":75}]},{"server_id":320,"name":"Uncletopia | London | 3 | All Maps","name_short":"lon-3","host":"lon-1.uk.uncletopia.com","port":27035,"enabled":true,"region":"eu","cc":"gb","latitude":51.509865,"longitude":-0.118092,"reserved":0,"last_update":"0001-01-01T00:00:00Z","name_a2s":"Uncletopia | London | 3 | All Maps","protocol":17,"map":"cp_dustbowl","folder":"tf","game":"Team Fortress","app_id":440,"player_count":23,"max_players":24,"Bots":0,"server_type":"Dedicated","server_os":"Linux","password":true,"vac":true,"version":"7961495","steam_id":85568392924510192,"keywords":["cp","nocrits","nodmgspread","uncletopia"],"game_id":440,"stv_port":27036,"stv_name":"Uncletopia | London | 3 | All Maps | STV","players":[{"user_id":410,"name":"BD[PL]","steam_id":76561198115995871,"connected_time":676000000000,"state":"active","ping":89},{"user_id":397,"name":"Sir William Gaming","steam_id":76561198037676472,"connected_time":1769000000000,"state":"active","ping":67},{"user_id":340,"name":"Lord Lem0ns!","steam_id":76561198323174893,"connected_time":5328000000000,"state":"active","ping":80},{"user_id":329,"name":"flamingosaurus","steam_id":76561198051455397,"connected_time":6248000000000,"state":"active","ping":43},{"user_id":294,"name":"shaheen45","steam_id":76561198334819486,"connected_time":8483000000000,"state":"active","ping":135},{"user_id":407,"name":"Spik√†","steam_id":76561197999582114,"connected_time":1131000000000,"state":"active","ping":75},{"user_id":417,"name":"Random Gibus Sniper","steam_id":76561199186496740,"connected_time":17000000000,"state":"active","ping":154},{"user_id":406,"name":"–ó–∞–¥–Ω–µ–ø—Ä–æ—Ö–æ–¥–µ—Ü","steam_id":76561198059741978,"connected_time":1405000000000,"state":"active","ping":89},{"user_id":392,"name":"nivlemo :)","steam_id":76561198963784884,"connected_time":1948000000000,"state":"active","ping":77},{"user_id":415,"name":"dog","steam_id":76561198098065932,"connected_time":401000000000,"state":"active","ping":46},{"user_id":393,"name":"bowchika wowa #SlavaUkraine","steam_id":76561198159564550,"connected_time":1930000000000,"state":"active","ping":75},{"user_id":358,"name":"Elon Musk's Last Braincell","steam_id":76561198846784757,"connected_time":3659000000000,"state":"active","ping":67},{"user_id":349,"name":"James","steam_id":76561198168882012,"connected_time":5000000000000,"state":"active","ping":54},{"user_id":375,"name":"CheapMeds","steam_id":76561197990309210,"connected_time":3091000000000,"state":"active","ping":97},{"user_id":403,"name":"tired","steam_id":76561198046838168,"connected_time":1590000000000,"state":"active","ping":59},{"user_id":360,"name":"Spooky","steam_id":76561198086467025,"connected_time":3636000000000,"state":"active","ping":60},{"user_id":401,"name":"sike","steam_id":76561199011053186,"connected_time":1719000000000,"state":"active","ping":49},{"user_id":345,"name":"giclure :;","steam_id":76561197986362828,"connected_time":5221000000000,"state":"active","ping":53},{"user_id":386,"name":"GeoWolf","steam_id":76561198135140705,"connected_time":2606000000000,"state":"active","ping":57},{"user_id":405,"name":"Diggity","steam_id":76561198297157085,"connected_time":1468000000000,"state":"active","ping":39},{"user_id":379,"name":"bruh","steam_id":76561197993922244,"connected_time":3053000000000,"state":"active","ping":68},{"user_id":412,"name":"Skinny101","steam_id":76561197985599360,"connected_time":614000000000,"state":"active","ping":56}]},{"server_id":321,"name":"Uncletopia | London | 4 | All Maps","name_short":"lon-4","host":"lon-1.uk.uncletopia.com","port":27045,"enabled":true,"region":"eu","cc":"gb","latitude":51.509865,"longitude":-0.118092,"reserved":0,"last_update":"0001-01-01T00:00:00Z","name_a2s":"Uncletopia | London | 4 | All Maps","protocol":17,"map":"pl_upward","folder":"tf","game":"Team Fortress","app_id":440,"player_count":24,"max_players":24,"Bots":0,"server_type":"Dedicated","server_os":"Linux","password":true,"vac":true,"version":"7961495","steam_id":85568392924510193,"keywords":["nocrits","nodmgspread","payload","uncletopia"],"game_id":440,"stv_port":27046,"stv_name":"Uncletopia | London | 4 | All Maps | STV","players":[{"user_id":475,"name":"Oak","steam_id":76561198067315672,"connected_time":1756000000000,"state":"active","ping":44},{"user_id":479,"name":"NotTony69","steam_id":76561199122717140,"connected_time":1037000000000,"state":"active","ping":187},{"user_id":478,"name":"ToonFood","steam_id":76561198038594124,"connected_time":1272000000000,"state":"active","ping":54},{"user_id":480,"name":"SuperCeleste‚ù§Ô∏èTrans Rights","steam_id":76561198167207053,"connected_time":1010000000000,"state":"active","ping":165},{"user_id":507,"name":"alien","steam_id":76561197968892194,"connected_time":68000000000,"state":"active","ping":45},{"user_id":500,"name":"salts \u003c3","steam_id":76561198377055815,"connected_time":329000000000,"state":"active","ping":68},{"user_id":508,"name":"Slimeby","steam_id":76561198353438688,"connected_time":24000000000,"state":"active","ping":93},{"user_id":509,"name":"I WILL CHANGE YOU","steam_id":76561198798803845,"connected_time":17000000000,"state":"spawning","ping":50},{"user_id":485,"name":"cr√®me fatale","steam_id":76561198106455841,"connected_time":668000000000,"state":"active","ping":73},{"user_id":465,"name":"Girlboy Theenie","steam_id":76561198029025500,"connected_time":2899000000000,"state":"active","ping":63},{"user_id":487,"name":"Aspartus","steam_id":76561198101385763,"connected_time":563000000000,"state":"active","ping":44},{"user_id":501,"name":"big heavy is heavy heavy","steam_id":76561198300059652,"connected_time":299000000000,"state":"active","ping":64},{"user_id":490,"name":"luckyastroman","steam_id":76561199027500574,"connected_time":490000000000,"state":"active","ping":93},{"user_id":492,"name":"a leaf","steam_id":76561198242599168,"connected_time":479000000000,"state":"active","ping":45},{"user_id":493,"name":"fart poo penis","steam_id":76561199008015028,"connected_time":464000000000,"state":"active","ping":42},{"user_id":503,"name":"ack","steam_id":76561198139796077,"connected_time":247000000000,"state":"active","ping":50},{"user_id":505,"name":"Lilliputt","steam_id":76561198090146457,"connected_time":135000000000,"state":"active","ping":43},{"user_id":495,"name":"Malcolm Tucker","steam_id":76561198071252700,"connected_time":433000000000,"state":"active","ping":46},{"user_id":506,"name":"traudinix","steam_id":76561198061363420,"connected_time":99000000000,"state":"active","ping":62},{"user_id":504,"name":"ego944","steam_id":76561197999290923,"connected_time":147000000000,"state":"active","ping":63},{"user_id":498,"name":"outlaw","steam_id":76561198323805289,"connected_time":402000000000,"state":"active","ping":30},{"user_id":499,"name":"Colingaffney","steam_id":76561198197984574,"connected_time":396000000000,"state":"active","ping":71},{"user_id":502,"name":"Neb","steam_id":76561198829937839,"connected_time":294000000000,"state":"active","ping":62},{"user_id":467,"name":"Twingo","steam_id":76561198207042812,"connected_time":2837000000000,"state":"active","ping":78}]},{"server_id":21,"name":"Uncletopia | London | 5 | All Maps","name_short":"lon-5","host":"lon-1.uk.uncletopia.com","port":27055,"enabled":true,"region":"eu","cc":"gb","latitude":51.509865,"longitude":-0.118092,"reserved":0,"last_update":"0001-01-01T00:00:00Z","name_a2s":"Uncletopia | London | 5 | All Maps","protocol":17,"map":"pl_badwater","folder":"tf","game":"Team Fortress","app_id":440,"player_count":20,"max_players":24,"Bots":0,"server_type":"Dedicated","server_os":"Linux","password":true,"vac":true,"version":"7961495","steam_id":85568392924742829,"keywords":["nocrits","nodmgspread","payload","uncletopia"],"game_id":440,"stv_port":27056,"stv_name":"Uncletopia | London | 5 | All Maps | STV","players":[{"user_id":239,"name":"Mboigaming","steam_id":76561199014253297,"connected_time":338000000000,"state":"active","ping":60},{"user_id":237,"name":"sheepy dab's hand","steam_id":76561198040284781,"connected_time":421000000000,"state":"active","ping":56},{"user_id":226,"name":"_Context_","steam_id":76561199163359312,"connected_time":1026000000000,"state":"active","ping":66},{"user_id":240,"name":"Urfangonultasadana","steam_id":76561199389286151,"connected_time":290000000000,"state":"active","ping":99},{"user_id":232,"name":"pretty dick peso","steam_id":76561198798177799,"connected_time":753000000000,"state":"active","ping":79},{"user_id":241,"name":"Bezirksschornsteinfegermeister","steam_id":76561199062818404,"connected_time":238000000000,"state":"active","ping":77},{"user_id":242,"name":"Jizzy Bear","steam_id":76561198159405874,"connected_time":237000000000,"state":"active","ping":59},{"user_id":234,"name":"ETPottsey","steam_id":76561198040584129,"connected_time":660000000000,"state":"active","ping":131},{"user_id":243,"name":"Black Shadow 634","steam_id":76561199481445037,"connected_time":226000000000,"state":"active","ping":83},{"user_id":156,"name":"Cataleptic","steam_id":76561197997966949,"connected_time":5253000000000,"state":"active","ping":61},{"user_id":196,"name":"Estamie","steam_id":76561198058527691,"connected_time":2583000000000,"state":"active","ping":75},{"user_id":97,"name":"Ozzie","steam_id":76561197992915315,"connected_time":9817000000000,"state":"active","ping":66},{"user_id":244,"name":"UltimateSlayer","steam_id":76561198384109309,"connected_time":198000000000,"state":"active","ping":56},{"user_id":159,"name":"DelaNo","steam_id":76561199125086655,"connected_time":5099000000000,"state":"active","ping":42},{"user_id":246,"name":"grubs","steam_id":76561198798846454,"connected_time":47000000000,"state":"active","ping":65},{"user_id":247,"name":"Chicken pot pie","steam_id":76561198084997090,"connected_time":41000000000,"state":"active","ping":50},{"user_id":228,"name":"C.H.E.R.E.P.","steam_id":76561198026938595,"connected_time":1012000000000,"state":"active","ping":76},{"user_id":162,"name":"Eterneon","steam_id":76561198354080949,"connected_time":5014000000000,"state":"active","ping":59},{"user_id":222,"name":"Portal2Player","steam_id":76561198062870114,"connected_time":1313000000000,"state":"active","ping":134},{"user_id":229,"name":"Lorenzo Lovers","steam_id":76561198073973581,"connected_time":1007000000000,"state":"active","ping":85}]},{"server_id":22,"name":"Uncletopia | London | 6 | All Maps","name_short":"lon-6","host":"lon-1.uk.uncletopia.com","port":27065,"enabled":true,"region":"eu","cc":"gb","latitude":51.509865,"longitude":-0.118092,"reserved":0,"last_update":"0001-01-01T00:00:00Z","name_a2s":"Uncletopia | London | 6 | All Maps","protocol":17,"map":"koth_lakeside_final","folder":"tf","game":"Team Fortress","app_id":440,"player_count":0,"max_players":24,"Bots":0,"server_type":"Dedicated","server_os":"Linux","password":true,"vac":true,"version":"7961495","steam_id":85568392924742830,"keywords":["cp","nocrits","nodmgspread","uncletopia"],"game_id":440,"stv_port":27066,"stv_name":"Uncletopia | London | 6 | All Maps | STV","players":null},{"server_id":40,"name":"Uncletopia | London | 7 | No Payload","name_short":"lon-7","host":"lon-1.uk.uncletopia.com","port":27075,"enabled":true,"region":"eu","cc":"gb","latitude":51.509865,"longitude":-0.118092,"reserved":0,"last_update":"0001-01-01T00:00:00Z","name_a2s":"Uncletopia | London | 7 | No Payload","protocol":17,"map":"ctf_landfall","folder":"tf","game":"Team Fortress","app_id":440,"player_count":9,"max_players":24,"Bots":0,"server_type":"Dedicated","server_os":"Linux","password":true,"vac":true,"version":"7961495","steam_id":85568392924964314,"keywords":["ctf","nocrits","nodmgspread","uncletopia"],"game_id":440,"stv_port":27076,"stv_name":"Uncletopia | London | 7 | No Payload | STV","players":[{"user_id":28,"name":"Mobster Tortoise","steam_id":76561199036837091,"connected_time":2639000000000,"state":"active","ping":90},{"user_id":29,"name":"Moon","steam_id":76561198808108594,"connected_time":2632000000000,"state":"active","ping":87},{"user_id":30,"name":"lipaul777","steam_id":76561199090751367,"connected_time":2365000000000,"state":"active","ping":73},{"user_id":31,"name":"Spectre","steam_id":76561198163819482,"connected_time":970000000000,"state":"active","ping":58},{"user_id":32,"name":"Raine","steam_id":76561198098860903,"connected_time":943000000000,"state":"active","ping":57},{"user_id":33,"name":"Hodood","steam_id":76561198167443476,"connected_time":912000000000,"state":"active","ping":55},{"user_id":34,"name":"Banatical Bean","steam_id":76561198122356617,"connected_time":858000000000,"state":"active","ping":58},{"user_id":35,"name":"ran is running","steam_id":76561199443185667,"connected_time":525000000000,"state":"active","ping":129},{"user_id":37,"name":"God's Goofiest Goober","steam_id":76561198103175187,"connected_time":359000000000,"state":"active","ping":64}]},{"server_id":41,"name":"Uncletopia | London | 8 | Community","name_short":"lon-8","host":"lon-1.uk.uncletopia.com","port":27085,"enabled":true,"region":"eu","cc":"gb","latitude":51.509865,"longitude":-0.118092,"reserved":0,"last_update":"0001-01-01T00:00:00Z","name_a2s":"Uncletopia | London | 8 | Community","protocol":17,"map":"workshop/cp_croissant_final.ugc458840209","folder":"tf","game":"Team Fortress","app_id":440,"player_count":0,"max_players":24,"Bots":0,"server_type":"Dedicated","server_os":"Linux","password":true,"vac":true,"version":"7961495","steam_id":85568392924964315,"keywords":["cp","nocrits","nodmgspread","uncletopia"],"game_id":440,"stv_port":27086,"stv_name":"Uncletopia | London | 8 | Community | STV","players":null},{"server_id":300,"name":"Uncletopia | Montr√©al | 1 | All Maps","name_short":"mtl-1","host":"mtl-1.ca.uncletopia.com","port":27015,"enabled":true,"region":"us-east","cc":"ca","latitude":45.50889,"longitude":-73.56167,"reserved":0,"last_update":"0001-01-01T00:00:00Z","name_a2s":"Uncletopia | Montr√©al | 1 | All Maps","protocol":17,"map":"pl_pier","folder":"tf","game":"Team Fortress","app_id":440,"player_count":0,"max_players":24,"Bots":0,"server_type":"Dedicated","server_os":"Linux","password":true,"vac":true,"version":"7961495","steam_id":85568392924500087,"keywords":["nocrits","nodmgspread","payload","uncletopia"],"game_id":440,"stv_port":27016,"stv_name":"Uncletopia | Montr√©al | 1 | All Maps | STV","players":null},{"server_id":301,"name":"Uncletopia | Montr√©al | 2 | All Maps","name_short":"mtl-2","host":"mtl-1.ca.uncletopia.com","port":27025,"enabled":true,"region":"us-east","cc":"ca","latitude":45.50889,"longitude":-73.56167,"reserved":0,"last_update":"0001-01-01T00:00:00Z","name_a2s":"Uncletopia | Montr√©al | 2 | All Maps","protocol":17,"map":"cp_process_final","folder":"tf","game":"Team Fortress","app_id":440,"player_count":0,"max_players":24,"Bots":0,"server_type":"Dedicated","server_os":"Linux","password":true,"vac":true,"version":"7961495","steam_id":85568392924500088,"keywords":["cp","nocrits","nodmgspread","uncletopia"],"game_id":440,"stv_port":27026,"stv_name":"Uncletopia | Montr√©al | 2 | All Maps | STV","players":null},{"server_id":302,"name":"Uncletopia | Montr√©al | 3 | All Maps","name_short":"mtl-3","host":"mtl-1.ca.uncletopia.com","port":27035,"enabled":true,"region":"us-east","cc":"ca","latitude":45.50889,"longitude":-73.56167,"reserved":0,"last_update":"0001-01-01T00:00:00Z","name_a2s":"Uncletopia | Montr√©al | 3 | All Maps","protocol":17,"map":"koth_cascade","folder":"tf","game":"Team Fortress","app_id":440,"player_count":0,"max_players":24,"Bots":0,"server_type":"Dedicated","server_os":"Linux","password":true,"vac":true,"version":"7961495","steam_id":85568392924500089,"keywords":["cp","nocrits","nodmgspread","uncletopia"],"game_id":440,"stv_port":27036,"stv_name":"Uncletopia | Montr√©al | 3 | All Maps | STV","players":null},{"server_id":303,"name":"Uncletopia | Montr√©al | 4 | No Payload","name_short":"mtl-4","host":"mtl-1.ca.uncletopia.com","port":27045,"enabled":true,"region":"us-east","cc":"ca","latitude":45.50889,"longitude":-73.56167,"reserved":0,"last_update":"0001-01-01T00:00:00Z","name_a2s":"Uncletopia | Montr√©al | 4 | No Payload","protocol":17,"map":"koth_lakeside_final","folder":"tf","game":"Team Fortress","app_id":440,"player_count":0,"max_players":24,"Bots":0,"server_type":"Dedicated","server_os":"Linux","password":true,"vac":true,"version":"7961495","steam_id":85568392924500090,"keywords":["cp","nocrits","nodmgspread","uncletopia"],"game_id":440,"stv_port":27046,"stv_name":"Uncletopia | Montr√©al | 4 | No Payload | STV","players":null},{"server_id":13,"name":"Uncletopia | New York City | 1 | All Maps","name_short":"nyc-1","host":"nyc-1.us.uncletopia.com","port":27015,"enabled":true,"region":"us-east","cc":"us","latitude":40.73061,"longitude":-73.93524,"reserved":0,"last_update":"0001-01-01T00:00:00Z","name_a2s":"Uncletopia | New York City | 1 | All Maps","protocol":17,"map":"cp_dustbowl","folder":"tf","game":"Team Fortress","app_id":440,"player_count":24,"max_players":24,"Bots":0,"server_type":"Dedicated","server_os":"Linux","password":true,"vac":true,"version":"7961495","steam_id":85568392924469993,"keywords":["cp","nocrits","nodmgspread","uncletopia"],"game_id":440,"stv_port":27016,"stv_name":"Uncletopia | New York City | 1 | All Maps | STV","players":[{"user_id":66,"name":"Biden Blast","steam_id":76561198366729030,"connected_time":2735000000000,"state":"active","ping":120},{"user_id":69,"name":"2framespersec","steam_id":76561198994004371,"connected_time":2463000000000,"state":"active","ping":77},{"user_id":81,"name":"buckydargon","steam_id":76561197991480502,"connected_time":721000000000,"state":"active","ping":113},{"user_id":79,"name":"plutonium isotope","steam_id":76561198319442494,"connected_time":1197000000000,"state":"active","ping":119},{"user_id":57,"name":"peppermint weed","steam_id":76561198813707044,"connected_time":3615000000000,"state":"active","ping":119},{"user_id":61,"name":"Daisy Le Nerd","steam_id":76561198149350087,"connected_time":3007000000000,"state":"active","ping":170},{"user_id":46,"name":"Chezaus","steam_id":76561198317397837,"connected_time":4185000000000,"state":"active","ping":76},{"user_id":39,"name":"ricebox","steam_id":76561197998059533,"connected_time":4402000000000,"state":"active","ping":42},{"user_id":62,"name":"prospike569","steam_id":76561199491903111,"connected_time":2990000000000,"state":"active","ping":70},{"user_id":75,"name":"Sarsonius_Martonius","steam_id":76561198170196538,"connected_time":1827000000000,"state":"active","ping":70},{"user_id":80,"name":"gunkeater","steam_id":76561198120387104,"connected_time":836000000000,"state":"active","ping":50},{"user_id":78,"name":"Mr. Boogedy","steam_id":76561198963180673,"connected_time":1572000000000,"state":"active","ping":54},{"user_id":73,"name":"Wahooka","steam_id":76561197962240925,"connected_time":2227000000000,"state":"active","ping":49},{"user_id":82,"name":"Luis wid a mic","steam_id":76561198349570006,"connected_time":502000000000,"state":"active","ping":30},{"user_id":84,"name":"Chewbacca","steam_id":76561198041927925,"connected_time":301000000000,"state":"active","ping":52},{"user_id":63,"name":"Infinity","steam_id":76561199134919099,"connected_time":2978000000000,"state":"active","ping":68},{"user_id":74,"name":"TopHatWearingKoala","steam_id":76561198068192599,"connected_time":2225000000000,"state":"active","ping":70},{"user_id":44,"name":"-W3E- grim10465","steam_id":76561198045698581,"connected_time":4236000000000,"state":"active","ping":32},{"user_id":45,"name":"Darkish Souls","steam_id":76561198095982312,"connected_time":4206000000000,"state":"active","ping":40},{"user_id":76,"name":"1-800-GHOST-DANCE","steam_id":76561198835430429,"connected_time":1814000000000,"state":"active","ping":66},{"user_id":72,"name":"TheSnowGhost","steam_id":76561198271967286,"connected_time":2242000000000,"state":"active","ping":59},{"user_id":52,"name":"Sapphire03","steam_id":76561199251563743,"connected_time":4080000000000,"state":"active","ping":57},{"user_id":68,"name":"The Power","steam_id":76561198060566884,"connected_time":2679000000000,"state":"active","ping":109},{"user_id":86,"name":"FLORAL COMPUTING","steam_id":76561199056492130,"connected_time":158000000000,"state":"active","ping":57}]},{"server_id":14,"name":"Uncletopia | New York City | 2 | All Maps","name_short":"nyc-2","host":"nyc-1.us.uncletopia.com","port":27025,"enabled":true,"region":"us-east","cc":"us","latitude":40.73061,"longitude":-73.93524,"reserved":0,"last_update":"0001-01-01T00:00:00Z","name_a2s":"Uncletopia | New York City | 2 | All Maps","protocol":17,"map":"pl_pier","folder":"tf","game":"Team Fortress","app_id":440,"player_count":23,"max_players":24,"Bots":0,"server_type":"Dedicated","server_os":"Linux","password":true,"vac":true,"version":"7961495","steam_id":85568392924469994,"keywords":["nocrits","nodmgspread","payload","uncletopia"],"game_id":440,"stv_port":27026,"stv_name":"Uncletopia | New York City | 2 | All Maps | STV","players":[{"user_id":339,"name":"Corrupted_Egg","steam_id":76561199014348513,"connected_time":543000000000,"state":"active","ping":72},{"user_id":349,"name":"PapaTurt","steam_id":76561198334671007,"connected_time":281000000000,"state":"active","ping":61},{"user_id":351,"name":"Shawkcore","steam_id":76561198067851557,"connected_time":56000000000,"state":"active","ping":58},{"user_id":340,"name":"„ãõ countblanc","steam_id":76561197993171771,"connected_time":421000000000,"state":"active","ping":60},{"user_id":343,"name":"Lemur","steam_id":76561198065300466,"connected_time":394000000000,"state":"active","ping":54},{"user_id":338,"name":"Pango","steam_id":76561198069811545,"connected_time":967000000000,"state":"active","ping":60},{"user_id":272,"name":"Sunii","steam_id":76561199053091609,"connected_time":6907000000000,"state":"active","ping":100},{"user_id":342,"name":"Crazypd-Kano","steam_id":76561198263201093,"connected_time":401000000000,"state":"active","ping":129},{"user_id":333,"name":"Albino Jellyfish","steam_id":76561198208561097,"connected_time":2262000000000,"state":"active","ping":55},{"user_id":344,"name":"Crouching Noob Hidden Sniper","steam_id":76561197971328473,"connected_time":391000000000,"state":"active","ping":86},{"user_id":269,"name":"alexable","steam_id":76561198381310350,"connected_time":6920000000000,"state":"active","ping":133},{"user_id":322,"name":"stink","steam_id":76561198099318923,"connected_time":2914000000000,"state":"active","ping":74},{"user_id":345,"name":"BigBubble42","steam_id":76561198136286123,"connected_time":375000000000,"state":"active","ping":68},{"user_id":350,"name":"$0.18","steam_id":76561198360134800,"connected_time":167000000000,"state":"active","ping":57},{"user_id":346,"name":"Yee McGee","steam_id":76561198350041162,"connected_time":327000000000,"state":"active","ping":63},{"user_id":273,"name":"ÔºîÔºê Ôº¶Ôº∞Ôº≥","steam_id":76561198272394965,"connected_time":6817000000000,"state":"active","ping":155},{"user_id":326,"name":"REALLINUSJEWTIP.","steam_id":76561198056647983,"connected_time":2870000000000,"state":"active","ping":71},{"user_id":327,"name":"pai-sano","steam_id":76561198065575472,"connected_time":2867000000000,"state":"active","ping":44},{"user_id":336,"name":"Rudy","steam_id":76561198013456828,"connected_time":1696000000000,"state":"active","ping":57},{"user_id":329,"name":"Firestrike47","steam_id":76561198151129176,"connected_time":2790000000000,"state":"active","ping":45},{"user_id":347,"name":"Protato","steam_id":76561198061182563,"connected_time":314000000000,"state":"active","ping":60},{"user_id":348,"name":"Chef__7","steam_id":76561199056921540,"connected_time":308000000000,"state":"active","ping":78},{"user_id":295,"name":"Gravity","steam_id":76561198066875223,"connected_time":5254000000000,"state":"active","ping":101}]},{"server_id":15,"name":"Uncletopia | New York City | 3 | Stopwatch Beta","name_short":"nyc-3","host":"nyc-1.us.uncletopia.com","port":27035,"enabled":true,"region":"us-east","cc":"us","latitude":40.73061,"longitude":-73.93524,"reserved":0,"last_update":"0001-01-01T00:00:00Z","name_a2s":"Uncletopia | New York City | 3 | Stopwatch Beta","protocol":17,"map":"pl_upward","folder":"tf","game":"Team Fortress","app_id":440,"player_count":0,"max_players":24,"Bots":0,"server_type":"Dedicated","server_os":"Linux","password":true,"vac":true,"version":"7961495","steam_id":85568392924742820,"keywords":["nocrits","nodmgspread","payload","uncletopia"],"game_id":440,"stv_port":27036,"stv_name":"Uncletopia | New York City | 3 | Stopwatch Beta | STV","players":null},{"server_id":16,"name":"Uncletopia | New York City | 4 | Community","name_short":"nyc-4","host":"nyc-1.us.uncletopia.com","port":27045,"enabled":true,"region":"us-east","cc":"us","latitude":40.73061,"longitude":-73.93524,"reserved":0,"last_update":"0001-01-01T00:00:00Z","name_a2s":"Uncletopia | New York City | 4 | Community","protocol":17,"map":"koth_lakeside_final","folder":"tf","game":"Team Fortress","app_id":440,"player_count":0,"max_players":24,"Bots":0,"server_type":"Dedicated","server_os":"Linux","password":true,"vac":true,"version":"7961495","steam_id":85568392924742821,"keywords":["cp","nocrits","nodmgspread","uncletopia"],"game_id":440,"stv_port":27046,"stv_name":"Uncletopia | New York City | 4 | Community | STV","players":null},{"server_id":142,"name":"Uncletopia | S√£o Paulo | 1 | All Maps","name_short":"sao-1","host":"sao-1.br.uncletopia.com","port":27015,"enabled":true,"region":"sa","cc":"br","latitude":-23.533773,"longitude":-46.62529,"reserved":0,"last_update":"0001-01-01T00:00:00Z","name_a2s":"Uncletopia | S√£o Paulo | 1 | All Maps","protocol":17,"map":"koth_highpass","folder":"tf","game":"Team Fortress","app_id":440,"player_count":0,"max_players":24,"Bots":0,"server_type":"Dedicated","server_os":"Linux","password":true,"vac":true,"version":"7961495","steam_id":85568392924469996,"keywords":["cp","nocrits","nodmgspread","uncletopia"],"game_id":440,"stv_port":27016,"stv_name":"Uncletopia | S√£o Paulo | 1 | All Maps | STV","players":null},{"server_id":143,"name":"Uncletopia | S√£o Paulo | 2 | Community","name_short":"sao-2","host":"sao-2.br.uncletopia.com","port":27015,"enabled":true,"region":"sa","cc":"br","latitude":-23.533773,"longitude":-46.62529,"reserved":0,"last_update":"0001-01-01T00:00:00Z","name_a2s":"Uncletopia | S√£o Paulo | 2 | Community","protocol":17,"map":"workshop/pl_barnblitz_pro7.ugc582280235","folder":"tf","game":"Team Fortress","app_id":440,"player_count":0,"max_players":24,"Bots":0,"server_type":"Dedicated","server_os":"Linux","password":true,"vac":true,"version":"7961495","steam_id":85568392924485349,"keywords":["nocrits","nodmgspread","payload","uncletopia"],"game_id":440,"stv_port":27016,"stv_name":"Uncletopia | S√£o Paulo | 2 | Community | STV","players":null},{"server_id":7,"name":"Uncletopia | Seattle | 1 | All Maps","name_short":"sea-1","host":"sea-1.us.uncletopia.com","port":27015,"enabled":true,"region":"us-west","cc":"us","latitude":47.608013,"longitude":-122.33517,"reserved":0,"last_update":"0001-01-01T00:00:00Z","name_a2s":"Uncletopia | Seattle | 1 | All Maps","protocol":17,"map":"pl_swiftwater_final1","folder":"tf","game":"Team Fortress","app_id":440,"player_count":24,"max_players":24,"Bots":0,"server_type":"Dedicated","server_os":"Linux","password":true,"vac":true,"version":"7961495","steam_id":85568392924469997,"keywords":["nocrits","nodmgspread","payload","uncletopia"],"game_id":440,"stv_port":27016,"stv_name":"Uncletopia | Seattle | 1 | All Maps | STV","players":[{"user_id":277,"name":"Rat Smoker","steam_id":76561198090419068,"connected_time":3636000000000,"state":"active","ping":75},{"user_id":273,"name":"slushy :))","steam_id":76561198135281802,"connected_time":3811000000000,"state":"active","ping":53},{"user_id":295,"name":"fruit brute fiend","steam_id":76561198811500361,"connected_time":2134000000000,"state":"active","ping":45},{"user_id":315,"name":"crunchy obama","steam_id":76561198044485217,"connected_time":685000000000,"state":"active","ping":80},{"user_id":279,"name":"Empyrean","steam_id":76561198116398716,"connected_time":3517000000000,"state":"active","ping":84},{"user_id":284,"name":"Finkly","steam_id":76561198049828110,"connected_time":3178000000000,"state":"active","ping":44},{"user_id":99,"name":"Daz","steam_id":76561198041431938,"connected_time":15442000000000,"state":"active","ping":53},{"user_id":317,"name":"Greskrendtregk","steam_id":76561197969553142,"connected_time":633000000000,"state":"active","ping":54},{"user_id":323,"name":"ùñãùñëùñéùñïùñâùñîùñå","steam_id":76561197999648153,"connected_time":477000000000,"state":"active","ping":86},{"user_id":243,"name":"mega","steam_id":76561198089520959,"connected_time":5953000000000,"state":"active","ping":102},{"user_id":311,"name":"Confirmed Bachelor","steam_id":76561198441041496,"connected_time":911000000000,"state":"active","ping":58},{"user_id":286,"name":"Coowil","steam_id":76561198070985437,"connected_time":3025000000000,"state":"active","ping":45},{"user_id":270,"name":"Crustacean Daddy","steam_id":76561198993807061,"connected_time":4117000000000,"state":"active","ping":84},{"user_id":321,"name":"dodecadron","steam_id":76561198027397222,"connected_time":506000000000,"state":"active","ping":63},{"user_id":320,"name":"fwoov","steam_id":76561198129166260,"connected_time":532000000000,"state":"active","ping":76},{"user_id":308,"name":"Schnitz","steam_id":76561198265484253,"connected_time":1373000000000,"state":"active","ping":88},{"user_id":278,"name":"BlazedBunny","steam_id":76561198243610560,"connected_time":3544000000000,"state":"active","ping":76},{"user_id":306,"name":"MistakesWereMade","steam_id":76561199059220481,"connected_time":1501000000000,"state":"active","ping":77},{"user_id":309,"name":"Skip Hop Doo Bop","steam_id":76561199161571849,"connected_time":1330000000000,"state":"active","ping":64},{"user_id":298,"name":"NeonBean","steam_id":76561198088335827,"connected_time":1875000000000,"state":"active","ping":121},{"user_id":310,"name":"lavender","steam_id":76561199069518286,"connected_time":1248000000000,"state":"active","ping":76},{"user_id":318,"name":"GaySkitarii","steam_id":76561198403829714,"connected_time":623000000000,"state":"active","ping":45},{"user_id":322,"name":"ms. anthrope","steam_id":76561198063533082,"connected_time":484000000000,"state":"active","ping":45},{"user_id":325,"name":"Translucent‡´Æ‚Çç ‚Ä¢ ·¥• ‚Ä¢","steam_id":76561199212057076,"connected_time":90000000000,"state":"active","ping":76}]},{"server_id":119,"name":"Uncletopia | Seattle | 2 | All Maps","name_short":"sea-2","host":"sea-1.us.uncletopia.com","port":27025,"enabled":true,"region":"us-west","cc":"us","latitude":47.608013,"longitude":-122.33517,"reserved":0,"last_update":"0001-01-01T00:00:00Z","name_a2s":"Uncletopia | Seattle | 2 | All Maps","protocol":17,"map":"cp_metalworks","folder":"tf","game":"Team Fortress","app_id":440,"player_count":24,"max_players":24,"Bots":0,"server_type":"Dedicated","server_os":"Linux","password":true,"vac":true,"version":"7961495","steam_id":85568392924469998,"keywords":["cp","nocrits","nodmgspread","uncletopia"],"game_id":440,"stv_port":27026,"stv_name":"Uncletopia | Seattle | 2 | All Maps | STV","players":[{"user_id":51,"name":"‚í∑‚ì™‚ì™‚ì£‚ì®‚ìí‚ìê‚ìö‚ìî‚ì¢","steam_id":76561198088776421,"connected_time":869000000000,"state":"active","ping":108},{"user_id":9,"name":"spiderland","steam_id":76561198335992132,"connected_time":4581000000000,"state":"active","ping":40},{"user_id":69,"name":"Wendigo","steam_id":76561197994528974,"connected_time":161000000000,"state":"active","ping":84},{"user_id":24,"name":"jaycerccp","steam_id":76561199209721037,"connected_time":2564000000000,"state":"active","ping":72},{"user_id":12,"name":"K2f","steam_id":76561198049600563,"connected_time":3824000000000,"state":"active","ping":76},{"user_id":50,"name":"Angela :3","steam_id":76561198991101353,"connected_time":1020000000000,"state":"active","ping":46},{"user_id":43,"name":"El Bozo","steam_id":76561198010370396,"connected_time":2038000000000,"state":"active","ping":97},{"user_id":48,"name":"‚ô¶Benji‚ô¶","steam_id":76561198313529973,"connected_time":1471000000000,"state":"active","ping":37},{"user_id":55,"name":"Dura","steam_id":76561198081086998,"connected_time":736000000000,"state":"active","ping":55},{"user_id":28,"name":"JollyVG","steam_id":76561198044919633,"connected_time":2410000000000,"state":"active","ping":115},{"user_id":72,"name":"Snowcen","steam_id":76561198346582597,"connected_time":23000000000,"state":"active","ping":100},{"user_id":56,"name":"Mr. Carfox","steam_id":76561198041664428,"connected_time":638000000000,"state":"active","ping":61},{"user_id":58,"name":"RaixaR","steam_id":76561198025289430,"connected_time":568000000000,"state":"active","ping":102},{"user_id":52,"name":"Cerabond","steam_id":76561199230915333,"connected_time":863000000000,"state":"active","ping":132},{"user_id":35,"name":"Chicletnugget","steam_id":76561198065548025,"connected_time":2220000000000,"state":"active","ping":87},{"user_id":59,"name":"Gerbias","steam_id":76561198001002427,"connected_time":488000000000,"state":"active","ping":69},{"user_id":37,"name":"asm_ghost","steam_id":76561199205363547,"connected_time":2162000000000,"state":"active","ping":94},{"user_id":62,"name":"theletterA-","steam_id":76561198164987883,"connected_time":432000000000,"state":"active","ping":189},{"user_id":64,"name":"SnazzyCelestial","steam_id":76561198328763813,"connected_time":398000000000,"state":"active","ping":130},{"user_id":63,"name":"Phozumi","steam_id":76561198054068499,"connected_time":421000000000,"state":"active","ping":83},{"user_id":57,"name":"sadlaxx","steam_id":76561198061354919,"connected_time":615000000000,"state":"active","ping":86},{"user_id":66,"name":"craftylongsword","steam_id":76561198340102940,"connected_time":337000000000,"state":"active","ping":67},{"user_id":45,"name":"Spectre","steam_id":76561198025652246,"connected_time":2005000000000,"state":"active","ping":105},{"user_id":67,"name":"McSpazatron","steam_id":76561198955942148,"connected_time":281000000000,"state":"active","ping":74}]},{"server_id":406,"name":"Uncletopia | Seattle | 3 | Stopwatch Beta","name_short":"sea-3","host":"sea-1.us.uncletopia.com","port":27035,"enabled":true,"region":"us-west","cc":"us","latitude":47.608013,"longitude":-122.33517,"reserved":0,"last_update":"0001-01-01T00:00:00Z","name_a2s":"Uncletopia | Seattle | 3 | Stopwatch Beta","protocol":17,"map":"workshop/cp_reckoner_rc6.ugc674719999","folder":"tf","game":"Team Fortress","app_id":440,"player_count":0,"max_players":24,"Bots":0,"server_type":"Dedicated","server_os":"Linux","password":true,"vac":true,"version":"7961495","steam_id":85568392924515217,"keywords":["cp","nocrits","nodmgspread","uncletopia"],"game_id":440,"stv_port":27036,"stv_name":"Uncletopia | Seattle | 3 | Stopwatch Beta | STV","players":null},{"server_id":17,"name":"Uncletopia | San Francisco | 1 | All Maps","name_short":"sfo-1","host":"sfo-1.us.uncletopia.com","port":27015,"enabled":true,"region":"us-west","cc":"us","latitude":37.77397,"longitude":-122.4313,"reserved":0,"last_update":"0001-01-01T00:00:00Z","name_a2s":"Uncletopia | San Francisco | 1 | All Maps","protocol":17,"map":"koth_viaduct","folder":"tf","game":"Team Fortress","app_id":440,"player_count":0,"max_players":24,"Bots":0,"server_type":"Dedicated","server_os":"Linux","password":true,"vac":true,"version":"7961495","steam_id":85568392924469999,"keywords":["cp","nocrits","nodmgspread","uncletopia"],"game_id":440,"stv_port":27016,"stv_name":"Uncletopia | San Francisco | 1 | All Maps | STV","players":null},{"server_id":18,"name":"Uncletopia | San Francisco | 2 | All Maps","name_short":"sfo-2","host":"sfo-1.us.uncletopia.com","port":27025,"enabled":true,"region":"us-west","cc":"us","latitude":37.77397,"longitude":-122.4313,"reserved":0,"last_update":"0001-01-01T00:00:00Z","name_a2s":"Uncletopia | San Francisco | 2 | All Maps","protocol":17,"map":"cp_sunshine","folder":"tf","game":"Team Fortress","app_id":440,"player_count":0,"max_players":24,"Bots":0,"server_type":"Dedicated","server_os":"Linux","password":true,"vac":true,"version":"7961495","steam_id":85568392924470000,"keywords":["cp","nocrits","nodmgspread","uncletopia"],"game_id":440,"stv_port":27026,"stv_name":"Uncletopia | San Francisco | 2 | All Maps | STV","players":null},{"server_id":19,"name":"Uncletopia | San Francisco | 3 | Stopwatch Beta","name_short":"sfo-3","host":"sfo-1.us.uncletopia.com","port":27035,"enabled":true,"region":"us-west","cc":"us","latitude":37.77397,"longitude":-122.4313,"reserved":0,"last_update":"0001-01-01T00:00:00Z","name_a2s":"Uncletopia | San Francisco | 3 | Stopwatch Beta","protocol":17,"map":"pl_borneo","folder":"tf","game":"Team Fortress","app_id":440,"player_count":0,"max_players":24,"Bots":0,"server_type":"Dedicated","server_os":"Linux","password":true,"vac":true,"version":"7961495","steam_id":85568392924742824,"keywords":["nocrits","nodmgspread","payload","uncletopia"],"game_id":440,"stv_port":27036,"stv_name":"Uncletopia | San Francisco | 3 | Stopwatch Beta | STV","players":null},{"server_id":20,"name":"Uncletopia | San Francisco | 4 | Community","name_short":"sfo-4","host":"sfo-1.us.uncletopia.com","port":27045,"enabled":true,"region":"us-west","cc":"us","latitude":37.77397,"longitude":-122.4313,"reserved":0,"last_update":"0001-01-01T00:00:00Z","name_a2s":"Uncletopia | San Francisco | 4 | Community","protocol":17,"map":"koth_viaduct","folder":"tf","game":"Team Fortress","app_id":440,"player_count":0,"max_players":24,"Bots":0,"server_type":"Dedicated","server_os":"Linux","password":true,"vac":true,"version":"7961495","steam_id":85568392924742826,"keywords":["cp","nocrits","nodmgspread","uncletopia"],"game_id":440,"stv_port":27046,"stv_name":"Uncletopia | San Francisco | 4 | Community | STV","players":null},{"server_id":141,"name":"Uncletopia | Sydney | 1 | All Maps","name_short":"syd-1","host":"syd-1.au.uncletopia.com","port":27015,"enabled":true,"region":"au","cc":"au","latitude":-33.865143,"longitude":151.2099,"reserved":0,"last_update":"0001-01-01T00:00:00Z","name_a2s":"Uncletopia | Sydney | 1 | All Maps","protocol":17,"map":"pl_swiftwater_final1","folder":"tf","game":"Team Fortress","app_id":440,"player_count":0,"max_players":24,"Bots":0,"server_type":"Dedicated","server_os":"Linux","password":true,"vac":true,"version":"7961495","steam_id":85568392924470001,"keywords":["nocrits","nodmgspread","payload","uncletopia"],"game_id":440,"stv_port":27016,"stv_name":"Uncletopia | Sydney | 1 | All Maps | STV","players":null},{"server_id":123,"name":"Uncletopia | Sydney | 2 | All Maps","name_short":"syd-2","host":"syd-1.au.uncletopia.com","port":27025,"enabled":true,"region":"au","cc":"au","latitude":-33.865143,"longitude":151.2099,"reserved":0,"last_update":"0001-01-01T00:00:00Z","name_a2s":"Uncletopia | Sydney | 2 | All Maps","protocol":17,"map":"pl_snowycoast","folder":"tf","game":"Team Fortress","app_id":440,"player_count":0,"max_players":24,"Bots":0,"server_type":"Dedicated","server_os":"Linux","password":true,"vac":true,"version":"7961495","steam_id":85568392924470002,"keywords":["nocrits","nodmgspread","payload","uncletopia"],"game_id":440,"stv_port":27026,"stv_name":"Uncletopia | Sydney | 2 | All Maps | STV","players":null},{"server_id":395,"name":"Uncletopia | Sydney | 3 | All Maps","name_short":"syd-3","host":"syd-1.au.uncletopia.com","port":27035,"enabled":true,"region":"au","cc":"au","latitude":-33.865143,"longitude":151.2099,"reserved":0,"last_update":"0001-01-01T00:00:00Z","name_a2s":"Uncletopia | Sydney | 3 | All Maps","protocol":17,"map":"cp_dustbowl","folder":"tf","game":"Team Fortress","app_id":440,"player_count":0,"max_players":24,"Bots":0,"server_type":"Dedicated","server_os":"Linux","password":true,"vac":true,"version":"7961495","steam_id":85568392925194467,"keywords":["cp","nocrits","nodmgspread","uncletopia"],"game_id":440,"stv_port":27036,"stv_name":"Uncletopia | Sydney | 3 | All Maps | STV","players":null},{"server_id":396,"name":"Uncletopia | Sydney | 4 | All Maps","name_short":"syd-4","host":"syd-1.au.uncletopia.com","port":27045,"enabled":true,"region":"au","cc":"au","latitude":-33.865143,"longitude":151.2099,"reserved":0,"last_update":"0001-01-01T00:00:00Z","name_a2s":"Uncletopia | Sydney | 4 | All Maps","protocol":17,"map":"cp_dustbowl","folder":"tf","game":"Team Fortress","app_id":440,"player_count":0,"max_players":24,"Bots":0,"server_type":"Dedicated","server_os":"Linux","password":true,"vac":true,"version":"7961495","steam_id":85568392925397958,"keywords":["cp","nocrits","nodmgspread","uncletopia"],"game_id":440,"stv_port":27046,"stv_name":"Uncletopia | Sydney | 4 | All Maps | STV","players":null},{"server_id":58,"name":"Uncletopia | Sydney | 5 | Stopwatch Beta","name_short":"syd-5","host":"syd-1.au.uncletopia.com","port":27055,"enabled":true,"region":"au","cc":"au","latitude":-33.865143,"longitude":151.2099,"reserved":0,"last_update":"0001-01-01T00:00:00Z","name_a2s":"Uncletopia | Sydney | 5 | Stopwatch Beta","protocol":17,"map":"koth_viaduct","folder":"tf","game":"Team Fortress","app_id":440,"player_count":0,"max_players":24,"Bots":0,"server_type":"Dedicated","server_os":"Linux","password":true,"vac":true,"version":"7961495","steam_id":85568392925397959,"keywords":["cp","nocrits","nodmgspread","uncletopia"],"game_id":440,"stv_port":27056,"stv_name":"Uncletopia | Sydney | 5 | Stopwatch Beta | STV","players":null},{"server_id":59,"name":"Uncletopia | Sydney | 6 | Community","name_short":"syd-6","host":"syd-1.au.uncletopia.com","port":27065,"enabled":true,"region":"au","cc":"au","latitude":-33.865143,"longitude":151.2099,"reserved":0,"last_update":"0001-01-01T00:00:00Z","name_a2s":"Uncletopia | Sydney | 6 | Community","protocol":17,"map":"koth_cascade","folder":"tf","game":"Team Fortress","app_id":440,"player_count":0,"max_players":24,"Bots":0,"server_type":"Dedicated","server_os":"Linux","password":true,"vac":true,"version":"7961495","steam_id":85568392925397960,"keywords":["cp","nocrits","nodmgspread","uncletopia"],"game_id":440,"stv_port":27066,"stv_name":"Uncletopia | Sydney | 6 | Community | STV","players":null},{"server_id":49,"name":"Uncletopia | Warsaw | 1 | All Maps","name_short":"waw-1","host":"waw-1.pl.uncletopia.com","port":27015,"enabled":true,"region":"eu","cc":"pl","latitude":52.2297,"longitude":21.017532,"reserved":0,"last_update":"0001-01-01T00:00:00Z","name_a2s":"Uncletopia | Warsaw | 1 | All Maps","protocol":17,"map":"koth_highpass","folder":"tf","game":"Team Fortress","app_id":440,"player_count":0,"max_players":24,"Bots":0,"server_type":"Dedicated","server_os":"Linux","password":true,"vac":true,"version":"7961495","steam_id":85568392925397850,"keywords":["cp","nocrits","nodmgspread","uncletopia"],"game_id":440,"stv_port":27016,"stv_name":"Uncletopia | Warsaw | 1 | All Maps | STV","players":null},{"server_id":50,"name":"Uncletopia | Warsaw | 2 | All Maps","name_short":"waw-2","host":"waw-1.pl.uncletopia.com","port":27025,"enabled":true,"region":"eu","cc":"pl","latitude":52.2297,"longitude":21.017532,"reserved":0,"last_update":"0001-01-01T00:00:00Z","name_a2s":"Uncletopia | Warsaw | 2 | All Maps","protocol":17,"map":"cp_process_final","folder":"tf","game":"Team Fortress","app_id":440,"player_count":0,"max_players":24,"Bots":0,"server_type":"Dedicated","server_os":"Linux","password":true,"vac":true,"version":"7961495","steam_id":85568392925397851,"keywords":["cp","nocrits","nodmgspread","uncletopia"],"game_id":440,"stv_port":27026,"stv_name":"Uncletopia | Warsaw | 2 | All Maps | STV","players":null},{"server_id":51,"name":"Uncletopia | Warsaw | 3 | All Maps","name_short":"waw-3","host":"waw-1.pl.uncletopia.com","port":27035,"enabled":true,"region":"eu","cc":"pl","latitude":52.2297,"longitude":21.017532,"reserved":0,"last_update":"0001-01-01T00:00:00Z","name_a2s":"Uncletopia | Warsaw | 3 | All Maps","protocol":17,"map":"cp_snakewater_final1","folder":"tf","game":"Team Fortress","app_id":440,"player_count":0,"max_players":24,"Bots":0,"server_type":"Dedicated","server_os":"Linux","password":true,"vac":true,"version":"7961495","steam_id":85568392925397852,"keywords":["cp","nocrits","nodmgspread","uncletopia"],"game_id":440,"stv_port":27036,"stv_name":"Uncletopia | Warsaw | 3 | All Maps | STV","players":null},{"server_id":52,"name":"Uncletopia | Warsaw | 4 | All Maps","name_short":"waw-4","host":"waw-1.pl.uncletopia.com","port":27045,"enabled":true,"region":"eu","cc":"pl","latitude":52.2297,"longitude":21.017532,"reserved":0,"last_update":"0001-01-01T00:00:00Z","name_a2s":"Uncletopia | Warsaw | 4 | All Maps","protocol":17,"map":"pl_pier","folder":"tf","game":"Team Fortress","app_id":440,"player_count":0,"max_players":24,"Bots":0,"server_type":"Dedicated","server_os":"Linux","password":true,"vac":true,"version":"7961495","steam_id":85568392925397853,"keywords":["nocrits","nodmgspread","payload","uncletopia"],"game_id":440,"stv_port":27046,"stv_name":"Uncletopia | Warsaw | 4 | All Maps | STV","players":null},{"server_id":53,"name":"Uncletopia | Warsaw | 5 | Stopwatch Beta","name_short":"waw-5","host":"waw-1.pl.uncletopia.com","port":27055,"enabled":true,"region":"eu","cc":"pl","latitude":52.2297,"longitude":21.017532,"reserved":0,"last_update":"0001-01-01T00:00:00Z","name_a2s":"Uncletopia | Warsaw | 5 | Stopwatch Beta","protocol":17,"map":"workshop/pl_barnblitz_pro7.ugc582280235","folder":"tf","game":"Team Fortress","app_id":440,"player_count":0,"max_players":24,"Bots":0,"server_type":"Dedicated","server_os":"Linux","password":true,"vac":true,"version":"7961495","steam_id":85568392925397854,"keywords":["nocrits","nodmgspread","payload","uncletopia"],"game_id":440,"stv_port":27056,"stv_name":"Uncletopia | Warsaw | 5 | Stopwatch Beta | STV","players":null},{"server_id":54,"name":"Uncletopia | Warsaw | 6 | Community","name_short":"waw-6","host":"waw-1.pl.uncletopia.com","port":27065,"enabled":true,"region":"eu","cc":"pl","latitude":52.2297,"longitude":21.017532,"reserved":0,"last_update":"0001-01-01T00:00:00Z","name_a2s":"Uncletopia | Warsaw | 6 | Community","protocol":17,"map":"workshop/koth_synthetic_rc6a.ugc1549817316","folder":"tf","game":"Team Fortress","app_id":440,"player_count":0,"max_players":24,"Bots":0,"server_type":"Dedicated","server_os":"Linux","password":true,"vac":true,"version":"7961495","steam_id":85568392925397856,"keywords":["cp","nocrits","nodmgspread","uncletopia"],"game_id":440,"stv_port":27066,"stv_name":"Uncletopia | Warsaw | 6 | Community | STV","players":null}]}