{"status":true,"message":"","result":[{"server_id":9,"name":"Uncletopia | Atlanta | 1 | All Maps","name_short":"atl-1","host":"atl-1.us.uncletopia.com","port":27015,"enabled":true,"region":"us-east","cc":"us","latitude":33.753746,"longitude":-84.38633,"reserved":0,"last_update":"0001-01-01T00:00:00Z","name_a2s":"Uncletopia | Atlanta | 1 | All Maps","protocol":17,"map":"pl_pier","folder":"tf","game":"Team Fortress","app_id":440,"player_count":24,"max_players":24,"Bots":0,"server_type":"Dedicated","server_os":"Linux","password":true,"vac":true,"version":"7742253","steam_id":85568392924469982,"keywords":["nocrits","nodmgspread","payload","uncletopia"],"game_id":440,"stv_port":27016,"stv_name":"Uncletopia | Atlanta | 1 | All Maps | STV","players":[{"user_id":571,"name":"Winter the Witchie","steam_id":76561198151971178,"connected_time":2011000000000,"state":"active","ping":70},{"user_id":591,"name":"sup","steam_id":76561199089196165,"connected_time":611000000000,"state":"active","ping":79},{"user_id":573,"name":"kametro4","steam_id":76561198835430429,"connected_time":1985000000000,"state":"active","ping":105},{"user_id":574,"name":"fac","steam_id":76561198009818412,"connected_time":1967000000000,"state":"active","ping":60},{"user_id":505,"name":"ATL1 | on my hunting trip","steam_id":76561198315341646,"connected_time":8124000000000,"state":"active","ping":64},{"user_id":576,"name":"KnightShock","steam_id":76561199086307667,"connected_time":1918000000000,"state":"active","ping":92},{"user_id":588,"name":"goober","steam_id":76561198943598378,"connected_time":838000000000,"state":"active","ping":53},{"user_id":549,"name":"Jin","steam_id":76561198119873148,"connected_time":4083000000000,"state":"active","ping":75},{"user_id":580,"name":"peachy","steam_id":76561198026664629,"connected_time":1826000000000,"state":"active","ping":55},{"user_id":560,"name":"Ew Dirt","steam_id":76561198085409448,"connected_time":2947000000000,"state":"active","ping":76},{"user_id":578,"name":"FlakkerSaber.","steam_id":76561198103503066,"connected_time":1907000000000,"state":"active","ping":66},{"user_id":594,"name":"Bad Day to be Some Cheeks","steam_id":76561198083251763,"connected_time":604000000000,"state":"active","ping":57},{"user_id":561,"name":"IPaige","steam_id":76561198271967211,"connected_time":2843000000000,"state":"active","ping":87},{"user_id":541,"name":"Raccoon","steam_id":76561198978422268,"connected_time":4734000000000,"state":"active","ping":93},{"user_id":595,"name":"VidzCMC","steam_id":76561198848142973,"connected_time":158000000000,"state":"active","ping":84},{"user_id":590,"name":"sy (from hl)","steam_id":76561198216487540,"connected_time":626000000000,"state":"active","ping":106},{"user_id":565,"name":"Woakes","steam_id":76561198139122301,"connected_time":2678000000000,"state":"active","ping":83},{"user_id":581,"name":"Guts","steam_id":76561198244702428,"connected_time":1814000000000,"state":"active","ping":76},{"user_id":569,"name":"FemboyNate","steam_id":76561198146636410,"connected_time":2525000000000,"state":"active","ping":74},{"user_id":552,"name":"Aniz","steam_id":76561199226665024,"connected_time":3379000000000,"state":"active","ping":135},{"user_id":592,"name":"Brian D","steam_id":76561198074638559,"connected_time":611000000000,"state":"active","ping":79},{"user_id":593,"name":"TheBiggerIron","steam_id":76561198257043605,"connected_time":610000000000,"state":"active","ping":83},{"user_id":596,"name":"mommy hog","steam_id":76561199230929836,"connected_time":25000000000,"state":"active","ping":92},{"user_id":582,"name":"ATL1 | MarrowMarauder","steam_id":76561198930350337,"connected_time":1765000000000,"state":"active","ping":60}]},{"server_id":400,"name":"Uncletopia | Atlanta | 3 | Stopwatch Beta","name_short":"atl-3","host":"atl-1.us.uncletopia.com","port":27035,"enabled":true,"region":"us-east","cc":"us","latitude":33.753746,"longitude":-84.38633,"reserved":0,"last_update":"0001-01-01T00:00:00Z","name_a2s":"Uncletopia | Atlanta | 3 | Stopwatch Beta","protocol":17,"map":"pl_upward","folder":"tf","game":"Team Fortress","app_id":440,"player_count":0,"max_players":24,"Bots":0,"server_type":"Dedicated","server_os":"Linux","password":true,"vac":true,"version":"7742253","steam_id":85568392924515187,"keywords":["nocrits","nodmgspread","payload","uncletopia"],"game_id":440,"stv_port":27036,"stv_name":"Uncletopia | Atlanta | 3 | Stopwatch Beta | STV","players":null},{"server_id":401,"name":"Uncletopia | Atlanta | 4 | No Payload","name_short":"atl-4","host":"atl-1.us.uncletopia.com","port":27045,"enabled":true,"region":"us-east","cc":"us","latitude":33.753746,"longitude":-84.38633,"reserved":0,"last_update":"0001-01-01T00:00:00Z","name_a2s":"Uncletopia | Atlanta | 4 | No Payload","protocol":17,"map":"pl_pier","folder":"tf","game":"Team Fortress","app_id":440,"player_count":0,"max_players":24,"Bots":0,"server_type":"Dedicated","server_os":"Linux","password":true,"vac":true,"version":"7723704","steam_id":85568392924515188,"keywords":["nocrits","nodmgspread","payload","uncletopia"],"game_id":440,"stv_port":27046,"stv_name":"Uncletopia | Atlanta | 4 | No Payload | STV","players":null},{"server_id":2,"name":"Uncletopia | Chicago | 1 | All Maps","name_short":"chi-1","host":"chi-1.us.uncletopia.com","port":27015,"enabled":true,"region":"us-central","cc":"us","latitude":41.881832,"longitude":-87.62318,"reserved":0,"last_update":"0001-01-01T00:00:00Z","name_a2s":"Uncletopia | Chicago | 1 | All Maps","protocol":17,"map":"pl_frontier_final","folder":"tf","game":"Team Fortress","app_id":440,"player_count":24,"max_players":24,"Bots":0,"server_type":"Dedicated","server_os":"Linux","password":true,"vac":true,"version":"7742253","steam_id":85568392924469984,"keywords":["nocrits","nodmgspread","payload","uncletopia"],"game_id":440,"stv_port":27016,"stv_name":"Uncletopia | Chicago | 1 | All Maps | STV","players":[{"user_id":726,"name":"Klip","steam_id":76561198316254429,"connected_time":741000000000,"state":"active","ping":85},{"user_id":703,"name":"{FITH}™ Halcyon","steam_id":76561198049132808,"connected_time":2260000000000,"state":"active","ping":78},{"user_id":708,"name":"dw4rf","steam_id":76561198046953937,"connected_time":2177000000000,"state":"active","ping":109},{"user_id":611,"name":"Daddy Senpai Chan","steam_id":76561198400204109,"connected_time":7884000000000,"state":"active","ping":57},{"user_id":698,"name":"My Pet Polar Bear","steam_id":76561198052902058,"connected_time":2591000000000,"state":"active","ping":99},{"user_id":722,"name":"dzcreeper","steam_id":76561198072250723,"connected_time":1045000000000,"state":"active","ping":84},{"user_id":709,"name":"gonurlight","steam_id":76561198935839416,"connected_time":2173000000000,"state":"active","ping":90},{"user_id":725,"name":"IIP","steam_id":76561198286102406,"connected_time":751000000000,"state":"active","ping":68},{"user_id":713,"name":"PlasmaPower","steam_id":76561198136316884,"connected_time":1972000000000,"state":"active","ping":75},{"user_id":671,"name":"Terium","steam_id":76561198331234327,"connected_time":3711000000000,"state":"active","ping":54},{"user_id":684,"name":"Michaelpc1","steam_id":76561198088365519,"connected_time":3085000000000,"state":"active","ping":75},{"user_id":710,"name":"Hey","steam_id":76561198447517893,"connected_time":2142000000000,"state":"active","ping":71},{"user_id":727,"name":"Eclipse","steam_id":76561198404882831,"connected_time":728000000000,"state":"active","ping":78},{"user_id":729,"name":"aaalex","steam_id":76561198273231421,"connected_time":689000000000,"state":"active","ping":79},{"user_id":693,"name":"Trakmer","steam_id":76561198049501416,"connected_time":2757000000000,"state":"active","ping":184},{"user_id":712,"name":"Adanpog","steam_id":76561199082107399,"connected_time":2110000000000,"state":"active","ping":78},{"user_id":690,"name":"Tick","steam_id":76561198184161214,"connected_time":2937000000000,"state":"active","ping":46},{"user_id":618,"name":"Alt","steam_id":76561197992591984,"connected_time":7523000000000,"state":"active","ping":59},{"user_id":724,"name":"Colin102004","steam_id":76561198202384334,"connected_time":842000000000,"state":"active","ping":62},{"user_id":728,"name":"darkjustin54","steam_id":76561198060056280,"connected_time":709000000000,"state":"active","ping":74},{"user_id":644,"name":"TheMeatlyShaymin","steam_id":76561199078945620,"connected_time":6234000000000,"state":"active","ping":67},{"user_id":681,"name":"pew pew user","steam_id":76561198307845869,"connected_time":3331000000000,"state":"active","ping":68},{"user_id":723,"name":"slep.py","steam_id":76561197988287144,"connected_time":995000000000,"state":"active","ping":58}]},{"server_id":106,"name":"Uncletopia | Chicago | 2 | All Maps","name_short":"chi-2","host":"chi-1.us.uncletopia.com","port":27025,"enabled":true,"region":"us-central","cc":"us","latitude":41.881832,"longitude":-87.62318,"reserved":0,"last_update":"0001-01-01T00:00:00Z","name_a2s":"Uncletopia | Chicago | 2 | All Maps","protocol":17,"map":"koth_cascade","folder":"tf","game":"Team Fortress","app_id":440,"player_count":0,"max_players":24,"Bots":0,"server_type":"Dedicated","server_os":"Linux","password":true,"vac":true,"version":"7742253","steam_id":85568392924469985,"keywords":["cp","nocrits","nodmgspread","uncletopia"],"game_id":440,"stv_port":27026,"stv_name":"Uncletopia | Chicago | 2 | All Maps | STV","players":null},{"server_id":402,"name":"Uncletopia | Chicago | 3 | All Maps","name_short":"chi-3","host":"chi-1.us.uncletopia.com","port":27035,"enabled":true,"region":"us-central","cc":"us","latitude":41.881832,"longitude":-87.62318,"reserved":0,"last_update":"0001-01-01T00:00:00Z","name_a2s":"Uncletopia | Chicago | 3 | All Maps","protocol":17,"map":"cp_sunshine","folder":"tf","game":"Team Fortress","app_id":440,"player_count":24,"max_players":24,"Bots":0,"server_type":"Dedicated","server_os":"Linux","password":true,"vac":true,"version":"7742253","steam_id":85568392924515191,"keywords":["cp","nocrits","nodmgspread","uncletopia"],"game_id":440,"stv_port":27036,"stv_name":"Uncletopia | Chicago | 3 | All Maps | STV","players":[{"user_id":800,"name":"Snake Handler","steam_id":76561198027198306,"connected_time":8907000000000,"state":"active","ping":59},{"user_id":903,"name":"Terribad","steam_id":76561198120844785,"connected_time":777000000000,"state":"active","ping":104},{"user_id":909,"name":"Moch1","steam_id":76561199085919547,"connected_time":671000000000,"state":"active","ping":90},{"user_id":857,"name":"Christmas Cretin","steam_id":76561198149063013,"connected_time":3963000000000,"state":"active","ping":85},{"user_id":904,"name":"Rock Kickass","steam_id":76561198450510841,"connected_time":771000000000,"state":"active","ping":99},{"user_id":881,"name":"OlympicChamp_12 | Trade.tf","steam_id":76561198830574526,"connected_time":2171000000000,"state":"active","ping":97},{"user_id":874,"name":"YouCheekyDickWaffle","steam_id":76561198117348760,"connected_time":3499000000000,"state":"active","ping":57},{"user_id":897,"name":"Nyx-Nul","steam_id":76561198026943694,"connected_time":1463000000000,"state":"active","ping":59},{"user_id":915,"name":"terrapieseven","steam_id":76561198072062415,"connected_time":49000000000,"state":"active","ping":79},{"user_id":912,"name":"stevie","steam_id":76561198096144081,"connected_time":520000000000,"state":"active","ping":90},{"user_id":911,"name":"BUFF THE SCORCH SHOT","steam_id":76561198042899484,"connected_time":571000000000,"state":"active","ping":71},{"user_id":875,"name":"aeop","steam_id":76561198153671643,"connected_time":3461000000000,"state":"active","ping":67},{"user_id":888,"name":"stungoperation","steam_id":76561199162409918,"connected_time":1996000000000,"state":"active","ping":62},{"user_id":891,"name":"mush","steam_id":76561198310089797,"connected_time":1920000000000,"state":"active","ping":55},{"user_id":868,"name":"playing w gamecube controller r","steam_id":76561198092172152,"connected_time":3686000000000,"state":"active","ping":65},{"user_id":870,"name":"silver","steam_id":76561198081906712,"connected_time":3632000000000,"state":"active","ping":44},{"user_id":890,"name":"nvm_","steam_id":76561198843128678,"connected_time":1966000000000,"state":"active","ping":49},{"user_id":914,"name":"APP","steam_id":76561198964370718,"connected_time":181000000000,"state":"active","ping":88},{"user_id":908,"name":"Cobra","steam_id":76561198148418531,"connected_time":708000000000,"state":"active","ping":70},{"user_id":913,"name":"Reaper","steam_id":76561198435826103,"connected_time":519000000000,"state":"active","ping":70},{"user_id":898,"name":"Tetra","steam_id":76561198012329955,"connected_time":1453000000000,"state":"active","ping":98},{"user_id":892,"name":"Rembrandt Pussyhorse","steam_id":76561198050582941,"connected_time":1901000000000,"state":"active","ping":74},{"user_id":893,"name":"Inevitable","steam_id":76561198210050169,"connected_time":1821000000000,"state":"active","ping":60},{"user_id":899,"name":"Apollo","steam_id":76561198249988484,"connected_time":1407000000000,"state":"active","ping":63}]},{"server_id":403,"name":"Uncletopia | Chicago | 4 | All Maps","name_short":"chi-4","host":"chi-1.us.uncletopia.com","port":27045,"enabled":true,"region":"us-central","cc":"us","latitude":41.881832,"longitude":-87.62318,"reserved":0,"last_update":"0001-01-01T00:00:00Z","name_a2s":"Uncletopia | Chicago | 4 | All Maps","protocol":17,"map":"pl_badwater","folder":"tf","game":"Team Fortress","app_id":440,"player_count":24,"max_players":24,"Bots":0,"server_type":"Dedicated","server_os":"Linux","password":true,"vac":true,"version":"7742253","steam_id":85568392924515193,"keywords":["nocrits","nodmgspread","payload","uncletopia"],"game_id":440,"stv_port":27046,"stv_name":"Uncletopia | Chicago | 4 | All Maps | STV","players":[{"user_id":325,"name":"Garbage","steam_id":76561198286796934,"connected_time":2424000000000,"state":"active","ping":64},{"user_id":347,"name":"ToastyNuts","steam_id":76561198064465418,"connected_time":1251000000000,"state":"active","ping":81},{"user_id":354,"name":"wife haver","steam_id":76561198248170354,"connected_time":282000000000,"state":"active","ping":73},{"user_id":346,"name":"familyofgamers1","steam_id":76561199450037040,"connected_time":1296000000000,"state":"active","ping":64},{"user_id":352,"name":"Mischief of Rats","steam_id":76561198106307068,"connected_time":300000000000,"state":"active","ping":49},{"user_id":265,"name":"The Dumptruck of Notre-Dame","steam_id":76561198004815026,"connected_time":7306000000000,"state":"active","ping":75},{"user_id":267,"name":"the hunchback of gay paris","steam_id":76561197987056308,"connected_time":7247000000000,"state":"active","ping":83},{"user_id":355,"name":"Fraglin","steam_id":76561198124964000,"connected_time":265000000000,"state":"active","ping":73},{"user_id":270,"name":"Waxing Green Gibus","steam_id":76561198269228580,"connected_time":6947000000000,"state":"active","ping":67},{"user_id":343,"name":"starboy","steam_id":76561198072072241,"connected_time":1748000000000,"state":"active","ping":52},{"user_id":356,"name":"ringer4","steam_id":76561198431001893,"connected_time":224000000000,"state":"active","ping":74},{"user_id":348,"name":"little man","steam_id":76561198865971290,"connected_time":1220000000000,"state":"active","ping":87},{"user_id":357,"name":"name420","steam_id":76561198129374525,"connected_time":221000000000,"state":"active","ping":75},{"user_id":341,"name":"hashmap","steam_id":76561198043794014,"connected_time":1823000000000,"state":"active","ping":52},{"user_id":351,"name":"Space⭐Taffy","steam_id":76561198002271720,"connected_time":301000000000,"state":"active","ping":59},{"user_id":330,"name":"Dealyo","steam_id":76561198282395338,"connected_time":2338000000000,"state":"active","ping":76},{"user_id":358,"name":"TÖZI","steam_id":76561198045268695,"connected_time":196000000000,"state":"active","ping":52},{"user_id":283,"name":"Dr.KombatPhD.ttv","steam_id":76561198263847667,"connected_time":6631000000000,"state":"active","ping":62},{"user_id":353,"name":"Dr. Martin Luther","steam_id":76561198064572586,"connected_time":299000000000,"state":"active","ping":75},{"user_id":350,"name":"Fish","steam_id":76561198986516474,"connected_time":794000000000,"state":"active","ping":100},{"user_id":363,"name":"NO. bad girl \u003e:(","steam_id":76561198198984282,"connected_time":5000000000,"state":"spawning","ping":82},{"user_id":349,"name":"[slug]","steam_id":76561197989592178,"connected_time":919000000000,"state":"active","ping":65},{"user_id":360,"name":"Just Another Stoned Eevee","steam_id":76561198262852705,"connected_time":183000000000,"state":"active","ping":85},{"user_id":361,"name":"Yule","steam_id":76561198087404667,"connected_time":174000000000,"state":"active","ping":92}]},{"server_id":36,"name":"Uncletopia | Chicago | 5 | All Maps","name_short":"chi-5","host":"chi-2.us.uncletopia.com","port":27015,"enabled":true,"region":"us-central","cc":"us","latitude":41.881832,"longitude":-87.62318,"reserved":0,"last_update":"0001-01-01T00:00:00Z","name_a2s":"Uncletopia | Chicago | 5 | All Maps","protocol":17,"map":"pl_pier","folder":"tf","game":"Team Fortress","app_id":440,"player_count":21,"max_players":24,"Bots":0,"server_type":"Dedicated","server_os":"Linux","password":true,"vac":true,"version":"7742253","steam_id":85568392924866362,"keywords":["nocrits","nodmgspread","payload","uncletopia"],"game_id":440,"stv_port":27016,"stv_name":"Uncletopia | Chicago | 5 | All Maps | STV","players":[{"user_id":140,"name":"Ford Truck Gaming","steam_id":76561199042674833,"connected_time":2883000000000,"state":"active","ping":85},{"user_id":198,"name":"a table","steam_id":76561198158461279,"connected_time":18000000000,"state":"spawning","ping":87},{"user_id":197,"name":"joethefool","steam_id":76561199015436319,"connected_time":33000000000,"state":"active","ping":80},{"user_id":189,"name":"Brooks","steam_id":76561199079002400,"connected_time":305000000000,"state":"active","ping":67},{"user_id":163,"name":"Flume","steam_id":76561198801227132,"connected_time":1578000000000,"state":"active","ping":81},{"user_id":199,"name":"meth head joe","steam_id":76561198176454023,"connected_time":16000000000,"state":"active","ping":91},{"user_id":160,"name":"segway cop","steam_id":76561198225609936,"connected_time":1801000000000,"state":"spawning","ping":116},{"user_id":193,"name":"Joji - Tick Tock","steam_id":76561198418414338,"connected_time":228000000000,"state":"active","ping":71},{"user_id":185,"name":"JimmySquid","steam_id":76561198254242530,"connected_time":588000000000,"state":"active","ping":57},{"user_id":176,"name":"sithreis","steam_id":76561198000564263,"connected_time":1118000000000,"state":"active","ping":70},{"user_id":173,"name":"AlecTheNefarious","steam_id":76561198035291230,"connected_time":1153000000000,"state":"active","ping":58},{"user_id":174,"name":"lanoc","steam_id":76561198055415367,"connected_time":1152000000000,"state":"active","ping":51},{"user_id":175,"name":"java","steam_id":76561198030276792,"connected_time":1151000000000,"state":"active","ping":61},{"user_id":200,"name":"Candy Sparkles","steam_id":76561198126871264,"connected_time":10000000000,"state":"spawning","ping":81},{"user_id":148,"name":"charles mingus","steam_id":76561198232617936,"connected_time":2629000000000,"state":"active","ping":45},{"user_id":103,"name":"2Pacula","steam_id":76561198066867150,"connected_time":7419000000000,"state":"active","ping":61},{"user_id":190,"name":"checkswing","steam_id":76561198999816132,"connected_time":305000000000,"state":"active","ping":73},{"user_id":154,"name":"Money Collector","steam_id":76561198046249467,"connected_time":2395000000000,"state":"active","ping":52},{"user_id":159,"name":"Baphy","steam_id":76561199088719865,"connected_time":1884000000000,"state":"active","ping":155},{"user_id":182,"name":"nebby","steam_id":76561197990815274,"connected_time":884000000000,"state":"active","ping":41},{"user_id":192,"name":"LeTonzy","steam_id":76561198005806699,"connected_time":287000000000,"state":"active","ping":126}]},{"server_id":37,"name":"Uncletopia | Chicago | 6 | All Maps","name_short":"chi-6","host":"chi-2.us.uncletopia.com","port":27025,"enabled":true,"region":"us-central","cc":"us","latitude":41.881832,"longitude":-87.62318,"reserved":0,"last_update":"0001-01-01T00:00:00Z","name_a2s":"Uncletopia | Chicago | 6 | All Maps","protocol":17,"map":"koth_cascade","folder":"tf","game":"Team Fortress","app_id":440,"player_count":0,"max_players":24,"Bots":0,"server_type":"Dedicated","server_os":"Linux","password":true,"vac":true,"version":"7742253","steam_id":85568392924866363,"keywords":["cp","nocrits","nodmgspread","uncletopia"],"game_id":440,"stv_port":27026,"stv_name":"Uncletopia | Chicago | 6 | All Maps | STV","players":null},{"server_id":38,"name":"Uncletopia | Chicago | 7 | Stopwatch Beta","name_short":"chi-7","host":"chi-2.us.uncletopia.com","port":27035,"enabled":true,"region":"us-central","cc":"us","latitude":41.881832,"longitude":-87.62318,"reserved":0,"last_update":"0001-01-01T00:00:00Z","name_a2s":"Uncletopia | Chicago | 7 | Stopwatch Beta","protocol":17,"map":"cp_altitude","folder":"tf","game":"Team Fortress","app_id":440,"player_count":0,"max_players":24,"Bots":0,"server_type":"Dedicated","server_os":"Linux","password":true,"vac":true,"version":"7742253","steam_id":85568392924866364,"keywords":["cp","nocrits","nodmgspread","uncletopia"],"game_id":440,"stv_port":27036,"stv_name":"Uncletopia | Chicago | 7 | Stopwatch Beta | STV","players":null},{"server_id":39,"name":"Uncletopia | Chicago | 8 | Community","name_short":"chi-8","host":"chi-2.us.uncletopia.com","port":27045,"enabled":true,"region":"us-central","cc":"us","latitude":41.881832,"longitude":-87.62318,"reserved":0,"last_update":"0001-01-01T00:00:00Z","name_a2s":"Uncletopia | Chicago | 8 | Community","protocol":17,"map":"workshop/koth_product_final.ugc454272353","folder":"tf","game":"Team Fortress","app_id":440,"player_count":4,"max_players":24,"Bots":0,"server_type":"Dedicated","server_os":"Linux","password":true,"vac":true,"version":"7742253","steam_id":85568392924866365,"keywords":["cp","nocrits","nodmgspread","uncletopia"],"game_id":440,"stv_port":27046,"stv_name":"Uncletopia | Chicago | 8 | Community | STV","players":[{"user_id":14,"name":"UpsideDownSmile","steam_id":76561198942355840,"connected_time":896000000000,"state":"active","ping":110},{"user_id":4,"name":"Your Local Festive Furry","steam_id":76561199030190462,"connected_time":4961000000000,"state":"active","ping":67},{"user_id":15,"name":"Krow Lincoln (she/her)","steam_id":76561198085410622,"connected_time":426000000000,"state":"active","ping":92},{"user_id":10,"name":"Shadowclaw","steam_id":76561198322511628,"connected_time":2715000000000,"state":"active","ping":55}]},{"server_id":8,"name":"Uncletopia | Dallas | 1 | All Maps","name_short":"dal-1","host":"dal-1.us.uncletopia.com","port":27015,"enabled":true,"region":"us-central","cc":"us","latitude":32.779167,"longitude":-96.80889,"reserved":0,"last_update":"0001-01-01T00:00:00Z","name_a2s":"Uncletopia | Dallas | 1 | All Maps","protocol":17,"map":"pl_pier","folder":"tf","game":"Team Fortress","app_id":440,"player_count":1,"max_players":24,"Bots":0,"server_type":"Dedicated","server_os":"Linux","password":true,"vac":true,"version":"7742253","steam_id":85568392924469986,"keywords":["nocrits","nodmgspread","payload","uncletopia"],"game_id":440,"stv_port":27016,"stv_name":"Uncletopia | Dallas | 1 | All Maps | STV","players":[{"user_id":523,"name":"TTV/PolperLane","steam_id":76561198079439317,"connected_time":156000000000,"state":"active","ping":59}]},{"server_id":108,"name":"Uncletopia | Dallas | 2 | All Maps","name_short":"dal-2","host":"dal-1.us.uncletopia.com","port":27025,"enabled":true,"region":"us-central","cc":"us","latitude":32.779167,"longitude":-96.80889,"reserved":0,"last_update":"0001-01-01T00:00:00Z","name_a2s":"Uncletopia | Dallas | 2 | All Maps","protocol":17,"map":"pl_upward","folder":"tf","game":"Team Fortress","app_id":440,"player_count":24,"max_players":24,"Bots":0,"server_type":"Dedicated","server_os":"Linux","password":true,"vac":true,"version":"7742253","steam_id":85568392924469988,"keywords":["nocrits","nodmgspread","payload","uncletopia"],"game_id":440,"stv_port":27026,"stv_name":"Uncletopia | Dallas | 2 | All Maps | STV","players":[{"user_id":572,"name":"Phillip Jeffries","steam_id":76561198064052174,"connected_time":3955000000000,"state":"active","ping":91},{"user_id":600,"name":"Quantum Sauce","steam_id":76561198164034337,"connected_time":1058000000000,"state":"active","ping":53},{"user_id":577,"name":"Bob the Builder","steam_id":76561199069029812,"connected_time":3537000000000,"state":"active","ping":90},{"user_id":504,"name":"Pie","steam_id":76561198178098071,"connected_time":8783000000000,"state":"active","ping":95},{"user_id":585,"name":"Bottle","steam_id":76561198044031558,"connected_time":2714000000000,"state":"active","ping":80},{"user_id":562,"name":"The Sydney Sleeper Itself","steam_id":76561198180251763,"connected_time":4374000000000,"state":"active","ping":53},{"user_id":520,"name":"Branos","steam_id":76561198396414319,"connected_time":7233000000000,"state":"active","ping":83},{"user_id":589,"name":"FG7","steam_id":76561198381197197,"connected_time":1787000000000,"state":"active","ping":131},{"user_id":607,"name":"✩BONGO✩","steam_id":76561198018040930,"connected_time":47000000000,"state":"active","ping":45},{"user_id":605,"name":"Tribute","steam_id":76561198081594043,"connected_time":267000000000,"state":"active","ping":49},{"user_id":597,"name":"maxresdefault (1) - Copy","steam_id":76561198274112032,"connected_time":1322000000000,"state":"active","ping":79},{"user_id":580,"name":"Sabo","steam_id":76561198244442548,"connected_time":3324000000000,"state":"active","ping":68},{"user_id":590,"name":"sweaterfan","steam_id":76561199389567214,"connected_time":1752000000000,"state":"active","ping":68},{"user_id":598,"name":"survivalist bubbie","steam_id":76561198860460013,"connected_time":1307000000000,"state":"active","ping":93},{"user_id":591,"name":"squid game","steam_id":76561199248960166,"connected_time":1740000000000,"state":"active","ping":91},{"user_id":568,"name":"mikey | I'm Burning Bright!","steam_id":76561198985847893,"connected_time":4316000000000,"state":"active","ping":45},{"user_id":543,"name":"Rick Assley","steam_id":76561198365019199,"connected_time":5625000000000,"state":"active","ping":83},{"user_id":570,"name":"Big ol' Willy Gaming","steam_id":76561198048545731,"connected_time":4143000000000,"state":"active","ping":123},{"user_id":574,"name":"♦♣Quadric♥♠","steam_id":76561198061003853,"connected_time":3892000000000,"state":"active","ping":90},{"user_id":479,"name":"KFC☭","steam_id":76561199206815320,"connected_time":9702000000000,"state":"active","ping":79},{"user_id":604,"name":"[δ] Delta","steam_id":76561198287190116,"connected_time":324000000000,"state":"active","ping":65},{"user_id":606,"name":"survivalist keeda","steam_id":76561198277979851,"connected_time":116000000000,"state":"active","ping":111},{"user_id":602,"name":"IxMic88","steam_id":76561198018552479,"connected_time":482000000000,"state":"active","ping":56},{"user_id":603,"name":"???","steam_id":76561198200155343,"connected_time":481000000000,"state":"active","ping":44}]},{"server_id":5,"name":"Uncletopia | Frankfurt | 1 | All Maps","name_short":"frk-1","host":"frk-1.de.uncletopia.com","port":27015,"enabled":true,"region":"eu","cc":"de","latitude":50.110924,"longitude":8.682127,"reserved":0,"last_update":"0001-01-01T00:00:00Z","name_a2s":"Uncletopia | Frankfurt | 1 | All Maps","protocol":17,"map":"pl_barnblitz","folder":"tf","game":"Team Fortress","app_id":440,"player_count":0,"max_players":24,"Bots":0,"server_type":"Dedicated","server_os":"Linux","password":true,"vac":true,"version":"7742253","steam_id":85568392924469989,"keywords":["nocrits","nodmgspread","payload","uncletopia"],"game_id":440,"stv_port":27016,"stv_name":"Uncletopia | Frankfurt | 1 | All Maps | STV","players":null},{"server_id":110,"name":"Uncletopia | Frankfurt | 2 | All Maps","name_short":"frk-2","host":"frk-1.de.uncletopia.com","port":27025,"enabled":true,"region":"eu","cc":"de","latitude":50.110924,"longitude":8.682127,"reserved":0,"last_update":"0001-01-01T00:00:00Z","name_a2s":"Uncletopia | Frankfurt | 2 | All Maps","protocol":17,"map":"koth_suijin","folder":"tf","game":"Team Fortress","app_id":440,"player_count":2,"max_players":24,"Bots":0,"server_type":"Dedicated","server_os":"Linux","password":true,"vac":true,"version":"7742253","steam_id":85568392924469990,"keywords":["cp","nocrits","nodmgspread","uncletopia"],"game_id":440,"stv_port":27026,"stv_name":"Uncletopia | Frankfurt | 2 | All Maps | STV","players":[{"user_id":3,"name":"[CC]Nyafka","steam_id":76561198289878090,"connected_time":2522000000000,"state":"active","ping":116},{"user_id":8,"name":"pyro sex","steam_id":76561199225397974,"connected_time":1762000000000,"state":"active","ping":109}]},{"server_id":308,"name":"Uncletopia | Frankfurt | 3 | All Maps","name_short":"frk-3","host":"frk-1.de.uncletopia.com","port":27035,"enabled":true,"region":"eu","cc":"de","latitude":50.110924,"longitude":8.682127,"reserved":0,"last_update":"0001-01-01T00:00:00Z","name_a2s":"Uncletopia | Frankfurt | 3 | All Maps","protocol":17,"map":"koth_viaduct","folder":"tf","game":"Team Fortress","app_id":440,"player_count":0,"max_players":24,"Bots":0,"server_type":"Dedicated","server_os":"Linux","password":true,"vac":true,"version":"7742253","steam_id":85568392924504274,"keywords":["cp","nocrits","nodmgspread","uncletopia"],"game_id":440,"stv_port":27036,"stv_name":"Uncletopia | Frankfurt | 3 | All Maps | STV","players":null},{"server_id":309,"name":"Uncletopia | Frankfurt | 4 | All Maps","name_short":"frk-4","host":"frk-1.de.uncletopia.com","port":27045,"enabled":true,"region":"eu","cc":"de","latitude":50.110924,"longitude":8.682127,"reserved":0,"last_update":"0001-01-01T00:00:00Z","name_a2s":"Uncletopia | Frankfurt | 4 | All Maps","protocol":17,"map":"pl_frontier_final","folder":"tf","game":"Team Fortress","app_id":440,"player_count":0,"max_players":24,"Bots":0,"server_type":"Dedicated","server_os":"Linux","password":true,"vac":true,"version":"7742253","steam_id":85568392924504275,"keywords":["nocrits","nodmgspread","payload","uncletopia"],"game_id":440,"stv_port":27046,"stv_name":"Uncletopia | Frankfurt | 4 | All Maps | STV","players":null},{"server_id":310,"name":"Uncletopia | Frankfurt | 5 | All Maps","name_short":"frk-5","host":"frk-1.de.uncletopia.com","port":27055,"enabled":true,"region":"eu","cc":"de","latitude":50.110924,"longitude":8.682127,"reserved":0,"last_update":"0001-01-01T00:00:00Z","name_a2s":"Uncletopia | Frankfurt | 5 | All Maps","protocol":17,"map":"cp_sunshine","folder":"tf","game":"Team Fortress","app_id":440,"player_count":0,"max_players":24,"Bots":0,"server_type":"Dedicated","server_os":"Linux","password":true,"vac":true,"version":"7742253","steam_id":85568392924504277,"keywords":["cp","nocrits","nodmgspread","uncletopia"],"game_id":440,"stv_port":27056,"stv_name":"Uncletopia | Frankfurt | 5 | All Maps | STV","players":null},{"server_id":311,"name":"Uncletopia | Frankfurt | 6 | All Maps","name_short":"frk-6","host":"frk-1.de.uncletopia.com","port":27065,"enabled":true,"region":"eu","cc":"de","latitude":50.110924,"longitude":8.682127,"reserved":0,"last_update":"0001-01-01T00:00:00Z","name_a2s":"Uncletopia | Frankfurt | 6 | All Maps","protocol":17,"map":"pl_frontier_final","folder":"tf","game":"Team Fortress","app_id":440,"player_count":0,"max_players":24,"Bots":0,"server_type":"Dedicated","server_os":"Linux","password":true,"vac":true,"version":"7742253","steam_id":85568392924504278,"keywords":["nocrits","nodmgspread","payload","uncletopia"],"game_id":440,"stv_port":27066,"stv_name":"Uncletopia | Frankfurt | 6 | All Maps | STV","players":null},{"server_id":23,"name":"Uncletopia | Frankfurt | 7 | Stopwatch Beta","name_short":"frk-7","host":"frk-1.de.uncletopia.com","port":27075,"enabled":true,"region":"eu","cc":"de","latitude":50.110924,"longitude":8.682127,"reserved":0,"last_update":"0001-01-01T00:00:00Z","name_a2s":"Uncletopia | Frankfurt | 7 | Stopwatch Beta","protocol":17,"map":"koth_lakeside_final","folder":"tf","game":"Team Fortress","app_id":440,"player_count":0,"max_players":24,"Bots":0,"server_type":"Dedicated","server_os":"Linux","password":true,"vac":true,"version":"7742253","steam_id":85568392924742827,"keywords":["cp","nocrits","nodmgspread","uncletopia"],"game_id":440,"stv_port":27076,"stv_name":"Uncletopia | Frankfurt | 7 | Stopwatch Beta | STV","players":null},{"server_id":24,"name":"Uncletopia | Frankfurt | 8 | Community","name_short":"frk-8","host":"frk-1.de.uncletopia.com","port":27085,"enabled":true,"region":"eu","cc":"de","latitude":50.110924,"longitude":8.682127,"reserved":0,"last_update":"0001-01-01T00:00:00Z","name_a2s":"Uncletopia | Frankfurt | 8 | Community","protocol":17,"map":"pl_pier","folder":"tf","game":"Team Fortress","app_id":440,"player_count":0,"max_players":24,"Bots":0,"server_type":"Dedicated","server_os":"Linux","password":true,"vac":true,"version":"7742253","steam_id":85568392924742828,"keywords":["nocrits","nodmgspread","payload","uncletopia"],"game_id":440,"stv_port":27086,"stv_name":"Uncletopia | Frankfurt | 8 | Community | STV","players":null},{"server_id":202,"name":"Uncletopia | Hong Kong | 1 | All Maps","name_short":"hgk-1","host":"hgk-1.hk.uncletopia.com","port":27015,"enabled":true,"region":"asia","cc":"hk","latitude":22.302711,"longitude":114.177216,"reserved":0,"last_update":"0001-01-01T00:00:00Z","name_a2s":"Uncletopia | Hong Kong | 1 | All Maps","protocol":17,"map":"pl_badwater","folder":"tf","game":"Team Fortress","app_id":440,"player_count":24,"max_players":24,"Bots":0,"server_type":"Dedicated","server_os":"Linux","password":true,"vac":true,"version":"7742253","steam_id":85568392924494504,"keywords":["nocrits","nodmgspread","payload","uncletopia"],"game_id":440,"stv_port":27016,"stv_name":"Uncletopia | Hong Kong | 1 | All Maps | STV","players":[{"user_id":180,"name":"bocchi the rock","steam_id":76561198008307645,"connected_time":2258000000000,"state":"active","ping":75},{"user_id":72,"name":"Bertengkar","steam_id":76561198213031155,"connected_time":6166000000000,"state":"active","ping":103},{"user_id":247,"name":"troll juice","steam_id":76561199146847474,"connected_time":1183000000000,"state":"active","ping":49},{"user_id":33,"name":"Talkk More","steam_id":76561198305424433,"connected_time":8942000000000,"state":"active","ping":101},{"user_id":256,"name":"Degenerate With Standards!!!","steam_id":76561199174449723,"connected_time":220000000000,"state":"active","ping":69},{"user_id":64,"name":"lillalune","steam_id":76561198230213828,"connected_time":7143000000000,"state":"active","ping":62},{"user_id":68,"name":"예린","steam_id":76561199075190238,"connected_time":6630000000000,"state":"active","ping":72},{"user_id":250,"name":"force","steam_id":76561199109339247,"connected_time":1141000000000,"state":"active","ping":91},{"user_id":251,"name":":)","steam_id":76561198437941450,"connected_time":1091000000000,"state":"active","ping":80},{"user_id":173,"name":"Milk❤ (most loved guy in ut)","steam_id":76561198163911560,"connected_time":2433000000000,"state":"active","ping":85},{"user_id":258,"name":"Tin-Tin \u003c3","steam_id":76561199247983065,"connected_time":13000000000,"state":"spawning","ping":72},{"user_id":196,"name":"big poo (training arc)","steam_id":76561199104552936,"connected_time":1983000000000,"state":"active","ping":68},{"user_id":216,"name":"apollo","steam_id":76561198823374287,"connected_time":1563000000000,"state":"active","ping":73},{"user_id":257,"name":"MS PowerPoint","steam_id":76561198369523192,"connected_time":127000000000,"state":"active","ping":63},{"user_id":151,"name":"MAGNUS","steam_id":76561198208990721,"connected_time":2672000000000,"state":"active","ping":91},{"user_id":260,"name":"I am BOX","steam_id":76561198845309411,"connected_time":1000000000,"state":"spawning","ping":66},{"user_id":77,"name":"Cheesey","steam_id":76561198975684137,"connected_time":5762000000000,"state":"active","ping":103},{"user_id":78,"name":"[F2P] marcel383","steam_id":76561198860210181,"connected_time":5472000000000,"state":"active","ping":93},{"user_id":49,"name":"I love air conditioning","steam_id":76561198811532659,"connected_time":8205000000000,"state":"active","ping":82},{"user_id":141,"name":"3wfFbdrjEze5d2G","steam_id":76561198435900451,"connected_time":3243000000000,"state":"active","ping":64},{"user_id":96,"name":"Windmill","steam_id":76561199230997986,"connected_time":4735000000000,"state":"active","ping":83},{"user_id":56,"name":"Chomsuya [F2P]","steam_id":76561199217426369,"connected_time":7837000000000,"state":"active","ping":73},{"user_id":165,"name":"u/Me(ow)LEx3D","steam_id":76561199227871384,"connected_time":2507000000000,"state":"active","ping":58}]},{"server_id":1,"name":"Uncletopia | Los Angeles | 1 | All Maps","name_short":"lax-1","host":"lax-1.us.uncletopia.com","port":27015,"enabled":true,"region":"us-west","cc":"us","latitude":33.94279,"longitude":-118.41004,"reserved":0,"last_update":"0001-01-01T00:00:00Z","name_a2s":"Uncletopia | Los Angeles | 1 | All Maps","protocol":17,"map":"koth_lakeside_final","folder":"tf","game":"Team Fortress","app_id":440,"player_count":0,"max_players":24,"Bots":0,"server_type":"Dedicated","server_os":"Linux","password":true,"vac":true,"version":"7742253","steam_id":85568392924469991,"keywords":["cp","nocrits","nodmgspread","uncletopia"],"game_id":440,"stv_port":27016,"stv_name":"Uncletopia | Los Angeles | 1 | All Maps | STV","players":null},{"server_id":112,"name":"Uncletopia | Los Angeles | 2 | All Maps","name_short":"lax-2","host":"lax-1.us.uncletopia.com","port":27025,"enabled":true,"region":"us-west","cc":"us","latitude":33.94279,"longitude":-118.41004,"reserved":0,"last_update":"0001-01-01T00:00:00Z","name_a2s":"Uncletopia | Los Angeles | 2 | All Maps","protocol":17,"map":"pl_upward","folder":"tf","game":"Team Fortress","app_id":440,"player_count":24,"max_players":24,"Bots":0,"server_type":"Dedicated","server_os":"Linux","password":true,"vac":true,"version":"7742253","steam_id":85568392924469992,"keywords":["nocrits","nodmgspread","payload","uncletopia"],"game_id":440,"stv_port":27026,"stv_name":"Uncletopia | Los Angeles | 2 | All Maps | STV","players":[{"user_id":242,"name":"mechanicvirus","steam_id":76561198038161480,"connected_time":1605000000000,"state":"active","ping":53},{"user_id":263,"name":"ChibiFerrari","steam_id":76561198825330201,"connected_time":322000000000,"state":"active","ping":66},{"user_id":187,"name":"Timewaves","steam_id":76561198000186054,"connected_time":6034000000000,"state":"active","ping":49},{"user_id":265,"name":"brobtlcehc","steam_id":76561198043558709,"connected_time":78000000000,"state":"active","ping":82},{"user_id":244,"name":"Volbia","steam_id":76561197979947734,"connected_time":1601000000000,"state":"active","ping":107},{"user_id":240,"name":"bobtheninjaman","steam_id":76561198066424544,"connected_time":1852000000000,"state":"active","ping":92},{"user_id":136,"name":"PachucoWaffle","steam_id":76561198051491032,"connected_time":9527000000000,"state":"active","ping":101},{"user_id":253,"name":"gazpacho","steam_id":76561198132903078,"connected_time":1320000000000,"state":"active","ping":53},{"user_id":134,"name":"Yellow Mellow","steam_id":76561198089697360,"connected_time":9610000000000,"state":"active","ping":73},{"user_id":208,"name":"Mom","steam_id":76561198207936000,"connected_time":4815000000000,"state":"active","ping":45},{"user_id":251,"name":"HUIEI","steam_id":76561198073763735,"connected_time":1434000000000,"state":"active","ping":54},{"user_id":259,"name":"dblxer","steam_id":76561198039519991,"connected_time":595000000000,"state":"active","ping":63},{"user_id":260,"name":"Owl_eyes","steam_id":76561198066199203,"connected_time":583000000000,"state":"active","ping":53},{"user_id":121,"name":"JJP","steam_id":76561198032914094,"connected_time":9914000000000,"state":"active","ping":55},{"user_id":189,"name":"Joe SMS From Progressive","steam_id":76561198336597038,"connected_time":5852000000000,"state":"active","ping":47},{"user_id":254,"name":"-{A★T}- KnightofWind","steam_id":76561198103233971,"connected_time":1008000000000,"state":"active","ping":52},{"user_id":235,"name":"TheMilkMan","steam_id":76561199177221570,"connected_time":2412000000000,"state":"active","ping":73},{"user_id":248,"name":"floom","steam_id":76561198387571809,"connected_time":1451000000000,"state":"active","ping":102},{"user_id":262,"name":"You're tearing me apart, Lisa","steam_id":76561198085686974,"connected_time":495000000000,"state":"active","ping":45},{"user_id":239,"name":"Dim Strike","steam_id":76561199087298816,"connected_time":2205000000000,"state":"active","ping":49},{"user_id":207,"name":"G. Howard Dee","steam_id":76561198058382812,"connected_time":4827000000000,"state":"active","ping":52},{"user_id":267,"name":"selvhat","steam_id":76561198114225509,"connected_time":48000000000,"state":"active","ping":97},{"user_id":261,"name":"boistopmotion","steam_id":76561199122056821,"connected_time":582000000000,"state":"active","ping":78},{"user_id":255,"name":"goldhed","steam_id":76561198051751133,"connected_time":981000000000,"state":"active","ping":81}]},{"server_id":324,"name":"Uncletopia | Los Angeles | 3 | All Maps","name_short":"lax-3","host":"lax-1.us.uncletopia.com","port":27035,"enabled":true,"region":"us-west","cc":"us","latitude":33.94279,"longitude":-118.41004,"reserved":0,"last_update":"0001-01-01T00:00:00Z","name_a2s":"Uncletopia | Los Angeles | 3 | All Maps","protocol":17,"map":"pl_barnblitz","folder":"tf","game":"Team Fortress","app_id":440,"player_count":0,"max_players":24,"Bots":0,"server_type":"Dedicated","server_os":"Linux","password":true,"vac":true,"version":"7742253","steam_id":85568392924510198,"keywords":["nocrits","nodmgspread","payload","uncletopia"],"game_id":440,"stv_port":27036,"stv_name":"Uncletopia | Los Angeles | 3 | All Maps | STV","players":null},{"server_id":25,"name":"Uncletopia | Los Angeles | 4 | Stopwatch Beta","name_short":"lax-4","host":"lax-1.us.uncletopia.com","port":27045,"enabled":true,"region":"us-west","cc":"us","latitude":33.94279,"longitude":-118.41004,"reserved":0,"last_update":"0001-01-01T00:00:00Z","name_a2s":"Uncletopia | Los Angeles | 4 | Stopwatch Beta","protocol":17,"map":"cp_process_final","folder":"tf","game":"Team Fortress","app_id":440,"player_count":0,"max_players":24,"Bots":0,"server_type":"Dedicated","server_os":"Linux","password":true,"vac":true,"version":"7742253","steam_id":85568392924510199,"keywords":["cp","nocrits","nodmgspread","uncletopia"],"game_id":440,"stv_port":27046,"stv_name":"Uncletopia | Los Angeles | 4 | Stopwatch Beta | STV","players":null},{"server_id":11,"name":"Uncletopia | London | 1 | All Maps","name_short":"lon-1","host":"lon-1.uk.uncletopia.com","port":27015,"enabled":true,"region":"eu","cc":"gb","latitude":51.509865,"longitude":-0.118092,"reserved":0,"last_update":"0001-01-01T00:00:00Z","name_a2s":"Uncletopia | London | 1 | All Maps","protocol":17,"map":"cp_snakewater_final1","folder":"tf","game":"Team Fortress","app_id":440,"player_count":0,"max_players":24,"Bots":0,"server_type":"Dedicated","server_os":"Linux","password":true,"vac":true,"version":"7742253","steam_id":85568392924367362,"keywords":["cp","nocrits","nodmgspread","uncletopia"],"game_id":440,"stv_port":27016,"stv_name":"Uncletopia | London | 1 | All Maps | STV","players":null},{"server_id":114,"name":"Uncletopia | London | 2 | All Maps","name_short":"lon-2","host":"lon-1.uk.uncletopia.com","port":27025,"enabled":true,"region":"eu","cc":"gb","latitude":51.509865,"longitude":-0.118092,"reserved":0,"last_update":"0001-01-01T00:00:00Z","name_a2s":"Uncletopia | London | 2 | All Maps","protocol":17,"map":"koth_viaduct","folder":"tf","game":"Team Fortress","app_id":440,"player_count":0,"max_players":24,"Bots":0,"server_type":"Dedicated","server_os":"Linux","password":true,"vac":true,"version":"7742253","steam_id":85568392924470941,"keywords":["cp","nocrits","nodmgspread","uncletopia"],"game_id":440,"stv_port":27026,"stv_name":"Uncletopia | London | 2 | All Maps | STV","players":null},{"server_id":320,"name":"Uncletopia | London | 3 | All Maps","name_short":"lon-3","host":"lon-1.uk.uncletopia.com","port":27035,"enabled":true,"region":"eu","cc":"gb","latitude":51.509865,"longitude":-0.118092,"reserved":0,"last_update":"0001-01-01T00:00:00Z","name_a2s":"Uncletopia | London | 3 | All Maps","protocol":17,"map":"pl_frontier_final","folder":"tf","game":"Team Fortress","app_id":440,"player_count":0,"max_players":24,"Bots":0,"server_type":"Dedicated","server_os":"Linux","password":true,"vac":true,"version":"7742253","steam_id":85568392924510192,"keywords":["nocrits","nodmgspread","payload","uncletopia"],"game_id":440,"stv_port":27036,"stv_name":"Uncletopia | London | 3 | All Maps | STV","players":null},{"server_id":321,"name":"Uncletopia | London | 4 | All Maps","name_short":"lon-4","host":"lon-1.uk.uncletopia.com","port":27045,"enabled":true,"region":"eu","cc":"gb","latitude":51.509865,"longitude":-0.118092,"reserved":0,"last_update":"0001-01-01T00:00:00Z","name_a2s":"Uncletopia | London | 4 | All Maps","protocol":17,"map":"cp_dustbowl","folder":"tf","game":"Team Fortress","app_id":440,"player_count":0,"max_players":24,"Bots":0,"server_type":"Dedicated","server_os":"Linux","password":true,"vac":true,"version":"7742253","steam_id":85568392924510193,"keywords":["cp","nocrits","nodmgspread","uncletopia"],"game_id":440,"stv_port":27046,"stv_name":"Uncletopia | London | 4 | All Maps | STV","players":null},{"server_id":21,"name":"Uncletopia | London | 5 | All Maps","name_short":"lon-5","host":"lon-1.uk.uncletopia.com","port":27055,"enabled":true,"region":"eu","cc":"gb","latitude":51.509865,"longitude":-0.118092,"reserved":0,"last_update":"0001-01-01T00:00:00Z","name_a2s":"Uncletopia | London | 5 | All Maps","protocol":17,"map":"pl_borneo","folder":"tf","game":"Team Fortress","app_id":440,"player_count":0,"max_players":24,"Bots":0,"server_type":"Dedicated","server_os":"Linux","password":true,"vac":true,"version":"7742253","steam_id":85568392924742829,"keywords":["nocrits","nodmgspread","payload","uncletopia"],"game_id":440,"stv_port":27056,"stv_name":"Uncletopia | London | 5 | All Maps | STV","players":null},{"server_id":22,"name":"Uncletopia | London | 6 | All Maps","name_short":"lon-6","host":"lon-1.uk.uncletopia.com","port":27065,"enabled":true,"region":"eu","cc":"gb","latitude":51.509865,"longitude":-0.118092,"reserved":0,"last_update":"0001-01-01T00:00:00Z","name_a2s":"Uncletopia | London | 6 | All Maps","protocol":17,"map":"koth_viaduct","folder":"tf","game":"Team Fortress","app_id":440,"player_count":0,"max_players":24,"Bots":0,"server_type":"Dedicated","server_os":"Linux","password":true,"vac":true,"version":"7742253","steam_id":85568392924742830,"keywords":["cp","nocrits","nodmgspread","uncletopia"],"game_id":440,"stv_port":27066,"stv_name":"Uncletopia | London | 6 | All Maps | STV","players":null},{"server_id":40,"name":"Uncletopia | London | 7 | No Payload","name_short":"lon-7","host":"lon-1.uk.uncletopia.com","port":27075,"enabled":true,"region":"eu","cc":"gb","latitude":51.509865,"longitude":-0.118092,"reserved":0,"last_update":"0001-01-01T00:00:00Z","name_a2s":"Uncletopia | London | 7 | No Payload","protocol":17,"map":"cp_mossrock","folder":"tf","game":"Team Fortress","app_id":440,"player_count":0,"max_players":24,"Bots":0,"server_type":"Dedicated","server_os":"Linux","password":true,"vac":true,"version":"7742253","steam_id":85568392924964314,"keywords":["cp","nocrits","nodmgspread","uncletopia"],"game_id":440,"stv_port":27076,"stv_name":"Uncletopia | London | 7 | No Payload | STV","players":null},{"server_id":41,"name":"Uncletopia | London | 8 | Community","name_short":"lon-8","host":"lon-1.uk.uncletopia.com","port":27085,"enabled":true,"region":"eu","cc":"gb","latitude":51.509865,"longitude":-0.118092,"reserved":0,"last_update":"0001-01-01T00:00:00Z","name_a2s":"Uncletopia | London | 8 | Community","protocol":17,"map":"workshop/pl_vigil_rc9.ugc1266210012","folder":"tf","game":"Team Fortress","app_id":440,"player_count":0,"max_players":24,"Bots":0,"server_type":"Dedicated","server_os":"Linux","password":true,"vac":true,"version":"7742253","steam_id":85568392924964315,"keywords":["nocrits","nodmgspread","payload","uncletopia"],"game_id":440,"stv_port":27086,"stv_name":"Uncletopia | London | 8 | Community | STV","players":null},{"server_id":300,"name":"Uncletopia | Montréal | 1 | All Maps","name_short":"mtl-1","host":"mtl-1.ca.uncletopia.com","port":27015,"enabled":true,"region":"us-east","cc":"ca","latitude":45.50889,"longitude":-73.56167,"reserved":0,"last_update":"0001-01-01T00:00:00Z","name_a2s":"Uncletopia | Montréal | 1 | All Maps","protocol":17,"map":"cp_altitude","folder":"tf","game":"Team Fortress","app_id":440,"player_count":0,"max_players":24,"Bots":0,"server_type":"Dedicated","server_os":"Linux","password":true,"vac":true,"version":"7742253","steam_id":85568392924500087,"keywords":["cp","nocrits","nodmgspread","uncletopia"],"game_id":440,"stv_port":27016,"stv_name":"Uncletopia | Montréal | 1 | All Maps | STV","players":null},{"server_id":301,"name":"Uncletopia | Montréal | 2 | All Maps","name_short":"mtl-2","host":"mtl-1.ca.uncletopia.com","port":27025,"enabled":true,"region":"us-east","cc":"ca","latitude":45.50889,"longitude":-73.56167,"reserved":0,"last_update":"0001-01-01T00:00:00Z","name_a2s":"Uncletopia | Montréal | 2 | All Maps","protocol":17,"map":"koth_lakeside_final","folder":"tf","game":"Team Fortress","app_id":440,"player_count":0,"max_players":24,"Bots":0,"server_type":"Dedicated","server_os":"Linux","password":true,"vac":true,"version":"7742253","steam_id":85568392924500088,"keywords":["cp","nocrits","nodmgspread","uncletopia"],"game_id":440,"stv_port":27026,"stv_name":"Uncletopia | Montréal | 2 | All Maps | STV","players":null},{"server_id":302,"name":"Uncletopia | Montréal | 3 | All Maps","name_short":"mtl-3","host":"mtl-1.ca.uncletopia.com","port":27035,"enabled":true,"region":"us-east","cc":"ca","latitude":45.50889,"longitude":-73.56167,"reserved":0,"last_update":"0001-01-01T00:00:00Z","name_a2s":"Uncletopia | Montréal | 3 | All Maps","protocol":17,"map":"pl_badwater","folder":"tf","game":"Team Fortress","app_id":440,"player_count":0,"max_players":24,"Bots":0,"server_type":"Dedicated","server_os":"Linux","password":true,"vac":true,"version":"7742253","steam_id":85568392924500089,"keywords":["nocrits","nodmgspread","payload","uncletopia"],"game_id":440,"stv_port":27036,"stv_name":"Uncletopia | Montréal | 3 | All Maps | STV","players":null},{"server_id":303,"name":"Uncletopia | Montréal | 4 | No Payload","name_short":"mtl-4","host":"mtl-1.ca.uncletopia.com","port":27045,"enabled":true,"region":"us-east","cc":"ca","latitude":45.50889,"longitude":-73.56167,"reserved":0,"last_update":"0001-01-01T00:00:00Z","name_a2s":"Uncletopia | Montréal | 4 | No Payload","protocol":17,"map":"cp_mercenarypark","folder":"tf","game":"Team Fortress","app_id":440,"player_count":0,"max_players":24,"Bots":0,"server_type":"Dedicated","server_os":"Linux","password":true,"vac":true,"version":"7742253","steam_id":85568392924500090,"keywords":["cp","nocrits","nodmgspread","uncletopia"],"game_id":440,"stv_port":27046,"stv_name":"Uncletopia | Montréal | 4 | No Payload | STV","players":null},{"server_id":13,"name":"Uncletopia | New York City | 1 | All Maps","name_short":"nyc-1","host":"nyc-1.us.uncletopia.com","port":27015,"enabled":true,"region":"us-east","cc":"us","latitude":40.73061,"longitude":-73.93524,"reserved":0,"last_update":"0001-01-01T00:00:00Z","name_a2s":"Uncletopia | New York City | 1 | All Maps","protocol":17,"map":"pl_barnblitz","folder":"tf","game":"Team Fortress","app_id":440,"player_count":24,"max_players":24,"Bots":0,"server_type":"Dedicated","server_os":"Linux","password":true,"vac":true,"version":"7742253","steam_id":85568392924469993,"keywords":["nocrits","nodmgspread","payload","uncletopia"],"game_id":440,"stv_port":27016,"stv_name":"Uncletopia | New York City | 1 | All Maps | STV","players":[{"user_id":709,"name":"SquirrelAway™","steam_id":76561197998828619,"connected_time":152000000000,"state":"active","ping":85},{"user_id":695,"name":"trobin120","steam_id":76561199122420273,"connected_time":1647000000000,"state":"active","ping":62},{"user_id":696,"name":"Female Gamer","steam_id":76561199366482682,"connected_time":1636000000000,"state":"active","ping":125},{"user_id":681,"name":"Riske","steam_id":76561198115840568,"connected_time":3967000000000,"state":"active","ping":69},{"user_id":661,"name":"Carbon8ed","steam_id":76561198188488341,"connected_time":4891000000000,"state":"active","ping":78},{"user_id":692,"name":"Munk","steam_id":76561198134629193,"connected_time":2782000000000,"state":"active","ping":60},{"user_id":710,"name":"xbox 360","steam_id":76561198306037572,"connected_time":132000000000,"state":"active","ping":165},{"user_id":704,"name":"Cowborg","steam_id":76561199407170452,"connected_time":709000000000,"state":"active","ping":79},{"user_id":708,"name":"CheeseCake488","steam_id":76561199407617942,"connected_time":175000000000,"state":"active","ping":159},{"user_id":707,"name":"Big Boss","steam_id":76561198191167133,"connected_time":180000000000,"state":"active","ping":58},{"user_id":700,"name":"Roz257","steam_id":76561198842844532,"connected_time":1508000000000,"state":"active","ping":82},{"user_id":706,"name":"sans.","steam_id":76561197987966746,"connected_time":549000000000,"state":"active","ping":45},{"user_id":705,"name":"DannyM","steam_id":76561198351165570,"connected_time":688000000000,"state":"active","ping":83},{"user_id":715,"name":"brian emo","steam_id":76561198109901138,"connected_time":14000000000,"state":"active","ping":58},{"user_id":711,"name":"SL1T","steam_id":76561198069380992,"connected_time":113000000000,"state":"active","ping":94},{"user_id":682,"name":"clio","steam_id":76561198141700569,"connected_time":3832000000000,"state":"active","ping":60},{"user_id":712,"name":"UlyssesASL","steam_id":76561198109142491,"connected_time":103000000000,"state":"active","ping":122},{"user_id":684,"name":"Komobi","steam_id":76561198066322950,"connected_time":3741000000000,"state":"active","ping":58},{"user_id":713,"name":"Sparked","steam_id":76561198202360518,"connected_time":97000000000,"state":"active","ping":114},{"user_id":625,"name":"!krunky!kong!","steam_id":76561198041017977,"connected_time":6439000000000,"state":"active","ping":91},{"user_id":688,"name":"terrible ancient weasel","steam_id":76561198067487745,"connected_time":3392000000000,"state":"active","ping":76},{"user_id":631,"name":"King Kalo","steam_id":76561198387671992,"connected_time":5886000000000,"state":"active","ping":62},{"user_id":703,"name":"carrion goat","steam_id":76561198262064871,"connected_time":986000000000,"state":"active","ping":50},{"user_id":714,"name":"Tesman James","steam_id":76561199093793428,"connected_time":50000000000,"state":"active","ping":57}]},{"server_id":14,"name":"Uncletopia | New York City | 2 | All Maps","name_short":"nyc-2","host":"nyc-1.us.uncletopia.com","port":27025,"enabled":true,"region":"us-east","cc":"us","latitude":40.73061,"longitude":-73.93524,"reserved":0,"last_update":"0001-01-01T00:00:00Z","name_a2s":"Uncletopia | New York City | 2 | All Maps","protocol":17,"map":"cp_dustbowl","folder":"tf","game":"Team Fortress","app_id":440,"player_count":23,"max_players":24,"Bots":0,"server_type":"Dedicated","server_os":"Linux","password":true,"vac":true,"version":"7742253","steam_id":85568392924469994,"keywords":["cp","nocrits","nodmgspread","uncletopia"],"game_id":440,"stv_port":27026,"stv_name":"Uncletopia | New York City | 2 | All Maps | STV","players":[{"user_id":730,"name":"Gaz","steam_id":76561198042273255,"connected_time":1312000000000,"state":"active","ping":83},{"user_id":727,"name":"kev in","steam_id":76561198043409286,"connected_time":1385000000000,"state":"active","ping":106},{"user_id":748,"name":"rkp!","steam_id":76561199053070819,"connected_time":100000000000,"state":"active","ping":68},{"user_id":736,"name":"Jazz","steam_id":76561198091832740,"connected_time":1032000000000,"state":"active","ping":77},{"user_id":744,"name":"That Dude","steam_id":76561198980486227,"connected_time":356000000000,"state":"active","ping":123},{"user_id":699,"name":"monke","steam_id":76561198035138859,"connected_time":3437000000000,"state":"active","ping":56},{"user_id":733,"name":"Daksuki","steam_id":76561198084127751,"connected_time":1213000000000,"state":"active","ping":91},{"user_id":715,"name":"Wesg","steam_id":76561198220436820,"connected_time":2103000000000,"state":"active","ping":82},{"user_id":706,"name":"Temper","steam_id":76561198044123690,"connected_time":2991000000000,"state":"active","ping":61},{"user_id":747,"name":"banana bomb!","steam_id":76561198319442494,"connected_time":199000000000,"state":"active","ping":111},{"user_id":741,"name":"Big McThankies From McSpankies","steam_id":76561198020516880,"connected_time":396000000000,"state":"active","ping":143},{"user_id":661,"name":"A Puppy","steam_id":76561198828184456,"connected_time":6142000000000,"state":"active","ping":46},{"user_id":717,"name":"bobdragon27","steam_id":76561198065833387,"connected_time":2060000000000,"state":"active","ping":34},{"user_id":742,"name":"Scrooge-adoonga","steam_id":76561198058525763,"connected_time":395000000000,"state":"active","ping":48},{"user_id":710,"name":"Lichy","steam_id":76561198310682841,"connected_time":2606000000000,"state":"active","ping":27},{"user_id":724,"name":"Kdash","steam_id":76561198043829155,"connected_time":1836000000000,"state":"active","ping":95},{"user_id":658,"name":"EvilsConscience","steam_id":76561198073451760,"connected_time":6765000000000,"state":"active","ping":67},{"user_id":718,"name":"CheesyPotato","steam_id":76561198098788416,"connected_time":2057000000000,"state":"active","ping":57},{"user_id":745,"name":"Rea","steam_id":76561198276182892,"connected_time":336000000000,"state":"active","ping":72},{"user_id":696,"name":"moodi catgirl","steam_id":76561198124028045,"connected_time":3689000000000,"state":"active","ping":53},{"user_id":721,"name":"madd4punk","steam_id":76561198170196383,"connected_time":2013000000000,"state":"active","ping":93},{"user_id":726,"name":"chesquik","steam_id":76561198075547817,"connected_time":1450000000000,"state":"active","ping":123},{"user_id":668,"name":"reis","steam_id":76561199232952016,"connected_time":5185000000000,"state":"active","ping":165}]},{"server_id":15,"name":"Uncletopia | New York City | 3 | Stopwatch Beta","name_short":"nyc-3","host":"nyc-1.us.uncletopia.com","port":27035,"enabled":true,"region":"us-east","cc":"us","latitude":40.73061,"longitude":-73.93524,"reserved":0,"last_update":"0001-01-01T00:00:00Z","name_a2s":"Uncletopia | New York City | 3 | Stopwatch Beta","protocol":17,"map":"cp_altitude","folder":"tf","game":"Team Fortress","app_id":440,"player_count":0,"max_players":24,"Bots":0,"server_type":"Dedicated","server_os":"Linux","password":true,"vac":true,"version":"7742253","steam_id":85568392924742820,"keywords":["cp","nocrits","nodmgspread","uncletopia"],"game_id":440,"stv_port":27036,"stv_name":"Uncletopia | New York City | 3 | Stopwatch Beta | STV","players":null},{"server_id":16,"name":"Uncletopia | New York City | 4 | Community","name_short":"nyc-4","host":"nyc-1.us.uncletopia.com","port":27045,"enabled":true,"region":"us-east","cc":"us","latitude":40.73061,"longitude":-73.93524,"reserved":0,"last_update":"0001-01-01T00:00:00Z","name_a2s":"Uncletopia | New York City | 4 | Community","protocol":17,"map":"workshop/cp_reckoner_rc6.ugc674719999","folder":"tf","game":"Team Fortress","app_id":440,"player_count":0,"max_players":24,"Bots":0,"server_type":"Dedicated","server_os":"Linux","password":true,"vac":true,"version":"7742253","steam_id":85568392924742821,"keywords":["cp","nocrits","nodmgspread","uncletopia"],"game_id":440,"stv_port":27046,"stv_name":"Uncletopia | New York City | 4 | Community | STV","players":null},{"server_id":142,"name":"Uncletopia | São Paulo | 1 | All Maps","name_short":"sao-1","host":"sao-1.br.uncletopia.com","port":27015,"enabled":true,"region":"sa","cc":"br","latitude":-23.533773,"longitude":-46.62529,"reserved":0,"last_update":"0001-01-01T00:00:00Z","name_a2s":"Uncletopia | São Paulo | 1 | All Maps","protocol":17,"map":"cp_altitude","folder":"tf","game":"Team Fortress","app_id":440,"player_count":0,"max_players":24,"Bots":0,"server_type":"Dedicated","server_os":"Linux","password":true,"vac":true,"version":"7742253","steam_id":85568392924469996,"keywords":["cp","nocrits","nodmgspread","uncletopia"],"game_id":440,"stv_port":27016,"stv_name":"Uncletopia | São Paulo | 1 | All Maps | STV","players":null},{"server_id":143,"name":"Uncletopia | São Paulo | 2 | All Maps","name_short":"sao-2","host":"sao-2.br.uncletopia.com","port":27015,"enabled":true,"region":"sa","cc":"br","latitude":-23.533773,"longitude":-46.62529,"reserved":0,"last_update":"0001-01-01T00:00:00Z","name_a2s":"Uncletopia | São Paulo | 2 | All Maps","protocol":17,"map":"koth_cascade","folder":"tf","game":"Team Fortress","app_id":440,"player_count":0,"max_players":24,"Bots":0,"server_type":"Dedicated","server_os":"Linux","password":true,"vac":true,"version":"7742253","steam_id":85568392924485349,"keywords":["cp","nocrits","nodmgspread","uncletopia"],"game_id":440,"stv_port":27016,"stv_name":"Uncletopia | São Paulo | 2 | All Maps | STV","players":null},{"server_id":7,"name":"Uncletopia | Seattle | 1 | All Maps","name_short":"sea-1","host":"sea-1.us.uncletopia.com","port":27015,"enabled":true,"region":"us-west","cc":"us","latitude":47.608013,"longitude":-122.33517,"reserved":0,"last_update":"0001-01-01T00:00:00Z","name_a2s":"Uncletopia | Seattle | 1 | All Maps","protocol":17,"map":"koth_nucleus","folder":"tf","game":"Team Fortress","app_id":440,"player_count":24,"max_players":24,"Bots":0,"server_type":"Dedicated","server_os":"Linux","password":true,"vac":true,"version":"7742253","steam_id":85568392924469997,"keywords":["cp","nocrits","nodmgspread","uncletopia"],"game_id":440,"stv_port":27016,"stv_name":"Uncletopia | Seattle | 1 | All Maps | STV","players":[{"user_id":713,"name":"eryn 🗺","steam_id":76561198004433070,"connected_time":127000000000,"state":"active","ping":109},{"user_id":708,"name":"rorytherednosedreindeer","steam_id":76561198065825165,"connected_time":781000000000,"state":"active","ping":102},{"user_id":698,"name":"dougrocks421","steam_id":76561198165063918,"connected_time":2115000000000,"state":"active","ping":48},{"user_id":677,"name":"jungus","steam_id":76561198129862008,"connected_time":3569000000000,"state":"active","ping":75},{"user_id":683,"name":"Bevan(The Manager)","steam_id":76561198073890273,"connected_time":2764000000000,"state":"active","ping":56},{"user_id":700,"name":"Ahzain","steam_id":76561198035894333,"connected_time":1979000000000,"state":"active","ping":78},{"user_id":670,"name":"Wormy Getting Coal","steam_id":76561198054539200,"connected_time":4239000000000,"state":"active","ping":45},{"user_id":684,"name":"VerociousVee","steam_id":76561198289106015,"connected_time":2699000000000,"state":"active","ping":48},{"user_id":659,"name":"Idontknow","steam_id":76561199207044048,"connected_time":5738000000000,"state":"active","ping":45},{"user_id":671,"name":"[TrC] Nosy","steam_id":76561197978859310,"connected_time":4237000000000,"state":"active","ping":59},{"user_id":712,"name":"tophawkyy","steam_id":76561199075934685,"connected_time":230000000000,"state":"active","ping":85},{"user_id":685,"name":"Zomwashroomz","steam_id":76561198131316167,"connected_time":2697000000000,"state":"active","ping":39},{"user_id":686,"name":"Excalibrine","steam_id":76561198129312118,"connected_time":2686000000000,"state":"active","ping":34},{"user_id":709,"name":"jawnymac","steam_id":76561198179529599,"connected_time":692000000000,"state":"active","ping":66},{"user_id":707,"name":"thunderous prophet","steam_id":76561198131166135,"connected_time":1144000000000,"state":"active","ping":43},{"user_id":672,"name":"[TrC] Dackstrus","steam_id":76561197973518509,"connected_time":4222000000000,"state":"active","ping":46},{"user_id":715,"name":"gorlab","steam_id":76561198025089694,"connected_time":35000000000,"state":"active","ping":62},{"user_id":673,"name":"Yammie","steam_id":76561197987304489,"connected_time":3964000000000,"state":"active","ping":45},{"user_id":688,"name":"Femboi Fox","steam_id":76561198915758702,"connected_time":2679000000000,"state":"active","ping":60},{"user_id":655,"name":"Mignyanne :3","steam_id":76561198048754056,"connected_time":6052000000000,"state":"active","ping":71},{"user_id":681,"name":"RC Polygons","steam_id":76561198843074574,"connected_time":3263000000000,"state":"active","ping":89},{"user_id":699,"name":"Wafflemuscle","steam_id":76561198868628982,"connected_time":2096000000000,"state":"active","ping":48},{"user_id":664,"name":"Klone","steam_id":76561198854485605,"connected_time":5104000000000,"state":"active","ping":77},{"user_id":697,"name":"brimstone","steam_id":76561198066619792,"connected_time":2211000000000,"state":"active","ping":75}]},{"server_id":119,"name":"Uncletopia | Seattle | 2 | All Maps","name_short":"sea-2","host":"sea-1.us.uncletopia.com","port":27025,"enabled":true,"region":"us-west","cc":"us","latitude":47.608013,"longitude":-122.33517,"reserved":0,"last_update":"0001-01-01T00:00:00Z","name_a2s":"Uncletopia | Seattle | 2 | All Maps","protocol":17,"map":"pl_snowycoast","folder":"tf","game":"Team Fortress","app_id":440,"player_count":24,"max_players":24,"Bots":0,"server_type":"Dedicated","server_os":"Linux","password":true,"vac":true,"version":"7742253","steam_id":85568392924469998,"keywords":["nocrits","nodmgspread","payload","uncletopia"],"game_id":440,"stv_port":27026,"stv_name":"Uncletopia | Seattle | 2 | All Maps | STV","players":[{"user_id":319,"name":"2\u002620","steam_id":76561198068672882,"connected_time":4927000000000,"state":"active","ping":69},{"user_id":339,"name":"❤ Ashley ❤","steam_id":76561198056428303,"connected_time":2776000000000,"state":"active","ping":76},{"user_id":366,"name":"The Horny","steam_id":76561198863639459,"connected_time":1498000000000,"state":"active","ping":50},{"user_id":344,"name":"Alley_YAMBO","steam_id":76561198055651850,"connected_time":2616000000000,"state":"active","ping":67},{"user_id":375,"name":"real","steam_id":76561198760197989,"connected_time":766000000000,"state":"active","ping":102},{"user_id":358,"name":"ThisisSteve","steam_id":76561198420882318,"connected_time":1672000000000,"state":"active","ping":65},{"user_id":354,"name":"lili.winters","steam_id":76561199391478575,"connected_time":2229000000000,"state":"active","ping":63},{"user_id":365,"name":"Gilbert Clappton","steam_id":76561198086484233,"connected_time":1550000000000,"state":"active","ping":50},{"user_id":324,"name":"Goetha","steam_id":76561198803824764,"connected_time":3902000000000,"state":"active","ping":77},{"user_id":359,"name":"spare rib","steam_id":76561198126115646,"connected_time":1662000000000,"state":"active","ping":42},{"user_id":377,"name":"NeoN™","steam_id":76561198117608366,"connected_time":198000000000,"state":"active","ping":35},{"user_id":361,"name":"rust","steam_id":76561198314614593,"connected_time":1648000000000,"state":"active","ping":42},{"user_id":355,"name":"Retesaurus","steam_id":76561198045189319,"connected_time":2107000000000,"state":"active","ping":48},{"user_id":363,"name":"cheechman512","steam_id":76561198322633048,"connected_time":1612000000000,"state":"active","ping":59},{"user_id":369,"name":"Why?","steam_id":76561198798253745,"connected_time":1372000000000,"state":"active","ping":80},{"user_id":374,"name":"soirée","steam_id":76561199224765916,"connected_time":1179000000000,"state":"active","ping":102},{"user_id":368,"name":"Tuna!","steam_id":76561198354590331,"connected_time":1412000000000,"state":"active","ping":82},{"user_id":353,"name":"Marcel","steam_id":76561199079200901,"connected_time":2334000000000,"state":"active","ping":102},{"user_id":378,"name":"Raian","steam_id":76561199138048671,"connected_time":174000000000,"state":"active","ping":75},{"user_id":371,"name":"The King of Piss World","steam_id":76561198082806956,"connected_time":1336000000000,"state":"active","ping":111},{"user_id":314,"name":"Frongussy","steam_id":76561197979056451,"connected_time":5082000000000,"state":"active","ping":52},{"user_id":372,"name":"ShwackedOnNyquil","steam_id":76561198060870270,"connected_time":1320000000000,"state":"active","ping":66},{"user_id":313,"name":"Lord Pretty Flocko Jordye","steam_id":76561198962880749,"connected_time":5175000000000,"state":"active","ping":82},{"user_id":373,"name":"Squirting Contest!!!","steam_id":76561198020322241,"connected_time":1275000000000,"state":"active","ping":63}]},{"server_id":406,"name":"Uncletopia | Seattle | 3 | Stopwatch Beta","name_short":"sea-3","host":"sea-1.us.uncletopia.com","port":27035,"enabled":true,"region":"us-west","cc":"us","latitude":47.608013,"longitude":-122.33517,"reserved":0,"last_update":"0001-01-01T00:00:00Z","name_a2s":"Uncletopia | Seattle | 3 | Stopwatch Beta","protocol":17,"map":"pl_upward","folder":"tf","game":"Team Fortress","app_id":440,"player_count":2,"max_players":24,"Bots":0,"server_type":"Dedicated","server_os":"Linux","password":true,"vac":false,"version":"7742253","steam_id":0,"keywords":["nocrits","nodmgspread","payload","uncletopia"],"game_id":440,"stv_port":27036,"stv_name":"Uncletopia | Seattle | 3 | Stopwatch Beta | STV","players":[{"user_id":10,"name":"Némiscau","steam_id":76561198257979613,"connected_time":105000000000,"state":"active","ping":48},{"user_id":11,"name":"foura","steam_id":76561198181972739,"connected_time":101000000000,"state":"active","ping":58}]},{"server_id":17,"name":"Uncletopia | San Francisco | 1 | All Maps","name_short":"sfo-1","host":"sfo-1.us.uncletopia.com","port":27015,"enabled":true,"region":"us-west","cc":"us","latitude":37.77397,"longitude":-122.4313,"reserved":0,"last_update":"0001-01-01T00:00:00Z","name_a2s":"Uncletopia | San Francisco | 1 | All Maps","protocol":17,"map":"pl_badwater","folder":"tf","game":"Team Fortress","app_id":440,"player_count":19,"max_players":24,"Bots":0,"server_type":"Dedicated","server_os":"Linux","password":true,"vac":true,"version":"7742253","steam_id":85568392924469999,"keywords":["nocrits","nodmgspread","payload","uncletopia"],"game_id":440,"stv_port":27016,"stv_name":"Uncletopia | San Francisco | 1 | All Maps | STV","players":[{"user_id":609,"name":"zinnk","steam_id":76561198092081825,"connected_time":925000000000,"state":"active","ping":40},{"user_id":593,"name":"Erntest","steam_id":76561198049499899,"connected_time":2079000000000,"state":"active","ping":48},{"user_id":606,"name":"Sadodere Grimace","steam_id":76561198008332028,"connected_time":1370000000000,"state":"active","ping":61},{"user_id":610,"name":"lol","steam_id":76561198026491738,"connected_time":922000000000,"state":"active","ping":56},{"user_id":615,"name":"dumbeeon","steam_id":76561198059351874,"connected_time":10000000000,"state":"spawning","ping":63},{"user_id":568,"name":"LazyDoll","steam_id":76561198053186338,"connected_time":5181000000000,"state":"active","ping":55},{"user_id":597,"name":"autumn","steam_id":76561198036901822,"connected_time":1925000000000,"state":"active","ping":85},{"user_id":607,"name":"10 Years in the Joint","steam_id":76561198823083676,"connected_time":991000000000,"state":"active","ping":61},{"user_id":573,"name":"non_ai","steam_id":76561198270951938,"connected_time":4652000000000,"state":"active","ping":119},{"user_id":569,"name":"Spherical Coordinates","steam_id":76561198062529055,"connected_time":5051000000000,"state":"active","ping":58},{"user_id":616,"name":"nake","steam_id":76561198004619118,"connected_time":1000000000,"state":"spawning","ping":128},{"user_id":580,"name":"Polygunner","steam_id":76561199165741650,"connected_time":3733000000000,"state":"active","ping":125},{"user_id":612,"name":"truck freak (festive)","steam_id":76561198062712676,"connected_time":555000000000,"state":"active","ping":62},{"user_id":575,"name":"aisu","steam_id":76561198043768507,"connected_time":4252000000000,"state":"active","ping":95},{"user_id":614,"name":"Sir Nope (TSS)","steam_id":76561198035935649,"connected_time":18000000000,"state":"spawning","ping":53},{"user_id":613,"name":"the","steam_id":76561198079418310,"connected_time":508000000000,"state":"active","ping":74},{"user_id":584,"name":"Painkiller","steam_id":76561198049787400,"connected_time":3459000000000,"state":"active","ping":63},{"user_id":603,"name":"everythingrhymeswithorange","steam_id":76561198010306193,"connected_time":1707000000000,"state":"active","ping":49},{"user_id":604,"name":"Tevo","steam_id":76561198375502931,"connected_time":1686000000000,"state":"active","ping":99}]},{"server_id":18,"name":"Uncletopia | San Francisco | 2 | All Maps","name_short":"sfo-2","host":"sfo-1.us.uncletopia.com","port":27025,"enabled":true,"region":"us-west","cc":"us","latitude":37.77397,"longitude":-122.4313,"reserved":0,"last_update":"0001-01-01T00:00:00Z","name_a2s":"Uncletopia | San Francisco | 2 | All Maps","protocol":17,"map":"pl_pier","folder":"tf","game":"Team Fortress","app_id":440,"player_count":0,"max_players":24,"Bots":0,"server_type":"Dedicated","server_os":"Linux","password":true,"vac":true,"version":"7742253","steam_id":85568392924470000,"keywords":["nocrits","nodmgspread","payload","uncletopia"],"game_id":440,"stv_port":27026,"stv_name":"Uncletopia | San Francisco | 2 | All Maps | STV","players":null},{"server_id":19,"name":"Uncletopia | San Francisco | 3 | Stopwatch Beta","name_short":"sfo-3","host":"sfo-1.us.uncletopia.com","port":27035,"enabled":true,"region":"us-west","cc":"us","latitude":37.77397,"longitude":-122.4313,"reserved":0,"last_update":"0001-01-01T00:00:00Z","name_a2s":"Uncletopia | San Francisco | 3 | Stopwatch Beta","protocol":17,"map":"cp_snakewater_final1","folder":"tf","game":"Team Fortress","app_id":440,"player_count":0,"max_players":24,"Bots":0,"server_type":"Dedicated","server_os":"Linux","password":true,"vac":true,"version":"7742253","steam_id":85568392924742824,"keywords":["cp","nocrits","nodmgspread","uncletopia"],"game_id":440,"stv_port":27036,"stv_name":"Uncletopia | San Francisco | 3 | Stopwatch Beta | STV","players":null},{"server_id":20,"name":"Uncletopia | San Francisco | 4 | Community","name_short":"sfo-4","host":"sfo-1.us.uncletopia.com","port":27045,"enabled":true,"region":"us-west","cc":"us","latitude":37.77397,"longitude":-122.4313,"reserved":0,"last_update":"0001-01-01T00:00:00Z","name_a2s":"Uncletopia | San Francisco | 4 | Community","protocol":17,"map":"workshop/koth_synthetic_rc6a.ugc1549817316","folder":"tf","game":"Team Fortress","app_id":440,"player_count":0,"max_players":24,"Bots":0,"server_type":"Dedicated","server_os":"Linux","password":true,"vac":true,"version":"7742253","steam_id":85568392924742826,"keywords":["cp","nocrits","nodmgspread","uncletopia"],"game_id":440,"stv_port":27046,"stv_name":"Uncletopia | San Francisco | 4 | Community | STV","players":null},{"server_id":141,"name":"Uncletopia | Sydney | 1 | All Maps","name_short":"syd-1","host":"syd-1.au.uncletopia.com","port":27015,"enabled":true,"region":"au","cc":"au","latitude":-33.865143,"longitude":151.2099,"reserved":0,"last_update":"0001-01-01T00:00:00Z","name_a2s":"Uncletopia | Sydney | 1 | All Maps","protocol":17,"map":"cp_process_final","folder":"tf","game":"Team Fortress","app_id":440,"player_count":14,"max_players":24,"Bots":0,"server_type":"Dedicated","server_os":"Linux","password":true,"vac":true,"version":"7742253","steam_id":85568392924470001,"keywords":["cp","nocrits","nodmgspread","uncletopia"],"game_id":440,"stv_port":27016,"stv_name":"Uncletopia | Sydney | 1 | All Maps | STV","players":[{"user_id":293,"name":"Keveraa","steam_id":76561198056839414,"connected_time":2423000000000,"state":"active","ping":51},{"user_id":304,"name":"clout","steam_id":76561198073310502,"connected_time":1274000000000,"state":"active","ping":74},{"user_id":318,"name":"Spiffing","steam_id":76561199020105540,"connected_time":175000000000,"state":"active","ping":76},{"user_id":277,"name":"chip stealing cunt","steam_id":76561198045437691,"connected_time":3606000000000,"state":"active","ping":59},{"user_id":315,"name":"o p t i v e","steam_id":76561198131756192,"connected_time":374000000000,"state":"active","ping":81},{"user_id":316,"name":"Jack","steam_id":76561198041716013,"connected_time":297000000000,"state":"active","ping":44},{"user_id":154,"name":"ZaEpicScout205","steam_id":76561198170693338,"connected_time":11171000000000,"state":"active","ping":84},{"user_id":319,"name":"Darren","steam_id":76561198988128327,"connected_time":110000000000,"state":"active","ping":44},{"user_id":289,"name":"penis monster","steam_id":76561199389311492,"connected_time":2637000000000,"state":"active","ping":67},{"user_id":243,"name":"sheytoon","steam_id":76561198060824434,"connected_time":5495000000000,"state":"active","ping":52},{"user_id":306,"name":"CheeseFlag126","steam_id":76561199262769917,"connected_time":1175000000000,"state":"active","ping":56},{"user_id":301,"name":"LightningBlock","steam_id":76561198289997742,"connected_time":1994000000000,"state":"active","ping":29},{"user_id":237,"name":"void","steam_id":76561198241303512,"connected_time":5852000000000,"state":"active","ping":53},{"user_id":311,"name":"Asshat Arnold","steam_id":76561198340730741,"connected_time":714000000000,"state":"active","ping":58}]},{"server_id":123,"name":"Uncletopia | Sydney | 2 | All Maps","name_short":"syd-2","host":"syd-1.au.uncletopia.com","port":27025,"enabled":true,"region":"au","cc":"au","latitude":-33.865143,"longitude":151.2099,"reserved":0,"last_update":"0001-01-01T00:00:00Z","name_a2s":"Uncletopia | Sydney | 2 | All Maps","protocol":17,"map":"koth_lakeside_final","folder":"tf","game":"Team Fortress","app_id":440,"player_count":0,"max_players":24,"Bots":0,"server_type":"Dedicated","server_os":"Linux","password":true,"vac":true,"version":"7742253","steam_id":85568392924470002,"keywords":["cp","nocrits","nodmgspread","uncletopia"],"game_id":440,"stv_port":27026,"stv_name":"Uncletopia | Sydney | 2 | All Maps | STV","players":null},{"server_id":395,"name":"Uncletopia | Sydney | 3 | All Maps","name_short":"syd-3","host":"syd-1.au.uncletopia.com","port":27035,"enabled":true,"region":"au","cc":"au","latitude":-33.865143,"longitude":151.2099,"reserved":0,"last_update":"0001-01-01T00:00:00Z","name_a2s":"Uncletopia | Sydney | 3 | All Maps","protocol":17,"map":"cp_dustbowl","folder":"tf","game":"Team Fortress","app_id":440,"player_count":0,"max_players":24,"Bots":0,"server_type":"Dedicated","server_os":"Linux","password":true,"vac":true,"version":"7742253","steam_id":85568392925194467,"keywords":["cp","nocrits","nodmgspread","uncletopia"],"game_id":440,"stv_port":27036,"stv_name":"Uncletopia | Sydney | 3 | All Maps | STV","players":null},{"server_id":396,"name":"Uncletopia | Sydney | 4 | All Maps","name_short":"syd-4","host":"syd-1.au.uncletopia.com","port":27045,"enabled":true,"region":"au","cc":"au","latitude":-33.865143,"longitude":151.2099,"reserved":0,"last_update":"0001-01-01T00:00:00Z","name_a2s":"Uncletopia | Sydney | 4 | All Maps","protocol":17,"map":"pl_borneo","folder":"tf","game":"Team Fortress","app_id":440,"player_count":3,"max_players":24,"Bots":0,"server_type":"Dedicated","server_os":"Linux","password":true,"vac":true,"version":"7742253","steam_id":85568392925397958,"keywords":["nocrits","nodmgspread","payload","uncletopia"],"game_id":440,"stv_port":27046,"stv_name":"Uncletopia | Sydney | 4 | All Maps | STV","players":[{"user_id":10,"name":"Thesupersnooper","steam_id":76561199064105515,"connected_time":348000000000,"state":"active","ping":94},{"user_id":11,"name":"Swagdaddy67","steam_id":76561199285103570,"connected_time":234000000000,"state":"active","ping":66},{"user_id":6,"name":"Doctor Ashley","steam_id":76561198216094064,"connected_time":1166000000000,"state":"active","ping":60}]},{"server_id":58,"name":"Uncletopia | Sydney | 5 | Stopwatch Beta","name_short":"syd-5","host":"syd-1.au.uncletopia.com","port":27055,"enabled":true,"region":"au","cc":"au","latitude":-33.865143,"longitude":151.2099,"reserved":0,"last_update":"0001-01-01T00:00:00Z","name_a2s":"Uncletopia | Sydney | 5 | Stopwatch Beta","protocol":17,"map":"cp_snakewater_final1","folder":"tf","game":"Team Fortress","app_id":440,"player_count":0,"max_players":24,"Bots":0,"server_type":"Dedicated","server_os":"Linux","password":true,"vac":true,"version":"7742253","steam_id":85568392925397959,"keywords":["cp","nocrits","nodmgspread","uncletopia"],"game_id":440,"stv_port":27056,"stv_name":"Uncletopia | Sydney | 5 | Stopwatch Beta | STV","players":null},{"server_id":59,"name":"Uncletopia | Sydney | 6 | Community","name_short":"syd-6","host":"syd-1.au.uncletopia.com","port":27065,"enabled":true,"region":"au","cc":"au","latitude":-33.865143,"longitude":151.2099,"reserved":0,"last_update":"0001-01-01T00:00:00Z","name_a2s":"Uncletopia | Sydney | 6 | Community","protocol":17,"map":"workshop/koth_product_final.ugc454272353","folder":"tf","game":"Team Fortress","app_id":440,"player_count":0,"max_players":24,"Bots":0,"server_type":"Dedicated","server_os":"Linux","password":true,"vac":true,"version":"7742253","steam_id":85568392925397960,"keywords":["cp","nocrits","nodmgspread","uncletopia"],"game_id":440,"stv_port":27066,"stv_name":"Uncletopia | Sydney | 6 | Community | STV","players":null},{"server_id":49,"name":"Uncletopia | Warsaw | 1 | All Maps","name_short":"waw-1","host":"waw-1.pl.uncletopia.com","port":27015,"enabled":true,"region":"eu","cc":"pl","latitude":52.2297,"longitude":21.017532,"reserved":0,"last_update":"0001-01-01T00:00:00Z","name_a2s":"Uncletopia | Warsaw | 1 | All Maps","protocol":17,"map":"koth_lakeside_final","folder":"tf","game":"Team Fortress","app_id":440,"player_count":0,"max_players":24,"Bots":0,"server_type":"Dedicated","server_os":"Linux","password":true,"vac":true,"version":"7723704","steam_id":85568392925397850,"keywords":["cp","nocrits","nodmgspread","uncletopia"],"game_id":440,"stv_port":27016,"stv_name":"Uncletopia | Warsaw | 1 | All Maps | STV","players":null},{"server_id":50,"name":"Uncletopia | Warsaw | 2 | All Maps","name_short":"waw-2","host":"waw-1.pl.uncletopia.com","port":27025,"enabled":true,"region":"eu","cc":"pl","latitude":52.2297,"longitude":21.017532,"reserved":0,"last_update":"0001-01-01T00:00:00Z","name_a2s":"Uncletopia | Warsaw | 2 | All Maps","protocol":17,"map":"pl_frontier_final","folder":"tf","game":"Team Fortress","app_id":440,"player_count":0,"max_players":24,"Bots":0,"server_type":"Dedicated","server_os":"Linux","password":true,"vac":true,"version":"7742253","steam_id":85568392925397851,"keywords":["nocrits","nodmgspread","payload","uncletopia"],"game_id":440,"stv_port":27026,"stv_name":"Uncletopia | Warsaw | 2 | All Maps | STV","players":null},{"server_id":51,"name":"Uncletopia | Warsaw | 3 | All Maps","name_short":"waw-3","host":"waw-1.pl.uncletopia.com","port":27035,"enabled":true,"region":"eu","cc":"pl","latitude":52.2297,"longitude":21.017532,"reserved":0,"last_update":"0001-01-01T00:00:00Z","name_a2s":"Uncletopia | Warsaw | 3 | All Maps","protocol":17,"map":"pl_frontier_final","folder":"tf","game":"Team Fortress","app_id":440,"player_count":0,"max_players":24,"Bots":0,"server_type":"Dedicated","server_os":"Linux","password":true,"vac":true,"version":"7742253","steam_id":85568392925397852,"keywords":["nocrits","nodmgspread","payload","uncletopia"],"game_id":440,"stv_port":27036,"stv_name":"Uncletopia | Warsaw | 3 | All Maps | STV","players":null},{"server_id":52,"name":"Uncletopia | Warsaw | 4 | All Maps","name_short":"waw-4","host":"waw-1.pl.uncletopia.com","port":27045,"enabled":true,"region":"eu","cc":"pl","latitude":52.2297,"longitude":21.017532,"reserved":0,"last_update":"0001-01-01T00:00:00Z","name_a2s":"Uncletopia | Warsaw | 4 | All Maps","protocol":17,"map":"pl_swiftwater_final1","folder":"tf","game":"Team Fortress","app_id":440,"player_count":0,"max_players":24,"Bots":0,"server_type":"Dedicated","server_os":"Linux","password":true,"vac":true,"version":"7742253","steam_id":85568392925397853,"keywords":["nocrits","nodmgspread","payload","uncletopia"],"game_id":440,"stv_port":27046,"stv_name":"Uncletopia | Warsaw | 4 | All Maps | STV","players":null},{"server_id":53,"name":"Uncletopia | Warsaw | 5 | Stopwatch Beta","name_short":"waw-5","host":"waw-1.pl.uncletopia.com","port":27055,"enabled":true,"region":"eu","cc":"pl","latitude":52.2297,"longitude":21.017532,"reserved":0,"last_update":"0001-01-01T00:00:00Z","name_a2s":"Uncletopia | Warsaw | 5 | Stopwatch Beta","protocol":17,"map":"pl_pier","folder":"tf","game":"Team Fortress","app_id":440,"player_count":0,"max_players":24,"Bots":0,"server_type":"Dedicated","server_os":"Linux","password":true,"vac":true,"version":"7742253","steam_id":85568392925397854,"keywords":["nocrits","nodmgspread","payload","uncletopia"],"game_id":440,"stv_port":27056,"stv_name":"Uncletopia | Warsaw | 5 | Stopwatch Beta | STV","players":null},{"server_id":54,"name":"Uncletopia | Warsaw | 6 | Community","name_short":"waw-6","host":"waw-1.pl.uncletopia.com","port":27065,"enabled":true,"region":"eu","cc":"pl","latitude":52.2297,"longitude":21.017532,"reserved":0,"last_update":"0001-01-01T00:00:00Z","name_a2s":"Uncletopia | Warsaw | 6 | Community","protocol":17,"map":"cp_sunshine","folder":"tf","game":"Team Fortress","app_id":440,"player_count":0,"max_players":24,"Bots":0,"server_type":"Dedicated","server_os":"Linux","password":true,"vac":true,"version":"7742253","steam_id":85568392925397856,"keywords":["cp","nocrits","nodmgspread","uncletopia"],"game_id":440,"stv_port":27066,"stv_name":"Uncletopia | Warsaw | 6 | Community | STV","players":null}]}