{"status":true,"message":"","result":[{"server_id":9,"name":"Uncletopia | Atlanta | 1 | All Maps","name_short":"atl-1","host":"atl-1.us.uncletopia.com","port":27015,"enabled":true,"region":"us-east","cc":"us","latitude":33.753746,"longitude":-84.38633,"reserved":0,"last_update":"0001-01-01T00:00:00Z","name_a2s":"Uncletopia | Atlanta | 1 | All Maps","protocol":17,"map":"koth_viaduct","folder":"tf","game":"Team Fortress","app_id":440,"player_count":0,"max_players":24,"Bots":0,"server_type":"Dedicated","server_os":"Linux","password":true,"vac":true,"version":"7961495","steam_id":85568392924469982,"keywords":["cp","nocrits","nodmgspread","uncletopia"],"game_id":440,"stv_port":27016,"stv_name":"Uncletopia | Atlanta | 1 | All Maps | STV","players":null},{"server_id":104,"name":"Uncletopia | Atlanta | 2 | All Maps","name_short":"atl-2","host":"atl-1.us.uncletopia.com","port":27025,"enabled":true,"region":"us-east","cc":"us","latitude":33.753746,"longitude":-84.38633,"reserved":0,"last_update":"0001-01-01T00:00:00Z","name_a2s":"Uncletopia | Atlanta | 2 | All Maps","protocol":17,"map":"pl_pier","folder":"tf","game":"Team Fortress","app_id":440,"player_count":0,"max_players":24,"Bots":0,"server_type":"Dedicated","server_os":"Linux","password":true,"vac":true,"version":"7961495","steam_id":85568392924469983,"keywords":["nocrits","nodmgspread","payload","uncletopia"],"game_id":440,"stv_port":27026,"stv_name":"Uncletopia | Atlanta | 2 | All Maps | STV","players":null},{"server_id":400,"name":"Uncletopia | Atlanta | 3 | All Maps","name_short":"atl-3","host":"atl-1.us.uncletopia.com","port":27035,"enabled":true,"region":"us-east","cc":"us","latitude":33.753746,"longitude":-84.38633,"reserved":0,"last_update":"0001-01-01T00:00:00Z","name_a2s":"Uncletopia | Atlanta | 3 | All Maps","protocol":17,"map":"koth_lakeside_final","folder":"tf","game":"Team Fortress","app_id":440,"player_count":0,"max_players":24,"Bots":0,"server_type":"Dedicated","server_os":"Linux","password":true,"vac":true,"version":"7961495","steam_id":85568392924515187,"keywords":["cp","nocrits","nodmgspread","uncletopia"],"game_id":440,"stv_port":27036,"stv_name":"Uncletopia | Atlanta | 3 | All Maps | STV","players":null},{"server_id":401,"name":"Uncletopia | Atlanta | 4 | Community","name_short":"atl-4","host":"atl-1.us.uncletopia.com","port":27045,"enabled":true,"region":"us-east","cc":"us","latitude":33.753746,"longitude":-84.38633,"reserved":0,"last_update":"0001-01-01T00:00:00Z","name_a2s":"Uncletopia | Atlanta | 4 | Community","protocol":17,"map":"cp_dustbowl","folder":"tf","game":"Team Fortress","app_id":440,"player_count":0,"max_players":24,"Bots":0,"server_type":"Dedicated","server_os":"Linux","password":true,"vac":true,"version":"7961495","steam_id":85568392924515188,"keywords":["cp","nocrits","nodmgspread","uncletopia"],"game_id":440,"stv_port":27046,"stv_name":"Uncletopia | Atlanta | 4 | Community | STV","players":null},{"server_id":2,"name":"Uncletopia | Chicago | 1 | All Maps","name_short":"chi-1","host":"chi-1.us.uncletopia.com","port":27015,"enabled":true,"region":"us-central","cc":"us","latitude":41.881832,"longitude":-87.62318,"reserved":0,"last_update":"0001-01-01T00:00:00Z","name_a2s":"Uncletopia | Chicago | 1 | All Maps","protocol":17,"map":"ctf_2fort","folder":"tf","game":"Team Fortress","app_id":440,"player_count":24,"max_players":24,"Bots":0,"server_type":"Dedicated","server_os":"Linux","password":true,"vac":true,"version":"7961495","steam_id":85568392924469984,"keywords":["ctf","nocrits","nodmgspread","uncletopia"],"game_id":440,"stv_port":27016,"stv_name":"Uncletopia | Chicago | 1 | All Maps | STV","players":[{"user_id":396,"name":"IZISOO","steam_id":76561198970380577,"connected_time":3240000000000,"state":"active","ping":56},{"user_id":356,"name":"candle randel","steam_id":76561198081545613,"connected_time":7224000000000,"state":"active","ping":57},{"user_id":414,"name":"Kantamoe","steam_id":76561198046661611,"connected_time":159000000000,"state":"active","ping":78},{"user_id":411,"name":"clue","steam_id":76561198299379768,"connected_time":961000000000,"state":"active","ping":83},{"user_id":391,"name":"God","steam_id":76561198131089513,"connected_time":3679000000000,"state":"active","ping":59},{"user_id":416,"name":"Xyverle","steam_id":76561198799726415,"connected_time":130000000000,"state":"active","ping":57},{"user_id":402,"name":"xyt0nix","steam_id":76561199437938235,"connected_time":2161000000000,"state":"active","ping":59},{"user_id":380,"name":"meat","steam_id":76561198209153291,"connected_time":5363000000000,"state":"active","ping":92},{"user_id":354,"name":"Rachi","steam_id":76561198083826053,"connected_time":7375000000000,"state":"active","ping":59},{"user_id":377,"name":"Whyamidoingthisaaaa","steam_id":76561199168837342,"connected_time":5613000000000,"state":"active","ping":75},{"user_id":383,"name":"Bryguy","steam_id":76561198092096120,"connected_time":4894000000000,"state":"active","ping":40},{"user_id":412,"name":"Deaf Gaming","steam_id":76561198026256509,"connected_time":486000000000,"state":"active","ping":64},{"user_id":418,"name":"RailRunner66","steam_id":76561198053779091,"connected_time":73000000000,"state":"active","ping":89},{"user_id":315,"name":"alN","steam_id":76561198329171346,"connected_time":10871000000000,"state":"active","ping":45},{"user_id":386,"name":"Whatsapp Spy","steam_id":76561198085410969,"connected_time":4643000000000,"state":"active","ping":41},{"user_id":419,"name":"jaundice","steam_id":76561198231965100,"connected_time":28000000000,"state":"active","ping":45},{"user_id":405,"name":"JamJohn","steam_id":76561198812294103,"connected_time":1855000000000,"state":"active","ping":53},{"user_id":409,"name":"YeetethYoteth","steam_id":76561198957396090,"connected_time":1050000000000,"state":"active","ping":59},{"user_id":399,"name":"Grenade_Addict","steam_id":76561199212037850,"connected_time":2805000000000,"state":"active","ping":88},{"user_id":413,"name":"Rat God","steam_id":76561198066161598,"connected_time":163000000000,"state":"active","ping":59},{"user_id":381,"name":"Transgender Spider Priestess","steam_id":76561198111286397,"connected_time":5099000000000,"state":"active","ping":101},{"user_id":415,"name":"Nyle","steam_id":76561198045652639,"connected_time":158000000000,"state":"active","ping":130},{"user_id":389,"name":"Captain S. Forrest","steam_id":76561198062463029,"connected_time":4099000000000,"state":"active","ping":68}]},{"server_id":106,"name":"Uncletopia | Chicago | 2 | All Maps","name_short":"chi-2","host":"chi-1.us.uncletopia.com","port":27025,"enabled":true,"region":"us-central","cc":"us","latitude":41.881832,"longitude":-87.62318,"reserved":0,"last_update":"0001-01-01T00:00:00Z","name_a2s":"Uncletopia | Chicago | 2 | All Maps","protocol":17,"map":"cp_snakewater_final1","folder":"tf","game":"Team Fortress","app_id":440,"player_count":0,"max_players":24,"Bots":0,"server_type":"Dedicated","server_os":"Linux","password":true,"vac":true,"version":"7961495","steam_id":85568392924469985,"keywords":["cp","nocrits","nodmgspread","uncletopia"],"game_id":440,"stv_port":27026,"stv_name":"Uncletopia | Chicago | 2 | All Maps | STV","players":null},{"server_id":402,"name":"Uncletopia | Chicago | 3 | All Maps","name_short":"chi-3","host":"chi-1.us.uncletopia.com","port":27035,"enabled":true,"region":"us-central","cc":"us","latitude":41.881832,"longitude":-87.62318,"reserved":0,"last_update":"0001-01-01T00:00:00Z","name_a2s":"Uncletopia | Chicago | 3 | All Maps","protocol":17,"map":"koth_lakeside_final","folder":"tf","game":"Team Fortress","app_id":440,"player_count":0,"max_players":24,"Bots":0,"server_type":"Dedicated","server_os":"Linux","password":true,"vac":true,"version":"7961495","steam_id":85568392924515191,"keywords":["cp","nocrits","nodmgspread","uncletopia"],"game_id":440,"stv_port":27036,"stv_name":"Uncletopia | Chicago | 3 | All Maps | STV","players":null},{"server_id":403,"name":"Uncletopia | Chicago | 4 | All Maps","name_short":"chi-4","host":"chi-1.us.uncletopia.com","port":27045,"enabled":true,"region":"us-central","cc":"us","latitude":41.881832,"longitude":-87.62318,"reserved":0,"last_update":"0001-01-01T00:00:00Z","name_a2s":"Uncletopia | Chicago | 4 | All Maps","protocol":17,"map":"pl_snowycoast","folder":"tf","game":"Team Fortress","app_id":440,"player_count":3,"max_players":24,"Bots":0,"server_type":"Dedicated","server_os":"Linux","password":true,"vac":true,"version":"7961495","steam_id":85568392924515193,"keywords":["nocrits","nodmgspread","payload","uncletopia"],"game_id":440,"stv_port":27046,"stv_name":"Uncletopia | Chicago | 4 | All Maps | STV","players":[{"user_id":423,"name":"Shopkeeper","steam_id":76561198105888756,"connected_time":7376000000000,"state":"active","ping":97},{"user_id":460,"name":"carsonarson2","steam_id":76561199249416248,"connected_time":3937000000000,"state":"active","ping":152},{"user_id":419,"name":"Vimchi","steam_id":76561198151927029,"connected_time":7554000000000,"state":"active","ping":96}]},{"server_id":36,"name":"Uncletopia | Chicago | 5 | All Maps","name_short":"chi-5","host":"chi-2.us.uncletopia.com","port":27015,"enabled":true,"region":"us-central","cc":"us","latitude":41.881832,"longitude":-87.62318,"reserved":0,"last_update":"0001-01-01T00:00:00Z","name_a2s":"Uncletopia | Chicago | 5 | All Maps","protocol":17,"map":"pl_pier","folder":"tf","game":"Team Fortress","app_id":440,"player_count":0,"max_players":24,"Bots":0,"server_type":"Dedicated","server_os":"Linux","password":true,"vac":true,"version":"7961495","steam_id":85568392924866362,"keywords":["nocrits","nodmgspread","payload","uncletopia"],"game_id":440,"stv_port":27016,"stv_name":"Uncletopia | Chicago | 5 | All Maps | STV","players":null},{"server_id":37,"name":"Uncletopia | Chicago | 6 | All Maps","name_short":"chi-6","host":"chi-2.us.uncletopia.com","port":27025,"enabled":true,"region":"us-central","cc":"us","latitude":41.881832,"longitude":-87.62318,"reserved":0,"last_update":"0001-01-01T00:00:00Z","name_a2s":"Uncletopia | Chicago | 6 | All Maps","protocol":17,"map":"pl_badwater","folder":"tf","game":"Team Fortress","app_id":440,"player_count":24,"max_players":24,"Bots":0,"server_type":"Dedicated","server_os":"Linux","password":true,"vac":true,"version":"7961495","steam_id":85568392924866363,"keywords":["nocrits","nodmgspread","payload","uncletopia"],"game_id":440,"stv_port":27026,"stv_name":"Uncletopia | Chicago | 6 | All Maps | STV","players":[{"user_id":453,"name":"BurritoCat","steam_id":76561198059822805,"connected_time":1912000000000,"state":"active","ping":99},{"user_id":380,"name":"Matisguy","steam_id":76561199020903681,"connected_time":6478000000000,"state":"active","ping":82},{"user_id":412,"name":"Crunchy","steam_id":76561198240523882,"connected_time":4228000000000,"state":"active","ping":103},{"user_id":455,"name":"remanedur","steam_id":76561198059459507,"connected_time":1769000000000,"state":"active","ping":90},{"user_id":468,"name":"self sufficient kitten","steam_id":76561197960592612,"connected_time":606000000000,"state":"active","ping":90},{"user_id":459,"name":"sam urai","steam_id":76561198127621267,"connected_time":1315000000000,"state":"active","ping":69},{"user_id":440,"name":"Periergos","steam_id":76561198062030412,"connected_time":2290000000000,"state":"active","ping":86},{"user_id":466,"name":"._.","steam_id":76561198300316801,"connected_time":691000000000,"state":"active","ping":59},{"user_id":470,"name":"Asshole","steam_id":76561198012157352,"connected_time":5000000000,"state":"spawning","ping":94},{"user_id":438,"name":"Arab","steam_id":76561198284164847,"connected_time":2317000000000,"state":"active","ping":73},{"user_id":429,"name":"Trumpetspyman59","steam_id":76561198048989561,"connected_time":2601000000000,"state":"active","ping":71},{"user_id":430,"name":"ecto cooler","steam_id":76561198068409067,"connected_time":2597000000000,"state":"active","ping":75},{"user_id":462,"name":"gnoblin","steam_id":76561198210322871,"connected_time":808000000000,"state":"active","ping":111},{"user_id":469,"name":"Plain Toast","steam_id":76561198451580251,"connected_time":556000000000,"state":"active","ping":83},{"user_id":463,"name":"桃色の猫","steam_id":76561198141406399,"connected_time":803000000000,"state":"active","ping":70},{"user_id":445,"name":"Driskulls","steam_id":76561198055213549,"connected_time":2129000000000,"state":"active","ping":58},{"user_id":460,"name":"silly goose","steam_id":76561198167299951,"connected_time":996000000000,"state":"active","ping":67},{"user_id":464,"name":"Epifiny","steam_id":76561198027958086,"connected_time":801000000000,"state":"active","ping":75},{"user_id":448,"name":"Aitkrapoo #BUFFTHESTEAK","steam_id":76561198201875359,"connected_time":2039000000000,"state":"active","ping":136},{"user_id":411,"name":"Aegis","steam_id":76561198272052750,"connected_time":4259000000000,"state":"active","ping":76},{"user_id":457,"name":"Teriyaki Dick","steam_id":76561198067917216,"connected_time":1661000000000,"state":"active","ping":87},{"user_id":451,"name":"Digresser","steam_id":76561198016426367,"connected_time":1938000000000,"state":"active","ping":60},{"user_id":467,"name":"spelen76","steam_id":76561198795716763,"connected_time":690000000000,"state":"active","ping":151},{"user_id":465,"name":"Renota","steam_id":76561198058224488,"connected_time":774000000000,"state":"active","ping":63}]},{"server_id":38,"name":"Uncletopia | Chicago | 7 | Stopwatch Beta","name_short":"chi-7","host":"chi-2.us.uncletopia.com","port":27035,"enabled":true,"region":"us-central","cc":"us","latitude":41.881832,"longitude":-87.62318,"reserved":0,"last_update":"0001-01-01T00:00:00Z","name_a2s":"Uncletopia | Chicago | 7 | Stopwatch Beta","protocol":17,"map":"cp_process_final","folder":"tf","game":"Team Fortress","app_id":440,"player_count":0,"max_players":24,"Bots":0,"server_type":"Dedicated","server_os":"Linux","password":true,"vac":true,"version":"7961495","steam_id":85568392924866364,"keywords":["cp","nocrits","nodmgspread","uncletopia"],"game_id":440,"stv_port":27036,"stv_name":"Uncletopia | Chicago | 7 | Stopwatch Beta | STV","players":null},{"server_id":39,"name":"Uncletopia | Chicago | 8 | Community","name_short":"chi-8","host":"chi-2.us.uncletopia.com","port":27045,"enabled":true,"region":"us-central","cc":"us","latitude":41.881832,"longitude":-87.62318,"reserved":0,"last_update":"0001-01-01T00:00:00Z","name_a2s":"Uncletopia | Chicago | 8 | Community","protocol":17,"map":"workshop/pl_shoreleave_rc2.ugc1238849347","folder":"tf","game":"Team Fortress","app_id":440,"player_count":9,"max_players":24,"Bots":0,"server_type":"Dedicated","server_os":"Linux","password":true,"vac":true,"version":"7961495","steam_id":85568392924866365,"keywords":["nocrits","nodmgspread","payload","uncletopia"],"game_id":440,"stv_port":27046,"stv_name":"Uncletopia | Chicago | 8 | Community | STV","players":[{"user_id":412,"name":"RIP Meatballs","steam_id":76561198014323473,"connected_time":2133000000000,"state":"active","ping":83},{"user_id":387,"name":"carl","steam_id":76561198055827003,"connected_time":4412000000000,"state":"active","ping":154},{"user_id":419,"name":"badasscoolboy57","steam_id":76561198795412055,"connected_time":1650000000000,"state":"active","ping":71},{"user_id":394,"name":"Goog","steam_id":76561198160550637,"connected_time":4153000000000,"state":"active","ping":45},{"user_id":427,"name":"King of Ping","steam_id":76561198278737470,"connected_time":1096000000000,"state":"active","ping":69},{"user_id":424,"name":"Zyjem","steam_id":76561198071588380,"connected_time":1507000000000,"state":"active","ping":75},{"user_id":432,"name":"fiendishly, i eat YOUR teeth","steam_id":76561198034240967,"connected_time":893000000000,"state":"active","ping":55},{"user_id":429,"name":"GodandTitans","steam_id":76561198070070155,"connected_time":961000000000,"state":"active","ping":69},{"user_id":430,"name":"kalsamir","steam_id":76561198120634061,"connected_time":959000000000,"state":"active","ping":60}]},{"server_id":8,"name":"Uncletopia | Dallas | 1 | All Maps","name_short":"dal-1","host":"dal-1.us.uncletopia.com","port":27015,"enabled":true,"region":"us-central","cc":"us","latitude":32.779167,"longitude":-96.80889,"reserved":0,"last_update":"0001-01-01T00:00:00Z","name_a2s":"Uncletopia | Dallas | 1 | All Maps","protocol":17,"map":"pl_snowycoast","folder":"tf","game":"Team Fortress","app_id":440,"player_count":24,"max_players":24,"Bots":0,"server_type":"Dedicated","server_os":"Linux","password":true,"vac":true,"version":"7961495","steam_id":85568392924469986,"keywords":["nocrits","nodmgspread","payload","uncletopia"],"game_id":440,"stv_port":27016,"stv_name":"Uncletopia | Dallas | 1 | All Maps | STV","players":[{"user_id":389,"name":"Knavish","steam_id":76561198073434372,"connected_time":5815000000000,"state":"active","ping":85},{"user_id":432,"name":"fitotutus","steam_id":76561197974993253,"connected_time":1359000000000,"state":"active","ping":127},{"user_id":402,"name":"Matches_","steam_id":76561198048925904,"connected_time":4932000000000,"state":"active","ping":86},{"user_id":407,"name":"Ostriche","steam_id":76561198056293618,"connected_time":4538000000000,"state":"active","ping":88},{"user_id":408,"name":"EpicCoolGuy793","steam_id":76561198145769767,"connected_time":4502000000000,"state":"active","ping":98},{"user_id":328,"name":"merlin","steam_id":76561198334511480,"connected_time":10051000000000,"state":"active","ping":68},{"user_id":437,"name":"WOKEALOID Hatsugay Miku V4X","steam_id":76561198062263639,"connected_time":637000000000,"state":"active","ping":52},{"user_id":410,"name":"Koffy","steam_id":76561198184386039,"connected_time":4356000000000,"state":"active","ping":71},{"user_id":434,"name":"Stick","steam_id":76561198001509374,"connected_time":1100000000000,"state":"active","ping":54},{"user_id":429,"name":"Klyskada","steam_id":76561198116915892,"connected_time":1500000000000,"state":"active","ping":88},{"user_id":433,"name":"crookedspinalcord","steam_id":76561198833269144,"connected_time":1330000000000,"state":"active","ping":84},{"user_id":399,"name":"skullface","steam_id":76561198353704776,"connected_time":5053000000000,"state":"active","ping":44},{"user_id":428,"name":"Pitch is a Stick","steam_id":76561198800287853,"connected_time":1508000000000,"state":"active","ping":113},{"user_id":417,"name":"Evil little man","steam_id":76561198311053471,"connected_time":3975000000000,"state":"active","ping":59},{"user_id":426,"name":"millerbv14","steam_id":76561198453908595,"connected_time":2194000000000,"state":"active","ping":73},{"user_id":381,"name":"the master of cats","steam_id":76561198819255576,"connected_time":6162000000000,"state":"active","ping":81},{"user_id":384,"name":"Literally loot lake from fortni","steam_id":76561198070214668,"connected_time":6026000000000,"state":"active","ping":70},{"user_id":401,"name":"sueZ","steam_id":76561198034642980,"connected_time":5003000000000,"state":"active","ping":65},{"user_id":421,"name":"Zero","steam_id":76561198033384990,"connected_time":2582000000000,"state":"active","ping":77},{"user_id":422,"name":"The Grim Heaper","steam_id":76561197987759101,"connected_time":2569000000000,"state":"active","ping":115},{"user_id":364,"name":"penzfan","steam_id":76561198230422640,"connected_time":7940000000000,"state":"active","ping":71},{"user_id":416,"name":"youhatemedontyou","steam_id":76561198277979851,"connected_time":4133000000000,"state":"active","ping":85},{"user_id":435,"name":"KevilPo","steam_id":76561199244507267,"connected_time":1046000000000,"state":"active","ping":91},{"user_id":439,"name":"Zymiren","steam_id":76561198054985471,"connected_time":295000000000,"state":"active","ping":104}]},{"server_id":108,"name":"Uncletopia | Dallas | 2 | All Maps","name_short":"dal-2","host":"dal-1.us.uncletopia.com","port":27025,"enabled":true,"region":"us-central","cc":"us","latitude":32.779167,"longitude":-96.80889,"reserved":0,"last_update":"0001-01-01T00:00:00Z","name_a2s":"Uncletopia | Dallas | 2 | All Maps","protocol":17,"map":"pl_badwater","folder":"tf","game":"Team Fortress","app_id":440,"player_count":24,"max_players":24,"Bots":0,"server_type":"Dedicated","server_os":"Linux","password":true,"vac":true,"version":"7961495","steam_id":85568392924469988,"keywords":["nocrits","nodmgspread","payload","uncletopia"],"game_id":440,"stv_port":27026,"stv_name":"Uncletopia | Dallas | 2 | All Maps | STV","players":[{"user_id":450,"name":"incredirocks","steam_id":76561198061079993,"connected_time":124000000000,"state":"active","ping":70},{"user_id":436,"name":"Azteck","steam_id":76561198073841466,"connected_time":520000000000,"state":"active","ping":58},{"user_id":435,"name":"Chi of the Na's","steam_id":76561198238859416,"connected_time":544000000000,"state":"active","ping":99},{"user_id":409,"name":"SilverLife25","steam_id":76561198392015722,"connected_time":3053000000000,"state":"active","ping":53},{"user_id":424,"name":"Ravi","steam_id":76561198219962700,"connected_time":2190000000000,"state":"active","ping":110},{"user_id":448,"name":"Faraday","steam_id":76561198089928357,"connected_time":166000000000,"state":"active","ping":52},{"user_id":415,"name":"S4MMY","steam_id":76561197961084910,"connected_time":2478000000000,"state":"active","ping":93},{"user_id":416,"name":"Chester","steam_id":76561198118655457,"connected_time":2460000000000,"state":"active","ping":97},{"user_id":444,"name":"Cyndaquil Fan","steam_id":76561198799205521,"connected_time":269000000000,"state":"active","ping":81},{"user_id":438,"name":"Kaiyote","steam_id":76561198153443910,"connected_time":455000000000,"state":"active","ping":93},{"user_id":433,"name":"Sup m8","steam_id":76561198081659121,"connected_time":1101000000000,"state":"active","ping":39},{"user_id":440,"name":"bad","steam_id":76561198090531755,"connected_time":442000000000,"state":"active","ping":46},{"user_id":404,"name":"Cereal","steam_id":76561198128418112,"connected_time":3815000000000,"state":"active","ping":86},{"user_id":434,"name":"LONGSHOT","steam_id":76561198953132173,"connected_time":761000000000,"state":"active","ping":100},{"user_id":429,"name":"mik","steam_id":76561198268948176,"connected_time":2077000000000,"state":"active","ping":120},{"user_id":395,"name":"AzuriousAlex","steam_id":76561198158026405,"connected_time":5041000000000,"state":"active","ping":70},{"user_id":377,"name":"EvilPigglet","steam_id":76561197987243470,"connected_time":6973000000000,"state":"active","ping":77},{"user_id":393,"name":"sora","steam_id":76561198094256973,"connected_time":5217000000000,"state":"active","ping":88},{"user_id":446,"name":"moe","steam_id":76561198929586245,"connected_time":202000000000,"state":"active","ping":71},{"user_id":419,"name":"Kamikazi","steam_id":76561198070240503,"connected_time":2389000000000,"state":"active","ping":84},{"user_id":386,"name":"A Parliament of Owls","steam_id":76561197996200417,"connected_time":5905000000000,"state":"active","ping":88},{"user_id":447,"name":"Female Gamer","steam_id":76561199366482682,"connected_time":177000000000,"state":"active","ping":115},{"user_id":449,"name":"snake7","steam_id":76561198369207260,"connected_time":161000000000,"state":"active","ping":104},{"user_id":443,"name":"cheetaz","steam_id":76561198224614084,"connected_time":320000000000,"state":"active","ping":75}]},{"server_id":404,"name":"Uncletopia | Dallas | 3 | All Maps","name_short":"dal-3","host":"dal-1.us.uncletopia.com","port":27035,"enabled":true,"region":"us-central","cc":"us","latitude":32.779167,"longitude":-96.80889,"reserved":0,"last_update":"0001-01-01T00:00:00Z","name_a2s":"Uncletopia | Dallas | 3 | All Maps","protocol":17,"map":"pl_frontier_final","folder":"tf","game":"Team Fortress","app_id":440,"player_count":8,"max_players":24,"Bots":0,"server_type":"Dedicated","server_os":"Linux","password":true,"vac":true,"version":"7961495","steam_id":85568392924515219,"keywords":["nocrits","nodmgspread","payload","uncletopia"],"game_id":440,"stv_port":27036,"stv_name":"Uncletopia | Dallas | 3 | All Maps | STV","players":[{"user_id":377,"name":"smoke crack","steam_id":76561199494303414,"connected_time":816000000000,"state":"active","ping":80},{"user_id":378,"name":"MENDEZ2123","steam_id":76561199116369987,"connected_time":480000000000,"state":"active","ping":117},{"user_id":385,"name":"Oh my god Mr White","steam_id":76561199070130846,"connected_time":53000000000,"state":"active","ping":60},{"user_id":386,"name":"Alex Narex","steam_id":76561198814364412,"connected_time":51000000000,"state":"active","ping":75},{"user_id":371,"name":"Antonpirulero10","steam_id":76561198253036781,"connected_time":1601000000000,"state":"active","ping":104},{"user_id":373,"name":"Brendan_Lalo","steam_id":76561198804979242,"connected_time":1559000000000,"state":"active","ping":100},{"user_id":380,"name":"Kylek1133","steam_id":76561198277595899,"connected_time":286000000000,"state":"active","ping":84},{"user_id":349,"name":"wcclark","steam_id":76561198001607116,"connected_time":3338000000000,"state":"active","ping":94}]},{"server_id":405,"name":"Uncletopia | Dallas | 4 | Community","name_short":"dal-4","host":"dal-1.us.uncletopia.com","port":27045,"enabled":true,"region":"us-central","cc":"us","latitude":32.779167,"longitude":-96.80889,"reserved":0,"last_update":"0001-01-01T00:00:00Z","name_a2s":"Uncletopia | Dallas | 4 | Community","protocol":17,"map":"workshop/pl_divulgence_b4b.ugc2884808746","folder":"tf","game":"Team Fortress","app_id":440,"player_count":0,"max_players":24,"Bots":0,"server_type":"Dedicated","server_os":"Linux","password":true,"vac":true,"version":"7961495","steam_id":85568392924515220,"keywords":["nocrits","nodmgspread","payload","uncletopia"],"game_id":440,"stv_port":27046,"stv_name":"Uncletopia | Dallas | 4 | Community | STV","players":null},{"server_id":5,"name":"Uncletopia | Frankfurt | 1 | All Maps","name_short":"frk-1","host":"frk-1.de.uncletopia.com","port":27015,"enabled":true,"region":"eu","cc":"de","latitude":50.110924,"longitude":8.682127,"reserved":0,"last_update":"0001-01-01T00:00:00Z","name_a2s":"Uncletopia | Frankfurt | 1 | All Maps","protocol":17,"map":"pl_upward","folder":"tf","game":"Team Fortress","app_id":440,"player_count":0,"max_players":24,"Bots":0,"server_type":"Dedicated","server_os":"Linux","password":true,"vac":true,"version":"7961495","steam_id":85568392924469989,"keywords":["nocrits","nodmgspread","payload","uncletopia"],"game_id":440,"stv_port":27016,"stv_name":"Uncletopia | Frankfurt | 1 | All Maps | STV","players":null},{"server_id":110,"name":"Uncletopia | Frankfurt | 2 | All Maps","name_short":"frk-2","host":"frk-1.de.uncletopia.com","port":27025,"enabled":true,"region":"eu","cc":"de","latitude":50.110924,"longitude":8.682127,"reserved":0,"last_update":"0001-01-01T00:00:00Z","name_a2s":"Uncletopia | Frankfurt | 2 | All Maps","protocol":17,"map":"pl_frontier_final","folder":"tf","game":"Team Fortress","app_id":440,"player_count":0,"max_players":24,"Bots":0,"server_type":"Dedicated","server_os":"Linux","password":true,"vac":true,"version":"7961495","steam_id":85568392924469990,"keywords":["nocrits","nodmgspread","payload","uncletopia"],"game_id":440,"stv_port":27026,"stv_name":"Uncletopia | Frankfurt | 2 | All Maps | STV","players":null},{"server_id":308,"name":"Uncletopia | Frankfurt | 3 | All Maps","name_short":"frk-3","host":"frk-1.de.uncletopia.com","port":27035,"enabled":true,"region":"eu","cc":"de","latitude":50.110924,"longitude":8.682127,"reserved":0,"last_update":"0001-01-01T00:00:00Z","name_a2s":"Uncletopia | Frankfurt | 3 | All Maps","protocol":17,"map":"koth_viaduct","folder":"tf","game":"Team Fortress","app_id":440,"player_count":0,"max_players":24,"Bots":0,"server_type":"Dedicated","server_os":"Linux","password":true,"vac":true,"version":"7961495","steam_id":85568392924504274,"keywords":["cp","nocrits","nodmgspread","uncletopia"],"game_id":440,"stv_port":27036,"stv_name":"Uncletopia | Frankfurt | 3 | All Maps | STV","players":null},{"server_id":309,"name":"Uncletopia | Frankfurt | 4 | All Maps","name_short":"frk-4","host":"frk-1.de.uncletopia.com","port":27045,"enabled":true,"region":"eu","cc":"de","latitude":50.110924,"longitude":8.682127,"reserved":0,"last_update":"0001-01-01T00:00:00Z","name_a2s":"Uncletopia | Frankfurt | 4 | All Maps","protocol":17,"map":"pl_frontier_final","folder":"tf","game":"Team Fortress","app_id":440,"player_count":0,"max_players":24,"Bots":0,"server_type":"Dedicated","server_os":"Linux","password":true,"vac":true,"version":"7961495","steam_id":85568392924504275,"keywords":["nocrits","nodmgspread","payload","uncletopia"],"game_id":440,"stv_port":27046,"stv_name":"Uncletopia | Frankfurt | 4 | All Maps | STV","players":null},{"server_id":310,"name":"Uncletopia | Frankfurt | 5 | All Maps","name_short":"frk-5","host":"frk-1.de.uncletopia.com","port":27055,"enabled":true,"region":"eu","cc":"de","latitude":50.110924,"longitude":8.682127,"reserved":0,"last_update":"0001-01-01T00:00:00Z","name_a2s":"Uncletopia | Frankfurt | 5 | All Maps","protocol":17,"map":"pl_swiftwater_final1","folder":"tf","game":"Team Fortress","app_id":440,"player_count":0,"max_players":24,"Bots":0,"server_type":"Dedicated","server_os":"Linux","password":true,"vac":true,"version":"7961495","steam_id":85568392924504277,"keywords":["nocrits","nodmgspread","payload","uncletopia"],"game_id":440,"stv_port":27056,"stv_name":"Uncletopia | Frankfurt | 5 | All Maps | STV","players":null},{"server_id":311,"name":"Uncletopia | Frankfurt | 6 | All Maps","name_short":"frk-6","host":"frk-1.de.uncletopia.com","port":27065,"enabled":true,"region":"eu","cc":"de","latitude":50.110924,"longitude":8.682127,"reserved":0,"last_update":"0001-01-01T00:00:00Z","name_a2s":"Uncletopia | Frankfurt | 6 | All Maps","protocol":17,"map":"pl_badwater","folder":"tf","game":"Team Fortress","app_id":440,"player_count":0,"max_players":24,"Bots":0,"server_type":"Dedicated","server_os":"Linux","password":true,"vac":true,"version":"7961495","steam_id":85568392924504278,"keywords":["nocrits","nodmgspread","payload","uncletopia"],"game_id":440,"stv_port":27066,"stv_name":"Uncletopia | Frankfurt | 6 | All Maps | STV","players":null},{"server_id":23,"name":"Uncletopia | Frankfurt | 7 | Stopwatch Beta","name_short":"frk-7","host":"frk-1.de.uncletopia.com","port":27075,"enabled":true,"region":"eu","cc":"de","latitude":50.110924,"longitude":8.682127,"reserved":0,"last_update":"0001-01-01T00:00:00Z","name_a2s":"Uncletopia | Frankfurt | 7 | Stopwatch Beta","protocol":17,"map":"pl_frontier_final","folder":"tf","game":"Team Fortress","app_id":440,"player_count":0,"max_players":24,"Bots":0,"server_type":"Dedicated","server_os":"Linux","password":true,"vac":true,"version":"7961495","steam_id":85568392924742827,"keywords":["nocrits","nodmgspread","payload","uncletopia"],"game_id":440,"stv_port":27076,"stv_name":"Uncletopia | Frankfurt | 7 | Stopwatch Beta | STV","players":null},{"server_id":24,"name":"Uncletopia | Frankfurt | 8 | Community","name_short":"frk-8","host":"frk-1.de.uncletopia.com","port":27085,"enabled":true,"region":"eu","cc":"de","latitude":50.110924,"longitude":8.682127,"reserved":0,"last_update":"0001-01-01T00:00:00Z","name_a2s":"Uncletopia | Frankfurt | 8 | Community","protocol":17,"map":"workshop/pl_corrode_rc2.ugc546577989","folder":"tf","game":"Team Fortress","app_id":440,"player_count":0,"max_players":24,"Bots":0,"server_type":"Dedicated","server_os":"Linux","password":true,"vac":true,"version":"7961495","steam_id":85568392924742828,"keywords":["nocrits","nodmgspread","payload","uncletopia"],"game_id":440,"stv_port":27086,"stv_name":"Uncletopia | Frankfurt | 8 | Community | STV","players":null},{"server_id":202,"name":"Uncletopia | Hong Kong | 1 | All Maps","name_short":"hgk-1","host":"hgk-1.hk.uncletopia.com","port":27015,"enabled":true,"region":"asia","cc":"hk","latitude":22.302711,"longitude":114.177216,"reserved":0,"last_update":"0001-01-01T00:00:00Z","name_a2s":"Uncletopia | Hong Kong | 1 | All Maps","protocol":17,"map":"pl_swiftwater_final1","folder":"tf","game":"Team Fortress","app_id":440,"player_count":24,"max_players":24,"Bots":0,"server_type":"Dedicated","server_os":"Linux","password":true,"vac":true,"version":"7961495","steam_id":85568392924494504,"keywords":["nocrits","nodmgspread","payload","uncletopia"],"game_id":440,"stv_port":27016,"stv_name":"Uncletopia | Hong Kong | 1 | All Maps | STV","players":[{"user_id":101,"name":"rear left puncture","steam_id":76561198811532659,"connected_time":3983000000000,"state":"active","ping":89},{"user_id":158,"name":"e-girls stay away","steam_id":76561198051010163,"connected_time":13000000000,"state":"active","ping":85},{"user_id":139,"name":"nyakky","steam_id":76561198927779787,"connected_time":1997000000000,"state":"active","ping":91},{"user_id":146,"name":"CaptainBozo","steam_id":76561199151959977,"connected_time":1518000000000,"state":"active","ping":56},{"user_id":123,"name":"ccubes","steam_id":76561198070956426,"connected_time":3090000000000,"state":"active","ping":138},{"user_id":67,"name":"im_0ff","steam_id":76561198339346695,"connected_time":7920000000000,"state":"active","ping":123},{"user_id":150,"name":"Green","steam_id":76561198391718463,"connected_time":553000000000,"state":"active","ping":60},{"user_id":113,"name":"my friend is watching pvz porn","steam_id":76561199146847474,"connected_time":3413000000000,"state":"active","ping":49},{"user_id":154,"name":"Telekhine","steam_id":76561198387120618,"connected_time":372000000000,"state":"active","ping":59},{"user_id":94,"name":"Goloath","steam_id":76561198930004978,"connected_time":4234000000000,"state":"active","ping":45},{"user_id":102,"name":"PootMann","steam_id":76561198123376937,"connected_time":3957000000000,"state":"active","ping":87},{"user_id":156,"name":"F2ProGamer (F2P)","steam_id":76561199020713591,"connected_time":294000000000,"state":"active","ping":52},{"user_id":132,"name":"blobeye","steam_id":76561198420018387,"connected_time":2412000000000,"state":"active","ping":33},{"user_id":138,"name":"A Gap Hag","steam_id":76561198409766998,"connected_time":2053000000000,"state":"active","ping":71},{"user_id":144,"name":"熱Cocoa奶","steam_id":76561198972098557,"connected_time":1666000000000,"state":"active","ping":55},{"user_id":157,"name":"ComCy","steam_id":76561199068561251,"connected_time":262000000000,"state":"active","ping":170},{"user_id":125,"name":"Taylor, The Manufacturer","steam_id":76561198074339034,"connected_time":3018000000000,"state":"active","ping":78},{"user_id":130,"name":"Soldier The Bread Teleporter","steam_id":76561199034546642,"connected_time":2418000000000,"state":"active","ping":105},{"user_id":137,"name":"Act_Popcorn","steam_id":76561198391663438,"connected_time":2088000000000,"state":"active","ping":57},{"user_id":116,"name":"549257292","steam_id":76561198349949683,"connected_time":3346000000000,"state":"active","ping":45},{"user_id":149,"name":"E","steam_id":76561199173781370,"connected_time":608000000000,"state":"active","ping":129},{"user_id":134,"name":"protons","steam_id":76561198008307645,"connected_time":2403000000000,"state":"active","ping":140},{"user_id":120,"name":"Beef Wellington","steam_id":76561197995635241,"connected_time":3273000000000,"state":"active","ping":119},{"user_id":145,"name":"Massive my Rack, Aching my Back","steam_id":76561199137927625,"connected_time":1625000000000,"state":"active","ping":138}]},{"server_id":1,"name":"Uncletopia | Los Angeles | 1 | All Maps","name_short":"lax-1","host":"lax-1.us.uncletopia.com","port":27015,"enabled":true,"region":"us-west","cc":"us","latitude":33.94279,"longitude":-118.41004,"reserved":0,"last_update":"0001-01-01T00:00:00Z","name_a2s":"Uncletopia | Los Angeles | 1 | All Maps","protocol":17,"map":"cp_process_final","folder":"tf","game":"Team Fortress","app_id":440,"player_count":19,"max_players":24,"Bots":0,"server_type":"Dedicated","server_os":"Linux","password":true,"vac":true,"version":"7961495","steam_id":85568392924469991,"keywords":["cp","nocrits","nodmgspread","uncletopia"],"game_id":440,"stv_port":27016,"stv_name":"Uncletopia | Los Angeles | 1 | All Maps | STV","players":[{"user_id":428,"name":"Greasy Whore","steam_id":76561198201199643,"connected_time":5000000000,"state":"spawning","ping":243},{"user_id":425,"name":"LtK","steam_id":76561197993180943,"connected_time":141000000000,"state":"active","ping":69},{"user_id":422,"name":"Bodhisattva","steam_id":76561198085228896,"connected_time":424000000000,"state":"active","ping":45},{"user_id":427,"name":"De MonkE","steam_id":76561198140626221,"connected_time":51000000000,"state":"active","ping":60},{"user_id":406,"name":"Fractured_Mango","steam_id":76561199013113268,"connected_time":1702000000000,"state":"active","ping":70},{"user_id":371,"name":"VELOURIA","steam_id":76561198116550170,"connected_time":4082000000000,"state":"active","ping":51},{"user_id":415,"name":"Hakurei Reimu","steam_id":76561198045388290,"connected_time":629000000000,"state":"active","ping":51},{"user_id":414,"name":"FrostNova","steam_id":76561198348354629,"connected_time":1012000000000,"state":"active","ping":44},{"user_id":407,"name":"zanefoxgames","steam_id":76561198801872568,"connected_time":1701000000000,"state":"active","ping":70},{"user_id":429,"name":"dopadream","steam_id":76561198068383694,"connected_time":0,"state":"spawning","ping":18},{"user_id":419,"name":"yellow ᗜˬᗜ","steam_id":76561198366474647,"connected_time":513000000000,"state":"active","ping":40},{"user_id":424,"name":"Joey Diaz","steam_id":76561198114230694,"connected_time":358000000000,"state":"active","ping":59},{"user_id":333,"name":"shitass (Reaping and Sowing)","steam_id":76561198210572481,"connected_time":7159000000000,"state":"active","ping":45},{"user_id":400,"name":"Benji","steam_id":76561198158187293,"connected_time":2731000000000,"state":"active","ping":175},{"user_id":379,"name":"werolat","steam_id":76561197960544784,"connected_time":3727000000000,"state":"active","ping":47},{"user_id":417,"name":"Culprit Shy","steam_id":76561198206506481,"connected_time":616000000000,"state":"active","ping":58},{"user_id":390,"name":"[ØWQJØ]chubacaalatake","steam_id":76561198136201697,"connected_time":3226000000000,"state":"active","ping":91},{"user_id":381,"name":"xbox record that","steam_id":76561198150117455,"connected_time":3660000000000,"state":"active","ping":45},{"user_id":411,"name":"Pez","steam_id":76561199197778137,"connected_time":1190000000000,"state":"active","ping":69}]},{"server_id":112,"name":"Uncletopia | Los Angeles | 2 | All Maps","name_short":"lax-2","host":"lax-1.us.uncletopia.com","port":27025,"enabled":true,"region":"us-west","cc":"us","latitude":33.94279,"longitude":-118.41004,"reserved":0,"last_update":"0001-01-01T00:00:00Z","name_a2s":"Uncletopia | Los Angeles | 2 | All Maps","protocol":17,"map":"koth_highpass","folder":"tf","game":"Team Fortress","app_id":440,"player_count":0,"max_players":24,"Bots":0,"server_type":"Dedicated","server_os":"Linux","password":true,"vac":true,"version":"7961495","steam_id":85568392924469992,"keywords":["cp","nocrits","nodmgspread","uncletopia"],"game_id":440,"stv_port":27026,"stv_name":"Uncletopia | Los Angeles | 2 | All Maps | STV","players":null},{"server_id":324,"name":"Uncletopia | Los Angeles | 3 | All Maps","name_short":"lax-3","host":"lax-1.us.uncletopia.com","port":27035,"enabled":true,"region":"us-west","cc":"us","latitude":33.94279,"longitude":-118.41004,"reserved":0,"last_update":"0001-01-01T00:00:00Z","name_a2s":"Uncletopia | Los Angeles | 3 | All Maps","protocol":17,"map":"koth_viaduct","folder":"tf","game":"Team Fortress","app_id":440,"player_count":0,"max_players":24,"Bots":0,"server_type":"Dedicated","server_os":"Linux","password":true,"vac":true,"version":"7961495","steam_id":85568392924510198,"keywords":["cp","nocrits","nodmgspread","uncletopia"],"game_id":440,"stv_port":27036,"stv_name":"Uncletopia | Los Angeles | 3 | All Maps | STV","players":null},{"server_id":25,"name":"Uncletopia | Los Angeles | 4 | Stopwatch","name_short":"lax-4","host":"lax-1.us.uncletopia.com","port":27045,"enabled":true,"region":"us-west","cc":"us","latitude":33.94279,"longitude":-118.41004,"reserved":0,"last_update":"0001-01-01T00:00:00Z","name_a2s":"Uncletopia | Los Angeles | 4 | Stopwatch","protocol":17,"map":"workshop/pl_barnblitz_pro7.ugc582280235","folder":"tf","game":"Team Fortress","app_id":440,"player_count":0,"max_players":24,"Bots":0,"server_type":"Dedicated","server_os":"Linux","password":true,"vac":true,"version":"7961495","steam_id":85568392924510199,"keywords":["nocrits","nodmgspread","payload","uncletopia"],"game_id":440,"stv_port":27046,"stv_name":"Uncletopia | Los Angeles | 4 | Stopwatch | STV","players":null},{"server_id":11,"name":"Uncletopia | London | 1 | All Maps","name_short":"lon-1","host":"lon-1.uk.uncletopia.com","port":27015,"enabled":true,"region":"eu","cc":"gb","latitude":51.509865,"longitude":-0.118092,"reserved":0,"last_update":"0001-01-01T00:00:00Z","name_a2s":"Uncletopia | London | 1 | All Maps","protocol":17,"map":"pl_snowycoast","folder":"tf","game":"Team Fortress","app_id":440,"player_count":0,"max_players":24,"Bots":0,"server_type":"Dedicated","server_os":"Linux","password":true,"vac":true,"version":"7961495","steam_id":85568392924367362,"keywords":["nocrits","nodmgspread","payload","uncletopia"],"game_id":440,"stv_port":27016,"stv_name":"Uncletopia | London | 1 | All Maps | STV","players":null},{"server_id":114,"name":"Uncletopia | London | 2 | All Maps","name_short":"lon-2","host":"lon-1.uk.uncletopia.com","port":27025,"enabled":true,"region":"eu","cc":"gb","latitude":51.509865,"longitude":-0.118092,"reserved":0,"last_update":"0001-01-01T00:00:00Z","name_a2s":"Uncletopia | London | 2 | All Maps","protocol":17,"map":"pl_borneo","folder":"tf","game":"Team Fortress","app_id":440,"player_count":0,"max_players":24,"Bots":0,"server_type":"Dedicated","server_os":"Linux","password":true,"vac":true,"version":"7961495","steam_id":85568392924470941,"keywords":["nocrits","nodmgspread","payload","uncletopia"],"game_id":440,"stv_port":27026,"stv_name":"Uncletopia | London | 2 | All Maps | STV","players":null},{"server_id":320,"name":"Uncletopia | London | 3 | All Maps","name_short":"lon-3","host":"lon-1.uk.uncletopia.com","port":27035,"enabled":true,"region":"eu","cc":"gb","latitude":51.509865,"longitude":-0.118092,"reserved":0,"last_update":"0001-01-01T00:00:00Z","name_a2s":"Uncletopia | London | 3 | All Maps","protocol":17,"map":"cp_sunshine","folder":"tf","game":"Team Fortress","app_id":440,"player_count":0,"max_players":24,"Bots":0,"server_type":"Dedicated","server_os":"Linux","password":true,"vac":true,"version":"7961495","steam_id":85568392924510192,"keywords":["cp","nocrits","nodmgspread","uncletopia"],"game_id":440,"stv_port":27036,"stv_name":"Uncletopia | London | 3 | All Maps | STV","players":null},{"server_id":321,"name":"Uncletopia | London | 4 | All Maps","name_short":"lon-4","host":"lon-1.uk.uncletopia.com","port":27045,"enabled":true,"region":"eu","cc":"gb","latitude":51.509865,"longitude":-0.118092,"reserved":0,"last_update":"0001-01-01T00:00:00Z","name_a2s":"Uncletopia | London | 4 | All Maps","protocol":17,"map":"ctf_sawmill","folder":"tf","game":"Team Fortress","app_id":440,"player_count":24,"max_players":24,"Bots":0,"server_type":"Dedicated","server_os":"Linux","password":true,"vac":true,"version":"7961495","steam_id":85568392924510193,"keywords":["ctf","nocrits","nodmgspread","uncletopia"],"game_id":440,"stv_port":27046,"stv_name":"Uncletopia | London | 4 | All Maps | STV","players":[{"user_id":112,"name":"clunk","steam_id":76561198836460767,"connected_time":1122000000000,"state":"active","ping":64},{"user_id":125,"name":"Linguini","steam_id":76561198327750625,"connected_time":162000000000,"state":"active","ping":36},{"user_id":119,"name":"spxcy","steam_id":76561198080296853,"connected_time":180000000000,"state":"active","ping":90},{"user_id":111,"name":"Osmo","steam_id":76561199286764992,"connected_time":1282000000000,"state":"active","ping":87},{"user_id":110,"name":"DoomerDodie","steam_id":76561198177853490,"connected_time":1301000000000,"state":"active","ping":64},{"user_id":105,"name":"Polyzonial","steam_id":76561198072679667,"connected_time":1843000000000,"state":"active","ping":42},{"user_id":51,"name":"Uncle Terry","steam_id":76561198396415736,"connected_time":5844000000000,"state":"active","ping":53},{"user_id":126,"name":"Narvhalø","steam_id":76561198147495474,"connected_time":155000000000,"state":"active","ping":57},{"user_id":58,"name":"Sasha watches.","steam_id":76561198404802175,"connected_time":5265000000000,"state":"active","ping":166},{"user_id":101,"name":"Selmu (She/Her)","steam_id":76561198119496209,"connected_time":2051000000000,"state":"active","ping":40},{"user_id":60,"name":"eepy kitty :3","steam_id":76561198106313563,"connected_time":5258000000000,"state":"active","ping":148},{"user_id":128,"name":"Maks","steam_id":76561198315278876,"connected_time":11000000000,"state":"spawning","ping":72},{"user_id":88,"name":"yuno appreciator","steam_id":76561198083286511,"connected_time":2538000000000,"state":"active","ping":46},{"user_id":108,"name":"nemelex","steam_id":76561198958005865,"connected_time":1391000000000,"state":"active","ping":59},{"user_id":121,"name":"bigmazi","steam_id":76561198133276643,"connected_time":177000000000,"state":"active","ping":96},{"user_id":122,"name":"Ludde Flor","steam_id":76561198374707938,"connected_time":177000000000,"state":"active","ping":79},{"user_id":127,"name":"Rudoss","steam_id":76561198018415787,"connected_time":65000000000,"state":"active","ping":73},{"user_id":35,"name":"thog","steam_id":76561198219901556,"connected_time":6814000000000,"state":"active","ping":110},{"user_id":114,"name":"Rocket Queen's husbik","steam_id":76561198092995429,"connected_time":847000000000,"state":"active","ping":136},{"user_id":85,"name":"Toaster1337","steam_id":76561198103706881,"connected_time":3277000000000,"state":"active","ping":73},{"user_id":89,"name":"Lunar","steam_id":76561198154068949,"connected_time":2535000000000,"state":"active","ping":71},{"user_id":67,"name":"heallixa","steam_id":76561198167986712,"connected_time":4987000000000,"state":"active","ping":119},{"user_id":91,"name":"reke","steam_id":76561199149307190,"connected_time":2431000000000,"state":"active","ping":85},{"user_id":124,"name":"paraffinbrain","steam_id":76561198025177982,"connected_time":176000000000,"state":"active","ping":72}]},{"server_id":21,"name":"Uncletopia | London | 5 | All Maps","name_short":"lon-5","host":"lon-1.uk.uncletopia.com","port":27055,"enabled":true,"region":"eu","cc":"gb","latitude":51.509865,"longitude":-0.118092,"reserved":0,"last_update":"0001-01-01T00:00:00Z","name_a2s":"Uncletopia | London | 5 | All Maps","protocol":17,"map":"pl_upward","folder":"tf","game":"Team Fortress","app_id":440,"player_count":0,"max_players":24,"Bots":0,"server_type":"Dedicated","server_os":"Linux","password":true,"vac":true,"version":"7961495","steam_id":85568392924742829,"keywords":["nocrits","nodmgspread","payload","uncletopia"],"game_id":440,"stv_port":27056,"stv_name":"Uncletopia | London | 5 | All Maps | STV","players":null},{"server_id":22,"name":"Uncletopia | London | 6 | All Maps","name_short":"lon-6","host":"lon-1.uk.uncletopia.com","port":27065,"enabled":true,"region":"eu","cc":"gb","latitude":51.509865,"longitude":-0.118092,"reserved":0,"last_update":"0001-01-01T00:00:00Z","name_a2s":"Uncletopia | London | 6 | All Maps","protocol":17,"map":"koth_lakeside_final","folder":"tf","game":"Team Fortress","app_id":440,"player_count":0,"max_players":24,"Bots":0,"server_type":"Dedicated","server_os":"Linux","password":true,"vac":true,"version":"7961495","steam_id":85568392924742830,"keywords":["cp","nocrits","nodmgspread","uncletopia"],"game_id":440,"stv_port":27066,"stv_name":"Uncletopia | London | 6 | All Maps | STV","players":null},{"server_id":40,"name":"Uncletopia | London | 7 | No Payload","name_short":"lon-7","host":"lon-1.uk.uncletopia.com","port":27075,"enabled":true,"region":"eu","cc":"gb","latitude":51.509865,"longitude":-0.118092,"reserved":0,"last_update":"0001-01-01T00:00:00Z","name_a2s":"Uncletopia | London | 7 | No Payload","protocol":17,"map":"cp_altitude","folder":"tf","game":"Team Fortress","app_id":440,"player_count":0,"max_players":24,"Bots":0,"server_type":"Dedicated","server_os":"Linux","password":true,"vac":true,"version":"7961495","steam_id":85568392924964314,"keywords":["cp","nocrits","nodmgspread","uncletopia"],"game_id":440,"stv_port":27076,"stv_name":"Uncletopia | London | 7 | No Payload | STV","players":null},{"server_id":41,"name":"Uncletopia | London | 8 | Community","name_short":"lon-8","host":"lon-1.uk.uncletopia.com","port":27085,"enabled":true,"region":"eu","cc":"gb","latitude":51.509865,"longitude":-0.118092,"reserved":0,"last_update":"0001-01-01T00:00:00Z","name_a2s":"Uncletopia | London | 8 | Community","protocol":17,"map":"pl_borneo","folder":"tf","game":"Team Fortress","app_id":440,"player_count":0,"max_players":24,"Bots":0,"server_type":"Dedicated","server_os":"Linux","password":true,"vac":true,"version":"7961495","steam_id":85568392924964315,"keywords":["nocrits","nodmgspread","payload","uncletopia"],"game_id":440,"stv_port":27086,"stv_name":"Uncletopia | London | 8 | Community | STV","players":null},{"server_id":300,"name":"Uncletopia | Montréal | 1 | All Maps","name_short":"mtl-1","host":"mtl-1.ca.uncletopia.com","port":27015,"enabled":true,"region":"us-east","cc":"ca","latitude":45.50889,"longitude":-73.56167,"reserved":0,"last_update":"0001-01-01T00:00:00Z","name_a2s":"","protocol":0,"map":"","folder":"","game":"","app_id":0,"player_count":0,"max_players":0,"Bots":0,"server_type":"","server_os":"","password":false,"vac":false,"version":"","steam_id":0,"keywords":null,"game_id":0,"stv_port":0,"stv_name":"","players":null},{"server_id":301,"name":"Uncletopia | Montréal | 2 | All Maps","name_short":"mtl-2","host":"mtl-1.ca.uncletopia.com","port":27025,"enabled":true,"region":"us-east","cc":"ca","latitude":45.50889,"longitude":-73.56167,"reserved":0,"last_update":"0001-01-01T00:00:00Z","name_a2s":"","protocol":0,"map":"","folder":"","game":"","app_id":0,"player_count":0,"max_players":0,"Bots":0,"server_type":"","server_os":"","password":false,"vac":false,"version":"","steam_id":0,"keywords":null,"game_id":0,"stv_port":0,"stv_name":"","players":null},{"server_id":302,"name":"Uncletopia | Montréal | 3 | All Maps","name_short":"mtl-3","host":"mtl-1.ca.uncletopia.com","port":27035,"enabled":true,"region":"us-east","cc":"ca","latitude":45.50889,"longitude":-73.56167,"reserved":0,"last_update":"0001-01-01T00:00:00Z","name_a2s":"","protocol":0,"map":"","folder":"","game":"","app_id":0,"player_count":0,"max_players":0,"Bots":0,"server_type":"","server_os":"","password":false,"vac":false,"version":"","steam_id":0,"keywords":null,"game_id":0,"stv_port":0,"stv_name":"","players":null},{"server_id":303,"name":"Uncletopia | Montréal | 4 | No Payload","name_short":"mtl-4","host":"mtl-1.ca.uncletopia.com","port":27045,"enabled":true,"region":"us-east","cc":"ca","latitude":45.50889,"longitude":-73.56167,"reserved":0,"last_update":"0001-01-01T00:00:00Z","name_a2s":"","protocol":0,"map":"","folder":"","game":"","app_id":0,"player_count":0,"max_players":0,"Bots":0,"server_type":"","server_os":"","password":false,"vac":false,"version":"","steam_id":0,"keywords":null,"game_id":0,"stv_port":0,"stv_name":"","players":null},{"server_id":13,"name":"Uncletopia | New York City | 1 | All Maps","name_short":"nyc-1","host":"nyc-1.us.uncletopia.com","port":27015,"enabled":true,"region":"us-east","cc":"us","latitude":40.73061,"longitude":-73.93524,"reserved":0,"last_update":"0001-01-01T00:00:00Z","name_a2s":"Uncletopia | New York City | 1 | All Maps","protocol":17,"map":"koth_cascade","folder":"tf","game":"Team Fortress","app_id":440,"player_count":0,"max_players":24,"Bots":0,"server_type":"Dedicated","server_os":"Linux","password":true,"vac":true,"version":"7961495","steam_id":85568392924469993,"keywords":["cp","nocrits","nodmgspread","uncletopia"],"game_id":440,"stv_port":27016,"stv_name":"Uncletopia | New York City | 1 | All Maps | STV","players":null},{"server_id":14,"name":"Uncletopia | New York City | 2 | All Maps","name_short":"nyc-2","host":"nyc-1.us.uncletopia.com","port":27025,"enabled":true,"region":"us-east","cc":"us","latitude":40.73061,"longitude":-73.93524,"reserved":0,"last_update":"0001-01-01T00:00:00Z","name_a2s":"Uncletopia | New York City | 2 | All Maps","protocol":17,"map":"pl_snowycoast","folder":"tf","game":"Team Fortress","app_id":440,"player_count":24,"max_players":24,"Bots":0,"server_type":"Dedicated","server_os":"Linux","password":true,"vac":true,"version":"7961495","steam_id":85568392924469994,"keywords":["nocrits","nodmgspread","payload","uncletopia"],"game_id":440,"stv_port":27026,"stv_name":"Uncletopia | New York City | 2 | All Maps | STV","players":[{"user_id":432,"name":"reel eel feel","steam_id":76561198079951246,"connected_time":1637000000000,"state":"active","ping":43},{"user_id":387,"name":"TheGingerOne","steam_id":76561198354203847,"connected_time":3667000000000,"state":"active","ping":81},{"user_id":443,"name":"Wind of Change","steam_id":76561198274462772,"connected_time":672000000000,"state":"active","ping":71},{"user_id":447,"name":"cajun thotsauce","steam_id":76561198101636066,"connected_time":580000000000,"state":"active","ping":117},{"user_id":411,"name":"Thunderous","steam_id":76561198192752793,"connected_time":2374000000000,"state":"active","ping":53},{"user_id":401,"name":"DaBaptist","steam_id":76561198316260548,"connected_time":2700000000000,"state":"active","ping":68},{"user_id":368,"name":"Feces","steam_id":76561198380219187,"connected_time":5114000000000,"state":"active","ping":71},{"user_id":423,"name":"ColdTooth","steam_id":76561197994963901,"connected_time":2016000000000,"state":"active","ping":62},{"user_id":406,"name":"werecat","steam_id":76561198005091213,"connected_time":2512000000000,"state":"active","ping":39},{"user_id":444,"name":"Purchase","steam_id":76561198821991700,"connected_time":641000000000,"state":"active","ping":82},{"user_id":431,"name":"CheesyPoofs","steam_id":76561197998650617,"connected_time":1669000000000,"state":"active","ping":122},{"user_id":378,"name":"HiddenEgg","steam_id":76561199045105518,"connected_time":4400000000000,"state":"active","ping":116},{"user_id":435,"name":"SoundKitKiller","steam_id":76561198053535873,"connected_time":1357000000000,"state":"active","ping":67},{"user_id":416,"name":"Octovaitor","steam_id":76561198004658451,"connected_time":2253000000000,"state":"active","ping":50},{"user_id":445,"name":"Rockinbacon","steam_id":76561198047159811,"connected_time":612000000000,"state":"active","ping":90},{"user_id":422,"name":"xXx_Eg0_d3aTh_419_xXx (ironic)","steam_id":76561198077551754,"connected_time":2063000000000,"state":"active","ping":72},{"user_id":418,"name":"Handsome Pete","steam_id":76561198003224229,"connected_time":2168000000000,"state":"active","ping":129},{"user_id":453,"name":"chev chelios","steam_id":76561198117914922,"connected_time":51000000000,"state":"active","ping":64},{"user_id":437,"name":"AnnieM","steam_id":76561199435467297,"connected_time":1290000000000,"state":"active","ping":97},{"user_id":446,"name":"GuyGoom","steam_id":76561198254522178,"connected_time":609000000000,"state":"active","ping":77},{"user_id":433,"name":"HalfDead","steam_id":76561198049700226,"connected_time":1506000000000,"state":"active","ping":71},{"user_id":452,"name":"Bleat","steam_id":76561198138678917,"connected_time":78000000000,"state":"active","ping":137},{"user_id":450,"name":"Antipixel","steam_id":76561198134214307,"connected_time":422000000000,"state":"active","ping":60},{"user_id":441,"name":"dillon/dylan","steam_id":76561198118054166,"connected_time":921000000000,"state":"active","ping":54}]},{"server_id":15,"name":"Uncletopia | New York City | 3 | Stopwatch Beta","name_short":"nyc-3","host":"nyc-1.us.uncletopia.com","port":27035,"enabled":true,"region":"us-east","cc":"us","latitude":40.73061,"longitude":-73.93524,"reserved":0,"last_update":"0001-01-01T00:00:00Z","name_a2s":"Uncletopia | New York City | 3 | Stopwatch Beta","protocol":17,"map":"workshop/pl_summercoast_rc8e.ugc1761528829","folder":"tf","game":"Team Fortress","app_id":440,"player_count":0,"max_players":24,"Bots":0,"server_type":"Dedicated","server_os":"Linux","password":true,"vac":true,"version":"7961495","steam_id":85568392924742820,"keywords":["nocrits","nodmgspread","payload","uncletopia"],"game_id":440,"stv_port":27036,"stv_name":"Uncletopia | New York City | 3 | Stopwatch Beta | STV","players":null},{"server_id":16,"name":"Uncletopia | New York City | 4 | Community","name_short":"nyc-4","host":"nyc-1.us.uncletopia.com","port":27045,"enabled":true,"region":"us-east","cc":"us","latitude":40.73061,"longitude":-73.93524,"reserved":0,"last_update":"0001-01-01T00:00:00Z","name_a2s":"Uncletopia | New York City | 4 | Community","protocol":17,"map":"workshop/cp_fulgur_rc2a.ugc2068252300","folder":"tf","game":"Team Fortress","app_id":440,"player_count":0,"max_players":24,"Bots":0,"server_type":"Dedicated","server_os":"Linux","password":true,"vac":true,"version":"7961495","steam_id":85568392924742821,"keywords":["cp","nocrits","nodmgspread","uncletopia"],"game_id":440,"stv_port":27046,"stv_name":"Uncletopia | New York City | 4 | Community | STV","players":null},{"server_id":142,"name":"Uncletopia | São Paulo | 1 | All Maps","name_short":"sao-1","host":"sao-1.br.uncletopia.com","port":27015,"enabled":true,"region":"sa","cc":"br","latitude":-23.533773,"longitude":-46.62529,"reserved":0,"last_update":"0001-01-01T00:00:00Z","name_a2s":"Uncletopia | São Paulo | 1 | All Maps","protocol":17,"map":"koth_highpass","folder":"tf","game":"Team Fortress","app_id":440,"player_count":0,"max_players":24,"Bots":0,"server_type":"Dedicated","server_os":"Linux","password":true,"vac":true,"version":"7961495","steam_id":85568392924469996,"keywords":["cp","nocrits","nodmgspread","uncletopia"],"game_id":440,"stv_port":27016,"stv_name":"Uncletopia | São Paulo | 1 | All Maps | STV","players":null},{"server_id":143,"name":"Uncletopia | São Paulo | 2 | Community","name_short":"sao-2","host":"sao-2.br.uncletopia.com","port":27015,"enabled":true,"region":"sa","cc":"br","latitude":-23.533773,"longitude":-46.62529,"reserved":0,"last_update":"0001-01-01T00:00:00Z","name_a2s":"Uncletopia | São Paulo | 2 | Community","protocol":17,"map":"workshop/cp_bruhstbowl_b6.ugc2878604990","folder":"tf","game":"Team Fortress","app_id":440,"player_count":0,"max_players":24,"Bots":0,"server_type":"Dedicated","server_os":"Linux","password":true,"vac":true,"version":"7961495","steam_id":85568392924485349,"keywords":["cp","nocrits","nodmgspread","uncletopia"],"game_id":440,"stv_port":27016,"stv_name":"Uncletopia | São Paulo | 2 | Community | STV","players":null},{"server_id":7,"name":"Uncletopia | Seattle | 1 | All Maps","name_short":"sea-1","host":"sea-1.us.uncletopia.com","port":27015,"enabled":true,"region":"us-west","cc":"us","latitude":47.608013,"longitude":-122.33517,"reserved":0,"last_update":"0001-01-01T00:00:00Z","name_a2s":"Uncletopia | Seattle | 1 | All Maps","protocol":17,"map":"koth_highpass","folder":"tf","game":"Team Fortress","app_id":440,"player_count":25,"max_players":24,"Bots":0,"server_type":"Dedicated","server_os":"Linux","password":true,"vac":true,"version":"7961495","steam_id":85568392924469997,"keywords":["cp","nocrits","nodmgspread","uncletopia"],"game_id":440,"stv_port":27016,"stv_name":"Uncletopia | Seattle | 1 | All Maps | STV","players":[{"user_id":350,"name":"MegumiTame","steam_id":76561198450280686,"connected_time":845000000000,"state":"active","ping":49},{"user_id":335,"name":"mub","steam_id":76561197961943948,"connected_time":3655000000000,"state":"active","ping":47},{"user_id":329,"name":"delight","steam_id":76561197980280272,"connected_time":3901000000000,"state":"active","ping":45},{"user_id":331,"name":"toes","steam_id":76561198221151676,"connected_time":3874000000000,"state":"active","ping":58},{"user_id":348,"name":"Scorpianswag","steam_id":76561198260651036,"connected_time":860000000000,"state":"active","ping":61},{"user_id":298,"name":"black mold farmer","steam_id":76561198169755734,"connected_time":8583000000000,"state":"active","ping":60},{"user_id":332,"name":"rat gets the cheese","steam_id":76561198031234032,"connected_time":3874000000000,"state":"active","ping":91},{"user_id":280,"name":"Sniff","steam_id":76561198010270922,"connected_time":10203000000000,"state":"active","ping":57},{"user_id":305,"name":"Ayayayayayahuasca","steam_id":76561199002906056,"connected_time":7083000000000,"state":"active","ping":34},{"user_id":270,"name":"NEBULA","steam_id":76561198086878595,"connected_time":12055000000000,"state":"active","ping":74},{"user_id":338,"name":"Fallen","steam_id":76561198206490352,"connected_time":2664000000000,"state":"active","ping":72},{"user_id":322,"name":"jayeskae","steam_id":76561198144220801,"connected_time":5021000000000,"state":"active","ping":49},{"user_id":317,"name":"cheeto dorito","steam_id":76561198107941274,"connected_time":5834000000000,"state":"active","ping":71},{"user_id":318,"name":"Attrition","steam_id":76561197969881916,"connected_time":5785000000000,"state":"active","ping":55},{"user_id":319,"name":"squash","steam_id":76561198150281353,"connected_time":5785000000000,"state":"active","ping":58},{"user_id":321,"name":"smeasly","steam_id":76561198028718812,"connected_time":5216000000000,"state":"active","ping":43},{"user_id":351,"name":"Finkly","steam_id":76561198049828110,"connected_time":829000000000,"state":"active","ping":45},{"user_id":327,"name":"jadeite","steam_id":76561198022298676,"connected_time":4985000000000,"state":"active","ping":34},{"user_id":340,"name":"pepe warlord","steam_id":76561198080819197,"connected_time":2283000000000,"state":"active","ping":93},{"user_id":352,"name":"thunderous prophet","steam_id":76561198131166135,"connected_time":747000000000,"state":"active","ping":43},{"user_id":309,"name":"Doctor™","steam_id":76561198134309750,"connected_time":6527000000000,"state":"active","ping":105},{"user_id":349,"name":"gorlab","steam_id":76561198025089694,"connected_time":855000000000,"state":"active","ping":66},{"user_id":347,"name":"fart thief","steam_id":76561198046073848,"connected_time":1250000000000,"state":"active","ping":50},{"user_id":354,"name":"squirtin' on xbox live","steam_id":76561199041179985,"connected_time":694000000000,"state":"active","ping":56},{"user_id":355,"name":"rorywashere /ᐠ - ˕ -マ Ⳋ","steam_id":76561198065825165,"connected_time":688000000000,"state":"active","ping":108}]},{"server_id":119,"name":"Uncletopia | Seattle | 2 | All Maps","name_short":"sea-2","host":"sea-1.us.uncletopia.com","port":27025,"enabled":true,"region":"us-west","cc":"us","latitude":47.608013,"longitude":-122.33517,"reserved":0,"last_update":"0001-01-01T00:00:00Z","name_a2s":"Uncletopia | Seattle | 2 | All Maps","protocol":17,"map":"pl_badwater","folder":"tf","game":"Team Fortress","app_id":440,"player_count":24,"max_players":24,"Bots":0,"server_type":"Dedicated","server_os":"Linux","password":true,"vac":true,"version":"7961495","steam_id":85568392924469998,"keywords":["nocrits","nodmgspread","payload","uncletopia"],"game_id":440,"stv_port":27026,"stv_name":"Uncletopia | Seattle | 2 | All Maps | STV","players":[{"user_id":419,"name":"Tripll-L","steam_id":76561197998077437,"connected_time":1250000000000,"state":"active","ping":59},{"user_id":375,"name":"Joh Bags","steam_id":76561198097004438,"connected_time":3503000000000,"state":"active","ping":75},{"user_id":377,"name":"Grapefruit Glizzy","steam_id":76561198065977764,"connected_time":3389000000000,"state":"active","ping":93},{"user_id":379,"name":"Donny Q","steam_id":76561198020901703,"connected_time":3211000000000,"state":"active","ping":51},{"user_id":384,"name":"Serene Salamander","steam_id":76561198001094770,"connected_time":2755000000000,"state":"active","ping":89},{"user_id":412,"name":"chocky","steam_id":76561198057491296,"connected_time":1589000000000,"state":"active","ping":48},{"user_id":383,"name":"Mr. Fart","steam_id":76561198097290717,"connected_time":2858000000000,"state":"active","ping":70},{"user_id":396,"name":"Mr. Carfox","steam_id":76561198041664428,"connected_time":2168000000000,"state":"active","ping":65},{"user_id":398,"name":"mmmBoyo","steam_id":76561198821360261,"connected_time":2127000000000,"state":"active","ping":53},{"user_id":429,"name":"Artic_Ryuu","steam_id":76561198182194918,"connected_time":567000000000,"state":"active","ping":74},{"user_id":403,"name":"intooblivion","steam_id":76561197964080250,"connected_time":1941000000000,"state":"active","ping":95},{"user_id":414,"name":"SS. Skeptical","steam_id":76561198038261789,"connected_time":1388000000000,"state":"active","ping":45},{"user_id":423,"name":"bye","steam_id":76561198066114874,"connected_time":821000000000,"state":"active","ping":59},{"user_id":425,"name":"TF2 gaming","steam_id":76561198411061839,"connected_time":740000000000,"state":"active","ping":46},{"user_id":389,"name":"HAT-WEARING™ Maggot Gamer Cat","steam_id":76561197973992705,"connected_time":2490000000000,"state":"active","ping":79},{"user_id":368,"name":"Puskinti","steam_id":76561198032120688,"connected_time":3939000000000,"state":"active","ping":63},{"user_id":431,"name":"Saggle","steam_id":76561198056075147,"connected_time":365000000000,"state":"active","ping":174},{"user_id":430,"name":"JohnnyGitGud","steam_id":76561198401455467,"connected_time":564000000000,"state":"active","ping":80},{"user_id":420,"name":"volta","steam_id":76561199214283884,"connected_time":1249000000000,"state":"active","ping":157},{"user_id":411,"name":"hardfork","steam_id":76561197960958019,"connected_time":1642000000000,"state":"active","ping":58},{"user_id":421,"name":"ABSOLUTE TERROR","steam_id":76561198018146136,"connected_time":1193000000000,"state":"active","ping":54},{"user_id":427,"name":"Sqilliam Afton","steam_id":76561198326052355,"connected_time":649000000000,"state":"active","ping":90},{"user_id":417,"name":"Grandpa-pyro","steam_id":76561198101719848,"connected_time":1285000000000,"state":"active","ping":49},{"user_id":432,"name":"Acheo","steam_id":76561198068228498,"connected_time":333000000000,"state":"active","ping":119}]},{"server_id":406,"name":"Uncletopia | Seattle | 3 | Stopwatch","name_short":"sea-3","host":"sea-1.us.uncletopia.com","port":27035,"enabled":true,"region":"us-west","cc":"us","latitude":47.608013,"longitude":-122.33517,"reserved":0,"last_update":"0001-01-01T00:00:00Z","name_a2s":"Uncletopia | Seattle | 3 | Stopwatch","protocol":17,"map":"workshop/koth_product_final.ugc454272353","folder":"tf","game":"Team Fortress","app_id":440,"player_count":0,"max_players":24,"Bots":0,"server_type":"Dedicated","server_os":"Linux","password":true,"vac":true,"version":"7961495","steam_id":85568392924515217,"keywords":["cp","nocrits","nodmgspread","uncletopia"],"game_id":440,"stv_port":27036,"stv_name":"Uncletopia | Seattle | 3 | Stopwatch | STV","players":null},{"server_id":17,"name":"Uncletopia | San Francisco | 1 | All Maps","name_short":"sfo-1","host":"sfo-1.us.uncletopia.com","port":27015,"enabled":true,"region":"us-west","cc":"us","latitude":37.77397,"longitude":-122.4313,"reserved":0,"last_update":"0001-01-01T00:00:00Z","name_a2s":"Uncletopia | San Francisco | 1 | All Maps","protocol":17,"map":"pl_frontier_final","folder":"tf","game":"Team Fortress","app_id":440,"player_count":24,"max_players":24,"Bots":0,"server_type":"Dedicated","server_os":"Linux","password":true,"vac":true,"version":"7961495","steam_id":85568392924469999,"keywords":["nocrits","nodmgspread","payload","uncletopia"],"game_id":440,"stv_port":27016,"stv_name":"Uncletopia | San Francisco | 1 | All Maps | STV","players":[{"user_id":437,"name":"platypuspolice957","steam_id":76561198121106691,"connected_time":3279000000000,"state":"active","ping":65},{"user_id":459,"name":"Your Dinosaurs","steam_id":76561198392670237,"connected_time":1423000000000,"state":"active","ping":45},{"user_id":453,"name":"Ghwhaine","steam_id":76561199045414702,"connected_time":2141000000000,"state":"active","ping":77},{"user_id":460,"name":"the one who knocks","steam_id":76561198373946121,"connected_time":1380000000000,"state":"active","ping":59},{"user_id":473,"name":"gerg","steam_id":76561197997127387,"connected_time":71000000000,"state":"active","ping":57},{"user_id":461,"name":"King Julien","steam_id":76561198960808065,"connected_time":1379000000000,"state":"active","ping":60},{"user_id":462,"name":"OzzyAkiro47","steam_id":76561199076449499,"connected_time":1264000000000,"state":"active","ping":56},{"user_id":474,"name":"||BassMan||","steam_id":76561198279865229,"connected_time":68000000000,"state":"active","ping":86},{"user_id":472,"name":"CelTiC","steam_id":76561198043216522,"connected_time":319000000000,"state":"active","ping":54},{"user_id":391,"name":"Toastedtoast222","steam_id":76561198120756409,"connected_time":6755000000000,"state":"active","ping":152},{"user_id":464,"name":"Xexat","steam_id":76561198041668498,"connected_time":1010000000000,"state":"active","ping":65},{"user_id":416,"name":"Daypire","steam_id":76561198088120472,"connected_time":5057000000000,"state":"active","ping":69},{"user_id":469,"name":"sqnguine","steam_id":76561199481839224,"connected_time":503000000000,"state":"active","ping":56},{"user_id":450,"name":"ScoutBox","steam_id":76561198111539895,"connected_time":2312000000000,"state":"active","ping":41},{"user_id":447,"name":"dewey","steam_id":76561198132791511,"connected_time":2631000000000,"state":"active","ping":62},{"user_id":419,"name":"Dusk","steam_id":76561198088681558,"connected_time":4902000000000,"state":"active","ping":59},{"user_id":465,"name":"HORSE KEGGO","steam_id":76561198055785246,"connected_time":981000000000,"state":"active","ping":59},{"user_id":456,"name":"ĐĪʀɘ","steam_id":76561199014715203,"connected_time":1837000000000,"state":"active","ping":59},{"user_id":470,"name":"Kazakami","steam_id":76561198074578849,"connected_time":399000000000,"state":"active","ping":52},{"user_id":476,"name":"Yurei","steam_id":76561198088750661,"connected_time":23000000000,"state":"spawning","ping":60},{"user_id":475,"name":"social distance warrior","steam_id":76561198128992994,"connected_time":61000000000,"state":"active","ping":61},{"user_id":430,"name":"CaiGaming","steam_id":76561198313023508,"connected_time":3942000000000,"state":"active","ping":58},{"user_id":477,"name":"011sra","steam_id":76561199489542125,"connected_time":21000000000,"state":"active","ping":75},{"user_id":468,"name":"second involate","steam_id":76561198041863231,"connected_time":695000000000,"state":"active","ping":71}]},{"server_id":18,"name":"Uncletopia | San Francisco | 2 | All Maps","name_short":"sfo-2","host":"sfo-1.us.uncletopia.com","port":27025,"enabled":true,"region":"us-west","cc":"us","latitude":37.77397,"longitude":-122.4313,"reserved":0,"last_update":"0001-01-01T00:00:00Z","name_a2s":"Uncletopia | San Francisco | 2 | All Maps","protocol":17,"map":"pl_swiftwater_final1","folder":"tf","game":"Team Fortress","app_id":440,"player_count":13,"max_players":24,"Bots":0,"server_type":"Dedicated","server_os":"Linux","password":true,"vac":true,"version":"7961495","steam_id":85568392924470000,"keywords":["nocrits","nodmgspread","payload","uncletopia"],"game_id":440,"stv_port":27026,"stv_name":"Uncletopia | San Francisco | 2 | All Maps | STV","players":[{"user_id":464,"name":"mollusk_obliteration","steam_id":76561198085388962,"connected_time":311000000000,"state":"active","ping":104},{"user_id":463,"name":"Patrick","steam_id":76561198102493305,"connected_time":585000000000,"state":"active","ping":115},{"user_id":465,"name":"B R O W N","steam_id":76561198047340813,"connected_time":299000000000,"state":"active","ping":93},{"user_id":468,"name":"resh","steam_id":76561198239598834,"connected_time":245000000000,"state":"active","ping":112},{"user_id":467,"name":"MR. BEEEEEEEEEEEEEAAAAAAAAAAST","steam_id":76561198205346760,"connected_time":297000000000,"state":"active","ping":90},{"user_id":469,"name":"1000 Ping","steam_id":76561198098330939,"connected_time":202000000000,"state":"active","ping":78},{"user_id":470,"name":"PulledPork","steam_id":76561198182077258,"connected_time":106000000000,"state":"active","ping":51},{"user_id":461,"name":"Midna","steam_id":76561198043132251,"connected_time":741000000000,"state":"active","ping":67},{"user_id":471,"name":"Vruk","steam_id":76561198116930332,"connected_time":87000000000,"state":"active","ping":74},{"user_id":472,"name":"TomosconesYT","steam_id":76561198813586588,"connected_time":41000000000,"state":"active","ping":55},{"user_id":473,"name":"Super_Sonic133","steam_id":76561198141384474,"connected_time":21000000000,"state":"active","ping":48},{"user_id":427,"name":"Villchip","steam_id":76561198198599982,"connected_time":4110000000000,"state":"active","ping":67},{"user_id":429,"name":"Nüþ","steam_id":76561198043956703,"connected_time":3974000000000,"state":"active","ping":53}]},{"server_id":19,"name":"Uncletopia | San Francisco | 3 | Stopwatch","name_short":"sfo-3","host":"sfo-1.us.uncletopia.com","port":27035,"enabled":true,"region":"us-west","cc":"us","latitude":37.77397,"longitude":-122.4313,"reserved":0,"last_update":"0001-01-01T00:00:00Z","name_a2s":"Uncletopia | San Francisco | 3 | Stopwatch","protocol":17,"map":"pl_borneo","folder":"tf","game":"Team Fortress","app_id":440,"player_count":0,"max_players":24,"Bots":0,"server_type":"Dedicated","server_os":"Linux","password":true,"vac":true,"version":"7961495","steam_id":85568392924742824,"keywords":["nocrits","nodmgspread","payload","uncletopia"],"game_id":440,"stv_port":27036,"stv_name":"Uncletopia | San Francisco | 3 | Stopwatch | STV","players":null},{"server_id":20,"name":"Uncletopia | San Francisco | 4 | Community","name_short":"sfo-4","host":"sfo-1.us.uncletopia.com","port":27045,"enabled":true,"region":"us-west","cc":"us","latitude":37.77397,"longitude":-122.4313,"reserved":0,"last_update":"0001-01-01T00:00:00Z","name_a2s":"Uncletopia | San Francisco | 4 | Community","protocol":17,"map":"cp_snakewater_final1","folder":"tf","game":"Team Fortress","app_id":440,"player_count":0,"max_players":24,"Bots":0,"server_type":"Dedicated","server_os":"Linux","password":true,"vac":true,"version":"7961495","steam_id":85568392924742826,"keywords":["cp","nocrits","nodmgspread","uncletopia"],"game_id":440,"stv_port":27046,"stv_name":"Uncletopia | San Francisco | 4 | Community | STV","players":null},{"server_id":141,"name":"Uncletopia | Sydney | 1 | All Maps","name_short":"syd-1","host":"syd-1.au.uncletopia.com","port":27015,"enabled":true,"region":"au","cc":"au","latitude":-33.865143,"longitude":151.2099,"reserved":0,"last_update":"0001-01-01T00:00:00Z","name_a2s":"Uncletopia | Sydney | 1 | All Maps","protocol":17,"map":"pl_badwater","folder":"tf","game":"Team Fortress","app_id":440,"player_count":23,"max_players":24,"Bots":0,"server_type":"Dedicated","server_os":"Linux","password":true,"vac":true,"version":"7961495","steam_id":85568392924470001,"keywords":["nocrits","nodmgspread","payload","uncletopia"],"game_id":440,"stv_port":27016,"stv_name":"Uncletopia | Sydney | 1 | All Maps | STV","players":[{"user_id":147,"name":"ZayClane","steam_id":76561199074276055,"connected_time":7298000000000,"state":"active","ping":53},{"user_id":221,"name":"bron","steam_id":76561198076187044,"connected_time":1101000000000,"state":"active","ping":54},{"user_id":224,"name":"wom","steam_id":76561199375834537,"connected_time":953000000000,"state":"active","ping":128},{"user_id":230,"name":"Oysenberry","steam_id":76561198125443335,"connected_time":705000000000,"state":"active","ping":45},{"user_id":236,"name":"self control? never heard of he","steam_id":76561198150293480,"connected_time":212000000000,"state":"active","ping":74},{"user_id":144,"name":"Teamfighting","steam_id":76561198160135508,"connected_time":7523000000000,"state":"active","ping":55},{"user_id":181,"name":"you wanna kiss me sooo bad","steam_id":76561198025225448,"connected_time":4172000000000,"state":"active","ping":76},{"user_id":232,"name":"Killing","steam_id":76561198107392931,"connected_time":508000000000,"state":"active","ping":62},{"user_id":156,"name":"Marzell","steam_id":76561198151276153,"connected_time":6375000000000,"state":"active","ping":94},{"user_id":204,"name":"Bill Nye","steam_id":76561198312898168,"connected_time":2404000000000,"state":"active","ping":55},{"user_id":237,"name":"zorgloopy glorfmorpus","steam_id":76561198063481761,"connected_time":211000000000,"state":"active","ping":38},{"user_id":240,"name":"dr. sne","steam_id":76561198022485319,"connected_time":20000000000,"state":"spawning","ping":47},{"user_id":214,"name":"draining him dry","steam_id":76561198132937542,"connected_time":1719000000000,"state":"active","ping":55},{"user_id":154,"name":"hive","steam_id":76561199099744527,"connected_time":6612000000000,"state":"active","ping":46},{"user_id":231,"name":"horrid webbon ᘛ⁐̤ᕐᐷ","steam_id":76561198061998379,"connected_time":612000000000,"state":"active","ping":50},{"user_id":229,"name":"Finger Bun Fun","steam_id":76561198118383219,"connected_time":808000000000,"state":"active","ping":55},{"user_id":216,"name":"Iron Man Armored Adventures","steam_id":76561198202555552,"connected_time":1637000000000,"state":"active","ping":44},{"user_id":220,"name":"Noid","steam_id":76561198045934965,"connected_time":1343000000000,"state":"active","ping":91},{"user_id":225,"name":"mickenpox","steam_id":76561198095840327,"connected_time":951000000000,"state":"active","ping":45},{"user_id":235,"name":"flayed corpse","steam_id":76561198048064049,"connected_time":361000000000,"state":"active","ping":93},{"user_id":234,"name":"viirv","steam_id":76561198190097862,"connected_time":463000000000,"state":"active","ping":69},{"user_id":212,"name":"no teles 4 u","steam_id":76561198018478297,"connected_time":1762000000000,"state":"active","ping":74},{"user_id":192,"name":"Foxivan","steam_id":76561198428775175,"connected_time":3321000000000,"state":"active","ping":66}]},{"server_id":123,"name":"Uncletopia | Sydney | 2 | All Maps","name_short":"syd-2","host":"syd-1.au.uncletopia.com","port":27025,"enabled":true,"region":"au","cc":"au","latitude":-33.865143,"longitude":151.2099,"reserved":0,"last_update":"0001-01-01T00:00:00Z","name_a2s":"Uncletopia | Sydney | 2 | All Maps","protocol":17,"map":"cp_metalworks","folder":"tf","game":"Team Fortress","app_id":440,"player_count":8,"max_players":24,"Bots":0,"server_type":"Dedicated","server_os":"Linux","password":true,"vac":true,"version":"7961495","steam_id":85568392924470002,"keywords":["cp","nocrits","nodmgspread","uncletopia"],"game_id":440,"stv_port":27026,"stv_name":"Uncletopia | Sydney | 2 | All Maps | STV","players":[{"user_id":58,"name":"Birb","steam_id":76561198032752815,"connected_time":428000000000,"state":"active","ping":66},{"user_id":51,"name":"sog","steam_id":76561199484831234,"connected_time":784000000000,"state":"active","ping":65},{"user_id":55,"name":"steame17","steam_id":76561199387872784,"connected_time":595000000000,"state":"active","ping":175},{"user_id":59,"name":"soup","steam_id":76561198094520079,"connected_time":79000000000,"state":"active","ping":83},{"user_id":57,"name":"Golfing with Joel","steam_id":76561199161637215,"connected_time":571000000000,"state":"active","ping":97},{"user_id":56,"name":"Munch","steam_id":76561198308105172,"connected_time":587000000000,"state":"active","ping":101},{"user_id":38,"name":"Chez","steam_id":76561198089925051,"connected_time":1756000000000,"state":"active","ping":93},{"user_id":47,"name":"Swimming Champion 1967","steam_id":76561198026225936,"connected_time":1412000000000,"state":"active","ping":98}]},{"server_id":395,"name":"Uncletopia | Sydney | 3 | All Maps","name_short":"syd-3","host":"syd-1.au.uncletopia.com","port":27035,"enabled":true,"region":"au","cc":"au","latitude":-33.865143,"longitude":151.2099,"reserved":0,"last_update":"0001-01-01T00:00:00Z","name_a2s":"Uncletopia | Sydney | 3 | All Maps","protocol":17,"map":"koth_lakeside_final","folder":"tf","game":"Team Fortress","app_id":440,"player_count":0,"max_players":24,"Bots":0,"server_type":"Dedicated","server_os":"Linux","password":true,"vac":true,"version":"7961495","steam_id":85568392925194467,"keywords":["cp","nocrits","nodmgspread","uncletopia"],"game_id":440,"stv_port":27036,"stv_name":"Uncletopia | Sydney | 3 | All Maps | STV","players":null},{"server_id":396,"name":"Uncletopia | Sydney | 4 | All Maps","name_short":"syd-4","host":"syd-1.au.uncletopia.com","port":27045,"enabled":true,"region":"au","cc":"au","latitude":-33.865143,"longitude":151.2099,"reserved":0,"last_update":"0001-01-01T00:00:00Z","name_a2s":"Uncletopia | Sydney | 4 | All Maps","protocol":17,"map":"koth_viaduct","folder":"tf","game":"Team Fortress","app_id":440,"player_count":0,"max_players":24,"Bots":0,"server_type":"Dedicated","server_os":"Linux","password":true,"vac":true,"version":"7961495","steam_id":85568392925397958,"keywords":["cp","nocrits","nodmgspread","uncletopia"],"game_id":440,"stv_port":27046,"stv_name":"Uncletopia | Sydney | 4 | All Maps | STV","players":null},{"server_id":58,"name":"Uncletopia | Sydney | 5 | Stopwatch Beta","name_short":"syd-5","host":"syd-1.au.uncletopia.com","port":27055,"enabled":true,"region":"au","cc":"au","latitude":-33.865143,"longitude":151.2099,"reserved":0,"last_update":"0001-01-01T00:00:00Z","name_a2s":"Uncletopia | Sydney | 5 | Stopwatch Beta","protocol":17,"map":"workshop/koth_ashville_final.ugc2130459942","folder":"tf","game":"Team Fortress","app_id":440,"player_count":0,"max_players":24,"Bots":0,"server_type":"Dedicated","server_os":"Linux","password":true,"vac":true,"version":"7961495","steam_id":85568392925397959,"keywords":["cp","nocrits","nodmgspread","uncletopia"],"game_id":440,"stv_port":27056,"stv_name":"Uncletopia | Sydney | 5 | Stopwatch Beta | STV","players":null},{"server_id":59,"name":"Uncletopia | Sydney | 6 | Community","name_short":"syd-6","host":"syd-1.au.uncletopia.com","port":27065,"enabled":true,"region":"au","cc":"au","latitude":-33.865143,"longitude":151.2099,"reserved":0,"last_update":"0001-01-01T00:00:00Z","name_a2s":"Uncletopia | Sydney | 6 | Community","protocol":17,"map":"workshop/cp_bruhstbowl_b6.ugc2878604990","folder":"tf","game":"Team Fortress","app_id":440,"player_count":0,"max_players":24,"Bots":0,"server_type":"Dedicated","server_os":"Linux","password":true,"vac":true,"version":"7961495","steam_id":85568392925397960,"keywords":["cp","nocrits","nodmgspread","uncletopia"],"game_id":440,"stv_port":27066,"stv_name":"Uncletopia | Sydney | 6 | Community | STV","players":null},{"server_id":49,"name":"Uncletopia | Warsaw | 1 | All Maps","name_short":"waw-1","host":"waw-1.pl.uncletopia.com","port":27015,"enabled":true,"region":"eu","cc":"pl","latitude":52.2297,"longitude":21.017532,"reserved":0,"last_update":"0001-01-01T00:00:00Z","name_a2s":"Uncletopia | Warsaw | 1 | All Maps","protocol":17,"map":"pl_upward","folder":"tf","game":"Team Fortress","app_id":440,"player_count":0,"max_players":24,"Bots":0,"server_type":"Dedicated","server_os":"Linux","password":true,"vac":true,"version":"7961495","steam_id":85568392925397850,"keywords":["nocrits","nodmgspread","payload","uncletopia"],"game_id":440,"stv_port":27016,"stv_name":"Uncletopia | Warsaw | 1 | All Maps | STV","players":null},{"server_id":50,"name":"Uncletopia | Warsaw | 2 | All Maps","name_short":"waw-2","host":"waw-1.pl.uncletopia.com","port":27025,"enabled":true,"region":"eu","cc":"pl","latitude":52.2297,"longitude":21.017532,"reserved":0,"last_update":"0001-01-01T00:00:00Z","name_a2s":"Uncletopia | Warsaw | 2 | All Maps","protocol":17,"map":"pl_badwater","folder":"tf","game":"Team Fortress","app_id":440,"player_count":0,"max_players":24,"Bots":0,"server_type":"Dedicated","server_os":"Linux","password":true,"vac":true,"version":"7961495","steam_id":85568392925397851,"keywords":["nocrits","nodmgspread","payload","uncletopia"],"game_id":440,"stv_port":27026,"stv_name":"Uncletopia | Warsaw | 2 | All Maps | STV","players":null},{"server_id":51,"name":"Uncletopia | Warsaw | 3 | All Maps","name_short":"waw-3","host":"waw-1.pl.uncletopia.com","port":27035,"enabled":true,"region":"eu","cc":"pl","latitude":52.2297,"longitude":21.017532,"reserved":0,"last_update":"0001-01-01T00:00:00Z","name_a2s":"Uncletopia | Warsaw | 3 | All Maps","protocol":17,"map":"cp_process_final","folder":"tf","game":"Team Fortress","app_id":440,"player_count":0,"max_players":24,"Bots":0,"server_type":"Dedicated","server_os":"Linux","password":true,"vac":true,"version":"7961495","steam_id":85568392925397852,"keywords":["cp","nocrits","nodmgspread","uncletopia"],"game_id":440,"stv_port":27036,"stv_name":"Uncletopia | Warsaw | 3 | All Maps | STV","players":null},{"server_id":52,"name":"Uncletopia | Warsaw | 4 | All Maps","name_short":"waw-4","host":"waw-1.pl.uncletopia.com","port":27045,"enabled":true,"region":"eu","cc":"pl","latitude":52.2297,"longitude":21.017532,"reserved":0,"last_update":"0001-01-01T00:00:00Z","name_a2s":"Uncletopia | Warsaw | 4 | All Maps","protocol":17,"map":"pl_badwater","folder":"tf","game":"Team Fortress","app_id":440,"player_count":0,"max_players":24,"Bots":0,"server_type":"Dedicated","server_os":"Linux","password":true,"vac":true,"version":"7961495","steam_id":85568392925397853,"keywords":["nocrits","nodmgspread","payload","uncletopia"],"game_id":440,"stv_port":27046,"stv_name":"Uncletopia | Warsaw | 4 | All Maps | STV","players":null},{"server_id":53,"name":"Uncletopia | Warsaw | 5 | Stopwatch Beta","name_short":"waw-5","host":"waw-1.pl.uncletopia.com","port":27055,"enabled":true,"region":"eu","cc":"pl","latitude":52.2297,"longitude":21.017532,"reserved":0,"last_update":"0001-01-01T00:00:00Z","name_a2s":"Uncletopia | Warsaw | 5 | Stopwatch Beta","protocol":17,"map":"pl_snowycoast","folder":"tf","game":"Team Fortress","app_id":440,"player_count":0,"max_players":24,"Bots":0,"server_type":"Dedicated","server_os":"Linux","password":true,"vac":true,"version":"7961495","steam_id":85568392925397854,"keywords":["nocrits","nodmgspread","payload","uncletopia"],"game_id":440,"stv_port":27056,"stv_name":"Uncletopia | Warsaw | 5 | Stopwatch Beta | STV","players":null},{"server_id":54,"name":"Uncletopia | Warsaw | 6 | Community","name_short":"waw-6","host":"waw-1.pl.uncletopia.com","port":27065,"enabled":true,"region":"eu","cc":"pl","latitude":52.2297,"longitude":21.017532,"reserved":0,"last_update":"0001-01-01T00:00:00Z","name_a2s":"Uncletopia | Warsaw | 6 | Community","protocol":17,"map":"pl_borneo","folder":"tf","game":"Team Fortress","app_id":440,"player_count":0,"max_players":24,"Bots":0,"server_type":"Dedicated","server_os":"Linux","password":true,"vac":true,"version":"7961495","steam_id":85568392925397856,"keywords":["nocrits","nodmgspread","payload","uncletopia"],"game_id":440,"stv_port":27066,"stv_name":"Uncletopia | Warsaw | 6 | Community | STV","players":null}]}