{"status":true,"message":"","result":[{"server_id":9,"name":"Uncletopia | Atlanta | 1 | All Maps","name_short":"atl-1","host":"atl-1.us.uncletopia.com","port":27015,"enabled":true,"region":"us-east","cc":"us","latitude":33.753746,"longitude":-84.38633,"reserved":0,"last_update":"0001-01-01T00:00:00Z","name_a2s":"Uncletopia | Atlanta | 1 | All Maps","protocol":17,"map":"pl_thundermountain","folder":"tf","game":"Team Fortress","app_id":440,"player_count":24,"max_players":24,"Bots":0,"server_type":"Dedicated","server_os":"Linux","password":true,"vac":true,"version":"7723704","steam_id":85568392924469982,"keywords":["nocrits","nodmgspread","payload","uncletopia"],"game_id":440,"stv_port":27016,"stv_name":"Uncletopia | Atlanta | 1 | All Maps | STV","players":[{"user_id":890,"name":"SHADOW (he/him)","steam_id":76561198207768148,"connected_time":543000000000,"state":"active","ping":108},{"user_id":902,"name":"m0nkei","steam_id":76561198065791310,"connected_time":273000000000,"state":"active","ping":77},{"user_id":899,"name":"♡Alyx♡","steam_id":76561198024303978,"connected_time":379000000000,"state":"active","ping":65},{"user_id":908,"name":"Background Character #11","steam_id":76561198051186164,"connected_time":22000000000,"state":"active","ping":60},{"user_id":900,"name":"ena - d","steam_id":76561198072329335,"connected_time":375000000000,"state":"active","ping":159},{"user_id":901,"name":"Aegis","steam_id":76561198272052750,"connected_time":317000000000,"state":"active","ping":79},{"user_id":809,"name":"mommy claus","steam_id":76561199230929836,"connected_time":3142000000000,"state":"active","ping":81},{"user_id":825,"name":"christmas.jimmy.2014","steam_id":76561199177672325,"connected_time":1944000000000,"state":"active","ping":44},{"user_id":799,"name":"Nixie","steam_id":76561198978778718,"connected_time":4635000000000,"state":"active","ping":132},{"user_id":813,"name":"King Rat","steam_id":76561198083835128,"connected_time":2559000000000,"state":"active","ping":69},{"user_id":807,"name":"MOTORTREND TRUCK OF THE YEAR","steam_id":76561198077654131,"connected_time":3267000000000,"state":"active","ping":76},{"user_id":683,"name":"ATL1 | eish","steam_id":76561198089463603,"connected_time":9429000000000,"state":"active","ping":125},{"user_id":861,"name":"bogginwater","steam_id":76561198155547142,"connected_time":1063000000000,"state":"active","ping":68},{"user_id":824,"name":"HARRY","steam_id":76561198842067238,"connected_time":1980000000000,"state":"active","ping":72},{"user_id":847,"name":"The Eyeball Man","steam_id":76561198013534207,"connected_time":1458000000000,"state":"active","ping":83},{"user_id":679,"name":"VidzCMC","steam_id":76561198848142973,"connected_time":9730000000000,"state":"active","ping":61},{"user_id":820,"name":"Tue","steam_id":76561198181668501,"connected_time":2150000000000,"state":"active","ping":65},{"user_id":784,"name":"Veilos","steam_id":76561198071897172,"connected_time":5966000000000,"state":"active","ping":85},{"user_id":795,"name":"joe","steam_id":76561198045781320,"connected_time":4744000000000,"state":"active","ping":72},{"user_id":801,"name":"Sheembs","steam_id":76561199010524390,"connected_time":4042000000000,"state":"active","ping":63},{"user_id":909,"name":"The ATF","steam_id":76561198046518234,"connected_time":1000000000,"state":"spawning","ping":65},{"user_id":698,"name":"Twa","steam_id":76561198295529541,"connected_time":7749000000000,"state":"active","ping":72},{"user_id":886,"name":"TH-1","steam_id":76561197993467034,"connected_time":632000000000,"state":"active","ping":79},{"user_id":895,"name":"Murrdogg","steam_id":76561198210491188,"connected_time":438000000000,"state":"active","ping":96}]},{"server_id":400,"name":"Uncletopia | Atlanta | 3 | Stopwatch Beta","name_short":"atl-3","host":"atl-1.us.uncletopia.com","port":27035,"enabled":true,"region":"us-east","cc":"us","latitude":33.753746,"longitude":-84.38633,"reserved":0,"last_update":"0001-01-01T00:00:00Z","name_a2s":"Uncletopia | Atlanta | 3 | Stopwatch Beta","protocol":17,"map":"workshop/koth_bagel_rc5.ugc2514036946","folder":"tf","game":"Team Fortress","app_id":440,"player_count":22,"max_players":24,"Bots":0,"server_type":"Dedicated","server_os":"Linux","password":true,"vac":true,"version":"7723704","steam_id":85568392924515187,"keywords":["cp","nocrits","nodmgspread","uncletopia"],"game_id":440,"stv_port":27036,"stv_name":"Uncletopia | Atlanta | 3 | Stopwatch Beta | STV","players":[{"user_id":44,"name":"no vc no c","steam_id":76561197989503095,"connected_time":2637000000000,"state":"active","ping":193},{"user_id":76,"name":"Spy_Is_Pye","steam_id":76561199439622967,"connected_time":910000000000,"state":"active","ping":70},{"user_id":94,"name":"uzr","steam_id":76561198799343084,"connected_time":183000000000,"state":"active","ping":109},{"user_id":54,"name":"Belvis","steam_id":76561198060276105,"connected_time":2221000000000,"state":"active","ping":65},{"user_id":34,"name":"Sabag3D","steam_id":76561198094402240,"connected_time":3063000000000,"state":"active","ping":94},{"user_id":77,"name":"shadysessions","steam_id":76561198032464781,"connected_time":866000000000,"state":"active","ping":71},{"user_id":37,"name":"Yoshimelon","steam_id":76561198253054325,"connected_time":2987000000000,"state":"active","ping":64},{"user_id":39,"name":"qjkxkcd","steam_id":76561198035922283,"connected_time":2874000000000,"state":"active","ping":69},{"user_id":93,"name":"swan","steam_id":76561198012569200,"connected_time":212000000000,"state":"active","ping":72},{"user_id":49,"name":"kametro4","steam_id":76561198835430429,"connected_time":2511000000000,"state":"active","ping":104},{"user_id":87,"name":"malarkeyman","steam_id":76561198844473584,"connected_time":572000000000,"state":"active","ping":57},{"user_id":95,"name":"rhet","steam_id":76561199121655932,"connected_time":166000000000,"state":"active","ping":48},{"user_id":71,"name":"Rudy","steam_id":76561198013456828,"connected_time":1290000000000,"state":"active","ping":53},{"user_id":90,"name":"akirajimbo","steam_id":76561197979960008,"connected_time":488000000000,"state":"active","ping":84},{"user_id":51,"name":"Insayne","steam_id":76561199237951955,"connected_time":2419000000000,"state":"active","ping":89},{"user_id":91,"name":"sweet n spicy","steam_id":76561198165660732,"connected_time":463000000000,"state":"active","ping":91},{"user_id":96,"name":"FogBod","steam_id":76561199361399489,"connected_time":136000000000,"state":"active","ping":81},{"user_id":97,"name":"stuporvillian","steam_id":76561198083796225,"connected_time":10000000000,"state":"spawning","ping":188},{"user_id":57,"name":"Smuggs","steam_id":76561197999456003,"connected_time":2137000000000,"state":"active","ping":132},{"user_id":81,"name":"Wife Enjoyer","steam_id":76561198044109761,"connected_time":797000000000,"state":"active","ping":83},{"user_id":65,"name":"MamaLuigi","steam_id":76561199054368008,"connected_time":1878000000000,"state":"active","ping":75},{"user_id":83,"name":"blibulon","steam_id":76561198370642854,"connected_time":783000000000,"state":"active","ping":89}]},{"server_id":401,"name":"Uncletopia | Atlanta | 4 | No Payload","name_short":"atl-4","host":"atl-1.us.uncletopia.com","port":27045,"enabled":true,"region":"us-east","cc":"us","latitude":33.753746,"longitude":-84.38633,"reserved":0,"last_update":"0001-01-01T00:00:00Z","name_a2s":"Uncletopia | Atlanta | 4 | No Payload","protocol":17,"map":"koth_lazarus","folder":"tf","game":"Team Fortress","app_id":440,"player_count":2,"max_players":24,"Bots":0,"server_type":"Dedicated","server_os":"Linux","password":true,"vac":true,"version":"7723704","steam_id":85568392924515188,"keywords":["cp","nocrits","nodmgspread","uncletopia"],"game_id":440,"stv_port":27046,"stv_name":"Uncletopia | Atlanta | 4 | No Payload | STV","players":[{"user_id":14,"name":"Kriaz","steam_id":76561198809831113,"connected_time":47000000000,"state":"spawning","ping":66},{"user_id":15,"name":"LexxyLooLoo","steam_id":76561198958811555,"connected_time":41000000000,"state":"active","ping":64}]},{"server_id":2,"name":"Uncletopia | Chicago | 1 | All Maps","name_short":"chi-1","host":"chi-1.us.uncletopia.com","port":27015,"enabled":true,"region":"us-central","cc":"us","latitude":41.881832,"longitude":-87.62318,"reserved":0,"last_update":"0001-01-01T00:00:00Z","name_a2s":"Uncletopia | Chicago | 1 | All Maps","protocol":17,"map":"pl_frontier_final","folder":"tf","game":"Team Fortress","app_id":440,"player_count":23,"max_players":24,"Bots":0,"server_type":"Dedicated","server_os":"Linux","password":true,"vac":true,"version":"7723704","steam_id":85568392924469984,"keywords":["nocrits","nodmgspread","payload","uncletopia"],"game_id":440,"stv_port":27016,"stv_name":"Uncletopia | Chicago | 1 | All Maps | STV","players":[{"user_id":604,"name":"Jamendithas","steam_id":76561198119537716,"connected_time":1337000000000,"state":"active","ping":66},{"user_id":590,"name":"[12V] Marv","steam_id":76561198158638384,"connected_time":1799000000000,"state":"active","ping":70},{"user_id":569,"name":"John Darksoul","steam_id":76561198031675881,"connected_time":3819000000000,"state":"active","ping":63},{"user_id":586,"name":"Snom","steam_id":76561198333827920,"connected_time":1850000000000,"state":"active","ping":98},{"user_id":606,"name":"MyamE","steam_id":76561198133278462,"connected_time":1244000000000,"state":"active","ping":92},{"user_id":609,"name":"Skimpy","steam_id":76561197997127971,"connected_time":663000000000,"state":"active","ping":65},{"user_id":599,"name":"Gachalover","steam_id":76561199231552074,"connected_time":1521000000000,"state":"active","ping":63},{"user_id":612,"name":"Flyinglab","steam_id":76561198042161408,"connected_time":63000000000,"state":"spawning","ping":69},{"user_id":585,"name":"Ademar","steam_id":76561199391802581,"connected_time":2317000000000,"state":"active","ping":56},{"user_id":579,"name":"T.w² | Sliced Bread","steam_id":76561198128489595,"connected_time":3187000000000,"state":"active","ping":73},{"user_id":608,"name":"Ras","steam_id":76561198123546775,"connected_time":716000000000,"state":"active","ping":60},{"user_id":610,"name":"thundermuffin","steam_id":76561198067770965,"connected_time":591000000000,"state":"active","ping":51},{"user_id":611,"name":"Curly-Haired Rogue","steam_id":76561198101915594,"connected_time":468000000000,"state":"active","ping":70},{"user_id":613,"name":"Smet19","steam_id":76561198118455606,"connected_time":13000000000,"state":"active","ping":53},{"user_id":605,"name":"CoconutRice","steam_id":76561198114909164,"connected_time":1279000000000,"state":"active","ping":50},{"user_id":576,"name":"Now I'm a Little Motivated","steam_id":76561198069580305,"connected_time":3243000000000,"state":"active","ping":56},{"user_id":567,"name":"pie gaming","steam_id":76561198072592880,"connected_time":3984000000000,"state":"active","ping":39},{"user_id":593,"name":"IIP","steam_id":76561198286102406,"connected_time":1771000000000,"state":"active","ping":65},{"user_id":577,"name":"deepmeta","steam_id":76561199053600691,"connected_time":3243000000000,"state":"active","ping":49},{"user_id":602,"name":"raisedbybirds","steam_id":76561198131531646,"connected_time":1390000000000,"state":"active","ping":77},{"user_id":595,"name":"[GUT] RiDiK®","steam_id":76561197969756446,"connected_time":1737000000000,"state":"active","ping":50},{"user_id":597,"name":"Ze_Über_Nerd","steam_id":76561198091148675,"connected_time":1681000000000,"state":"active","ping":75},{"user_id":525,"name":"Astoriæ!","steam_id":76561199090168858,"connected_time":6820000000000,"state":"active","ping":59}]},{"server_id":106,"name":"Uncletopia | Chicago | 2 | All Maps","name_short":"chi-2","host":"chi-1.us.uncletopia.com","port":27025,"enabled":true,"region":"us-central","cc":"us","latitude":41.881832,"longitude":-87.62318,"reserved":0,"last_update":"0001-01-01T00:00:00Z","name_a2s":"Uncletopia | Chicago | 2 | All Maps","protocol":17,"map":"pl_frontier_final","folder":"tf","game":"Team Fortress","app_id":440,"player_count":21,"max_players":24,"Bots":0,"server_type":"Dedicated","server_os":"Linux","password":true,"vac":true,"version":"7723704","steam_id":85568392924469985,"keywords":["nocrits","nodmgspread","payload","uncletopia"],"game_id":440,"stv_port":27026,"stv_name":"Uncletopia | Chicago | 2 | All Maps | STV","players":[{"user_id":509,"name":"G6 MR 1920","steam_id":76561198111669774,"connected_time":11000000000,"state":"active","ping":42},{"user_id":488,"name":"Sprucelass","steam_id":76561197998391724,"connected_time":1955000000000,"state":"active","ping":44},{"user_id":423,"name":"The Red Ranger","steam_id":76561198109993393,"connected_time":5113000000000,"state":"active","ping":47},{"user_id":503,"name":"Bear bird","steam_id":76561198166769479,"connected_time":994000000000,"state":"active","ping":86},{"user_id":481,"name":"MR.Badatgames","steam_id":76561198820423721,"connected_time":2759000000000,"state":"active","ping":57},{"user_id":500,"name":"kvn","steam_id":76561198012796388,"connected_time":1383000000000,"state":"active","ping":50},{"user_id":504,"name":"Ursus Ludius","steam_id":76561198025470722,"connected_time":901000000000,"state":"active","ping":78},{"user_id":507,"name":"i suffer from ligma","steam_id":76561199158496518,"connected_time":331000000000,"state":"active","ping":75},{"user_id":372,"name":"SRV","steam_id":76561198026589960,"connected_time":7996000000000,"state":"active","ping":53},{"user_id":494,"name":"lezed1","steam_id":76561198025547814,"connected_time":1479000000000,"state":"active","ping":52},{"user_id":444,"name":"None of that $9.99 bullshit","steam_id":76561198116169903,"connected_time":3716000000000,"state":"active","ping":44},{"user_id":495,"name":"Mr. Sauce","steam_id":76561198055512324,"connected_time":1465000000000,"state":"active","ping":73},{"user_id":502,"name":"bobby peanstalk","steam_id":76561198040495463,"connected_time":1329000000000,"state":"active","ping":71},{"user_id":406,"name":"TriM","steam_id":76561198048332533,"connected_time":5977000000000,"state":"active","ping":43},{"user_id":506,"name":"♥Ranman♥Femboy♥","steam_id":76561198042144492,"connected_time":433000000000,"state":"active","ping":67},{"user_id":441,"name":"Pierce","steam_id":76561198043747953,"connected_time":3746000000000,"state":"active","ping":59},{"user_id":377,"name":"atserc","steam_id":76561197997570349,"connected_time":7635000000000,"state":"active","ping":86},{"user_id":497,"name":"EvilMrPotoo ｡◕‿◕｡","steam_id":76561198012566870,"connected_time":1413000000000,"state":"active","ping":59},{"user_id":102,"name":"A Puppy","steam_id":76561198828184456,"connected_time":21962000000000,"state":"active","ping":56},{"user_id":498,"name":"CHODIE LAND","steam_id":76561198057116531,"connected_time":1410000000000,"state":"active","ping":56},{"user_id":508,"name":"ethan","steam_id":76561198132637556,"connected_time":158000000000,"state":"active","ping":66}]},{"server_id":402,"name":"Uncletopia | Chicago | 3 | All Maps","name_short":"chi-3","host":"chi-1.us.uncletopia.com","port":27035,"enabled":true,"region":"us-central","cc":"us","latitude":41.881832,"longitude":-87.62318,"reserved":0,"last_update":"0001-01-01T00:00:00Z","name_a2s":"Uncletopia | Chicago | 3 | All Maps","protocol":17,"map":"pl_swiftwater_final1","folder":"tf","game":"Team Fortress","app_id":440,"player_count":24,"max_players":24,"Bots":0,"server_type":"Dedicated","server_os":"Linux","password":true,"vac":true,"version":"7723704","steam_id":85568392924515191,"keywords":["nocrits","nodmgspread","payload","uncletopia"],"game_id":440,"stv_port":27036,"stv_name":"Uncletopia | Chicago | 3 | All Maps | STV","players":[{"user_id":365,"name":"2EggsScrambled","steam_id":76561198052364159,"connected_time":1021000000000,"state":"active","ping":107},{"user_id":370,"name":"Bobbn","steam_id":76561198876124683,"connected_time":666000000000,"state":"active","ping":61},{"user_id":339,"name":"Santa","steam_id":76561198044130442,"connected_time":1633000000000,"state":"active","ping":67},{"user_id":367,"name":"Mediocre Gaming","steam_id":76561199230467980,"connected_time":942000000000,"state":"active","ping":67},{"user_id":366,"name":"Sh3ba Spaniel","steam_id":76561198047412394,"connected_time":1002000000000,"state":"active","ping":55},{"user_id":308,"name":"motorized bar of soap","steam_id":76561198882404753,"connected_time":3889000000000,"state":"active","ping":73},{"user_id":364,"name":"workin for snapple","steam_id":76561198013732450,"connected_time":1059000000000,"state":"active","ping":52},{"user_id":358,"name":"christmas  moment","steam_id":76561199217063673,"connected_time":1177000000000,"state":"active","ping":83},{"user_id":332,"name":"Big Time Bobby","steam_id":76561198935266162,"connected_time":2058000000000,"state":"active","ping":65},{"user_id":329,"name":"Money Collector","steam_id":76561198046249467,"connected_time":2200000000000,"state":"active","ping":59},{"user_id":368,"name":"at the end of time","steam_id":76561198838043440,"connected_time":862000000000,"state":"active","ping":66},{"user_id":306,"name":"BowlzingShoes","steam_id":76561199127110073,"connected_time":3918000000000,"state":"active","ping":57},{"user_id":369,"name":"Grandpappy","steam_id":76561198054660691,"connected_time":854000000000,"state":"active","ping":53},{"user_id":277,"name":"Professor Piper","steam_id":76561198156041205,"connected_time":5647000000000,"state":"active","ping":46},{"user_id":343,"name":"Kapreesi","steam_id":76561198163361200,"connected_time":1559000000000,"state":"active","ping":72},{"user_id":334,"name":"SumrandomS","steam_id":76561199208168857,"connected_time":1932000000000,"state":"active","ping":103},{"user_id":310,"name":"Jazz","steam_id":76561198281069210,"connected_time":3814000000000,"state":"active","ping":76},{"user_id":317,"name":"ЯЭZ0И","steam_id":76561199205671171,"connected_time":3392000000000,"state":"active","ping":86},{"user_id":302,"name":"Bread Baker","steam_id":76561198185335103,"connected_time":4705000000000,"state":"active","ping":55},{"user_id":356,"name":"n8beme","steam_id":76561197986805557,"connected_time":1230000000000,"state":"active","ping":78},{"user_id":335,"name":"*boom*","steam_id":76561199409264244,"connected_time":1920000000000,"state":"active","ping":69},{"user_id":350,"name":"bsampson0330","steam_id":76561198199502507,"connected_time":1410000000000,"state":"active","ping":77},{"user_id":290,"name":"jolo","steam_id":76561198042831480,"connected_time":5353000000000,"state":"active","ping":68},{"user_id":360,"name":"Baphy","steam_id":76561199088719865,"connected_time":1122000000000,"state":"active","ping":146}]},{"server_id":403,"name":"Uncletopia | Chicago | 4 | All Maps","name_short":"chi-4","host":"chi-1.us.uncletopia.com","port":27045,"enabled":true,"region":"us-central","cc":"us","latitude":41.881832,"longitude":-87.62318,"reserved":0,"last_update":"0001-01-01T00:00:00Z","name_a2s":"Uncletopia | Chicago | 4 | All Maps","protocol":17,"map":"pl_frontier_final","folder":"tf","game":"Team Fortress","app_id":440,"player_count":24,"max_players":24,"Bots":0,"server_type":"Dedicated","server_os":"Linux","password":true,"vac":true,"version":"7723704","steam_id":85568392924515193,"keywords":["nocrits","nodmgspread","payload","uncletopia"],"game_id":440,"stv_port":27046,"stv_name":"Uncletopia | Chicago | 4 | All Maps | STV","players":[{"user_id":283,"name":"kairOs.fk","steam_id":76561197972421260,"connected_time":6832000000000,"state":"active","ping":62},{"user_id":170,"name":"bimbo blow up doll! \u003c3","steam_id":76561198959541006,"connected_time":17539000000000,"state":"active","ping":64},{"user_id":344,"name":"PintoVero","steam_id":76561198088369252,"connected_time":1044000000000,"state":"active","ping":63},{"user_id":360,"name":"SeaBass","steam_id":76561198278914206,"connected_time":198000000000,"state":"active","ping":86},{"user_id":348,"name":"Elegant Ejaculation","steam_id":76561198014190878,"connected_time":730000000000,"state":"active","ping":130},{"user_id":355,"name":"SirTaxEvasion","steam_id":76561199117781098,"connected_time":375000000000,"state":"active","ping":66},{"user_id":290,"name":"you are loved","steam_id":76561198108524571,"connected_time":5643000000000,"state":"active","ping":76},{"user_id":349,"name":"Andrew","steam_id":76561198216167781,"connected_time":716000000000,"state":"active","ping":69},{"user_id":340,"name":"Admiral Shackleford","steam_id":76561198051952755,"connected_time":1139000000000,"state":"active","ping":76},{"user_id":356,"name":"a shrieking cloud of bats","steam_id":76561198151363063,"connected_time":353000000000,"state":"active","ping":68},{"user_id":294,"name":"your discord kitten uwu","steam_id":76561198192330781,"connected_time":5533000000000,"state":"active","ping":72},{"user_id":314,"name":"Raniel Dicciardo","steam_id":76561198053859538,"connected_time":4319000000000,"state":"active","ping":68},{"user_id":341,"name":"c00kie","steam_id":76561198418178297,"connected_time":1097000000000,"state":"active","ping":44},{"user_id":333,"name":"TheToastingToaster","steam_id":76561198439391966,"connected_time":2426000000000,"state":"active","ping":59},{"user_id":362,"name":"CJDGuy","steam_id":76561198213009545,"connected_time":104000000000,"state":"active","ping":60},{"user_id":305,"name":"(◔) Neville","steam_id":76561198025637970,"connected_time":4582000000000,"state":"active","ping":74},{"user_id":327,"name":"blob","steam_id":76561198122375328,"connected_time":2863000000000,"state":"active","ping":61},{"user_id":343,"name":"jnv1013","steam_id":76561198965549228,"connected_time":1070000000000,"state":"active","ping":71},{"user_id":358,"name":"swooce","steam_id":76561198156232484,"connected_time":330000000000,"state":"active","ping":72},{"user_id":330,"name":"ExtremeDucks","steam_id":76561198351756464,"connected_time":2715000000000,"state":"active","ping":72},{"user_id":363,"name":"dnl","steam_id":76561198096413059,"connected_time":85000000000,"state":"active","ping":119},{"user_id":350,"name":"Cardamon_Tea","steam_id":76561199048487548,"connected_time":705000000000,"state":"active","ping":49},{"user_id":335,"name":"Simply G","steam_id":76561199221934609,"connected_time":2139000000000,"state":"active","ping":107},{"user_id":351,"name":"Xx_Savage_Twerks_xX","steam_id":76561198011665915,"connected_time":700000000000,"state":"active","ping":70}]},{"server_id":36,"name":"Uncletopia | Chicago | 5 | All Maps","name_short":"chi-5","host":"chi-2.us.uncletopia.com","port":27015,"enabled":true,"region":"us-central","cc":"us","latitude":41.881832,"longitude":-87.62318,"reserved":0,"last_update":"0001-01-01T00:00:00Z","name_a2s":"Uncletopia | Chicago | 5 | All Maps","protocol":17,"map":"pl_upward","folder":"tf","game":"Team Fortress","app_id":440,"player_count":23,"max_players":24,"Bots":0,"server_type":"Dedicated","server_os":"Linux","password":true,"vac":true,"version":"7723704","steam_id":85568392924866362,"keywords":["nocrits","nodmgspread","payload","uncletopia"],"game_id":440,"stv_port":27016,"stv_name":"Uncletopia | Chicago | 5 | All Maps | STV","players":[{"user_id":122,"name":"festive Λlxium","steam_id":76561198131272900,"connected_time":1313000000000,"state":"active","ping":66},{"user_id":56,"name":"Godmode","steam_id":76561198076240365,"connected_time":8217000000000,"state":"active","ping":59},{"user_id":113,"name":"Pockets","steam_id":76561198001742296,"connected_time":3135000000000,"state":"active","ping":48},{"user_id":133,"name":"Vladikr1","steam_id":76561198401495362,"connected_time":121000000000,"state":"active","ping":55},{"user_id":85,"name":"agentish","steam_id":76561198055088122,"connected_time":5456000000000,"state":"active","ping":54},{"user_id":73,"name":"Tannenbaum Trotsky","steam_id":76561199101638460,"connected_time":7149000000000,"state":"active","ping":67},{"user_id":99,"name":"--_Cook_--","steam_id":76561198080855748,"connected_time":4660000000000,"state":"active","ping":103},{"user_id":72,"name":"vinny6","steam_id":76561198386735728,"connected_time":7170000000000,"state":"active","ping":62},{"user_id":98,"name":"on that zaza?","steam_id":76561198038713198,"connected_time":4697000000000,"state":"active","ping":63},{"user_id":115,"name":"Jw_321123","steam_id":76561198282965733,"connected_time":2826000000000,"state":"active","ping":59},{"user_id":55,"name":"Kitt(eh) ∑:3","steam_id":76561198110858518,"connected_time":8227000000000,"state":"active","ping":65},{"user_id":132,"name":"Crazy Cane","steam_id":76561198993941174,"connected_time":280000000000,"state":"active","ping":64},{"user_id":111,"name":"kablong","steam_id":76561199094392047,"connected_time":3340000000000,"state":"active","ping":65},{"user_id":125,"name":"Woke Bush","steam_id":76561198047994501,"connected_time":963000000000,"state":"active","ping":58},{"user_id":126,"name":"Cthuwu","steam_id":76561198272014414,"connected_time":939000000000,"state":"active","ping":68},{"user_id":112,"name":"C papi","steam_id":76561198027779564,"connected_time":3220000000000,"state":"active","ping":57},{"user_id":124,"name":"Sassmom61","steam_id":76561198955563945,"connected_time":1075000000000,"state":"active","ping":67},{"user_id":96,"name":"Ikalpo","steam_id":76561198044686915,"connected_time":4751000000000,"state":"active","ping":106},{"user_id":89,"name":"merry trapmas","steam_id":76561198402801140,"connected_time":5170000000000,"state":"active","ping":60},{"user_id":116,"name":"jpuck","steam_id":76561198025018960,"connected_time":2764000000000,"state":"active","ping":72},{"user_id":86,"name":"daemon","steam_id":76561198001541433,"connected_time":5455000000000,"state":"active","ping":50},{"user_id":91,"name":"Eviscerator","steam_id":76561197980073637,"connected_time":4786000000000,"state":"active","ping":69},{"user_id":129,"name":"Beany","steam_id":76561198102299438,"connected_time":376000000000,"state":"active","ping":58}]},{"server_id":37,"name":"Uncletopia | Chicago | 6 | All Maps","name_short":"chi-6","host":"chi-2.us.uncletopia.com","port":27025,"enabled":true,"region":"us-central","cc":"us","latitude":41.881832,"longitude":-87.62318,"reserved":0,"last_update":"0001-01-01T00:00:00Z","name_a2s":"Uncletopia | Chicago | 6 | All Maps","protocol":17,"map":"cp_process_final","folder":"tf","game":"Team Fortress","app_id":440,"player_count":0,"max_players":24,"Bots":0,"server_type":"Dedicated","server_os":"Linux","password":true,"vac":true,"version":"7723704","steam_id":85568392924866363,"keywords":["cp","nocrits","nodmgspread","uncletopia"],"game_id":440,"stv_port":27026,"stv_name":"Uncletopia | Chicago | 6 | All Maps | STV","players":null},{"server_id":38,"name":"Uncletopia | Chicago | 7 | Stopwatch Beta","name_short":"chi-7","host":"chi-2.us.uncletopia.com","port":27035,"enabled":true,"region":"us-central","cc":"us","latitude":41.881832,"longitude":-87.62318,"reserved":0,"last_update":"0001-01-01T00:00:00Z","name_a2s":"Uncletopia | Chicago | 7 | Stopwatch Beta","protocol":17,"map":"workshop/koth_clearcut_b15.ugc2107050255","folder":"tf","game":"Team Fortress","app_id":440,"player_count":0,"max_players":24,"Bots":0,"server_type":"Dedicated","server_os":"Linux","password":true,"vac":true,"version":"7723704","steam_id":85568392924866364,"keywords":["cp","nocrits","nodmgspread","uncletopia"],"game_id":440,"stv_port":27036,"stv_name":"Uncletopia | Chicago | 7 | Stopwatch Beta | STV","players":null},{"server_id":39,"name":"Uncletopia | Chicago | 8 | Community","name_short":"chi-8","host":"chi-2.us.uncletopia.com","port":27045,"enabled":true,"region":"us-central","cc":"us","latitude":41.881832,"longitude":-87.62318,"reserved":0,"last_update":"0001-01-01T00:00:00Z","name_a2s":"Uncletopia | Chicago | 8 | Community","protocol":17,"map":"workshop/cp_overgrown_rc7b.ugc503939302","folder":"tf","game":"Team Fortress","app_id":440,"player_count":0,"max_players":24,"Bots":0,"server_type":"Dedicated","server_os":"Linux","password":true,"vac":true,"version":"7723704","steam_id":85568392924866365,"keywords":["cp","nocrits","nodmgspread","uncletopia"],"game_id":440,"stv_port":27046,"stv_name":"Uncletopia | Chicago | 8 | Community | STV","players":null},{"server_id":8,"name":"Uncletopia | Dallas | 1 | All Maps","name_short":"dal-1","host":"dal-1.us.uncletopia.com","port":27015,"enabled":true,"region":"us-central","cc":"us","latitude":32.779167,"longitude":-96.80889,"reserved":0,"last_update":"0001-01-01T00:00:00Z","name_a2s":"Uncletopia | Dallas | 1 | All Maps","protocol":17,"map":"cp_dustbowl","folder":"tf","game":"Team Fortress","app_id":440,"player_count":24,"max_players":24,"Bots":0,"server_type":"Dedicated","server_os":"Linux","password":true,"vac":true,"version":"7723704","steam_id":85568392924469986,"keywords":["cp","nocrits","nodmgspread","uncletopia"],"game_id":440,"stv_port":27016,"stv_name":"Uncletopia | Dallas | 1 | All Maps | STV","players":[{"user_id":580,"name":"Thezest","steam_id":76561198043895839,"connected_time":2275000000000,"state":"active","ping":90},{"user_id":607,"name":"[]{}#^*+=","steam_id":76561198127039453,"connected_time":620000000000,"state":"active","ping":74},{"user_id":609,"name":"rumes","steam_id":76561198349219467,"connected_time":552000000000,"state":"active","ping":61},{"user_id":593,"name":"Lynux","steam_id":76561198343651916,"connected_time":1083000000000,"state":"active","ping":137},{"user_id":581,"name":"=Silver=","steam_id":76561198292307127,"connected_time":2177000000000,"state":"active","ping":120},{"user_id":603,"name":"+","steam_id":76561198262422184,"connected_time":671000000000,"state":"active","ping":59},{"user_id":521,"name":"Mina's Ninas","steam_id":76561198046502179,"connected_time":3789000000000,"state":"active","ping":73},{"user_id":600,"name":"ozymandias","steam_id":76561198983415087,"connected_time":800000000000,"state":"active","ping":66},{"user_id":599,"name":"Kosmo","steam_id":76561198079015843,"connected_time":831000000000,"state":"active","ping":59},{"user_id":612,"name":"Beanbag","steam_id":76561198101393625,"connected_time":256000000000,"state":"active","ping":47},{"user_id":564,"name":"iL","steam_id":76561198086331015,"connected_time":2985000000000,"state":"active","ping":75},{"user_id":591,"name":"Bee_Pirate","steam_id":76561199000599111,"connected_time":1118000000000,"state":"active","ping":84},{"user_id":507,"name":"A Gamer [F2P]","steam_id":76561198138712892,"connected_time":4651000000000,"state":"active","ping":44},{"user_id":602,"name":"YAY","steam_id":76561198004021385,"connected_time":733000000000,"state":"active","ping":74},{"user_id":604,"name":"Vhee","steam_id":76561198032525780,"connected_time":667000000000,"state":"active","ping":105},{"user_id":606,"name":"silentpieceofbacon","steam_id":76561198869323351,"connected_time":635000000000,"state":"active","ping":113},{"user_id":592,"name":"Moth (She/Her)","steam_id":76561198240217310,"connected_time":1114000000000,"state":"active","ping":72},{"user_id":598,"name":"AR1782","steam_id":76561199380738475,"connected_time":876000000000,"state":"active","ping":65},{"user_id":572,"name":"Lonely Pumpkin","steam_id":76561199058243841,"connected_time":2545000000000,"state":"active","ping":164},{"user_id":513,"name":"iluvtoust","steam_id":76561198869269207,"connected_time":4043000000000,"state":"active","ping":38},{"user_id":608,"name":"PDF FILE","steam_id":76561198184814466,"connected_time":592000000000,"state":"active","ping":103},{"user_id":610,"name":"Diet Coke Overlord","steam_id":76561199147118923,"connected_time":533000000000,"state":"active","ping":65},{"user_id":611,"name":"The Great Skott","steam_id":76561198038936309,"connected_time":507000000000,"state":"active","ping":99}]},{"server_id":108,"name":"Uncletopia | Dallas | 2 | All Maps","name_short":"dal-2","host":"dal-1.us.uncletopia.com","port":27025,"enabled":true,"region":"us-central","cc":"us","latitude":32.779167,"longitude":-96.80889,"reserved":0,"last_update":"0001-01-01T00:00:00Z","name_a2s":"Uncletopia | Dallas | 2 | All Maps","protocol":17,"map":"pl_swiftwater_final1","folder":"tf","game":"Team Fortress","app_id":440,"player_count":21,"max_players":24,"Bots":0,"server_type":"Dedicated","server_os":"Linux","password":true,"vac":true,"version":"7723704","steam_id":85568392924469988,"keywords":["nocrits","nodmgspread","payload","uncletopia"],"game_id":440,"stv_port":27026,"stv_name":"Uncletopia | Dallas | 2 | All Maps | STV","players":[{"user_id":479,"name":"valtiel","steam_id":76561198165212575,"connected_time":1083000000000,"state":"active","ping":82},{"user_id":494,"name":"Dat Boi","steam_id":76561198165068790,"connected_time":746000000000,"state":"active","ping":60},{"user_id":471,"name":"phil mias","steam_id":76561198000564263,"connected_time":1573000000000,"state":"active","ping":74},{"user_id":477,"name":"Mr. Morrow","steam_id":76561198011333701,"connected_time":1150000000000,"state":"active","ping":64},{"user_id":490,"name":"Arbit","steam_id":76561198048217335,"connected_time":786000000000,"state":"active","ping":92},{"user_id":473,"name":"lanoc","steam_id":76561198055415367,"connected_time":1251000000000,"state":"active","ping":60},{"user_id":487,"name":"KewlKris","steam_id":76561198260738308,"connected_time":828000000000,"state":"active","ping":40},{"user_id":497,"name":"Champion_M","steam_id":76561198095521131,"connected_time":565000000000,"state":"active","ping":52},{"user_id":499,"name":"Astro","steam_id":76561198035676106,"connected_time":140000000000,"state":"active","ping":62},{"user_id":480,"name":"java","steam_id":76561198030276792,"connected_time":1078000000000,"state":"active","ping":62},{"user_id":481,"name":"remedu","steam_id":76561198005152587,"connected_time":1040000000000,"state":"active","ping":40},{"user_id":498,"name":"???","steam_id":76561198200155343,"connected_time":285000000000,"state":"active","ping":43},{"user_id":500,"name":"darkjustin54","steam_id":76561198060056280,"connected_time":125000000000,"state":"active","ping":83},{"user_id":501,"name":"pworple","steam_id":76561199189877104,"connected_time":38000000000,"state":"active","ping":75},{"user_id":408,"name":"amagicowl","steam_id":76561199060487814,"connected_time":3802000000000,"state":"active","ping":73},{"user_id":496,"name":"FG7","steam_id":76561198381197197,"connected_time":590000000000,"state":"active","ping":163},{"user_id":486,"name":"Soney29","steam_id":76561198955863943,"connected_time":872000000000,"state":"active","ping":106},{"user_id":462,"name":"judas from the binding of isaac","steam_id":76561199068993168,"connected_time":1825000000000,"state":"active","ping":91},{"user_id":468,"name":"Madvillain","steam_id":76561198037734204,"connected_time":1706000000000,"state":"active","ping":87},{"user_id":489,"name":"naz","steam_id":76561198375280986,"connected_time":795000000000,"state":"active","ping":38},{"user_id":495,"name":"skipper","steam_id":76561198395965181,"connected_time":745000000000,"state":"active","ping":92}]},{"server_id":5,"name":"Uncletopia | Frankfurt | 1 | All Maps","name_short":"frk-1","host":"frk-1.de.uncletopia.com","port":27015,"enabled":true,"region":"eu","cc":"de","latitude":50.110924,"longitude":8.682127,"reserved":0,"last_update":"0001-01-01T00:00:00Z","name_a2s":"Uncletopia | Frankfurt | 1 | All Maps","protocol":17,"map":"koth_viaduct","folder":"tf","game":"Team Fortress","app_id":440,"player_count":0,"max_players":24,"Bots":0,"server_type":"Dedicated","server_os":"Linux","password":true,"vac":true,"version":"7723704","steam_id":85568392924469989,"keywords":["cp","nocrits","nodmgspread","uncletopia"],"game_id":440,"stv_port":27016,"stv_name":"Uncletopia | Frankfurt | 1 | All Maps | STV","players":null},{"server_id":110,"name":"Uncletopia | Frankfurt | 2 | All Maps","name_short":"frk-2","host":"frk-1.de.uncletopia.com","port":27025,"enabled":true,"region":"eu","cc":"de","latitude":50.110924,"longitude":8.682127,"reserved":0,"last_update":"0001-01-01T00:00:00Z","name_a2s":"Uncletopia | Frankfurt | 2 | All Maps","protocol":17,"map":"pl_frontier_final","folder":"tf","game":"Team Fortress","app_id":440,"player_count":7,"max_players":24,"Bots":0,"server_type":"Dedicated","server_os":"Linux","password":true,"vac":true,"version":"7723704","steam_id":85568392924469990,"keywords":["nocrits","nodmgspread","payload","uncletopia"],"game_id":440,"stv_port":27026,"stv_name":"Uncletopia | Frankfurt | 2 | All Maps | STV","players":[{"user_id":686,"name":"the high amby spy","steam_id":76561198212488780,"connected_time":89000000000,"state":"active","ping":60},{"user_id":680,"name":"Samus","steam_id":76561198045943019,"connected_time":915000000000,"state":"active","ping":45},{"user_id":684,"name":"holmr","steam_id":76561198852172820,"connected_time":668000000000,"state":"active","ping":45},{"user_id":657,"name":"BuhByeFalecia","steam_id":76561198364710587,"connected_time":3204000000000,"state":"active","ping":162},{"user_id":627,"name":"1/2","steam_id":76561198119167317,"connected_time":4598000000000,"state":"active","ping":59},{"user_id":528,"name":"TurboTabs","steam_id":76561198009785131,"connected_time":11300000000000,"state":"active","ping":61},{"user_id":562,"name":"nitroglycerin","steam_id":76561198080496833,"connected_time":9535000000000,"state":"active","ping":86}]},{"server_id":308,"name":"Uncletopia | Frankfurt | 3 | All Maps","name_short":"frk-3","host":"frk-1.de.uncletopia.com","port":27035,"enabled":true,"region":"eu","cc":"de","latitude":50.110924,"longitude":8.682127,"reserved":0,"last_update":"0001-01-01T00:00:00Z","name_a2s":"Uncletopia | Frankfurt | 3 | All Maps","protocol":17,"map":"pl_pier","folder":"tf","game":"Team Fortress","app_id":440,"player_count":0,"max_players":24,"Bots":0,"server_type":"Dedicated","server_os":"Linux","password":true,"vac":true,"version":"7723704","steam_id":85568392924504274,"keywords":["nocrits","nodmgspread","payload","uncletopia"],"game_id":440,"stv_port":27036,"stv_name":"Uncletopia | Frankfurt | 3 | All Maps | STV","players":null},{"server_id":309,"name":"Uncletopia | Frankfurt | 4 | All Maps","name_short":"frk-4","host":"frk-1.de.uncletopia.com","port":27045,"enabled":true,"region":"eu","cc":"de","latitude":50.110924,"longitude":8.682127,"reserved":0,"last_update":"0001-01-01T00:00:00Z","name_a2s":"Uncletopia | Frankfurt | 4 | All Maps","protocol":17,"map":"cp_altitude","folder":"tf","game":"Team Fortress","app_id":440,"player_count":0,"max_players":24,"Bots":0,"server_type":"Dedicated","server_os":"Linux","password":true,"vac":true,"version":"7723704","steam_id":85568392924504275,"keywords":["cp","nocrits","nodmgspread","uncletopia"],"game_id":440,"stv_port":27046,"stv_name":"Uncletopia | Frankfurt | 4 | All Maps | STV","players":null},{"server_id":310,"name":"Uncletopia | Frankfurt | 5 | All Maps","name_short":"frk-5","host":"frk-1.de.uncletopia.com","port":27055,"enabled":true,"region":"eu","cc":"de","latitude":50.110924,"longitude":8.682127,"reserved":0,"last_update":"0001-01-01T00:00:00Z","name_a2s":"Uncletopia | Frankfurt | 5 | All Maps","protocol":17,"map":"cp_dustbowl","folder":"tf","game":"Team Fortress","app_id":440,"player_count":0,"max_players":24,"Bots":0,"server_type":"Dedicated","server_os":"Linux","password":true,"vac":true,"version":"7723704","steam_id":85568392924504277,"keywords":["cp","nocrits","nodmgspread","uncletopia"],"game_id":440,"stv_port":27056,"stv_name":"Uncletopia | Frankfurt | 5 | All Maps | STV","players":null},{"server_id":311,"name":"Uncletopia | Frankfurt | 6 | All Maps","name_short":"frk-6","host":"frk-1.de.uncletopia.com","port":27065,"enabled":true,"region":"eu","cc":"de","latitude":50.110924,"longitude":8.682127,"reserved":0,"last_update":"0001-01-01T00:00:00Z","name_a2s":"Uncletopia | Frankfurt | 6 | All Maps","protocol":17,"map":"pl_barnblitz","folder":"tf","game":"Team Fortress","app_id":440,"player_count":0,"max_players":24,"Bots":0,"server_type":"Dedicated","server_os":"Linux","password":true,"vac":true,"version":"7723704","steam_id":85568392924504278,"keywords":["nocrits","nodmgspread","payload","uncletopia"],"game_id":440,"stv_port":27066,"stv_name":"Uncletopia | Frankfurt | 6 | All Maps | STV","players":null},{"server_id":23,"name":"Uncletopia | Frankfurt | 7 | Stopwatch Beta","name_short":"frk-7","host":"frk-1.de.uncletopia.com","port":27075,"enabled":true,"region":"eu","cc":"de","latitude":50.110924,"longitude":8.682127,"reserved":0,"last_update":"0001-01-01T00:00:00Z","name_a2s":"Uncletopia | Frankfurt | 7 | Stopwatch Beta","protocol":17,"map":"workshop/pl_barnblitz_pro7.ugc582280235","folder":"tf","game":"Team Fortress","app_id":440,"player_count":0,"max_players":24,"Bots":0,"server_type":"Dedicated","server_os":"Linux","password":true,"vac":true,"version":"7723704","steam_id":85568392924742827,"keywords":["nocrits","nodmgspread","payload","uncletopia"],"game_id":440,"stv_port":27076,"stv_name":"Uncletopia | Frankfurt | 7 | Stopwatch Beta | STV","players":null},{"server_id":24,"name":"Uncletopia | Frankfurt | 8 | Community","name_short":"frk-8","host":"frk-1.de.uncletopia.com","port":27085,"enabled":true,"region":"eu","cc":"de","latitude":50.110924,"longitude":8.682127,"reserved":0,"last_update":"0001-01-01T00:00:00Z","name_a2s":"Uncletopia | Frankfurt | 8 | Community","protocol":17,"map":"workshop/koth_synthetic_rc6a.ugc1549817316","folder":"tf","game":"Team Fortress","app_id":440,"player_count":0,"max_players":24,"Bots":0,"server_type":"Dedicated","server_os":"Linux","password":true,"vac":true,"version":"7723704","steam_id":85568392924742828,"keywords":["cp","nocrits","nodmgspread","uncletopia"],"game_id":440,"stv_port":27086,"stv_name":"Uncletopia | Frankfurt | 8 | Community | STV","players":null},{"server_id":202,"name":"Uncletopia | Hong Kong | 1 | All Maps","name_short":"hgk-1","host":"hgk-1.hk.uncletopia.com","port":27015,"enabled":true,"region":"asia","cc":"hk","latitude":22.302711,"longitude":114.177216,"reserved":0,"last_update":"0001-01-01T00:00:00Z","name_a2s":"Uncletopia | Hong Kong | 1 | All Maps","protocol":17,"map":"cp_process_final","folder":"tf","game":"Team Fortress","app_id":440,"player_count":14,"max_players":24,"Bots":0,"server_type":"Dedicated","server_os":"Linux","password":true,"vac":true,"version":"7723704","steam_id":85568392924494504,"keywords":["cp","nocrits","nodmgspread","uncletopia"],"game_id":440,"stv_port":27016,"stv_name":"Uncletopia | Hong Kong | 1 | All Maps | STV","players":[{"user_id":42,"name":"Duck Almighty","steam_id":76561198992841623,"connected_time":145000000000,"state":"active","ping":63},{"user_id":14,"name":"Aiko Kanata Zhenco","steam_id":76561199262955185,"connected_time":3336000000000,"state":"active","ping":84},{"user_id":15,"name":"Festive Redmond :D","steam_id":76561198056390902,"connected_time":3219000000000,"state":"active","ping":64},{"user_id":32,"name":"Speedie","steam_id":76561199094590287,"connected_time":729000000000,"state":"active","ping":100},{"user_id":24,"name":"vikush","steam_id":76561199032468162,"connected_time":1559000000000,"state":"active","ping":63},{"user_id":25,"name":"MrWaddles","steam_id":76561198075161995,"connected_time":1384000000000,"state":"active","ping":83},{"user_id":28,"name":"alphakennybuddy","steam_id":76561199219625644,"connected_time":1192000000000,"state":"active","ping":88},{"user_id":44,"name":"krankie ♥","steam_id":76561198364773435,"connected_time":66000000000,"state":"active","ping":113},{"user_id":27,"name":"mairen.denlez.2008","steam_id":76561199110403730,"connected_time":1265000000000,"state":"active","ping":68},{"user_id":29,"name":"RandomGuy1085","steam_id":76561199053910995,"connected_time":1191000000000,"state":"active","ping":73},{"user_id":34,"name":"Jaeden","steam_id":76561198948600993,"connected_time":643000000000,"state":"active","ping":56},{"user_id":46,"name":"Fluffy","steam_id":76561198316671856,"connected_time":51000000000,"state":"active","ping":103},{"user_id":36,"name":"Aerotronics","steam_id":76561198821190704,"connected_time":554000000000,"state":"active","ping":100}]},{"server_id":1,"name":"Uncletopia | Los Angeles | 1 | All Maps","name_short":"lax-1","host":"lax-1.us.uncletopia.com","port":27015,"enabled":true,"region":"us-west","cc":"us","latitude":33.94279,"longitude":-118.41004,"reserved":0,"last_update":"0001-01-01T00:00:00Z","name_a2s":"Uncletopia | Los Angeles | 1 | All Maps","protocol":17,"map":"pl_upward","folder":"tf","game":"Team Fortress","app_id":440,"player_count":24,"max_players":24,"Bots":0,"server_type":"Dedicated","server_os":"Linux","password":true,"vac":true,"version":"7723704","steam_id":85568392924469991,"keywords":["nocrits","nodmgspread","payload","uncletopia"],"game_id":440,"stv_port":27016,"stv_name":"Uncletopia | Los Angeles | 1 | All Maps | STV","players":[{"user_id":307,"name":"Seriously Bruh","steam_id":76561198070408485,"connected_time":525000000000,"state":"active","ping":91},{"user_id":304,"name":"gyroFSnoob","steam_id":76561198158404683,"connected_time":674000000000,"state":"active","ping":84},{"user_id":308,"name":"devin","steam_id":76561199039358114,"connected_time":493000000000,"state":"active","ping":95},{"user_id":282,"name":"Potatobreeder","steam_id":76561199077867000,"connected_time":2914000000000,"state":"active","ping":88},{"user_id":287,"name":"mace (LFT ARC)","steam_id":76561198165428947,"connected_time":2315000000000,"state":"active","ping":40},{"user_id":309,"name":"SPiRAL","steam_id":76561198214547456,"connected_time":462000000000,"state":"active","ping":104},{"user_id":317,"name":"Holy Diver","steam_id":76561198049339994,"connected_time":118000000000,"state":"active","ping":103},{"user_id":311,"name":"c49aa4","steam_id":76561199099537250,"connected_time":385000000000,"state":"active","ping":57},{"user_id":289,"name":"Rin","steam_id":76561198972611845,"connected_time":2307000000000,"state":"active","ping":45},{"user_id":312,"name":"The Man Of Sex","steam_id":76561198342382474,"connected_time":384000000000,"state":"active","ping":114},{"user_id":291,"name":"Adlai130s","steam_id":76561198571410221,"connected_time":2217000000000,"state":"active","ping":53},{"user_id":297,"name":"warrior","steam_id":76561198361999761,"connected_time":1422000000000,"state":"active","ping":53},{"user_id":293,"name":"edgemin","steam_id":76561198283650131,"connected_time":2123000000000,"state":"active","ping":104},{"user_id":296,"name":"SharingDonkey41","steam_id":76561199062669501,"connected_time":1765000000000,"state":"active","ping":59},{"user_id":301,"name":"Droopy Loopy","steam_id":76561198117917407,"connected_time":854000000000,"state":"active","ping":63},{"user_id":299,"name":"jungus","steam_id":76561198129862008,"connected_time":1315000000000,"state":"active","ping":46},{"user_id":300,"name":"yeyoi","steam_id":76561198069821885,"connected_time":1050000000000,"state":"active","ping":72},{"user_id":302,"name":"ButterFries","steam_id":76561198066995436,"connected_time":795000000000,"state":"active","ping":122},{"user_id":303,"name":"stainless steel dog water","steam_id":76561198124931793,"connected_time":783000000000,"state":"active","ping":155},{"user_id":305,"name":"Zogovro","steam_id":76561199163618880,"connected_time":670000000000,"state":"active","ping":54},{"user_id":313,"name":"Gimmick","steam_id":76561198065873462,"connected_time":316000000000,"state":"active","ping":47},{"user_id":314,"name":"gaming Furry (gaming)","steam_id":76561199002826853,"connected_time":310000000000,"state":"active","ping":189},{"user_id":315,"name":"Mr. Stockington","steam_id":76561198091354032,"connected_time":304000000000,"state":"active","ping":43},{"user_id":316,"name":"Bartholomew DingleNut","steam_id":76561198011238088,"connected_time":302000000000,"state":"active","ping":65}]},{"server_id":112,"name":"Uncletopia | Los Angeles | 2 | All Maps","name_short":"lax-2","host":"lax-1.us.uncletopia.com","port":27025,"enabled":true,"region":"us-west","cc":"us","latitude":33.94279,"longitude":-118.41004,"reserved":0,"last_update":"0001-01-01T00:00:00Z","name_a2s":"Uncletopia | Los Angeles | 2 | All Maps","protocol":17,"map":"pl_pier","folder":"tf","game":"Team Fortress","app_id":440,"player_count":14,"max_players":24,"Bots":0,"server_type":"Dedicated","server_os":"Linux","password":true,"vac":true,"version":"7723704","steam_id":85568392924469992,"keywords":["nocrits","nodmgspread","payload","uncletopia"],"game_id":440,"stv_port":27026,"stv_name":"Uncletopia | Los Angeles | 2 | All Maps | STV","players":[{"user_id":164,"name":"Anderazor","steam_id":76561199230927204,"connected_time":61000000000,"state":"active","ping":167},{"user_id":119,"name":"sin","steam_id":76561198145987627,"connected_time":3064000000000,"state":"active","ping":107},{"user_id":161,"name":"F2Player","steam_id":76561199446699562,"connected_time":201000000000,"state":"active","ping":119},{"user_id":159,"name":"Stimpry","steam_id":76561199055662248,"connected_time":370000000000,"state":"active","ping":43},{"user_id":163,"name":"asbestos taste tester","steam_id":76561198161043251,"connected_time":168000000000,"state":"active","ping":116},{"user_id":153,"name":"jrmadmallard","steam_id":76561198275994616,"connected_time":880000000000,"state":"active","ping":83},{"user_id":147,"name":"luigiclub112233","steam_id":76561198180548194,"connected_time":1531000000000,"state":"active","ping":81},{"user_id":139,"name":"gibbonfreak","steam_id":76561198864545608,"connected_time":2111000000000,"state":"active","ping":63},{"user_id":143,"name":"blabbyfish","steam_id":76561199086535912,"connected_time":1840000000000,"state":"active","ping":62},{"user_id":146,"name":"TheGhostThatWas","steam_id":76561198055836483,"connected_time":1614000000000,"state":"active","ping":96},{"user_id":154,"name":"tweet","steam_id":76561198166515735,"connected_time":812000000000,"state":"active","ping":52},{"user_id":150,"name":"LazyDoll","steam_id":76561198053186338,"connected_time":1364000000000,"state":"active","ping":49},{"user_id":140,"name":"Lord of the Moon","steam_id":76561198014115769,"connected_time":2094000000000,"state":"active","ping":104},{"user_id":151,"name":"Charles Wagon","steam_id":76561198007906671,"connected_time":1351000000000,"state":"active","ping":90}]},{"server_id":324,"name":"Uncletopia | Los Angeles | 3 | All Maps","name_short":"lax-3","host":"lax-1.us.uncletopia.com","port":27035,"enabled":true,"region":"us-west","cc":"us","latitude":33.94279,"longitude":-118.41004,"reserved":0,"last_update":"0001-01-01T00:00:00Z","name_a2s":"Uncletopia | Los Angeles | 3 | All Maps","protocol":17,"map":"pl_swiftwater_final1","folder":"tf","game":"Team Fortress","app_id":440,"player_count":24,"max_players":24,"Bots":0,"server_type":"Dedicated","server_os":"Linux","password":true,"vac":true,"version":"7723704","steam_id":85568392924510198,"keywords":["nocrits","nodmgspread","payload","uncletopia"],"game_id":440,"stv_port":27036,"stv_name":"Uncletopia | Los Angeles | 3 | All Maps | STV","players":[{"user_id":139,"name":"[❤] Dummy Donkey!  ♥","steam_id":76561198041498538,"connected_time":2253000000000,"state":"active","ping":116},{"user_id":112,"name":"original joke","steam_id":76561199194587482,"connected_time":4443000000000,"state":"active","ping":74},{"user_id":122,"name":"Token","steam_id":76561198067814426,"connected_time":2992000000000,"state":"active","ping":81},{"user_id":136,"name":"Arbiter Soul (Urine Enthusiast)","steam_id":76561198067798973,"connected_time":2476000000000,"state":"active","ping":65},{"user_id":149,"name":"Biznickel","steam_id":76561199422511230,"connected_time":1765000000000,"state":"active","ping":75},{"user_id":161,"name":"jawnymac","steam_id":76561198179529599,"connected_time":928000000000,"state":"active","ping":64},{"user_id":151,"name":"Jacklaggins22","steam_id":76561198082386007,"connected_time":1623000000000,"state":"active","ping":117},{"user_id":160,"name":"SuaveFrenchman","steam_id":76561198043762683,"connected_time":955000000000,"state":"active","ping":58},{"user_id":66,"name":"Moonflower ✦","steam_id":76561198191782483,"connected_time":6362000000000,"state":"active","ping":59},{"user_id":165,"name":"Gengarfield","steam_id":76561198052506289,"connected_time":656000000000,"state":"active","ping":61},{"user_id":166,"name":"kid69","steam_id":76561199221355485,"connected_time":567000000000,"state":"active","ping":119},{"user_id":150,"name":"merge without looking","steam_id":76561198975450630,"connected_time":1759000000000,"state":"active","ping":76},{"user_id":145,"name":"dep","steam_id":76561198044106812,"connected_time":1971000000000,"state":"active","ping":90},{"user_id":134,"name":"AnalConquest666","steam_id":76561198218558897,"connected_time":2597000000000,"state":"active","ping":116},{"user_id":167,"name":"Strange Potato","steam_id":76561199059013304,"connected_time":557000000000,"state":"active","ping":61},{"user_id":159,"name":"GoldenFPS","steam_id":76561198086092430,"connected_time":1007000000000,"state":"active","ping":59},{"user_id":168,"name":"rimble","steam_id":76561198150137369,"connected_time":554000000000,"state":"active","ping":46},{"user_id":158,"name":"Levi_OP","steam_id":76561198294711717,"connected_time":1229000000000,"state":"active","ping":83},{"user_id":157,"name":"brotherman.bill.2006","steam_id":76561198192328107,"connected_time":1398000000000,"state":"active","ping":141},{"user_id":169,"name":"Markiplier Jumpscare","steam_id":76561198374711043,"connected_time":506000000000,"state":"active","ping":92},{"user_id":111,"name":"lokm","steam_id":76561198030374238,"connected_time":4589000000000,"state":"active","ping":56},{"user_id":171,"name":"Shen Bapiro lurks in the shadow","steam_id":76561199209834538,"connected_time":11000000000,"state":"active","ping":88},{"user_id":164,"name":"mike hawk","steam_id":76561198094806066,"connected_time":788000000000,"state":"active","ping":92},{"user_id":170,"name":"Pescado","steam_id":76561198122437426,"connected_time":462000000000,"state":"active","ping":92}]},{"server_id":25,"name":"Uncletopia | Los Angeles | 4 | Stopwatch Beta","name_short":"lax-4","host":"lax-1.us.uncletopia.com","port":27045,"enabled":true,"region":"us-west","cc":"us","latitude":33.94279,"longitude":-118.41004,"reserved":0,"last_update":"0001-01-01T00:00:00Z","name_a2s":"Uncletopia | Los Angeles | 4 | Stopwatch Beta","protocol":17,"map":"workshop/pl_barnblitz_pro7.ugc582280235","folder":"tf","game":"Team Fortress","app_id":440,"player_count":0,"max_players":24,"Bots":0,"server_type":"Dedicated","server_os":"Linux","password":true,"vac":true,"version":"7723704","steam_id":85568392924510199,"keywords":["nocrits","nodmgspread","payload","uncletopia"],"game_id":440,"stv_port":27046,"stv_name":"Uncletopia | Los Angeles | 4 | Stopwatch Beta | STV","players":null},{"server_id":11,"name":"Uncletopia | London | 1 | All Maps","name_short":"lon-1","host":"lon-1.uk.uncletopia.com","port":27015,"enabled":true,"region":"eu","cc":"gb","latitude":51.509865,"longitude":-0.118092,"reserved":0,"last_update":"0001-01-01T00:00:00Z","name_a2s":"Uncletopia | London | 1 | All Maps","protocol":17,"map":"cp_sunshine","folder":"tf","game":"Team Fortress","app_id":440,"player_count":0,"max_players":24,"Bots":0,"server_type":"Dedicated","server_os":"Linux","password":true,"vac":true,"version":"7723704","steam_id":85568392924367362,"keywords":["cp","nocrits","nodmgspread","uncletopia"],"game_id":440,"stv_port":27016,"stv_name":"Uncletopia | London | 1 | All Maps | STV","players":null},{"server_id":114,"name":"Uncletopia | London | 2 | All Maps","name_short":"lon-2","host":"lon-1.uk.uncletopia.com","port":27025,"enabled":true,"region":"eu","cc":"gb","latitude":51.509865,"longitude":-0.118092,"reserved":0,"last_update":"0001-01-01T00:00:00Z","name_a2s":"Uncletopia | London | 2 | All Maps","protocol":17,"map":"pl_borneo","folder":"tf","game":"Team Fortress","app_id":440,"player_count":23,"max_players":24,"Bots":0,"server_type":"Dedicated","server_os":"Linux","password":true,"vac":true,"version":"7723704","steam_id":85568392924470941,"keywords":["nocrits","nodmgspread","payload","uncletopia"],"game_id":440,"stv_port":27026,"stv_name":"Uncletopia | London | 2 | All Maps | STV","players":[{"user_id":913,"name":"dnl","steam_id":76561198074156929,"connected_time":407000000000,"state":"active","ping":72},{"user_id":912,"name":"Hyperek","steam_id":76561198130797464,"connected_time":570000000000,"state":"active","ping":74},{"user_id":879,"name":"Sarip","steam_id":76561198113330438,"connected_time":3184000000000,"state":"active","ping":45},{"user_id":844,"name":"DUSTY_","steam_id":76561197971095392,"connected_time":6225000000000,"state":"active","ping":45},{"user_id":845,"name":"Har-V","steam_id":76561197988595276,"connected_time":6214000000000,"state":"active","ping":34},{"user_id":902,"name":"KITE MAN!  HELL YEAH!","steam_id":76561198079386295,"connected_time":1294000000000,"state":"active","ping":46},{"user_id":886,"name":"who asked","steam_id":76561198834897089,"connected_time":3106000000000,"state":"active","ping":70},{"user_id":813,"name":"Scanty™","steam_id":76561198012084287,"connected_time":8032000000000,"state":"active","ping":152},{"user_id":917,"name":"Mackerel","steam_id":76561198105915167,"connected_time":36000000000,"state":"active","ping":36},{"user_id":915,"name":"Un4given","steam_id":76561198147078303,"connected_time":124000000000,"state":"active","ping":77},{"user_id":869,"name":"Grand Wizard","steam_id":76561199414716848,"connected_time":4251000000000,"state":"active","ping":75},{"user_id":892,"name":"TheNeonRaider","steam_id":76561197994526230,"connected_time":2180000000000,"state":"active","ping":37},{"user_id":889,"name":"SuperBob103","steam_id":76561199175360012,"connected_time":2513000000000,"state":"active","ping":45},{"user_id":906,"name":"Mex","steam_id":76561198108279631,"connected_time":984000000000,"state":"active","ping":104},{"user_id":897,"name":"TaiDni","steam_id":76561198087750392,"connected_time":1755000000000,"state":"active","ping":49},{"user_id":908,"name":"Tachanka","steam_id":76561198329246233,"connected_time":823000000000,"state":"active","ping":45},{"user_id":909,"name":"Not Steven","steam_id":76561198051881261,"connected_time":722000000000,"state":"active","ping":44},{"user_id":776,"name":"catboy trickster","steam_id":76561198075665211,"connected_time":9597000000000,"state":"active","ping":50},{"user_id":910,"name":"JugoTopia","steam_id":76561197996067209,"connected_time":715000000000,"state":"active","ping":111},{"user_id":894,"name":"Polygunner","steam_id":76561199165741650,"connected_time":2043000000000,"state":"active","ping":127},{"user_id":911,"name":"Biblo Ballbaggins","steam_id":76561198070593514,"connected_time":654000000000,"state":"active","ping":58},{"user_id":891,"name":"stun","steam_id":76561198276681691,"connected_time":2214000000000,"state":"active","ping":44},{"user_id":916,"name":"jones","steam_id":76561198044434971,"connected_time":120000000000,"state":"active","ping":62}]},{"server_id":320,"name":"Uncletopia | London | 3 | All Maps","name_short":"lon-3","host":"lon-1.uk.uncletopia.com","port":27035,"enabled":true,"region":"eu","cc":"gb","latitude":51.509865,"longitude":-0.118092,"reserved":0,"last_update":"0001-01-01T00:00:00Z","name_a2s":"Uncletopia | London | 3 | All Maps","protocol":17,"map":"cp_altitude","folder":"tf","game":"Team Fortress","app_id":440,"player_count":4,"max_players":24,"Bots":0,"server_type":"Dedicated","server_os":"Linux","password":true,"vac":true,"version":"7723704","steam_id":85568392924510192,"keywords":["cp","nocrits","nodmgspread","uncletopia"],"game_id":440,"stv_port":27036,"stv_name":"Uncletopia | London | 3 | All Maps | STV","players":[{"user_id":606,"name":"metallic girlboss","steam_id":76561198845468781,"connected_time":2028000000000,"state":"active","ping":68},{"user_id":596,"name":"the concept of bisexuality","steam_id":76561198369503920,"connected_time":8051000000000,"state":"active","ping":117},{"user_id":607,"name":"fishydids","steam_id":76561198057317819,"connected_time":1747000000000,"state":"active","ping":44},{"user_id":610,"name":"n1trix","steam_id":76561199088330792,"connected_time":264000000000,"state":"active","ping":138}]},{"server_id":321,"name":"Uncletopia | London | 4 | All Maps","name_short":"lon-4","host":"lon-1.uk.uncletopia.com","port":27045,"enabled":true,"region":"eu","cc":"gb","latitude":51.509865,"longitude":-0.118092,"reserved":0,"last_update":"0001-01-01T00:00:00Z","name_a2s":"Uncletopia | London | 4 | All Maps","protocol":17,"map":"pl_badwater","folder":"tf","game":"Team Fortress","app_id":440,"player_count":0,"max_players":24,"Bots":0,"server_type":"Dedicated","server_os":"Linux","password":true,"vac":true,"version":"7723704","steam_id":85568392924510193,"keywords":["nocrits","nodmgspread","payload","uncletopia"],"game_id":440,"stv_port":27046,"stv_name":"Uncletopia | London | 4 | All Maps | STV","players":null},{"server_id":21,"name":"Uncletopia | London | 5 | All Maps","name_short":"lon-5","host":"lon-1.uk.uncletopia.com","port":27055,"enabled":true,"region":"eu","cc":"gb","latitude":51.509865,"longitude":-0.118092,"reserved":0,"last_update":"0001-01-01T00:00:00Z","name_a2s":"Uncletopia | London | 5 | All Maps","protocol":17,"map":"pl_frontier_final","folder":"tf","game":"Team Fortress","app_id":440,"player_count":0,"max_players":24,"Bots":0,"server_type":"Dedicated","server_os":"Linux","password":true,"vac":true,"version":"7723704","steam_id":85568392924742829,"keywords":["nocrits","nodmgspread","payload","uncletopia"],"game_id":440,"stv_port":27056,"stv_name":"Uncletopia | London | 5 | All Maps | STV","players":null},{"server_id":22,"name":"Uncletopia | London | 6 | All Maps","name_short":"lon-6","host":"lon-1.uk.uncletopia.com","port":27065,"enabled":true,"region":"eu","cc":"gb","latitude":51.509865,"longitude":-0.118092,"reserved":0,"last_update":"0001-01-01T00:00:00Z","name_a2s":"Uncletopia | London | 6 | All Maps","protocol":17,"map":"pl_snowycoast","folder":"tf","game":"Team Fortress","app_id":440,"player_count":0,"max_players":24,"Bots":0,"server_type":"Dedicated","server_os":"Linux","password":true,"vac":true,"version":"7723704","steam_id":85568392924742830,"keywords":["nocrits","nodmgspread","payload","uncletopia"],"game_id":440,"stv_port":27066,"stv_name":"Uncletopia | London | 6 | All Maps | STV","players":null},{"server_id":40,"name":"Uncletopia | London | 7 | No Payload","name_short":"lon-7","host":"lon-1.uk.uncletopia.com","port":27075,"enabled":true,"region":"eu","cc":"gb","latitude":51.509865,"longitude":-0.118092,"reserved":0,"last_update":"0001-01-01T00:00:00Z","name_a2s":"Uncletopia | London | 7 | No Payload","protocol":17,"map":"koth_lazarus","folder":"tf","game":"Team Fortress","app_id":440,"player_count":0,"max_players":24,"Bots":0,"server_type":"Dedicated","server_os":"Linux","password":true,"vac":true,"version":"7723704","steam_id":85568392924964314,"keywords":["cp","nocrits","nodmgspread","uncletopia"],"game_id":440,"stv_port":27076,"stv_name":"Uncletopia | London | 7 | No Payload | STV","players":null},{"server_id":41,"name":"Uncletopia | London | 8 | Community","name_short":"lon-8","host":"lon-1.uk.uncletopia.com","port":27085,"enabled":true,"region":"eu","cc":"gb","latitude":51.509865,"longitude":-0.118092,"reserved":0,"last_update":"0001-01-01T00:00:00Z","name_a2s":"Uncletopia | London | 8 | Community","protocol":17,"map":"workshop/koth_bagel_rc5.ugc2514036946","folder":"tf","game":"Team Fortress","app_id":440,"player_count":0,"max_players":24,"Bots":0,"server_type":"Dedicated","server_os":"Linux","password":true,"vac":true,"version":"7723704","steam_id":85568392924964315,"keywords":["cp","nocrits","nodmgspread","uncletopia"],"game_id":440,"stv_port":27086,"stv_name":"Uncletopia | London | 8 | Community | STV","players":null},{"server_id":300,"name":"Uncletopia | Montréal | 1 | All Maps","name_short":"mtl-1","host":"mtl-1.ca.uncletopia.com","port":27015,"enabled":true,"region":"us-east","cc":"ca","latitude":45.50889,"longitude":-73.56167,"reserved":0,"last_update":"0001-01-01T00:00:00Z","name_a2s":"Uncletopia | Montréal | 1 | All Maps","protocol":17,"map":"pl_snowycoast","folder":"tf","game":"Team Fortress","app_id":440,"player_count":0,"max_players":24,"Bots":0,"server_type":"Dedicated","server_os":"Linux","password":true,"vac":true,"version":"7723704","steam_id":85568392924500087,"keywords":["nocrits","nodmgspread","payload","uncletopia"],"game_id":440,"stv_port":27016,"stv_name":"Uncletopia | Montréal | 1 | All Maps | STV","players":null},{"server_id":301,"name":"Uncletopia | Montréal | 2 | All Maps","name_short":"mtl-2","host":"mtl-1.ca.uncletopia.com","port":27025,"enabled":true,"region":"us-east","cc":"ca","latitude":45.50889,"longitude":-73.56167,"reserved":0,"last_update":"0001-01-01T00:00:00Z","name_a2s":"Uncletopia | Montréal | 2 | All Maps","protocol":17,"map":"koth_cascade","folder":"tf","game":"Team Fortress","app_id":440,"player_count":0,"max_players":24,"Bots":0,"server_type":"Dedicated","server_os":"Linux","password":true,"vac":true,"version":"7723704","steam_id":85568392924500088,"keywords":["cp","nocrits","nodmgspread","uncletopia"],"game_id":440,"stv_port":27026,"stv_name":"Uncletopia | Montréal | 2 | All Maps | STV","players":null},{"server_id":302,"name":"Uncletopia | Montréal | 3 | All Maps","name_short":"mtl-3","host":"mtl-1.ca.uncletopia.com","port":27035,"enabled":true,"region":"us-east","cc":"ca","latitude":45.50889,"longitude":-73.56167,"reserved":0,"last_update":"0001-01-01T00:00:00Z","name_a2s":"Uncletopia | Montréal | 3 | All Maps","protocol":17,"map":"pl_barnblitz","folder":"tf","game":"Team Fortress","app_id":440,"player_count":0,"max_players":24,"Bots":0,"server_type":"Dedicated","server_os":"Linux","password":true,"vac":true,"version":"7723704","steam_id":85568392924500089,"keywords":["nocrits","nodmgspread","payload","uncletopia"],"game_id":440,"stv_port":27036,"stv_name":"Uncletopia | Montréal | 3 | All Maps | STV","players":null},{"server_id":303,"name":"Uncletopia | Montréal | 4 | No Payload","name_short":"mtl-4","host":"mtl-1.ca.uncletopia.com","port":27045,"enabled":true,"region":"us-east","cc":"ca","latitude":45.50889,"longitude":-73.56167,"reserved":0,"last_update":"0001-01-01T00:00:00Z","name_a2s":"Uncletopia | Montréal | 4 | No Payload","protocol":17,"map":"koth_cascade","folder":"tf","game":"Team Fortress","app_id":440,"player_count":0,"max_players":24,"Bots":0,"server_type":"Dedicated","server_os":"Linux","password":true,"vac":true,"version":"7723704","steam_id":85568392924500090,"keywords":["cp","nocrits","nodmgspread","uncletopia"],"game_id":440,"stv_port":27046,"stv_name":"Uncletopia | Montréal | 4 | No Payload | STV","players":null},{"server_id":13,"name":"Uncletopia | New York City | 1 | All Maps","name_short":"nyc-1","host":"nyc-1.us.uncletopia.com","port":27015,"enabled":true,"region":"us-east","cc":"us","latitude":40.73061,"longitude":-73.93524,"reserved":0,"last_update":"0001-01-01T00:00:00Z","name_a2s":"Uncletopia | New York City | 1 | All Maps","protocol":17,"map":"cp_dustbowl","folder":"tf","game":"Team Fortress","app_id":440,"player_count":24,"max_players":24,"Bots":0,"server_type":"Dedicated","server_os":"Linux","password":true,"vac":true,"version":"7723704","steam_id":85568392924469993,"keywords":["cp","nocrits","nodmgspread","uncletopia"],"game_id":440,"stv_port":27016,"stv_name":"Uncletopia | New York City | 1 | All Maps | STV","players":[{"user_id":223,"name":"fatcat","steam_id":76561197993786013,"connected_time":461000000000,"state":"active","ping":49},{"user_id":207,"name":"AguaAzul","steam_id":76561199070874254,"connected_time":1530000000000,"state":"active","ping":57},{"user_id":217,"name":"e | ham mafia |","steam_id":76561198273711158,"connected_time":853000000000,"state":"active","ping":61},{"user_id":185,"name":"Iridescity","steam_id":76561198081446822,"connected_time":3550000000000,"state":"active","ping":82},{"user_id":194,"name":"BRAINTUMOR123","steam_id":76561198065687874,"connected_time":2297000000000,"state":"active","ping":81},{"user_id":213,"name":"Gog","steam_id":76561198142283872,"connected_time":916000000000,"state":"active","ping":39},{"user_id":211,"name":"Madrox Who?","steam_id":76561197988859134,"connected_time":1195000000000,"state":"active","ping":80},{"user_id":195,"name":"matchstick","steam_id":76561198190100027,"connected_time":2290000000000,"state":"active","ping":45},{"user_id":165,"name":"oxy","steam_id":76561198089770351,"connected_time":4895000000000,"state":"active","ping":95},{"user_id":137,"name":"Bearegard","steam_id":76561198061926542,"connected_time":7520000000000,"state":"active","ping":78},{"user_id":183,"name":"M249 | Spectre","steam_id":76561198118334485,"connected_time":3776000000000,"state":"active","ping":63},{"user_id":214,"name":"Electric Camel","steam_id":76561198065589663,"connected_time":914000000000,"state":"active","ping":55},{"user_id":215,"name":"MitcheyHD","steam_id":76561198066489645,"connected_time":913000000000,"state":"active","ping":64},{"user_id":216,"name":"Davie","steam_id":76561198041982671,"connected_time":901000000000,"state":"active","ping":53},{"user_id":218,"name":"chexo4","steam_id":76561198150532531,"connected_time":849000000000,"state":"active","ping":53},{"user_id":186,"name":"Buttstuff","steam_id":76561198170452815,"connected_time":3073000000000,"state":"active","ping":86},{"user_id":221,"name":"des","steam_id":76561198079226634,"connected_time":782000000000,"state":"active","ping":65},{"user_id":181,"name":"mocolata","steam_id":76561198023757872,"connected_time":3898000000000,"state":"active","ping":109},{"user_id":210,"name":"Lane","steam_id":76561197965828506,"connected_time":1267000000000,"state":"active","ping":59},{"user_id":140,"name":"ECCO","steam_id":76561198002821513,"connected_time":7419000000000,"state":"active","ping":73},{"user_id":219,"name":"LazyKoala99","steam_id":76561199183623672,"connected_time":829000000000,"state":"active","ping":59},{"user_id":199,"name":"GLIZZY GOBBLER","steam_id":76561198010170901,"connected_time":2274000000000,"state":"active","ping":90},{"user_id":222,"name":"Nosferatu","steam_id":76561198048205270,"connected_time":678000000000,"state":"active","ping":62},{"user_id":191,"name":"Ballin \u0026 Can't Get Up","steam_id":76561198047394013,"connected_time":2650000000000,"state":"active","ping":65}]},{"server_id":14,"name":"Uncletopia | New York City | 2 | All Maps","name_short":"nyc-2","host":"nyc-1.us.uncletopia.com","port":27025,"enabled":true,"region":"us-east","cc":"us","latitude":40.73061,"longitude":-73.93524,"reserved":0,"last_update":"0001-01-01T00:00:00Z","name_a2s":"Uncletopia | New York City | 2 | All Maps","protocol":17,"map":"cp_dustbowl","folder":"tf","game":"Team Fortress","app_id":440,"player_count":24,"max_players":24,"Bots":0,"server_type":"Dedicated","server_os":"Linux","password":true,"vac":true,"version":"7723704","steam_id":85568392924469994,"keywords":["cp","nocrits","nodmgspread","uncletopia"],"game_id":440,"stv_port":27026,"stv_name":"Uncletopia | New York City | 2 | All Maps | STV","players":[{"user_id":86,"name":"Dilbert","steam_id":76561198195613682,"connected_time":2616000000000,"state":"active","ping":70},{"user_id":101,"name":"matkaster","steam_id":76561197998546486,"connected_time":1417000000000,"state":"active","ping":80},{"user_id":64,"name":"Spirit","steam_id":76561199069322627,"connected_time":4524000000000,"state":"active","ping":58},{"user_id":113,"name":"jodie.blend","steam_id":76561198140701807,"connected_time":624000000000,"state":"active","ping":87},{"user_id":62,"name":"Jed","steam_id":76561198068156860,"connected_time":4646000000000,"state":"active","ping":66},{"user_id":111,"name":"xXcLaImEd__ReApErXx [F2P]","steam_id":76561198067232540,"connected_time":635000000000,"state":"active","ping":85},{"user_id":92,"name":"Shilbert","steam_id":76561199050046612,"connected_time":2172000000000,"state":"active","ping":83},{"user_id":73,"name":"Donut_Boy","steam_id":76561198101983317,"connected_time":3912000000000,"state":"active","ping":70},{"user_id":69,"name":"alexthepenguin7","steam_id":76561198390154448,"connected_time":4187000000000,"state":"active","ping":80},{"user_id":114,"name":"miki","steam_id":76561198331374895,"connected_time":605000000000,"state":"active","ping":103},{"user_id":99,"name":"Chewbacca","steam_id":76561198041927925,"connected_time":1821000000000,"state":"active","ping":56},{"user_id":112,"name":"skyrim the third","steam_id":76561198053164901,"connected_time":635000000000,"state":"active","ping":90},{"user_id":89,"name":"Kilbert","steam_id":76561198254454239,"connected_time":2438000000000,"state":"active","ping":78},{"user_id":120,"name":"Braamklauw","steam_id":76561198283287697,"connected_time":5000000000,"state":"spawning","ping":129},{"user_id":70,"name":"Young-OG","steam_id":76561198058800479,"connected_time":4149000000000,"state":"active","ping":87},{"user_id":77,"name":"neet","steam_id":76561197968115168,"connected_time":3742000000000,"state":"active","ping":45},{"user_id":84,"name":"Amogus The Sussy Baka ඞ","steam_id":76561198008577961,"connected_time":2801000000000,"state":"active","ping":63},{"user_id":65,"name":"soulsmu","steam_id":76561198022663285,"connected_time":4475000000000,"state":"active","ping":70},{"user_id":119,"name":"snoozie","steam_id":76561198147875257,"connected_time":41000000000,"state":"active","ping":111},{"user_id":116,"name":"Nnyllazxz","steam_id":76561198247797436,"connected_time":569000000000,"state":"active","ping":57},{"user_id":85,"name":"xXb3nz0_1uv3rXx","steam_id":76561198057536994,"connected_time":2790000000000,"state":"active","ping":62},{"user_id":106,"name":"Snail","steam_id":76561198153026006,"connected_time":963000000000,"state":"active","ping":104},{"user_id":90,"name":"Gilbert","steam_id":76561198377977256,"connected_time":2186000000000,"state":"active","ping":75},{"user_id":100,"name":"Try Gardening","steam_id":76561198120311340,"connected_time":1817000000000,"state":"active","ping":66}]},{"server_id":15,"name":"Uncletopia | New York City | 3 | Stopwatch Beta","name_short":"nyc-3","host":"nyc-1.us.uncletopia.com","port":27035,"enabled":true,"region":"us-east","cc":"us","latitude":40.73061,"longitude":-73.93524,"reserved":0,"last_update":"0001-01-01T00:00:00Z","name_a2s":"Uncletopia | New York City | 3 | Stopwatch Beta","protocol":17,"map":"cp_sunshine","folder":"tf","game":"Team Fortress","app_id":440,"player_count":0,"max_players":24,"Bots":0,"server_type":"Dedicated","server_os":"Linux","password":true,"vac":true,"version":"7723704","steam_id":85568392924742820,"keywords":["cp","nocrits","nodmgspread","uncletopia"],"game_id":440,"stv_port":27036,"stv_name":"Uncletopia | New York City | 3 | Stopwatch Beta | STV","players":null},{"server_id":16,"name":"Uncletopia | New York City | 4 | Community","name_short":"nyc-4","host":"nyc-1.us.uncletopia.com","port":27045,"enabled":true,"region":"us-east","cc":"us","latitude":40.73061,"longitude":-73.93524,"reserved":0,"last_update":"0001-01-01T00:00:00Z","name_a2s":"Uncletopia | New York City | 4 | Community","protocol":17,"map":"workshop/koth_synthetic_rc6a.ugc1549817316","folder":"tf","game":"Team Fortress","app_id":440,"player_count":0,"max_players":24,"Bots":0,"server_type":"Dedicated","server_os":"Linux","password":true,"vac":true,"version":"7723704","steam_id":85568392924742821,"keywords":["cp","nocrits","nodmgspread","uncletopia"],"game_id":440,"stv_port":27046,"stv_name":"Uncletopia | New York City | 4 | Community | STV","players":null},{"server_id":142,"name":"Uncletopia | São Paulo | 1 | All Maps","name_short":"sao-1","host":"sao-1.br.uncletopia.com","port":27015,"enabled":true,"region":"sa","cc":"br","latitude":-23.533773,"longitude":-46.62529,"reserved":0,"last_update":"0001-01-01T00:00:00Z","name_a2s":"Uncletopia | São Paulo | 1 | All Maps","protocol":17,"map":"pl_barnblitz","folder":"tf","game":"Team Fortress","app_id":440,"player_count":0,"max_players":24,"Bots":0,"server_type":"Dedicated","server_os":"Linux","password":true,"vac":true,"version":"7723704","steam_id":85568392924469996,"keywords":["nocrits","nodmgspread","payload","uncletopia"],"game_id":440,"stv_port":27016,"stv_name":"Uncletopia | São Paulo | 1 | All Maps | STV","players":null},{"server_id":143,"name":"Uncletopia | São Paulo | 2 | All Maps","name_short":"sao-2","host":"sao-2.br.uncletopia.com","port":27015,"enabled":true,"region":"sa","cc":"br","latitude":-23.533773,"longitude":-46.62529,"reserved":0,"last_update":"0001-01-01T00:00:00Z","name_a2s":"Uncletopia | São Paulo | 2 | All Maps","protocol":17,"map":"koth_lakeside_final","folder":"tf","game":"Team Fortress","app_id":440,"player_count":0,"max_players":24,"Bots":0,"server_type":"Dedicated","server_os":"Linux","password":true,"vac":true,"version":"7723704","steam_id":85568392924485349,"keywords":["cp","nocrits","nodmgspread","uncletopia"],"game_id":440,"stv_port":27016,"stv_name":"Uncletopia | São Paulo | 2 | All Maps | STV","players":null},{"server_id":7,"name":"Uncletopia | Seattle | 1 | All Maps","name_short":"sea-1","host":"sea-1.us.uncletopia.com","port":27015,"enabled":true,"region":"us-west","cc":"us","latitude":47.608013,"longitude":-122.33517,"reserved":0,"last_update":"0001-01-01T00:00:00Z","name_a2s":"Uncletopia | Seattle | 1 | All Maps","protocol":17,"map":"pl_swiftwater_final1","folder":"tf","game":"Team Fortress","app_id":440,"player_count":24,"max_players":24,"Bots":0,"server_type":"Dedicated","server_os":"Linux","password":true,"vac":true,"version":"7723704","steam_id":85568392924469997,"keywords":["nocrits","nodmgspread","payload","uncletopia"],"game_id":440,"stv_port":27016,"stv_name":"Uncletopia | Seattle | 1 | All Maps | STV","players":[{"user_id":770,"name":"brobtlcehc","steam_id":76561198043558709,"connected_time":818000000000,"state":"active","ping":45},{"user_id":744,"name":"spill","steam_id":76561198082337619,"connected_time":3188000000000,"state":"active","ping":123},{"user_id":717,"name":"chiarraz","steam_id":76561198277439571,"connected_time":4112000000000,"state":"active","ping":104},{"user_id":769,"name":"Killroy NQP ❤","steam_id":76561198006983771,"connected_time":965000000000,"state":"active","ping":129},{"user_id":781,"name":"spenca","steam_id":76561198025371154,"connected_time":246000000000,"state":"active","ping":80},{"user_id":766,"name":"sleepy","steam_id":76561198288663776,"connected_time":1087000000000,"state":"active","ping":55},{"user_id":742,"name":"Weeniedoinks","steam_id":76561199033290976,"connected_time":3287000000000,"state":"active","ping":101},{"user_id":768,"name":"resting neutral face","steam_id":76561197999259502,"connected_time":1069000000000,"state":"active","ping":61},{"user_id":771,"name":"suoosh","steam_id":76561198801471800,"connected_time":688000000000,"state":"active","ping":51},{"user_id":729,"name":"Yucho","steam_id":76561198148751724,"connected_time":3634000000000,"state":"active","ping":81},{"user_id":782,"name":"J. Cash","steam_id":76561198078626283,"connected_time":163000000000,"state":"active","ping":43},{"user_id":765,"name":"Joy in A Box","steam_id":76561198156820753,"connected_time":1336000000000,"state":"active","ping":180},{"user_id":684,"name":"mumbles","steam_id":76561197994528974,"connected_time":6819000000000,"state":"active","ping":76},{"user_id":689,"name":"blinkerton city","steam_id":76561198054270410,"connected_time":6775000000000,"state":"active","ping":56},{"user_id":720,"name":"Hermit not Kermit","steam_id":76561198106182525,"connected_time":3883000000000,"state":"active","ping":61},{"user_id":773,"name":"nglishanhvan","steam_id":76561199105274847,"connected_time":627000000000,"state":"active","ping":55},{"user_id":778,"name":"Raian","steam_id":76561199138048671,"connected_time":425000000000,"state":"active","ping":74},{"user_id":775,"name":"UR_Therapist","steam_id":76561199233122368,"connected_time":587000000000,"state":"active","ping":53},{"user_id":776,"name":"Scout.tf","steam_id":76561199241807676,"connected_time":577000000000,"state":"active","ping":53},{"user_id":722,"name":"Ayayahuasca","steam_id":76561199002906056,"connected_time":3757000000000,"state":"active","ping":46},{"user_id":713,"name":"shiadyne","steam_id":76561198271939793,"connected_time":4522000000000,"state":"active","ping":48},{"user_id":730,"name":"mean penguin","steam_id":76561198174751517,"connected_time":3631000000000,"state":"active","ping":77},{"user_id":783,"name":"Zee❤","steam_id":76561198274550638,"connected_time":133000000000,"state":"active","ping":115},{"user_id":777,"name":"scout.tf2","steam_id":76561199262262606,"connected_time":573000000000,"state":"active","ping":60}]},{"server_id":119,"name":"Uncletopia | Seattle | 2 | All Maps","name_short":"sea-2","host":"sea-1.us.uncletopia.com","port":27025,"enabled":true,"region":"us-west","cc":"us","latitude":47.608013,"longitude":-122.33517,"reserved":0,"last_update":"0001-01-01T00:00:00Z","name_a2s":"Uncletopia | Seattle | 2 | All Maps","protocol":17,"map":"cp_process_final","folder":"tf","game":"Team Fortress","app_id":440,"player_count":19,"max_players":24,"Bots":0,"server_type":"Dedicated","server_os":"Linux","password":true,"vac":true,"version":"7723704","steam_id":85568392924469998,"keywords":["cp","nocrits","nodmgspread","uncletopia"],"game_id":440,"stv_port":27026,"stv_name":"Uncletopia | Seattle | 2 | All Maps | STV","players":[{"user_id":234,"name":"Rude Dog","steam_id":76561197980385816,"connected_time":153000000000,"state":"active","ping":62},{"user_id":235,"name":"SlothWrangler","steam_id":76561198131322716,"connected_time":23000000000,"state":"active","ping":44},{"user_id":163,"name":"SuperGamerConnor","steam_id":76561199194306437,"connected_time":5504000000000,"state":"active","ping":53},{"user_id":228,"name":"Ugly Mick Mars","steam_id":76561198051504563,"connected_time":1398000000000,"state":"active","ping":55},{"user_id":223,"name":"weed boner","steam_id":76561198034131572,"connected_time":1588000000000,"state":"active","ping":23},{"user_id":165,"name":"Idontknow","steam_id":76561199207044048,"connected_time":4480000000000,"state":"active","ping":47},{"user_id":236,"name":"Zultrafury","steam_id":76561198099284163,"connected_time":5000000000,"state":"spawning","ping":89},{"user_id":230,"name":"KellyKapoor","steam_id":76561198040828123,"connected_time":1056000000000,"state":"active","ping":39},{"user_id":170,"name":"Cosmosis Jones","steam_id":76561198970097093,"connected_time":4228000000000,"state":"active","ping":101},{"user_id":218,"name":"Fishsick lord","steam_id":76561198887904255,"connected_time":1739000000000,"state":"active","ping":110},{"user_id":194,"name":"Bagaboned","steam_id":76561198043761335,"connected_time":3316000000000,"state":"active","ping":51},{"user_id":231,"name":"pyro main","steam_id":76561198292632824,"connected_time":1006000000000,"state":"active","ping":172},{"user_id":232,"name":"Dr. Banana boy","steam_id":76561199012105803,"connected_time":895000000000,"state":"active","ping":49},{"user_id":205,"name":"moe","steam_id":76561198929586245,"connected_time":2820000000000,"state":"active","ping":76},{"user_id":233,"name":"E4Estrogen","steam_id":76561198085813708,"connected_time":674000000000,"state":"active","ping":108},{"user_id":225,"name":"K.A.R.M.A.","steam_id":76561198240750142,"connected_time":1568000000000,"state":"active","ping":74},{"user_id":226,"name":"Tromboner","steam_id":76561198101850500,"connected_time":1542000000000,"state":"active","ping":40},{"user_id":212,"name":"Dad Rock Deluxe","steam_id":76561198051224819,"connected_time":1952000000000,"state":"active","ping":90},{"user_id":227,"name":"AFK AFK","steam_id":76561198054134242,"connected_time":1536000000000,"state":"active","ping":41}]},{"server_id":406,"name":"Uncletopia | Seattle | 3 | Stopwatch Beta","name_short":"sea-3","host":"sea-1.us.uncletopia.com","port":27035,"enabled":true,"region":"us-west","cc":"us","latitude":47.608013,"longitude":-122.33517,"reserved":0,"last_update":"0001-01-01T00:00:00Z","name_a2s":"Uncletopia | Seattle | 3 | Stopwatch Beta","protocol":17,"map":"cp_altitude","folder":"tf","game":"Team Fortress","app_id":440,"player_count":0,"max_players":24,"Bots":0,"server_type":"Dedicated","server_os":"Linux","password":true,"vac":false,"version":"7723704","steam_id":0,"keywords":["cp","nocrits","nodmgspread","uncletopia"],"game_id":440,"stv_port":27036,"stv_name":"Uncletopia | Seattle | 3 | Stopwatch Beta | STV","players":null},{"server_id":17,"name":"Uncletopia | San Francisco | 1 | All Maps","name_short":"sfo-1","host":"sfo-1.us.uncletopia.com","port":27015,"enabled":true,"region":"us-west","cc":"us","latitude":37.77397,"longitude":-122.4313,"reserved":0,"last_update":"0001-01-01T00:00:00Z","name_a2s":"Uncletopia | San Francisco | 1 | All Maps","protocol":17,"map":"pl_barnblitz","folder":"tf","game":"Team Fortress","app_id":440,"player_count":23,"max_players":24,"Bots":0,"server_type":"Dedicated","server_os":"Linux","password":true,"vac":true,"version":"7723704","steam_id":85568392924469999,"keywords":["nocrits","nodmgspread","payload","uncletopia"],"game_id":440,"stv_port":27016,"stv_name":"Uncletopia | San Francisco | 1 | All Maps | STV","players":[{"user_id":197,"name":"BreadGod","steam_id":76561198050665205,"connected_time":3609000000000,"state":"active","ping":111},{"user_id":189,"name":"lili.winters","steam_id":76561199391478575,"connected_time":3930000000000,"state":"active","ping":80},{"user_id":174,"name":"META? I HARDLY KNOW 'ER!","steam_id":76561198165696578,"connected_time":4858000000000,"state":"active","ping":59},{"user_id":232,"name":"UneditedAndy","steam_id":76561198982544947,"connected_time":149000000000,"state":"active","ping":58},{"user_id":209,"name":"Smiles","steam_id":76561198107197973,"connected_time":2266000000000,"state":"active","ping":105},{"user_id":219,"name":"Fajita Master","steam_id":76561198329150962,"connected_time":1498000000000,"state":"active","ping":94},{"user_id":180,"name":"❤ Ashley ❤","steam_id":76561198056428303,"connected_time":4345000000000,"state":"active","ping":51},{"user_id":224,"name":"beheeyem","steam_id":76561198042867745,"connected_time":1134000000000,"state":"active","ping":64},{"user_id":234,"name":"supcupman","steam_id":76561198051513866,"connected_time":105000000000,"state":"active","ping":56},{"user_id":233,"name":"Spare(8)Ball","steam_id":76561197982432995,"connected_time":139000000000,"state":"active","ping":59},{"user_id":213,"name":"Ion{M}","steam_id":76561197993457435,"connected_time":2171000000000,"state":"active","ping":112},{"user_id":217,"name":"Void","steam_id":76561198308290211,"connected_time":1602000000000,"state":"active","ping":66},{"user_id":223,"name":"Casper","steam_id":76561198012055967,"connected_time":1368000000000,"state":"active","ping":108},{"user_id":220,"name":"catgirl","steam_id":76561198020736672,"connected_time":1444000000000,"state":"active","ping":127},{"user_id":226,"name":"GreenApples","steam_id":76561198120559543,"connected_time":788000000000,"state":"active","ping":53},{"user_id":231,"name":"MarshallMellows","steam_id":76561198231561020,"connected_time":202000000000,"state":"active","ping":65},{"user_id":158,"name":"The 2nd Fit Scout","steam_id":76561198327632113,"connected_time":5852000000000,"state":"active","ping":65},{"user_id":132,"name":"The 1st Fit Scout","steam_id":76561197968179862,"connected_time":8506000000000,"state":"active","ping":67},{"user_id":201,"name":"stump","steam_id":76561198012653832,"connected_time":2855000000000,"state":"active","ping":109},{"user_id":221,"name":"\u003cM\u003e","steam_id":76561198028068603,"connected_time":1441000000000,"state":"active","ping":51},{"user_id":230,"name":"I’m Mr. White Christmas","steam_id":76561198393043568,"connected_time":240000000000,"state":"active","ping":114},{"user_id":185,"name":"Minerkid2004","steam_id":76561198044262827,"connected_time":4150000000000,"state":"active","ping":56},{"user_id":198,"name":"ikercard","steam_id":76561198821297273,"connected_time":3532000000000,"state":"active","ping":98}]},{"server_id":18,"name":"Uncletopia | San Francisco | 2 | All Maps","name_short":"sfo-2","host":"sfo-1.us.uncletopia.com","port":27025,"enabled":true,"region":"us-west","cc":"us","latitude":37.77397,"longitude":-122.4313,"reserved":0,"last_update":"0001-01-01T00:00:00Z","name_a2s":"Uncletopia | San Francisco | 2 | All Maps","protocol":17,"map":"pl_snowycoast","folder":"tf","game":"Team Fortress","app_id":440,"player_count":0,"max_players":24,"Bots":0,"server_type":"Dedicated","server_os":"Linux","password":true,"vac":true,"version":"7723704","steam_id":85568392924470000,"keywords":["nocrits","nodmgspread","payload","uncletopia"],"game_id":440,"stv_port":27026,"stv_name":"Uncletopia | San Francisco | 2 | All Maps | STV","players":null},{"server_id":19,"name":"Uncletopia | San Francisco | 3 | Stopwatch Beta","name_short":"sfo-3","host":"sfo-1.us.uncletopia.com","port":27035,"enabled":true,"region":"us-west","cc":"us","latitude":37.77397,"longitude":-122.4313,"reserved":0,"last_update":"0001-01-01T00:00:00Z","name_a2s":"Uncletopia | San Francisco | 3 | Stopwatch Beta","protocol":17,"map":"pl_pier","folder":"tf","game":"Team Fortress","app_id":440,"player_count":1,"max_players":24,"Bots":0,"server_type":"Dedicated","server_os":"Linux","password":true,"vac":true,"version":"7723704","steam_id":85568392924742824,"keywords":["nocrits","nodmgspread","payload","uncletopia"],"game_id":440,"stv_port":27036,"stv_name":"Uncletopia | San Francisco | 3 | Stopwatch Beta | STV","players":[{"user_id":6,"name":"Weeb2400","steam_id":76561199078930696,"connected_time":454000000000,"state":"active","ping":68}]},{"server_id":20,"name":"Uncletopia | San Francisco | 4 | Community","name_short":"sfo-4","host":"sfo-1.us.uncletopia.com","port":27045,"enabled":true,"region":"us-west","cc":"us","latitude":37.77397,"longitude":-122.4313,"reserved":0,"last_update":"0001-01-01T00:00:00Z","name_a2s":"Uncletopia | San Francisco | 4 | Community","protocol":17,"map":"workshop/koth_product_final.ugc454272353","folder":"tf","game":"Team Fortress","app_id":440,"player_count":2,"max_players":24,"Bots":0,"server_type":"Dedicated","server_os":"Linux","password":true,"vac":true,"version":"7723704","steam_id":85568392924742826,"keywords":["cp","nocrits","nodmgspread","uncletopia"],"game_id":440,"stv_port":27046,"stv_name":"Uncletopia | San Francisco | 4 | Community | STV","players":[{"user_id":63,"name":"IknikBlackstoneVerrickStan","steam_id":76561199177169563,"connected_time":2062000000000,"state":"active","ping":96},{"user_id":62,"name":"BeansAndRice","steam_id":76561199239381361,"connected_time":2166000000000,"state":"active","ping":157}]},{"server_id":141,"name":"Uncletopia | Sydney | 1 | All Maps","name_short":"syd-1","host":"syd-1.au.uncletopia.com","port":27015,"enabled":true,"region":"au","cc":"au","latitude":-33.865143,"longitude":151.2099,"reserved":0,"last_update":"0001-01-01T00:00:00Z","name_a2s":"Uncletopia | Sydney | 1 | All Maps","protocol":17,"map":"cp_mountainlab","folder":"tf","game":"Team Fortress","app_id":440,"player_count":24,"max_players":24,"Bots":0,"server_type":"Dedicated","server_os":"Linux","password":true,"vac":true,"version":"7723704","steam_id":85568392924470001,"keywords":["cp","nocrits","nodmgspread","uncletopia"],"game_id":440,"stv_port":27016,"stv_name":"Uncletopia | Sydney | 1 | All Maps | STV","players":[{"user_id":68,"name":"wombraider","steam_id":76561199375834537,"connected_time":3524000000000,"state":"active","ping":131},{"user_id":124,"name":"LightningBlock","steam_id":76561198289997742,"connected_time":404000000000,"state":"active","ping":39},{"user_id":70,"name":"Coffee","steam_id":76561198072414195,"connected_time":3348000000000,"state":"active","ping":70},{"user_id":123,"name":"NewChris","steam_id":76561198254754182,"connected_time":432000000000,"state":"active","ping":69},{"user_id":108,"name":"bronido","steam_id":76561198397944277,"connected_time":1459000000000,"state":"active","ping":57},{"user_id":98,"name":"badmn","steam_id":76561198056462343,"connected_time":2148000000000,"state":"active","ping":56},{"user_id":94,"name":"invidia","steam_id":76561198096251579,"connected_time":2270000000000,"state":"active","ping":76},{"user_id":110,"name":"squrrel","steam_id":76561198083429611,"connected_time":1211000000000,"state":"active","ping":77},{"user_id":131,"name":"Tain","steam_id":76561198255611856,"connected_time":32000000000,"state":"active","ping":67},{"user_id":121,"name":"KuraiGOD","steam_id":76561198067641096,"connected_time":437000000000,"state":"active","ping":48},{"user_id":130,"name":"Pellagra","steam_id":76561198072383513,"connected_time":160000000000,"state":"active","ping":40},{"user_id":126,"name":"Bonk Collecter","steam_id":76561199145396854,"connected_time":350000000000,"state":"active","ping":50},{"user_id":112,"name":"gaming","steam_id":76561198267552367,"connected_time":1056000000000,"state":"active","ping":68},{"user_id":91,"name":"bogan on a fence","steam_id":76561198052032702,"connected_time":2460000000000,"state":"active","ping":53},{"user_id":119,"name":"RAT","steam_id":76561198127537103,"connected_time":688000000000,"state":"active","ping":51},{"user_id":122,"name":"SinisterMagnus","steam_id":76561198133867907,"connected_time":436000000000,"state":"active","ping":78},{"user_id":118,"name":"michael","steam_id":76561198052848358,"connected_time":804000000000,"state":"active","ping":62},{"user_id":83,"name":"helix","steam_id":76561198046509091,"connected_time":2667000000000,"state":"active","ping":48},{"user_id":113,"name":"plainNsane","steam_id":76561198204747579,"connected_time":1000000000000,"state":"active","ping":66},{"user_id":92,"name":"Local Trash Expert","steam_id":76561198145598622,"connected_time":2453000000000,"state":"active","ping":78},{"user_id":95,"name":"speed bomb","steam_id":76561198277363788,"connected_time":2232000000000,"state":"active","ping":79},{"user_id":120,"name":"BBXXZombie","steam_id":76561198361910361,"connected_time":499000000000,"state":"active","ping":58},{"user_id":61,"name":"UglyBarnicle","steam_id":76561198075921599,"connected_time":4205000000000,"state":"active","ping":103},{"user_id":128,"name":"The church of bonk","steam_id":76561198431895445,"connected_time":331000000000,"state":"active","ping":64}]},{"server_id":123,"name":"Uncletopia | Sydney | 2 | All Maps","name_short":"syd-2","host":"syd-1.au.uncletopia.com","port":27025,"enabled":true,"region":"au","cc":"au","latitude":-33.865143,"longitude":151.2099,"reserved":0,"last_update":"0001-01-01T00:00:00Z","name_a2s":"Uncletopia | Sydney | 2 | All Maps","protocol":17,"map":"pl_swiftwater_final1","folder":"tf","game":"Team Fortress","app_id":440,"player_count":0,"max_players":24,"Bots":0,"server_type":"Dedicated","server_os":"Linux","password":true,"vac":true,"version":"7723704","steam_id":85568392924470002,"keywords":["nocrits","nodmgspread","payload","uncletopia"],"game_id":440,"stv_port":27026,"stv_name":"Uncletopia | Sydney | 2 | All Maps | STV","players":null},{"server_id":395,"name":"Uncletopia | Sydney | 3 | All Maps","name_short":"syd-3","host":"syd-1.au.uncletopia.com","port":27035,"enabled":true,"region":"au","cc":"au","latitude":-33.865143,"longitude":151.2099,"reserved":0,"last_update":"0001-01-01T00:00:00Z","name_a2s":"Uncletopia | Sydney | 3 | All Maps","protocol":17,"map":"pl_barnblitz","folder":"tf","game":"Team Fortress","app_id":440,"player_count":0,"max_players":24,"Bots":0,"server_type":"Dedicated","server_os":"Linux","password":true,"vac":true,"version":"7723704","steam_id":85568392925194467,"keywords":["nocrits","nodmgspread","payload","uncletopia"],"game_id":440,"stv_port":27036,"stv_name":"Uncletopia | Sydney | 3 | All Maps | STV","players":null},{"server_id":396,"name":"Uncletopia | Sydney | 4 | All Maps","name_short":"syd-4","host":"syd-1.au.uncletopia.com","port":27045,"enabled":true,"region":"au","cc":"au","latitude":-33.865143,"longitude":151.2099,"reserved":0,"last_update":"0001-01-01T00:00:00Z","name_a2s":"Uncletopia | Sydney | 4 | All Maps","protocol":17,"map":"pl_swiftwater_final1","folder":"tf","game":"Team Fortress","app_id":440,"player_count":0,"max_players":24,"Bots":0,"server_type":"Dedicated","server_os":"Linux","password":true,"vac":true,"version":"7723704","steam_id":85568392925397958,"keywords":["nocrits","nodmgspread","payload","uncletopia"],"game_id":440,"stv_port":27046,"stv_name":"Uncletopia | Sydney | 4 | All Maps | STV","players":null},{"server_id":58,"name":"Uncletopia | Sydney | 5 | Stopwatch Beta","name_short":"syd-5","host":"syd-1.au.uncletopia.com","port":27055,"enabled":true,"region":"au","cc":"au","latitude":-33.865143,"longitude":151.2099,"reserved":0,"last_update":"0001-01-01T00:00:00Z","name_a2s":"Uncletopia | Sydney | 5 | Stopwatch Beta","protocol":17,"map":"cp_altitude","folder":"tf","game":"Team Fortress","app_id":440,"player_count":0,"max_players":24,"Bots":0,"server_type":"Dedicated","server_os":"Linux","password":true,"vac":true,"version":"7723704","steam_id":85568392925397959,"keywords":["cp","nocrits","nodmgspread","uncletopia"],"game_id":440,"stv_port":27056,"stv_name":"Uncletopia | Sydney | 5 | Stopwatch Beta | STV","players":null},{"server_id":59,"name":"Uncletopia | Sydney | 6 | Community","name_short":"syd-6","host":"syd-1.au.uncletopia.com","port":27065,"enabled":true,"region":"au","cc":"au","latitude":-33.865143,"longitude":151.2099,"reserved":0,"last_update":"0001-01-01T00:00:00Z","name_a2s":"Uncletopia | Sydney | 6 | Community","protocol":17,"map":"pl_frontier_final","folder":"tf","game":"Team Fortress","app_id":440,"player_count":0,"max_players":24,"Bots":0,"server_type":"Dedicated","server_os":"Linux","password":true,"vac":true,"version":"7723704","steam_id":85568392925397960,"keywords":["nocrits","nodmgspread","payload","uncletopia"],"game_id":440,"stv_port":27066,"stv_name":"Uncletopia | Sydney | 6 | Community | STV","players":null},{"server_id":49,"name":"Uncletopia | Warsaw | 1 | All Maps","name_short":"waw-1","host":"waw-1.pl.uncletopia.com","port":27015,"enabled":true,"region":"eu","cc":"pl","latitude":52.2297,"longitude":21.017532,"reserved":0,"last_update":"0001-01-01T00:00:00Z","name_a2s":"Uncletopia | Warsaw | 1 | All Maps","protocol":17,"map":"koth_cascade","folder":"tf","game":"Team Fortress","app_id":440,"player_count":0,"max_players":24,"Bots":0,"server_type":"Dedicated","server_os":"Linux","password":true,"vac":true,"version":"7723704","steam_id":85568392925397850,"keywords":["cp","nocrits","nodmgspread","uncletopia"],"game_id":440,"stv_port":27016,"stv_name":"Uncletopia | Warsaw | 1 | All Maps | STV","players":null},{"server_id":50,"name":"Uncletopia | Warsaw | 2 | All Maps","name_short":"waw-2","host":"waw-1.pl.uncletopia.com","port":27025,"enabled":true,"region":"eu","cc":"pl","latitude":52.2297,"longitude":21.017532,"reserved":0,"last_update":"0001-01-01T00:00:00Z","name_a2s":"Uncletopia | Warsaw | 2 | All Maps","protocol":17,"map":"koth_viaduct","folder":"tf","game":"Team Fortress","app_id":440,"player_count":0,"max_players":24,"Bots":0,"server_type":"Dedicated","server_os":"Linux","password":true,"vac":true,"version":"7723704","steam_id":85568392925397851,"keywords":["cp","nocrits","nodmgspread","uncletopia"],"game_id":440,"stv_port":27026,"stv_name":"Uncletopia | Warsaw | 2 | All Maps | STV","players":null},{"server_id":51,"name":"Uncletopia | Warsaw | 3 | All Maps","name_short":"waw-3","host":"waw-1.pl.uncletopia.com","port":27035,"enabled":true,"region":"eu","cc":"pl","latitude":52.2297,"longitude":21.017532,"reserved":0,"last_update":"0001-01-01T00:00:00Z","name_a2s":"Uncletopia | Warsaw | 3 | All Maps","protocol":17,"map":"koth_viaduct","folder":"tf","game":"Team Fortress","app_id":440,"player_count":0,"max_players":24,"Bots":0,"server_type":"Dedicated","server_os":"Linux","password":true,"vac":true,"version":"7723704","steam_id":85568392925397852,"keywords":["cp","nocrits","nodmgspread","uncletopia"],"game_id":440,"stv_port":27036,"stv_name":"Uncletopia | Warsaw | 3 | All Maps | STV","players":null},{"server_id":52,"name":"Uncletopia | Warsaw | 4 | All Maps","name_short":"waw-4","host":"waw-1.pl.uncletopia.com","port":27045,"enabled":true,"region":"eu","cc":"pl","latitude":52.2297,"longitude":21.017532,"reserved":0,"last_update":"0001-01-01T00:00:00Z","name_a2s":"Uncletopia | Warsaw | 4 | All Maps","protocol":17,"map":"koth_viaduct","folder":"tf","game":"Team Fortress","app_id":440,"player_count":0,"max_players":24,"Bots":0,"server_type":"Dedicated","server_os":"Linux","password":true,"vac":true,"version":"7723704","steam_id":85568392925397853,"keywords":["cp","nocrits","nodmgspread","uncletopia"],"game_id":440,"stv_port":27046,"stv_name":"Uncletopia | Warsaw | 4 | All Maps | STV","players":null},{"server_id":53,"name":"Uncletopia | Warsaw | 5 | Stopwatch Beta","name_short":"waw-5","host":"waw-1.pl.uncletopia.com","port":27055,"enabled":true,"region":"eu","cc":"pl","latitude":52.2297,"longitude":21.017532,"reserved":0,"last_update":"0001-01-01T00:00:00Z","name_a2s":"Uncletopia | Warsaw | 5 | Stopwatch Beta","protocol":17,"map":"cp_sunshine","folder":"tf","game":"Team Fortress","app_id":440,"player_count":0,"max_players":24,"Bots":0,"server_type":"Dedicated","server_os":"Linux","password":true,"vac":true,"version":"7723704","steam_id":85568392925397854,"keywords":["cp","nocrits","nodmgspread","uncletopia"],"game_id":440,"stv_port":27056,"stv_name":"Uncletopia | Warsaw | 5 | Stopwatch Beta | STV","players":null},{"server_id":54,"name":"Uncletopia | Warsaw | 6 | Community","name_short":"waw-6","host":"waw-1.pl.uncletopia.com","port":27065,"enabled":true,"region":"eu","cc":"pl","latitude":52.2297,"longitude":21.017532,"reserved":0,"last_update":"0001-01-01T00:00:00Z","name_a2s":"Uncletopia | Warsaw | 6 | Community","protocol":17,"map":"workshop/koth_slaughter_rc1.ugc1712845210","folder":"tf","game":"Team Fortress","app_id":440,"player_count":0,"max_players":24,"Bots":0,"server_type":"Dedicated","server_os":"Linux","password":true,"vac":true,"version":"7723704","steam_id":85568392925397856,"keywords":["cp","nocrits","nodmgspread","uncletopia"],"game_id":440,"stv_port":27066,"stv_name":"Uncletopia | Warsaw | 6 | Community | STV","players":null}]}