{"status":true,"message":"","result":[{"server_id":9,"name":"Uncletopia | Atlanta | 1 | All Maps","name_short":"atl-1","host":"atl-1.us.uncletopia.com","port":27015,"enabled":true,"region":"us-east","cc":"us","latitude":33.753746,"longitude":-84.38633,"reserved":0,"last_update":"0001-01-01T00:00:00Z","name_a2s":"Uncletopia | Atlanta | 1 | All Maps","protocol":17,"map":"pl_snowycoast","folder":"tf","game":"Team Fortress","app_id":440,"player_count":0,"max_players":24,"Bots":0,"server_type":"Dedicated","server_os":"Linux","password":true,"vac":true,"version":"7742253","steam_id":85568392924469982,"keywords":["nocrits","nodmgspread","payload","uncletopia"],"game_id":440,"stv_port":27016,"stv_name":"Uncletopia | Atlanta | 1 | All Maps | STV","players":null},{"server_id":400,"name":"Uncletopia | Atlanta | 3 | Stopwatch Beta","name_short":"atl-3","host":"atl-1.us.uncletopia.com","port":27035,"enabled":true,"region":"us-east","cc":"us","latitude":33.753746,"longitude":-84.38633,"reserved":0,"last_update":"0001-01-01T00:00:00Z","name_a2s":"Uncletopia | Atlanta | 3 | Stopwatch Beta","protocol":17,"map":"pl_pier","folder":"tf","game":"Team Fortress","app_id":440,"player_count":0,"max_players":24,"Bots":0,"server_type":"Dedicated","server_os":"Linux","password":true,"vac":true,"version":"7742253","steam_id":85568392924515187,"keywords":["nocrits","nodmgspread","payload","uncletopia"],"game_id":440,"stv_port":27036,"stv_name":"Uncletopia | Atlanta | 3 | Stopwatch Beta | STV","players":null},{"server_id":401,"name":"Uncletopia | Atlanta | 4 | No Payload","name_short":"atl-4","host":"atl-1.us.uncletopia.com","port":27045,"enabled":true,"region":"us-east","cc":"us","latitude":33.753746,"longitude":-84.38633,"reserved":0,"last_update":"0001-01-01T00:00:00Z","name_a2s":"Uncletopia | Atlanta | 4 | No Payload","protocol":17,"map":"pl_pier","folder":"tf","game":"Team Fortress","app_id":440,"player_count":0,"max_players":24,"Bots":0,"server_type":"Dedicated","server_os":"Linux","password":true,"vac":true,"version":"7723704","steam_id":85568392924515188,"keywords":["nocrits","nodmgspread","payload","uncletopia"],"game_id":440,"stv_port":27046,"stv_name":"Uncletopia | Atlanta | 4 | No Payload | STV","players":null},{"server_id":2,"name":"Uncletopia | Chicago | 1 | All Maps","name_short":"chi-1","host":"chi-1.us.uncletopia.com","port":27015,"enabled":true,"region":"us-central","cc":"us","latitude":41.881832,"longitude":-87.62318,"reserved":0,"last_update":"0001-01-01T00:00:00Z","name_a2s":"Uncletopia | Chicago | 1 | All Maps","protocol":17,"map":"koth_viaduct","folder":"tf","game":"Team Fortress","app_id":440,"player_count":0,"max_players":24,"Bots":0,"server_type":"Dedicated","server_os":"Linux","password":true,"vac":true,"version":"7742253","steam_id":85568392924469984,"keywords":["cp","nocrits","nodmgspread","uncletopia"],"game_id":440,"stv_port":27016,"stv_name":"Uncletopia | Chicago | 1 | All Maps | STV","players":null},{"server_id":106,"name":"Uncletopia | Chicago | 2 | All Maps","name_short":"chi-2","host":"chi-1.us.uncletopia.com","port":27025,"enabled":true,"region":"us-central","cc":"us","latitude":41.881832,"longitude":-87.62318,"reserved":0,"last_update":"0001-01-01T00:00:00Z","name_a2s":"Uncletopia | Chicago | 2 | All Maps","protocol":17,"map":"pl_snowycoast","folder":"tf","game":"Team Fortress","app_id":440,"player_count":0,"max_players":24,"Bots":0,"server_type":"Dedicated","server_os":"Linux","password":true,"vac":true,"version":"7742253","steam_id":85568392924469985,"keywords":["nocrits","nodmgspread","payload","uncletopia"],"game_id":440,"stv_port":27026,"stv_name":"Uncletopia | Chicago | 2 | All Maps | STV","players":null},{"server_id":402,"name":"Uncletopia | Chicago | 3 | All Maps","name_short":"chi-3","host":"chi-1.us.uncletopia.com","port":27035,"enabled":true,"region":"us-central","cc":"us","latitude":41.881832,"longitude":-87.62318,"reserved":0,"last_update":"0001-01-01T00:00:00Z","name_a2s":"Uncletopia | Chicago | 3 | All Maps","protocol":17,"map":"koth_viaduct","folder":"tf","game":"Team Fortress","app_id":440,"player_count":0,"max_players":24,"Bots":0,"server_type":"Dedicated","server_os":"Linux","password":true,"vac":true,"version":"7742253","steam_id":85568392924515191,"keywords":["cp","nocrits","nodmgspread","uncletopia"],"game_id":440,"stv_port":27036,"stv_name":"Uncletopia | Chicago | 3 | All Maps | STV","players":null},{"server_id":403,"name":"Uncletopia | Chicago | 4 | All Maps","name_short":"chi-4","host":"chi-1.us.uncletopia.com","port":27045,"enabled":true,"region":"us-central","cc":"us","latitude":41.881832,"longitude":-87.62318,"reserved":0,"last_update":"0001-01-01T00:00:00Z","name_a2s":"Uncletopia | Chicago | 4 | All Maps","protocol":17,"map":"koth_lakeside_final","folder":"tf","game":"Team Fortress","app_id":440,"player_count":0,"max_players":24,"Bots":0,"server_type":"Dedicated","server_os":"Linux","password":true,"vac":true,"version":"7742253","steam_id":85568392924515193,"keywords":["cp","nocrits","nodmgspread","uncletopia"],"game_id":440,"stv_port":27046,"stv_name":"Uncletopia | Chicago | 4 | All Maps | STV","players":null},{"server_id":36,"name":"Uncletopia | Chicago | 5 | All Maps","name_short":"chi-5","host":"chi-2.us.uncletopia.com","port":27015,"enabled":true,"region":"us-central","cc":"us","latitude":41.881832,"longitude":-87.62318,"reserved":0,"last_update":"0001-01-01T00:00:00Z","name_a2s":"Uncletopia | Chicago | 5 | All Maps","protocol":17,"map":"pl_badwater","folder":"tf","game":"Team Fortress","app_id":440,"player_count":23,"max_players":24,"Bots":0,"server_type":"Dedicated","server_os":"Linux","password":true,"vac":true,"version":"7742253","steam_id":85568392924866362,"keywords":["nocrits","nodmgspread","payload","uncletopia"],"game_id":440,"stv_port":27016,"stv_name":"Uncletopia | Chicago | 5 | All Maps | STV","players":[{"user_id":87,"name":"That_one_Useless_Guy","steam_id":76561199122356477,"connected_time":406000000000,"state":"active","ping":153},{"user_id":91,"name":"suna militisto","steam_id":76561198352926998,"connected_time":180000000000,"state":"active","ping":181},{"user_id":46,"name":"technoninja395","steam_id":76561199368978007,"connected_time":3353000000000,"state":"active","ping":59},{"user_id":83,"name":"BIG NOSE","steam_id":76561198046434204,"connected_time":808000000000,"state":"active","ping":78},{"user_id":86,"name":"richard clock","steam_id":76561198048455671,"connected_time":446000000000,"state":"active","ping":61},{"user_id":14,"name":"Casual Costanza","steam_id":76561198024409325,"connected_time":7806000000000,"state":"active","ping":63},{"user_id":73,"name":"kametro4","steam_id":76561198835430429,"connected_time":1205000000000,"state":"active","ping":86},{"user_id":74,"name":"Fuegan Ra","steam_id":76561198287923849,"connected_time":1193000000000,"state":"active","ping":55},{"user_id":67,"name":"Toaster","steam_id":76561198856398048,"connected_time":2287000000000,"state":"active","ping":86},{"user_id":41,"name":"Souper Scott","steam_id":76561198045518926,"connected_time":4245000000000,"state":"active","ping":53},{"user_id":16,"name":"StŒürm","steam_id":76561198140983063,"connected_time":7539000000000,"state":"active","ping":67},{"user_id":84,"name":"SkyLark","steam_id":76561198303618132,"connected_time":545000000000,"state":"active","ping":97},{"user_id":76,"name":"1000 Ping","steam_id":76561198098330939,"connected_time":1155000000000,"state":"active","ping":119},{"user_id":68,"name":"Dexter","steam_id":76561198050149035,"connected_time":1762000000000,"state":"active","ping":63},{"user_id":89,"name":"jamkel #savetf2","steam_id":76561199088464666,"connected_time":365000000000,"state":"active","ping":210},{"user_id":66,"name":"Rick Assley","steam_id":76561198365019199,"connected_time":2303000000000,"state":"active","ping":60},{"user_id":80,"name":"Totally Original Name","steam_id":76561199376462977,"connected_time":1021000000000,"state":"active","ping":113},{"user_id":70,"name":"Do Moose go Moo?","steam_id":76561198073550620,"connected_time":1529000000000,"state":"active","ping":59},{"user_id":82,"name":"1_berserker","steam_id":76561197992905340,"connected_time":909000000000,"state":"active","ping":67},{"user_id":92,"name":"forklift circumcised","steam_id":76561198278756087,"connected_time":74000000000,"state":"connecting","ping":0},{"user_id":90,"name":"munki„ÉÑ","steam_id":76561198841270249,"connected_time":340000000000,"state":"active","ping":57},{"user_id":69,"name":"Shoop!","steam_id":76561198960010297,"connected_time":1759000000000,"state":"active","ping":50},{"user_id":62,"name":"Jawbone17","steam_id":76561198043939302,"connected_time":2766000000000,"state":"active","ping":118}]},{"server_id":37,"name":"Uncletopia | Chicago | 6 | All Maps","name_short":"chi-6","host":"chi-2.us.uncletopia.com","port":27025,"enabled":true,"region":"us-central","cc":"us","latitude":41.881832,"longitude":-87.62318,"reserved":0,"last_update":"0001-01-01T00:00:00Z","name_a2s":"Uncletopia | Chicago | 6 | All Maps","protocol":17,"map":"cp_sunshine","folder":"tf","game":"Team Fortress","app_id":440,"player_count":0,"max_players":24,"Bots":0,"server_type":"Dedicated","server_os":"Linux","password":true,"vac":true,"version":"7742253","steam_id":85568392924866363,"keywords":["cp","nocrits","nodmgspread","uncletopia"],"game_id":440,"stv_port":27026,"stv_name":"Uncletopia | Chicago | 6 | All Maps | STV","players":null},{"server_id":38,"name":"Uncletopia | Chicago | 7 | Stopwatch Beta","name_short":"chi-7","host":"chi-2.us.uncletopia.com","port":27035,"enabled":true,"region":"us-central","cc":"us","latitude":41.881832,"longitude":-87.62318,"reserved":0,"last_update":"0001-01-01T00:00:00Z","name_a2s":"Uncletopia | Chicago | 7 | Stopwatch Beta","protocol":17,"map":"koth_lakeside_final","folder":"tf","game":"Team Fortress","app_id":440,"player_count":0,"max_players":24,"Bots":0,"server_type":"Dedicated","server_os":"Linux","password":true,"vac":true,"version":"7742253","steam_id":85568392924866364,"keywords":["cp","nocrits","nodmgspread","uncletopia"],"game_id":440,"stv_port":27036,"stv_name":"Uncletopia | Chicago | 7 | Stopwatch Beta | STV","players":null},{"server_id":39,"name":"Uncletopia | Chicago | 8 | Community","name_short":"chi-8","host":"chi-2.us.uncletopia.com","port":27045,"enabled":true,"region":"us-central","cc":"us","latitude":41.881832,"longitude":-87.62318,"reserved":0,"last_update":"0001-01-01T00:00:00Z","name_a2s":"Uncletopia | Chicago | 8 | Community","protocol":17,"map":"koth_lakeside_final","folder":"tf","game":"Team Fortress","app_id":440,"player_count":0,"max_players":24,"Bots":0,"server_type":"Dedicated","server_os":"Linux","password":true,"vac":true,"version":"7742253","steam_id":85568392924866365,"keywords":["cp","nocrits","nodmgspread","uncletopia"],"game_id":440,"stv_port":27046,"stv_name":"Uncletopia | Chicago | 8 | Community | STV","players":null},{"server_id":8,"name":"Uncletopia | Dallas | 1 | All Maps","name_short":"dal-1","host":"dal-1.us.uncletopia.com","port":27015,"enabled":true,"region":"us-central","cc":"us","latitude":32.779167,"longitude":-96.80889,"reserved":0,"last_update":"0001-01-01T00:00:00Z","name_a2s":"Uncletopia | Dallas | 1 | All Maps","protocol":17,"map":"pl_borneo","folder":"tf","game":"Team Fortress","app_id":440,"player_count":23,"max_players":24,"Bots":0,"server_type":"Dedicated","server_os":"Linux","password":true,"vac":true,"version":"7742253","steam_id":85568392924469986,"keywords":["nocrits","nodmgspread","payload","uncletopia"],"game_id":440,"stv_port":27016,"stv_name":"Uncletopia | Dallas | 1 | All Maps | STV","players":[{"user_id":81,"name":"obbeymaster19","steam_id":76561199197244143,"connected_time":1605000000000,"state":"active","ping":82},{"user_id":74,"name":"bsrob","steam_id":76561197972148002,"connected_time":1896000000000,"state":"active","ping":81},{"user_id":5,"name":"That70sDog","steam_id":76561198119396142,"connected_time":7926000000000,"state":"active","ping":67},{"user_id":75,"name":"bdkaine1","steam_id":76561198133545467,"connected_time":1887000000000,"state":"active","ping":65},{"user_id":89,"name":"Mr. Pink","steam_id":76561198065858172,"connected_time":828000000000,"state":"active","ping":86},{"user_id":98,"name":"Vec","steam_id":76561198044505262,"connected_time":345000000000,"state":"active","ping":83},{"user_id":99,"name":"Silver","steam_id":76561197984187161,"connected_time":319000000000,"state":"active","ping":90},{"user_id":64,"name":"hola","steam_id":76561198873043242,"connected_time":2510000000000,"state":"active","ping":125},{"user_id":100,"name":"SCP-076-2","steam_id":76561198100942212,"connected_time":253000000000,"state":"active","ping":75},{"user_id":47,"name":"microwaving a cinnamon roll","steam_id":76561198328109873,"connected_time":4502000000000,"state":"active","ping":94},{"user_id":90,"name":"\"_Shark_\"","steam_id":76561199272691570,"connected_time":788000000000,"state":"active","ping":182},{"user_id":101,"name":"Zeenobae","steam_id":76561198042537808,"connected_time":251000000000,"state":"active","ping":88},{"user_id":72,"name":"ColonelKermit","steam_id":76561198318215660,"connected_time":1939000000000,"state":"active","ping":103},{"user_id":66,"name":"dosimeter","steam_id":76561198039608940,"connected_time":2486000000000,"state":"active","ping":103},{"user_id":95,"name":"KORF","steam_id":76561197981904410,"connected_time":476000000000,"state":"active","ping":86},{"user_id":106,"name":"Diatomaceous","steam_id":76561198333556852,"connected_time":108000000000,"state":"active","ping":136},{"user_id":86,"name":"demolondon the thrice","steam_id":76561198936116083,"connected_time":1334000000000,"state":"active","ping":132},{"user_id":103,"name":"Quakedad","steam_id":76561198055811307,"connected_time":233000000000,"state":"active","ping":143},{"user_id":54,"name":"who ate the cheese","steam_id":76561198275408467,"connected_time":3835000000000,"state":"active","ping":49},{"user_id":104,"name":"Sir Grey The Ranger","steam_id":76561198096235582,"connected_time":224000000000,"state":"active","ping":77},{"user_id":56,"name":"twitch.tv/fembotomy","steam_id":76561198102681457,"connected_time":3678000000000,"state":"active","ping":75},{"user_id":59,"name":"Red","steam_id":76561197998285162,"connected_time":3381000000000,"state":"active","ping":88},{"user_id":105,"name":"Octobella Enthusiast","steam_id":76561198199266047,"connected_time":217000000000,"state":"active","ping":68}]},{"server_id":108,"name":"Uncletopia | Dallas | 2 | All Maps","name_short":"dal-2","host":"dal-1.us.uncletopia.com","port":27025,"enabled":true,"region":"us-central","cc":"us","latitude":32.779167,"longitude":-96.80889,"reserved":0,"last_update":"0001-01-01T00:00:00Z","name_a2s":"Uncletopia | Dallas | 2 | All Maps","protocol":17,"map":"cp_process_final","folder":"tf","game":"Team Fortress","app_id":440,"player_count":0,"max_players":24,"Bots":0,"server_type":"Dedicated","server_os":"Linux","password":true,"vac":true,"version":"7742253","steam_id":85568392924469988,"keywords":["cp","nocrits","nodmgspread","uncletopia"],"game_id":440,"stv_port":27026,"stv_name":"Uncletopia | Dallas | 2 | All Maps | STV","players":null},{"server_id":5,"name":"Uncletopia | Frankfurt | 1 | All Maps","name_short":"frk-1","host":"frk-1.de.uncletopia.com","port":27015,"enabled":true,"region":"eu","cc":"de","latitude":50.110924,"longitude":8.682127,"reserved":0,"last_update":"0001-01-01T00:00:00Z","name_a2s":"Uncletopia | Frankfurt | 1 | All Maps","protocol":17,"map":"pl_badwater","folder":"tf","game":"Team Fortress","app_id":440,"player_count":24,"max_players":24,"Bots":0,"server_type":"Dedicated","server_os":"Linux","password":true,"vac":true,"version":"7742253","steam_id":85568392924469989,"keywords":["nocrits","nodmgspread","payload","uncletopia"],"game_id":440,"stv_port":27016,"stv_name":"Uncletopia | Frankfurt | 1 | All Maps | STV","players":[{"user_id":292,"name":"DeCypher","steam_id":76561198171992619,"connected_time":263000000000,"state":"active","ping":64},{"user_id":293,"name":"≈Ωgr√¶√êek113","steam_id":76561198306883632,"connected_time":262000000000,"state":"active","ping":67},{"user_id":298,"name":"dubysa","steam_id":76561198079774530,"connected_time":218000000000,"state":"active","ping":61},{"user_id":294,"name":"KGiorgios_Bully","steam_id":76561198825392728,"connected_time":259000000000,"state":"active","ping":121},{"user_id":300,"name":"default","steam_id":76561198186182298,"connected_time":92000000000,"state":"active","ping":47},{"user_id":233,"name":"Chilchang Billing","steam_id":76561197993300020,"connected_time":6068000000000,"state":"active","ping":61},{"user_id":209,"name":"yuh","steam_id":76561199005555839,"connected_time":7709000000000,"state":"active","ping":67},{"user_id":302,"name":"guarda-chuva","steam_id":76561198078694330,"connected_time":0,"state":"spawning","ping":29},{"user_id":263,"name":"F2P gameing","steam_id":76561198834713682,"connected_time":2950000000000,"state":"active","ping":76},{"user_id":283,"name":"spy gaming","steam_id":76561198992856112,"connected_time":946000000000,"state":"active","ping":106},{"user_id":295,"name":"man builds a sandcastle (rare)","steam_id":76561199012566222,"connected_time":256000000000,"state":"active","ping":52},{"user_id":250,"name":"Seail_M","steam_id":76561198002405605,"connected_time":4314000000000,"state":"active","ping":48},{"user_id":301,"name":"Pyromana","steam_id":76561198088421655,"connected_time":36000000000,"state":"active","ping":51},{"user_id":254,"name":"Teamtrevien","steam_id":76561198085513932,"connected_time":4250000000000,"state":"active","ping":71},{"user_id":278,"name":"SugipuLaur","steam_id":76561199138556623,"connected_time":1448000000000,"state":"active","ping":60},{"user_id":281,"name":"Alin","steam_id":76561198059679991,"connected_time":1073000000000,"state":"active","ping":87},{"user_id":234,"name":"...","steam_id":76561198969234594,"connected_time":6056000000000,"state":"active","ping":63},{"user_id":299,"name":"Useless Popcorn","steam_id":76561198083771985,"connected_time":163000000000,"state":"active","ping":195},{"user_id":297,"name":"Stoyach","steam_id":76561198042517412,"connected_time":246000000000,"state":"active","ping":56},{"user_id":267,"name":"Mr. Hunts","steam_id":76561197981910397,"connected_time":2624000000000,"state":"active","ping":71},{"user_id":284,"name":"Andreus","steam_id":76561199403926001,"connected_time":827000000000,"state":"active","ping":68},{"user_id":279,"name":"kotamine","steam_id":76561198068907991,"connected_time":1261000000000,"state":"active","ping":65},{"user_id":286,"name":"sharting","steam_id":76561198133782205,"connected_time":799000000000,"state":"active","ping":128},{"user_id":289,"name":"sweeterthy","steam_id":76561198356325792,"connected_time":614000000000,"state":"active","ping":105}]},{"server_id":110,"name":"Uncletopia | Frankfurt | 2 | All Maps","name_short":"frk-2","host":"frk-1.de.uncletopia.com","port":27025,"enabled":true,"region":"eu","cc":"de","latitude":50.110924,"longitude":8.682127,"reserved":0,"last_update":"0001-01-01T00:00:00Z","name_a2s":"Uncletopia | Frankfurt | 2 | All Maps","protocol":17,"map":"pl_swiftwater_final1","folder":"tf","game":"Team Fortress","app_id":440,"player_count":0,"max_players":24,"Bots":0,"server_type":"Dedicated","server_os":"Linux","password":true,"vac":true,"version":"7742253","steam_id":85568392924469990,"keywords":["nocrits","nodmgspread","payload","uncletopia"],"game_id":440,"stv_port":27026,"stv_name":"Uncletopia | Frankfurt | 2 | All Maps | STV","players":null},{"server_id":308,"name":"Uncletopia | Frankfurt | 3 | All Maps","name_short":"frk-3","host":"frk-1.de.uncletopia.com","port":27035,"enabled":true,"region":"eu","cc":"de","latitude":50.110924,"longitude":8.682127,"reserved":0,"last_update":"0001-01-01T00:00:00Z","name_a2s":"Uncletopia | Frankfurt | 3 | All Maps","protocol":17,"map":"pl_frontier_final","folder":"tf","game":"Team Fortress","app_id":440,"player_count":0,"max_players":24,"Bots":0,"server_type":"Dedicated","server_os":"Linux","password":true,"vac":true,"version":"7742253","steam_id":85568392924504274,"keywords":["nocrits","nodmgspread","payload","uncletopia"],"game_id":440,"stv_port":27036,"stv_name":"Uncletopia | Frankfurt | 3 | All Maps | STV","players":null},{"server_id":309,"name":"Uncletopia | Frankfurt | 4 | All Maps","name_short":"frk-4","host":"frk-1.de.uncletopia.com","port":27045,"enabled":true,"region":"eu","cc":"de","latitude":50.110924,"longitude":8.682127,"reserved":0,"last_update":"0001-01-01T00:00:00Z","name_a2s":"Uncletopia | Frankfurt | 4 | All Maps","protocol":17,"map":"pl_borneo","folder":"tf","game":"Team Fortress","app_id":440,"player_count":23,"max_players":24,"Bots":0,"server_type":"Dedicated","server_os":"Linux","password":true,"vac":true,"version":"7742253","steam_id":85568392924504275,"keywords":["nocrits","nodmgspread","payload","uncletopia"],"game_id":440,"stv_port":27046,"stv_name":"Uncletopia | Frankfurt | 4 | All Maps | STV","players":[{"user_id":71,"name":"Yony","steam_id":76561199070569941,"connected_time":80000000000,"state":"active","ping":50},{"user_id":54,"name":"kwasny","steam_id":76561199033981024,"connected_time":2494000000000,"state":"active","ping":75},{"user_id":66,"name":"anairat","steam_id":76561198863788240,"connected_time":506000000000,"state":"active","ping":76},{"user_id":64,"name":"Dominus.","steam_id":76561199065917088,"connected_time":770000000000,"state":"active","ping":64},{"user_id":46,"name":"L√∂ys√§ Masa","steam_id":76561198343396172,"connected_time":2857000000000,"state":"active","ping":88},{"user_id":67,"name":"skai (forced to try 4:3 again)","steam_id":76561198184881255,"connected_time":290000000000,"state":"active","ping":71},{"user_id":51,"name":"Tobi Kunn","steam_id":76561198361013020,"connected_time":2547000000000,"state":"active","ping":75},{"user_id":15,"name":"svepitos","steam_id":76561198287351235,"connected_time":3820000000000,"state":"active","ping":55},{"user_id":18,"name":"Graf von Scyth","steam_id":76561198198497733,"connected_time":3758000000000,"state":"active","ping":54},{"user_id":29,"name":"a gangsta","steam_id":76561198086709652,"connected_time":3426000000000,"state":"active","ping":62},{"user_id":74,"name":"Bamse","steam_id":76561198044587049,"connected_time":61000000000,"state":"active","ping":71},{"user_id":68,"name":"Dolcelatte","steam_id":76561198038501770,"connected_time":185000000000,"state":"active","ping":46},{"user_id":25,"name":"AforeKingDwarf","steam_id":76561198043562926,"connected_time":3551000000000,"state":"active","ping":59},{"user_id":26,"name":"Avoonix","steam_id":76561198186954897,"connected_time":3540000000000,"state":"active","ping":63},{"user_id":70,"name":"Creamy","steam_id":76561198063907478,"connected_time":114000000000,"state":"active","ping":66},{"user_id":31,"name":"kaT","steam_id":76561198879664338,"connected_time":3414000000000,"state":"active","ping":59},{"user_id":61,"name":"25CmOfDick!","steam_id":76561199233979726,"connected_time":1985000000000,"state":"active","ping":82},{"user_id":34,"name":"Cuthbert","steam_id":76561198204649481,"connected_time":3353000000000,"state":"active","ping":103},{"user_id":62,"name":"Clamor_","steam_id":76561198104368295,"connected_time":1978000000000,"state":"active","ping":89},{"user_id":76,"name":"Assassin","steam_id":76561199016050401,"connected_time":52000000000,"state":"active","ping":129},{"user_id":73,"name":"engie?","steam_id":76561198331852832,"connected_time":72000000000,"state":"active","ping":87},{"user_id":75,"name":"Bob_Tostas","steam_id":76561198249006560,"connected_time":59000000000,"state":"active","ping":85},{"user_id":44,"name":"El`Capitano Flex","steam_id":76561198061813730,"connected_time":3038000000000,"state":"active","ping":74}]},{"server_id":310,"name":"Uncletopia | Frankfurt | 5 | All Maps","name_short":"frk-5","host":"frk-1.de.uncletopia.com","port":27055,"enabled":true,"region":"eu","cc":"de","latitude":50.110924,"longitude":8.682127,"reserved":0,"last_update":"0001-01-01T00:00:00Z","name_a2s":"Uncletopia | Frankfurt | 5 | All Maps","protocol":17,"map":"cp_mountainlab","folder":"tf","game":"Team Fortress","app_id":440,"player_count":0,"max_players":24,"Bots":0,"server_type":"Dedicated","server_os":"Linux","password":true,"vac":true,"version":"7742253","steam_id":85568392924504277,"keywords":["cp","nocrits","nodmgspread","uncletopia"],"game_id":440,"stv_port":27056,"stv_name":"Uncletopia | Frankfurt | 5 | All Maps | STV","players":null},{"server_id":311,"name":"Uncletopia | Frankfurt | 6 | All Maps","name_short":"frk-6","host":"frk-1.de.uncletopia.com","port":27065,"enabled":true,"region":"eu","cc":"de","latitude":50.110924,"longitude":8.682127,"reserved":0,"last_update":"0001-01-01T00:00:00Z","name_a2s":"Uncletopia | Frankfurt | 6 | All Maps","protocol":17,"map":"koth_king","folder":"tf","game":"Team Fortress","app_id":440,"player_count":22,"max_players":24,"Bots":0,"server_type":"Dedicated","server_os":"Linux","password":true,"vac":true,"version":"7742253","steam_id":85568392924504278,"keywords":["cp","nocrits","nodmgspread","uncletopia"],"game_id":440,"stv_port":27066,"stv_name":"Uncletopia | Frankfurt | 6 | All Maps | STV","players":[{"user_id":166,"name":"Blondie","steam_id":76561198080631634,"connected_time":3550000000000,"state":"active","ping":61},{"user_id":163,"name":"–ò–Ω—Å–ø–µ–∫—Ç–æ—Ä –ê—Ç–∞—Å","steam_id":76561199175688390,"connected_time":3704000000000,"state":"active","ping":75},{"user_id":214,"name":"nhstefanov","steam_id":76561198811811405,"connected_time":1364000000000,"state":"active","ping":71},{"user_id":197,"name":"Will","steam_id":76561198088266191,"connected_time":2052000000000,"state":"active","ping":111},{"user_id":230,"name":"Fat Pigeon","steam_id":76561198817940142,"connected_time":7000000000,"state":"active","ping":246},{"user_id":229,"name":"MAKENTAKEN","steam_id":76561199127359587,"connected_time":58000000000,"state":"active","ping":96},{"user_id":209,"name":"Gequip123","steam_id":76561198124438707,"connected_time":1423000000000,"state":"active","ping":46},{"user_id":231,"name":"Luca Nervi","steam_id":76561198015871883,"connected_time":4000000000,"state":"spawning","ping":80},{"user_id":224,"name":"linkinparkfan123","steam_id":76561199033782005,"connected_time":779000000000,"state":"active","ping":86},{"user_id":228,"name":".::[SerafeTTiN]::.","steam_id":76561198009471724,"connected_time":298000000000,"state":"active","ping":89},{"user_id":217,"name":"FishNachoz","steam_id":76561198026519426,"connected_time":1155000000000,"state":"active","ping":72},{"user_id":184,"name":"alko_bone","steam_id":76561198557773514,"connected_time":2479000000000,"state":"active","ping":110},{"user_id":218,"name":"ZOGG FearLand","steam_id":76561198352683491,"connected_time":1151000000000,"state":"active","ping":51},{"user_id":225,"name":"fairnetegames","steam_id":76561199029506069,"connected_time":650000000000,"state":"active","ping":67},{"user_id":176,"name":"Romultra","steam_id":76561198354105082,"connected_time":3095000000000,"state":"active","ping":52},{"user_id":222,"name":"KFC Enjoyer","steam_id":76561198840259819,"connected_time":874000000000,"state":"active","ping":45},{"user_id":207,"name":"KuhlerKarl","steam_id":76561198411211564,"connected_time":1455000000000,"state":"active","ping":63},{"user_id":146,"name":"Toasty5050","steam_id":76561198073540881,"connected_time":5216000000000,"state":"active","ping":46},{"user_id":212,"name":"mightyvolts","steam_id":76561198404172173,"connected_time":1416000000000,"state":"active","ping":185},{"user_id":134,"name":"JeanCorben","steam_id":76561197965133561,"connected_time":5486000000000,"state":"active","ping":45},{"user_id":147,"name":"Rimx","steam_id":76561198053034840,"connected_time":5203000000000,"state":"active","ping":91},{"user_id":202,"name":"PabloGamerPro5000","steam_id":76561198358173553,"connected_time":1956000000000,"state":"active","ping":73}]},{"server_id":23,"name":"Uncletopia | Frankfurt | 7 | Stopwatch Beta","name_short":"frk-7","host":"frk-1.de.uncletopia.com","port":27075,"enabled":true,"region":"eu","cc":"de","latitude":50.110924,"longitude":8.682127,"reserved":0,"last_update":"0001-01-01T00:00:00Z","name_a2s":"Uncletopia | Frankfurt | 7 | Stopwatch Beta","protocol":17,"map":"pl_badwater","folder":"tf","game":"Team Fortress","app_id":440,"player_count":0,"max_players":24,"Bots":0,"server_type":"Dedicated","server_os":"Linux","password":true,"vac":true,"version":"7742253","steam_id":85568392924742827,"keywords":["nocrits","nodmgspread","payload","uncletopia"],"game_id":440,"stv_port":27076,"stv_name":"Uncletopia | Frankfurt | 7 | Stopwatch Beta | STV","players":null},{"server_id":24,"name":"Uncletopia | Frankfurt | 8 | Community","name_short":"frk-8","host":"frk-1.de.uncletopia.com","port":27085,"enabled":true,"region":"eu","cc":"de","latitude":50.110924,"longitude":8.682127,"reserved":0,"last_update":"0001-01-01T00:00:00Z","name_a2s":"Uncletopia | Frankfurt | 8 | Community","protocol":17,"map":"workshop/koth_ramjam_rc1.ugc459778887","folder":"tf","game":"Team Fortress","app_id":440,"player_count":0,"max_players":24,"Bots":0,"server_type":"Dedicated","server_os":"Linux","password":true,"vac":true,"version":"7742253","steam_id":85568392924742828,"keywords":["cp","nocrits","nodmgspread","uncletopia"],"game_id":440,"stv_port":27086,"stv_name":"Uncletopia | Frankfurt | 8 | Community | STV","players":null},{"server_id":202,"name":"Uncletopia | Hong Kong | 1 | All Maps","name_short":"hgk-1","host":"hgk-1.hk.uncletopia.com","port":27015,"enabled":true,"region":"asia","cc":"hk","latitude":22.302711,"longitude":114.177216,"reserved":0,"last_update":"0001-01-01T00:00:00Z","name_a2s":"Uncletopia | Hong Kong | 1 | All Maps","protocol":17,"map":"pl_borneo","folder":"tf","game":"Team Fortress","app_id":440,"player_count":25,"max_players":24,"Bots":0,"server_type":"Dedicated","server_os":"Linux","password":true,"vac":true,"version":"7742253","steam_id":85568392924494504,"keywords":["nocrits","nodmgspread","payload","uncletopia"],"game_id":440,"stv_port":27016,"stv_name":"Uncletopia | Hong Kong | 1 | All Maps | STV","players":[{"user_id":928,"name":"lettuce at 58p","steam_id":76561199401283123,"connected_time":1404000000000,"state":"active","ping":88},{"user_id":892,"name":":)","steam_id":76561198437941450,"connected_time":1659000000000,"state":"active","ping":73},{"user_id":929,"name":"MAGNUS","steam_id":76561198208990721,"connected_time":1395000000000,"state":"active","ping":80},{"user_id":893,"name":"Doormann","steam_id":76561199219230108,"connected_time":1643000000000,"state":"active","ping":236},{"user_id":924,"name":"no vc no c","steam_id":76561197989503095,"connected_time":1425000000000,"state":"active","ping":103},{"user_id":1010,"name":"old chunk of coal","steam_id":76561197990537324,"connected_time":825000000000,"state":"active","ping":148},{"user_id":991,"name":"JayJ","steam_id":76561198324008555,"connected_time":977000000000,"state":"active","ping":68},{"user_id":599,"name":"I love air conditioning","steam_id":76561198811532659,"connected_time":6359000000000,"state":"active","ping":83},{"user_id":1013,"name":"spy from the team fortress 2","steam_id":76561199146847474,"connected_time":798000000000,"state":"active","ping":50},{"user_id":601,"name":"r/leroy","steam_id":76561199137927625,"connected_time":6019000000000,"state":"active","ping":149},{"user_id":925,"name":"Â§âÊÖã„ÅÆÁ•û","steam_id":76561199017344476,"connected_time":1425000000000,"state":"active","ping":94},{"user_id":602,"name":"Steve","steam_id":76561198429235506,"connected_time":5992000000000,"state":"active","ping":81},{"user_id":1098,"name":"floatingdeadfish","steam_id":76561198414875516,"connected_time":196000000000,"state":"active","ping":72},{"user_id":926,"name":"Banana Milk","steam_id":76561198005156257,"connected_time":1412000000000,"state":"active","ping":127},{"user_id":1108,"name":"Aibadenshi","steam_id":76561198347554551,"connected_time":14000000000,"state":"spawning","ping":169},{"user_id":504,"name":"Bertengkar","steam_id":76561198213031155,"connected_time":13612000000000,"state":"active","ping":98},{"user_id":1109,"name":"bird","steam_id":76561198384135605,"connected_time":3000000000,"state":"spawning","ping":123},{"user_id":579,"name":"tybrl","steam_id":76561198055553140,"connected_time":7613000000000,"state":"active","ping":110},{"user_id":1099,"name":"cellum95","steam_id":76561198172146871,"connected_time":184000000000,"state":"active","ping":63},{"user_id":469,"name":"Zacy","steam_id":76561198114841670,"connected_time":17267000000000,"state":"active","ping":100},{"user_id":603,"name":"Ïø†ÌÇ§","steam_id":76561197997220367,"connected_time":5980000000000,"state":"active","ping":46},{"user_id":623,"name":"Milk‚ù§ (currently banned in ut","steam_id":76561198163911560,"connected_time":4632000000000,"state":"active","ping":115},{"user_id":723,"name":"Diavolo Diablo","steam_id":76561198166295333,"connected_time":2980000000000,"state":"active","ping":84},{"user_id":622,"name":"BuchiRyu","steam_id":76561198137607311,"connected_time":4632000000000,"state":"active","ping":105},{"user_id":888,"name":"SugarDaddy9000","steam_id":76561198390047743,"connected_time":1670000000000,"state":"active","ping":106}]},{"server_id":1,"name":"Uncletopia | Los Angeles | 1 | All Maps","name_short":"lax-1","host":"lax-1.us.uncletopia.com","port":27015,"enabled":true,"region":"us-west","cc":"us","latitude":33.94279,"longitude":-118.41004,"reserved":0,"last_update":"0001-01-01T00:00:00Z","name_a2s":"Uncletopia | Los Angeles | 1 | All Maps","protocol":17,"map":"cp_dustbowl","folder":"tf","game":"Team Fortress","app_id":440,"player_count":0,"max_players":24,"Bots":0,"server_type":"Dedicated","server_os":"Linux","password":true,"vac":true,"version":"7742253","steam_id":85568392924469991,"keywords":["cp","nocrits","nodmgspread","uncletopia"],"game_id":440,"stv_port":27016,"stv_name":"Uncletopia | Los Angeles | 1 | All Maps | STV","players":null},{"server_id":112,"name":"Uncletopia | Los Angeles | 2 | All Maps","name_short":"lax-2","host":"lax-1.us.uncletopia.com","port":27025,"enabled":true,"region":"us-west","cc":"us","latitude":33.94279,"longitude":-118.41004,"reserved":0,"last_update":"0001-01-01T00:00:00Z","name_a2s":"Uncletopia | Los Angeles | 2 | All Maps","protocol":17,"map":"pl_frontier_final","folder":"tf","game":"Team Fortress","app_id":440,"player_count":0,"max_players":24,"Bots":0,"server_type":"Dedicated","server_os":"Linux","password":true,"vac":true,"version":"7742253","steam_id":85568392924469992,"keywords":["nocrits","nodmgspread","payload","uncletopia"],"game_id":440,"stv_port":27026,"stv_name":"Uncletopia | Los Angeles | 2 | All Maps | STV","players":null},{"server_id":324,"name":"Uncletopia | Los Angeles | 3 | All Maps","name_short":"lax-3","host":"lax-1.us.uncletopia.com","port":27035,"enabled":true,"region":"us-west","cc":"us","latitude":33.94279,"longitude":-118.41004,"reserved":0,"last_update":"0001-01-01T00:00:00Z","name_a2s":"Uncletopia | Los Angeles | 3 | All Maps","protocol":17,"map":"cp_snakewater_final1","folder":"tf","game":"Team Fortress","app_id":440,"player_count":0,"max_players":24,"Bots":0,"server_type":"Dedicated","server_os":"Linux","password":true,"vac":true,"version":"7742253","steam_id":85568392924510198,"keywords":["cp","nocrits","nodmgspread","uncletopia"],"game_id":440,"stv_port":27036,"stv_name":"Uncletopia | Los Angeles | 3 | All Maps | STV","players":null},{"server_id":25,"name":"Uncletopia | Los Angeles | 4 | Stopwatch Beta","name_short":"lax-4","host":"lax-1.us.uncletopia.com","port":27045,"enabled":true,"region":"us-west","cc":"us","latitude":33.94279,"longitude":-118.41004,"reserved":0,"last_update":"0001-01-01T00:00:00Z","name_a2s":"Uncletopia | Los Angeles | 4 | Stopwatch Beta","protocol":17,"map":"cp_snakewater_final1","folder":"tf","game":"Team Fortress","app_id":440,"player_count":0,"max_players":24,"Bots":0,"server_type":"Dedicated","server_os":"Linux","password":true,"vac":true,"version":"7742253","steam_id":85568392924510199,"keywords":["cp","nocrits","nodmgspread","uncletopia"],"game_id":440,"stv_port":27046,"stv_name":"Uncletopia | Los Angeles | 4 | Stopwatch Beta | STV","players":null},{"server_id":11,"name":"Uncletopia | London | 1 | All Maps","name_short":"lon-1","host":"lon-1.uk.uncletopia.com","port":27015,"enabled":true,"region":"eu","cc":"gb","latitude":51.509865,"longitude":-0.118092,"reserved":0,"last_update":"0001-01-01T00:00:00Z","name_a2s":"Uncletopia | London | 1 | All Maps","protocol":17,"map":"pl_borneo","folder":"tf","game":"Team Fortress","app_id":440,"player_count":25,"max_players":24,"Bots":0,"server_type":"Dedicated","server_os":"Linux","password":true,"vac":true,"version":"7742253","steam_id":85568392924367362,"keywords":["nocrits","nodmgspread","payload","uncletopia"],"game_id":440,"stv_port":27016,"stv_name":"Uncletopia | London | 1 | All Maps | STV","players":[{"user_id":137,"name":"‚ô£–ë—Ä–µ–¥–æ–≤—ã–π –ú–µ—Å—è—Ü","steam_id":76561198796404149,"connected_time":2732000000000,"state":"active","ping":106},{"user_id":129,"name":"redder","steam_id":76561198168231617,"connected_time":3792000000000,"state":"active","ping":51},{"user_id":132,"name":"Doggo","steam_id":76561198091909701,"connected_time":3127000000000,"state":"active","ping":65},{"user_id":150,"name":"Oak","steam_id":76561198248567360,"connected_time":1708000000000,"state":"active","ping":44},{"user_id":138,"name":"poliakov.noam","steam_id":76561199259322961,"connected_time":2651000000000,"state":"active","ping":95},{"user_id":155,"name":"Wyvern786","steam_id":76561199137770636,"connected_time":287000000000,"state":"active","ping":48},{"user_id":149,"name":"kreeekz","steam_id":76561198014431602,"connected_time":1835000000000,"state":"active","ping":80},{"user_id":30,"name":"FUKTARD2005","steam_id":76561198839121591,"connected_time":10013000000000,"state":"active","ping":57},{"user_id":84,"name":"BarrackOmaha","steam_id":76561198027922724,"connected_time":7692000000000,"state":"active","ping":69},{"user_id":139,"name":"lore","steam_id":76561198120984188,"connected_time":2527000000000,"state":"active","ping":75},{"user_id":88,"name":"t0ksi","steam_id":76561198107240798,"connected_time":7542000000000,"state":"active","ping":75},{"user_id":153,"name":"Wuffington","steam_id":76561198033762881,"connected_time":904000000000,"state":"active","ping":48},{"user_id":140,"name":"nudjura","steam_id":76561198281986139,"connected_time":2379000000000,"state":"active","ping":44},{"user_id":131,"name":"[Mg] Z√© P√©qu√©no","steam_id":76561198000927489,"connected_time":3406000000000,"state":"active","ping":57},{"user_id":147,"name":"Kompot","steam_id":76561198281613592,"connected_time":2028000000000,"state":"active","ping":76},{"user_id":156,"name":"LSKi","steam_id":76561198215470228,"connected_time":0,"state":"spawning","ping":0},{"user_id":86,"name":"”ã‘º◊ü.maS","steam_id":76561198114953928,"connected_time":7604000000000,"state":"active","ping":74},{"user_id":148,"name":"Green","steam_id":76561198183580019,"connected_time":1914000000000,"state":"active","ping":74},{"user_id":133,"name":"random_player691","steam_id":76561199209946306,"connected_time":3065000000000,"state":"active","ping":60},{"user_id":144,"name":"Lessoz","steam_id":76561199211572036,"connected_time":2071000000000,"state":"active","ping":92},{"user_id":151,"name":"fayaman","steam_id":76561198111807532,"connected_time":1599000000000,"state":"active","ping":59},{"user_id":154,"name":"Kahvi","steam_id":76561198723244199,"connected_time":451000000000,"state":"active","ping":76},{"user_id":134,"name":"yeldad","steam_id":76561198447264153,"connected_time":3053000000000,"state":"active","ping":128},{"user_id":135,"name":"Pvt. Grichmann","steam_id":76561197977589522,"connected_time":2831000000000,"state":"active","ping":88},{"user_id":157,"name":"Nedge","steam_id":76561197963549701,"connected_time":0,"state":"spawning","ping":0}]},{"server_id":114,"name":"Uncletopia | London | 2 | All Maps","name_short":"lon-2","host":"lon-1.uk.uncletopia.com","port":27025,"enabled":true,"region":"eu","cc":"gb","latitude":51.509865,"longitude":-0.118092,"reserved":0,"last_update":"0001-01-01T00:00:00Z","name_a2s":"Uncletopia | London | 2 | All Maps","protocol":17,"map":"pl_upward","folder":"tf","game":"Team Fortress","app_id":440,"player_count":23,"max_players":24,"Bots":0,"server_type":"Dedicated","server_os":"Linux","password":true,"vac":true,"version":"7742253","steam_id":85568392924470941,"keywords":["nocrits","nodmgspread","payload","uncletopia"],"game_id":440,"stv_port":27026,"stv_name":"Uncletopia | London | 2 | All Maps | STV","players":[{"user_id":8,"name":"Mr Xbow","steam_id":76561198862864460,"connected_time":7092000000000,"state":"active","ping":51},{"user_id":85,"name":"maqbara","steam_id":76561199057953617,"connected_time":533000000000,"state":"active","ping":65},{"user_id":12,"name":"VK2124 :D","steam_id":76561198111130688,"connected_time":5783000000000,"state":"active","ping":60},{"user_id":82,"name":"Flare","steam_id":76561198039098320,"connected_time":806000000000,"state":"active","ping":46},{"user_id":87,"name":"Accident","steam_id":76561198115160396,"connected_time":274000000000,"state":"active","ping":78},{"user_id":77,"name":"ShoobyDooby","steam_id":76561198118473910,"connected_time":1476000000000,"state":"active","ping":51},{"user_id":60,"name":"Dr Sex","steam_id":76561198029044617,"connected_time":2305000000000,"state":"active","ping":45},{"user_id":78,"name":"Big man","steam_id":76561198830190615,"connected_time":1261000000000,"state":"active","ping":97},{"user_id":86,"name":"Ender w","steam_id":76561198160747515,"connected_time":308000000000,"state":"active","ping":80},{"user_id":75,"name":"Rat, the ungodly rat #SaveTF2","steam_id":76561199126577423,"connected_time":1568000000000,"state":"active","ping":66},{"user_id":71,"name":"Honey_Darlin","steam_id":76561199437522058,"connected_time":1993000000000,"state":"active","ping":152},{"user_id":90,"name":"Alice can't hit pipes","steam_id":76561198052410860,"connected_time":259000000000,"state":"active","ping":147},{"user_id":27,"name":"Mr. Luck | SFM","steam_id":76561198088255641,"connected_time":5211000000000,"state":"active","ping":105},{"user_id":84,"name":"Inforsitec","steam_id":76561198216770168,"connected_time":646000000000,"state":"active","ping":53},{"user_id":79,"name":"average ultiduo medic","steam_id":76561198103285012,"connected_time":1160000000000,"state":"active","ping":60},{"user_id":88,"name":"PlebCord","steam_id":76561198120685803,"connected_time":272000000000,"state":"active","ping":105},{"user_id":66,"name":"big heavy is heavy heavy","steam_id":76561198300059652,"connected_time":2221000000000,"state":"active","ping":60},{"user_id":74,"name":"Super_Shlepa","steam_id":76561199384098212,"connected_time":1651000000000,"state":"active","ping":102},{"user_id":93,"name":"Heretican","steam_id":76561198018202228,"connected_time":29000000000,"state":"active","ping":48},{"user_id":51,"name":"nachtraaf","steam_id":76561197960473205,"connected_time":2959000000000,"state":"active","ping":59},{"user_id":67,"name":"B√™teChien","steam_id":76561198405559437,"connected_time":2215000000000,"state":"active","ping":62},{"user_id":50,"name":"Akirus","steam_id":76561198369831090,"connected_time":2993000000000,"state":"active","ping":111},{"user_id":89,"name":"Sneaky boi","steam_id":76561199195985387,"connected_time":269000000000,"state":"active","ping":94}]},{"server_id":320,"name":"Uncletopia | London | 3 | All Maps","name_short":"lon-3","host":"lon-1.uk.uncletopia.com","port":27035,"enabled":true,"region":"eu","cc":"gb","latitude":51.509865,"longitude":-0.118092,"reserved":0,"last_update":"0001-01-01T00:00:00Z","name_a2s":"Uncletopia | London | 3 | All Maps","protocol":17,"map":"pl_upward","folder":"tf","game":"Team Fortress","app_id":440,"player_count":0,"max_players":24,"Bots":0,"server_type":"Dedicated","server_os":"Linux","password":true,"vac":true,"version":"7742253","steam_id":85568392924510192,"keywords":["nocrits","nodmgspread","payload","uncletopia"],"game_id":440,"stv_port":27036,"stv_name":"Uncletopia | London | 3 | All Maps | STV","players":null},{"server_id":321,"name":"Uncletopia | London | 4 | All Maps","name_short":"lon-4","host":"lon-1.uk.uncletopia.com","port":27045,"enabled":true,"region":"eu","cc":"gb","latitude":51.509865,"longitude":-0.118092,"reserved":0,"last_update":"0001-01-01T00:00:00Z","name_a2s":"Uncletopia | London | 4 | All Maps","protocol":17,"map":"pl_upward","folder":"tf","game":"Team Fortress","app_id":440,"player_count":24,"max_players":24,"Bots":0,"server_type":"Dedicated","server_os":"Linux","password":true,"vac":true,"version":"7742253","steam_id":85568392924510193,"keywords":["nocrits","nodmgspread","payload","uncletopia"],"game_id":440,"stv_port":27046,"stv_name":"Uncletopia | London | 4 | All Maps | STV","players":[{"user_id":428,"name":"Bombilla","steam_id":76561198084281798,"connected_time":610000000000,"state":"active","ping":76},{"user_id":429,"name":"walidov","steam_id":76561198079965605,"connected_time":602000000000,"state":"active","ping":158},{"user_id":420,"name":"üíñYoshiiüíñ","steam_id":76561198174049277,"connected_time":738000000000,"state":"active","ping":59},{"user_id":431,"name":"Dont Uber Me | #SAVETF2","steam_id":76561198038579548,"connected_time":231000000000,"state":"active","ping":39},{"user_id":430,"name":"Julez","steam_id":76561198045505082,"connected_time":401000000000,"state":"active","ping":75},{"user_id":407,"name":"Nin","steam_id":76561198227246584,"connected_time":2116000000000,"state":"active","ping":69},{"user_id":372,"name":"LAMC","steam_id":76561199066888917,"connected_time":3828000000000,"state":"active","ping":71},{"user_id":427,"name":"UNO, The Ubisoft Original","steam_id":76561198846784757,"connected_time":661000000000,"state":"active","ping":50},{"user_id":425,"name":"1 month Big Earner challenge","steam_id":76561198799097492,"connected_time":677000000000,"state":"active","ping":45},{"user_id":399,"name":"Iru","steam_id":76561198077602040,"connected_time":2395000000000,"state":"active","ping":60},{"user_id":353,"name":"Penis Contortionist","steam_id":76561198073663784,"connected_time":4690000000000,"state":"active","ping":45},{"user_id":334,"name":"SoupER","steam_id":76561198063056668,"connected_time":6307000000000,"state":"active","ping":46},{"user_id":325,"name":"Koli","steam_id":76561197992428783,"connected_time":6698000000000,"state":"active","ping":60},{"user_id":413,"name":"ferbherbs","steam_id":76561198885656965,"connected_time":1538000000000,"state":"active","ping":52},{"user_id":411,"name":"F1-M","steam_id":76561198198409875,"connected_time":1644000000000,"state":"active","ping":122},{"user_id":421,"name":"ne malediction","steam_id":76561199042453638,"connected_time":738000000000,"state":"active","ping":81},{"user_id":405,"name":"Johnny Rabbit","steam_id":76561198038742215,"connected_time":2150000000000,"state":"active","ping":109},{"user_id":426,"name":"dafydd","steam_id":76561198052200325,"connected_time":672000000000,"state":"active","ping":90},{"user_id":408,"name":"Fran","steam_id":76561198339019518,"connected_time":2025000000000,"state":"active","ping":69},{"user_id":416,"name":"kramer","steam_id":76561198117761965,"connected_time":1432000000000,"state":"active","ping":120},{"user_id":328,"name":"Jonas Destark","steam_id":76561198030327441,"connected_time":6626000000000,"state":"active","ping":60},{"user_id":378,"name":"snake9544","steam_id":76561198083076205,"connected_time":3362000000000,"state":"active","ping":83},{"user_id":424,"name":"naleksi","steam_id":76561198018391055,"connected_time":709000000000,"state":"active","ping":100},{"user_id":386,"name":"Kurage","steam_id":76561198021221288,"connected_time":2767000000000,"state":"active","ping":71}]},{"server_id":21,"name":"Uncletopia | London | 5 | All Maps","name_short":"lon-5","host":"lon-1.uk.uncletopia.com","port":27055,"enabled":true,"region":"eu","cc":"gb","latitude":51.509865,"longitude":-0.118092,"reserved":0,"last_update":"0001-01-01T00:00:00Z","name_a2s":"Uncletopia | London | 5 | All Maps","protocol":17,"map":"pl_frontier_final","folder":"tf","game":"Team Fortress","app_id":440,"player_count":0,"max_players":24,"Bots":0,"server_type":"Dedicated","server_os":"Linux","password":true,"vac":true,"version":"7742253","steam_id":85568392924742829,"keywords":["nocrits","nodmgspread","payload","uncletopia"],"game_id":440,"stv_port":27056,"stv_name":"Uncletopia | London | 5 | All Maps | STV","players":null},{"server_id":22,"name":"Uncletopia | London | 6 | All Maps","name_short":"lon-6","host":"lon-1.uk.uncletopia.com","port":27065,"enabled":true,"region":"eu","cc":"gb","latitude":51.509865,"longitude":-0.118092,"reserved":0,"last_update":"0001-01-01T00:00:00Z","name_a2s":"Uncletopia | London | 6 | All Maps","protocol":17,"map":"pl_borneo","folder":"tf","game":"Team Fortress","app_id":440,"player_count":10,"max_players":24,"Bots":0,"server_type":"Dedicated","server_os":"Linux","password":true,"vac":true,"version":"7742253","steam_id":85568392924742830,"keywords":["nocrits","nodmgspread","payload","uncletopia"],"game_id":440,"stv_port":27066,"stv_name":"Uncletopia | London | 6 | All Maps | STV","players":[{"user_id":8,"name":"all snipers are edgy cowards","steam_id":76561198060200599,"connected_time":1239000000000,"state":"active","ping":94},{"user_id":6,"name":"still the best 1973 #savetf2","steam_id":76561199221139822,"connected_time":1257000000000,"state":"active","ping":98},{"user_id":10,"name":"Bagel","steam_id":76561198167747447,"connected_time":505000000000,"state":"active","ping":120},{"user_id":12,"name":"sittipruk","steam_id":76561199022902954,"connected_time":176000000000,"state":"active","ping":264},{"user_id":13,"name":"glyph","steam_id":76561197980736364,"connected_time":169000000000,"state":"active","ping":80},{"user_id":14,"name":"Doc Braun","steam_id":76561198003964474,"connected_time":144000000000,"state":"active","ping":51},{"user_id":15,"name":"Munibe","steam_id":76561198107967904,"connected_time":142000000000,"state":"active","ping":64},{"user_id":16,"name":"Slimeby","steam_id":76561198353438688,"connected_time":119000000000,"state":"active","ping":105},{"user_id":17,"name":"sussy kong","steam_id":76561199116882319,"connected_time":82000000000,"state":"active","ping":76},{"user_id":18,"name":"Barbatruc","steam_id":76561198119019916,"connected_time":81000000000,"state":"active","ping":61}]},{"server_id":40,"name":"Uncletopia | London | 7 | No Payload","name_short":"lon-7","host":"lon-1.uk.uncletopia.com","port":27075,"enabled":true,"region":"eu","cc":"gb","latitude":51.509865,"longitude":-0.118092,"reserved":0,"last_update":"0001-01-01T00:00:00Z","name_a2s":"Uncletopia | London | 7 | No Payload","protocol":17,"map":"koth_viaduct","folder":"tf","game":"Team Fortress","app_id":440,"player_count":0,"max_players":24,"Bots":0,"server_type":"Dedicated","server_os":"Linux","password":true,"vac":true,"version":"7742253","steam_id":85568392924964314,"keywords":["cp","nocrits","nodmgspread","uncletopia"],"game_id":440,"stv_port":27076,"stv_name":"Uncletopia | London | 7 | No Payload | STV","players":null},{"server_id":41,"name":"Uncletopia | London | 8 | Community","name_short":"lon-8","host":"lon-1.uk.uncletopia.com","port":27085,"enabled":true,"region":"eu","cc":"gb","latitude":51.509865,"longitude":-0.118092,"reserved":0,"last_update":"0001-01-01T00:00:00Z","name_a2s":"Uncletopia | London | 8 | Community","protocol":17,"map":"workshop/koth_ashville_final.ugc2130459942","folder":"tf","game":"Team Fortress","app_id":440,"player_count":0,"max_players":24,"Bots":0,"server_type":"Dedicated","server_os":"Linux","password":true,"vac":true,"version":"7742253","steam_id":85568392924964315,"keywords":["cp","nocrits","nodmgspread","uncletopia"],"game_id":440,"stv_port":27086,"stv_name":"Uncletopia | London | 8 | Community | STV","players":null},{"server_id":300,"name":"Uncletopia | Montr√©al | 1 | All Maps","name_short":"mtl-1","host":"mtl-1.ca.uncletopia.com","port":27015,"enabled":true,"region":"us-east","cc":"ca","latitude":45.50889,"longitude":-73.56167,"reserved":0,"last_update":"0001-01-01T00:00:00Z","name_a2s":"Uncletopia | Montr√©al | 1 | All Maps","protocol":17,"map":"cp_snakewater_final1","folder":"tf","game":"Team Fortress","app_id":440,"player_count":0,"max_players":24,"Bots":0,"server_type":"Dedicated","server_os":"Linux","password":true,"vac":true,"version":"7742253","steam_id":85568392924500087,"keywords":["cp","nocrits","nodmgspread","uncletopia"],"game_id":440,"stv_port":27016,"stv_name":"Uncletopia | Montr√©al | 1 | All Maps | STV","players":null},{"server_id":301,"name":"Uncletopia | Montr√©al | 2 | All Maps","name_short":"mtl-2","host":"mtl-1.ca.uncletopia.com","port":27025,"enabled":true,"region":"us-east","cc":"ca","latitude":45.50889,"longitude":-73.56167,"reserved":0,"last_update":"0001-01-01T00:00:00Z","name_a2s":"Uncletopia | Montr√©al | 2 | All Maps","protocol":17,"map":"koth_highpass","folder":"tf","game":"Team Fortress","app_id":440,"player_count":0,"max_players":24,"Bots":0,"server_type":"Dedicated","server_os":"Linux","password":true,"vac":true,"version":"7742253","steam_id":85568392924500088,"keywords":["cp","nocrits","nodmgspread","uncletopia"],"game_id":440,"stv_port":27026,"stv_name":"Uncletopia | Montr√©al | 2 | All Maps | STV","players":null},{"server_id":302,"name":"Uncletopia | Montr√©al | 3 | All Maps","name_short":"mtl-3","host":"mtl-1.ca.uncletopia.com","port":27035,"enabled":true,"region":"us-east","cc":"ca","latitude":45.50889,"longitude":-73.56167,"reserved":0,"last_update":"0001-01-01T00:00:00Z","name_a2s":"Uncletopia | Montr√©al | 3 | All Maps","protocol":17,"map":"cp_mountainlab","folder":"tf","game":"Team Fortress","app_id":440,"player_count":0,"max_players":24,"Bots":0,"server_type":"Dedicated","server_os":"Linux","password":true,"vac":true,"version":"7742253","steam_id":85568392924500089,"keywords":["cp","nocrits","nodmgspread","uncletopia"],"game_id":440,"stv_port":27036,"stv_name":"Uncletopia | Montr√©al | 3 | All Maps | STV","players":null},{"server_id":303,"name":"Uncletopia | Montr√©al | 4 | No Payload","name_short":"mtl-4","host":"mtl-1.ca.uncletopia.com","port":27045,"enabled":true,"region":"us-east","cc":"ca","latitude":45.50889,"longitude":-73.56167,"reserved":0,"last_update":"0001-01-01T00:00:00Z","name_a2s":"Uncletopia | Montr√©al | 4 | No Payload","protocol":17,"map":"cp_snakewater_final1","folder":"tf","game":"Team Fortress","app_id":440,"player_count":0,"max_players":24,"Bots":0,"server_type":"Dedicated","server_os":"Linux","password":true,"vac":true,"version":"7742253","steam_id":85568392924500090,"keywords":["cp","nocrits","nodmgspread","uncletopia"],"game_id":440,"stv_port":27046,"stv_name":"Uncletopia | Montr√©al | 4 | No Payload | STV","players":null},{"server_id":13,"name":"Uncletopia | New York City | 1 | All Maps","name_short":"nyc-1","host":"nyc-1.us.uncletopia.com","port":27015,"enabled":true,"region":"us-east","cc":"us","latitude":40.73061,"longitude":-73.93524,"reserved":0,"last_update":"0001-01-01T00:00:00Z","name_a2s":"Uncletopia | New York City | 1 | All Maps","protocol":17,"map":"cp_mountainlab","folder":"tf","game":"Team Fortress","app_id":440,"player_count":0,"max_players":24,"Bots":0,"server_type":"Dedicated","server_os":"Linux","password":true,"vac":true,"version":"7742253","steam_id":85568392924469993,"keywords":["cp","nocrits","nodmgspread","uncletopia"],"game_id":440,"stv_port":27016,"stv_name":"Uncletopia | New York City | 1 | All Maps | STV","players":null},{"server_id":14,"name":"Uncletopia | New York City | 2 | All Maps","name_short":"nyc-2","host":"nyc-1.us.uncletopia.com","port":27025,"enabled":true,"region":"us-east","cc":"us","latitude":40.73061,"longitude":-73.93524,"reserved":0,"last_update":"0001-01-01T00:00:00Z","name_a2s":"Uncletopia | New York City | 2 | All Maps","protocol":17,"map":"cp_altitude","folder":"tf","game":"Team Fortress","app_id":440,"player_count":0,"max_players":24,"Bots":0,"server_type":"Dedicated","server_os":"Linux","password":true,"vac":true,"version":"7742253","steam_id":85568392924469994,"keywords":["cp","nocrits","nodmgspread","uncletopia"],"game_id":440,"stv_port":27026,"stv_name":"Uncletopia | New York City | 2 | All Maps | STV","players":null},{"server_id":15,"name":"Uncletopia | New York City | 3 | Stopwatch Beta","name_short":"nyc-3","host":"nyc-1.us.uncletopia.com","port":27035,"enabled":true,"region":"us-east","cc":"us","latitude":40.73061,"longitude":-73.93524,"reserved":0,"last_update":"0001-01-01T00:00:00Z","name_a2s":"Uncletopia | New York City | 3 | Stopwatch Beta","protocol":17,"map":"pl_pier","folder":"tf","game":"Team Fortress","app_id":440,"player_count":0,"max_players":24,"Bots":0,"server_type":"Dedicated","server_os":"Linux","password":true,"vac":true,"version":"7742253","steam_id":85568392924742820,"keywords":["nocrits","nodmgspread","payload","uncletopia"],"game_id":440,"stv_port":27036,"stv_name":"Uncletopia | New York City | 3 | Stopwatch Beta | STV","players":null},{"server_id":16,"name":"Uncletopia | New York City | 4 | Community","name_short":"nyc-4","host":"nyc-1.us.uncletopia.com","port":27045,"enabled":true,"region":"us-east","cc":"us","latitude":40.73061,"longitude":-73.93524,"reserved":0,"last_update":"0001-01-01T00:00:00Z","name_a2s":"Uncletopia | New York City | 4 | Community","protocol":17,"map":"koth_viaduct","folder":"tf","game":"Team Fortress","app_id":440,"player_count":0,"max_players":24,"Bots":0,"server_type":"Dedicated","server_os":"Linux","password":true,"vac":true,"version":"7742253","steam_id":85568392924742821,"keywords":["cp","nocrits","nodmgspread","uncletopia"],"game_id":440,"stv_port":27046,"stv_name":"Uncletopia | New York City | 4 | Community | STV","players":null},{"server_id":142,"name":"Uncletopia | S√£o Paulo | 1 | All Maps","name_short":"sao-1","host":"sao-1.br.uncletopia.com","port":27015,"enabled":true,"region":"sa","cc":"br","latitude":-23.533773,"longitude":-46.62529,"reserved":0,"last_update":"0001-01-01T00:00:00Z","name_a2s":"Uncletopia | S√£o Paulo | 1 | All Maps","protocol":17,"map":"koth_viaduct","folder":"tf","game":"Team Fortress","app_id":440,"player_count":0,"max_players":24,"Bots":0,"server_type":"Dedicated","server_os":"Linux","password":true,"vac":true,"version":"7742253","steam_id":85568392924469996,"keywords":["cp","nocrits","nodmgspread","uncletopia"],"game_id":440,"stv_port":27016,"stv_name":"Uncletopia | S√£o Paulo | 1 | All Maps | STV","players":null},{"server_id":143,"name":"Uncletopia | S√£o Paulo | 2 | All Maps","name_short":"sao-2","host":"sao-2.br.uncletopia.com","port":27015,"enabled":true,"region":"sa","cc":"br","latitude":-23.533773,"longitude":-46.62529,"reserved":0,"last_update":"0001-01-01T00:00:00Z","name_a2s":"Uncletopia | S√£o Paulo | 2 | All Maps","protocol":17,"map":"koth_viaduct","folder":"tf","game":"Team Fortress","app_id":440,"player_count":0,"max_players":24,"Bots":0,"server_type":"Dedicated","server_os":"Linux","password":true,"vac":true,"version":"7742253","steam_id":85568392924485349,"keywords":["cp","nocrits","nodmgspread","uncletopia"],"game_id":440,"stv_port":27016,"stv_name":"Uncletopia | S√£o Paulo | 2 | All Maps | STV","players":null},{"server_id":7,"name":"Uncletopia | Seattle | 1 | All Maps","name_short":"sea-1","host":"sea-1.us.uncletopia.com","port":27015,"enabled":true,"region":"us-west","cc":"us","latitude":47.608013,"longitude":-122.33517,"reserved":0,"last_update":"0001-01-01T00:00:00Z","name_a2s":"Uncletopia | Seattle | 1 | All Maps","protocol":17,"map":"pl_frontier_final","folder":"tf","game":"Team Fortress","app_id":440,"player_count":0,"max_players":24,"Bots":0,"server_type":"Dedicated","server_os":"Linux","password":true,"vac":true,"version":"7742253","steam_id":85568392924469997,"keywords":["nocrits","nodmgspread","payload","uncletopia"],"game_id":440,"stv_port":27016,"stv_name":"Uncletopia | Seattle | 1 | All Maps | STV","players":null},{"server_id":119,"name":"Uncletopia | Seattle | 2 | All Maps","name_short":"sea-2","host":"sea-1.us.uncletopia.com","port":27025,"enabled":true,"region":"us-west","cc":"us","latitude":47.608013,"longitude":-122.33517,"reserved":0,"last_update":"0001-01-01T00:00:00Z","name_a2s":"Uncletopia | Seattle | 2 | All Maps","protocol":17,"map":"cp_sunshine","folder":"tf","game":"Team Fortress","app_id":440,"player_count":0,"max_players":24,"Bots":0,"server_type":"Dedicated","server_os":"Linux","password":true,"vac":true,"version":"7742253","steam_id":85568392924469998,"keywords":["cp","nocrits","nodmgspread","uncletopia"],"game_id":440,"stv_port":27026,"stv_name":"Uncletopia | Seattle | 2 | All Maps | STV","players":null},{"server_id":406,"name":"Uncletopia | Seattle | 3 | Stopwatch Beta","name_short":"sea-3","host":"sea-1.us.uncletopia.com","port":27035,"enabled":true,"region":"us-west","cc":"us","latitude":47.608013,"longitude":-122.33517,"reserved":0,"last_update":"0001-01-01T00:00:00Z","name_a2s":"Uncletopia | Seattle | 3 | Stopwatch Beta","protocol":17,"map":"cp_altitude","folder":"tf","game":"Team Fortress","app_id":440,"player_count":0,"max_players":24,"Bots":0,"server_type":"Dedicated","server_os":"Linux","password":true,"vac":true,"version":"7742253","steam_id":85568392924515217,"keywords":["cp","nocrits","nodmgspread","uncletopia"],"game_id":440,"stv_port":27036,"stv_name":"Uncletopia | Seattle | 3 | Stopwatch Beta | STV","players":null},{"server_id":17,"name":"Uncletopia | San Francisco | 1 | All Maps","name_short":"sfo-1","host":"sfo-1.us.uncletopia.com","port":27015,"enabled":true,"region":"us-west","cc":"us","latitude":37.77397,"longitude":-122.4313,"reserved":0,"last_update":"0001-01-01T00:00:00Z","name_a2s":"Uncletopia | San Francisco | 1 | All Maps","protocol":17,"map":"pl_snowycoast","folder":"tf","game":"Team Fortress","app_id":440,"player_count":0,"max_players":24,"Bots":0,"server_type":"Dedicated","server_os":"Linux","password":true,"vac":true,"version":"7742253","steam_id":85568392924469999,"keywords":["nocrits","nodmgspread","payload","uncletopia"],"game_id":440,"stv_port":27016,"stv_name":"Uncletopia | San Francisco | 1 | All Maps | STV","players":null},{"server_id":18,"name":"Uncletopia | San Francisco | 2 | All Maps","name_short":"sfo-2","host":"sfo-1.us.uncletopia.com","port":27025,"enabled":true,"region":"us-west","cc":"us","latitude":37.77397,"longitude":-122.4313,"reserved":0,"last_update":"0001-01-01T00:00:00Z","name_a2s":"Uncletopia | San Francisco | 2 | All Maps","protocol":17,"map":"cp_altitude","folder":"tf","game":"Team Fortress","app_id":440,"player_count":0,"max_players":24,"Bots":0,"server_type":"Dedicated","server_os":"Linux","password":true,"vac":true,"version":"7742253","steam_id":85568392924470000,"keywords":["cp","nocrits","nodmgspread","uncletopia"],"game_id":440,"stv_port":27026,"stv_name":"Uncletopia | San Francisco | 2 | All Maps | STV","players":null},{"server_id":19,"name":"Uncletopia | San Francisco | 3 | Stopwatch Beta","name_short":"sfo-3","host":"sfo-1.us.uncletopia.com","port":27035,"enabled":true,"region":"us-west","cc":"us","latitude":37.77397,"longitude":-122.4313,"reserved":0,"last_update":"0001-01-01T00:00:00Z","name_a2s":"Uncletopia | San Francisco | 3 | Stopwatch Beta","protocol":17,"map":"cp_snakewater_final1","folder":"tf","game":"Team Fortress","app_id":440,"player_count":0,"max_players":24,"Bots":0,"server_type":"Dedicated","server_os":"Linux","password":true,"vac":true,"version":"7742253","steam_id":85568392924742824,"keywords":["cp","nocrits","nodmgspread","uncletopia"],"game_id":440,"stv_port":27036,"stv_name":"Uncletopia | San Francisco | 3 | Stopwatch Beta | STV","players":null},{"server_id":20,"name":"Uncletopia | San Francisco | 4 | Community","name_short":"sfo-4","host":"sfo-1.us.uncletopia.com","port":27045,"enabled":true,"region":"us-west","cc":"us","latitude":37.77397,"longitude":-122.4313,"reserved":0,"last_update":"0001-01-01T00:00:00Z","name_a2s":"Uncletopia | San Francisco | 4 | Community","protocol":17,"map":"cp_dustbowl","folder":"tf","game":"Team Fortress","app_id":440,"player_count":0,"max_players":24,"Bots":0,"server_type":"Dedicated","server_os":"Linux","password":true,"vac":true,"version":"7742253","steam_id":85568392924742826,"keywords":["cp","nocrits","nodmgspread","uncletopia"],"game_id":440,"stv_port":27046,"stv_name":"Uncletopia | San Francisco | 4 | Community | STV","players":null},{"server_id":141,"name":"Uncletopia | Sydney | 1 | All Maps","name_short":"syd-1","host":"syd-1.au.uncletopia.com","port":27015,"enabled":true,"region":"au","cc":"au","latitude":-33.865143,"longitude":151.2099,"reserved":0,"last_update":"0001-01-01T00:00:00Z","name_a2s":"Uncletopia | Sydney | 1 | All Maps","protocol":17,"map":"pl_badwater","folder":"tf","game":"Team Fortress","app_id":440,"player_count":0,"max_players":24,"Bots":0,"server_type":"Dedicated","server_os":"Linux","password":true,"vac":true,"version":"7742253","steam_id":85568392924470001,"keywords":["nocrits","nodmgspread","payload","uncletopia"],"game_id":440,"stv_port":27016,"stv_name":"Uncletopia | Sydney | 1 | All Maps | STV","players":null},{"server_id":123,"name":"Uncletopia | Sydney | 2 | All Maps","name_short":"syd-2","host":"syd-1.au.uncletopia.com","port":27025,"enabled":true,"region":"au","cc":"au","latitude":-33.865143,"longitude":151.2099,"reserved":0,"last_update":"0001-01-01T00:00:00Z","name_a2s":"Uncletopia | Sydney | 2 | All Maps","protocol":17,"map":"cp_dustbowl","folder":"tf","game":"Team Fortress","app_id":440,"player_count":14,"max_players":24,"Bots":0,"server_type":"Dedicated","server_os":"Linux","password":true,"vac":true,"version":"7742253","steam_id":85568392924470002,"keywords":["cp","nocrits","nodmgspread","uncletopia"],"game_id":440,"stv_port":27026,"stv_name":"Uncletopia | Sydney | 2 | All Maps | STV","players":[{"user_id":369,"name":"oldboy is a good movie","steam_id":76561199057568663,"connected_time":1394000000000,"state":"active","ping":53},{"user_id":370,"name":"ScareDCat","steam_id":76561198967672577,"connected_time":1244000000000,"state":"active","ping":44},{"user_id":371,"name":"KillerBlow","steam_id":76561198930232832,"connected_time":1211000000000,"state":"active","ping":108},{"user_id":368,"name":"MR BEAST NUMBER 1 FAN","steam_id":76561198846610729,"connected_time":1678000000000,"state":"active","ping":219},{"user_id":372,"name":"Pongo","steam_id":76561197972265004,"connected_time":1123000000000,"state":"active","ping":30},{"user_id":385,"name":"Empr","steam_id":76561198024387396,"connected_time":84000000000,"state":"active","ping":53},{"user_id":233,"name":"Alex","steam_id":76561198020099643,"connected_time":10141000000000,"state":"active","ping":50},{"user_id":373,"name":"LightningBlock","steam_id":76561198289997742,"connected_time":1053000000000,"state":"active","ping":30},{"user_id":375,"name":"Hedgehogdude‚Ö¢","steam_id":76561198305290568,"connected_time":902000000000,"state":"active","ping":359},{"user_id":377,"name":"Branko","steam_id":76561199262196710,"connected_time":849000000000,"state":"active","ping":39},{"user_id":380,"name":"the squeakquel","steam_id":76561199464909853,"connected_time":537000000000,"state":"active","ping":61},{"user_id":384,"name":"SCHEFF","steam_id":76561198078226216,"connected_time":384000000000,"state":"active","ping":53},{"user_id":335,"name":"xfol","steam_id":76561197973048879,"connected_time":3757000000000,"state":"active","ping":51},{"user_id":383,"name":"50hz TV Meditation","steam_id":76561198064931194,"connected_time":454000000000,"state":"active","ping":58}]},{"server_id":395,"name":"Uncletopia | Sydney | 3 | All Maps","name_short":"syd-3","host":"syd-1.au.uncletopia.com","port":27035,"enabled":true,"region":"au","cc":"au","latitude":-33.865143,"longitude":151.2099,"reserved":0,"last_update":"0001-01-01T00:00:00Z","name_a2s":"Uncletopia | Sydney | 3 | All Maps","protocol":17,"map":"cp_process_final","folder":"tf","game":"Team Fortress","app_id":440,"player_count":0,"max_players":24,"Bots":0,"server_type":"Dedicated","server_os":"Linux","password":true,"vac":true,"version":"7742253","steam_id":85568392925194467,"keywords":["cp","nocrits","nodmgspread","uncletopia"],"game_id":440,"stv_port":27036,"stv_name":"Uncletopia | Sydney | 3 | All Maps | STV","players":null},{"server_id":396,"name":"Uncletopia | Sydney | 4 | All Maps","name_short":"syd-4","host":"syd-1.au.uncletopia.com","port":27045,"enabled":true,"region":"au","cc":"au","latitude":-33.865143,"longitude":151.2099,"reserved":0,"last_update":"0001-01-01T00:00:00Z","name_a2s":"Uncletopia | Sydney | 4 | All Maps","protocol":17,"map":"ctf_2fort","folder":"tf","game":"Team Fortress","app_id":440,"player_count":0,"max_players":24,"Bots":0,"server_type":"Dedicated","server_os":"Linux","password":true,"vac":true,"version":"7742253","steam_id":85568392925397958,"keywords":["ctf","nocrits","nodmgspread","uncletopia"],"game_id":440,"stv_port":27046,"stv_name":"Uncletopia | Sydney | 4 | All Maps | STV","players":null},{"server_id":58,"name":"Uncletopia | Sydney | 5 | Stopwatch Beta","name_short":"syd-5","host":"syd-1.au.uncletopia.com","port":27055,"enabled":true,"region":"au","cc":"au","latitude":-33.865143,"longitude":151.2099,"reserved":0,"last_update":"0001-01-01T00:00:00Z","name_a2s":"Uncletopia | Sydney | 5 | Stopwatch Beta","protocol":17,"map":"workshop/koth_bagel_rc5.ugc2514036946","folder":"tf","game":"Team Fortress","app_id":440,"player_count":0,"max_players":24,"Bots":0,"server_type":"Dedicated","server_os":"Linux","password":true,"vac":true,"version":"7742253","steam_id":85568392925397959,"keywords":["cp","nocrits","nodmgspread","uncletopia"],"game_id":440,"stv_port":27056,"stv_name":"Uncletopia | Sydney | 5 | Stopwatch Beta | STV","players":null},{"server_id":59,"name":"Uncletopia | Sydney | 6 | Community","name_short":"syd-6","host":"syd-1.au.uncletopia.com","port":27065,"enabled":true,"region":"au","cc":"au","latitude":-33.865143,"longitude":151.2099,"reserved":0,"last_update":"0001-01-01T00:00:00Z","name_a2s":"Uncletopia | Sydney | 6 | Community","protocol":17,"map":"workshop/pl_cactuscanyon_redux_rc4b.ugc2579644293","folder":"tf","game":"Team Fortress","app_id":440,"player_count":0,"max_players":24,"Bots":0,"server_type":"Dedicated","server_os":"Linux","password":true,"vac":true,"version":"7742253","steam_id":85568392925397960,"keywords":["nocrits","nodmgspread","payload","uncletopia"],"game_id":440,"stv_port":27066,"stv_name":"Uncletopia | Sydney | 6 | Community | STV","players":null},{"server_id":49,"name":"Uncletopia | Warsaw | 1 | All Maps","name_short":"waw-1","host":"waw-1.pl.uncletopia.com","port":27015,"enabled":true,"region":"eu","cc":"pl","latitude":52.2297,"longitude":21.017532,"reserved":0,"last_update":"0001-01-01T00:00:00Z","name_a2s":"","protocol":0,"map":"","folder":"","game":"","app_id":0,"player_count":0,"max_players":0,"Bots":0,"server_type":"","server_os":"","password":false,"vac":false,"version":"","steam_id":0,"keywords":null,"game_id":0,"stv_port":0,"stv_name":"","players":null},{"server_id":50,"name":"Uncletopia | Warsaw | 2 | All Maps","name_short":"waw-2","host":"waw-1.pl.uncletopia.com","port":27025,"enabled":true,"region":"eu","cc":"pl","latitude":52.2297,"longitude":21.017532,"reserved":0,"last_update":"0001-01-01T00:00:00Z","name_a2s":"Uncletopia | Warsaw | 2 | All Maps","protocol":17,"map":"koth_lakeside_final","folder":"tf","game":"Team Fortress","app_id":440,"player_count":0,"max_players":24,"Bots":0,"server_type":"Dedicated","server_os":"Linux","password":true,"vac":true,"version":"7742253","steam_id":85568392925397851,"keywords":["cp","nocrits","nodmgspread","uncletopia"],"game_id":440,"stv_port":27026,"stv_name":"Uncletopia | Warsaw | 2 | All Maps | STV","players":null},{"server_id":51,"name":"Uncletopia | Warsaw | 3 | All Maps","name_short":"waw-3","host":"waw-1.pl.uncletopia.com","port":27035,"enabled":true,"region":"eu","cc":"pl","latitude":52.2297,"longitude":21.017532,"reserved":0,"last_update":"0001-01-01T00:00:00Z","name_a2s":"Uncletopia | Warsaw | 3 | All Maps","protocol":17,"map":"pl_borneo","folder":"tf","game":"Team Fortress","app_id":440,"player_count":0,"max_players":24,"Bots":0,"server_type":"Dedicated","server_os":"Linux","password":true,"vac":true,"version":"7742253","steam_id":85568392925397852,"keywords":["nocrits","nodmgspread","payload","uncletopia"],"game_id":440,"stv_port":27036,"stv_name":"Uncletopia | Warsaw | 3 | All Maps | STV","players":null},{"server_id":52,"name":"Uncletopia | Warsaw | 4 | All Maps","name_short":"waw-4","host":"waw-1.pl.uncletopia.com","port":27045,"enabled":true,"region":"eu","cc":"pl","latitude":52.2297,"longitude":21.017532,"reserved":0,"last_update":"0001-01-01T00:00:00Z","name_a2s":"Uncletopia | Warsaw | 4 | All Maps","protocol":17,"map":"pl_swiftwater_final1","folder":"tf","game":"Team Fortress","app_id":440,"player_count":0,"max_players":24,"Bots":0,"server_type":"Dedicated","server_os":"Linux","password":true,"vac":true,"version":"7742253","steam_id":85568392925397853,"keywords":["nocrits","nodmgspread","payload","uncletopia"],"game_id":440,"stv_port":27046,"stv_name":"Uncletopia | Warsaw | 4 | All Maps | STV","players":null},{"server_id":53,"name":"Uncletopia | Warsaw | 5 | Stopwatch Beta","name_short":"waw-5","host":"waw-1.pl.uncletopia.com","port":27055,"enabled":true,"region":"eu","cc":"pl","latitude":52.2297,"longitude":21.017532,"reserved":0,"last_update":"0001-01-01T00:00:00Z","name_a2s":"Uncletopia | Warsaw | 5 | Stopwatch Beta","protocol":17,"map":"pl_swiftwater_final1","folder":"tf","game":"Team Fortress","app_id":440,"player_count":0,"max_players":24,"Bots":0,"server_type":"Dedicated","server_os":"Linux","password":true,"vac":true,"version":"7742253","steam_id":85568392925397854,"keywords":["nocrits","nodmgspread","payload","uncletopia"],"game_id":440,"stv_port":27056,"stv_name":"Uncletopia | Warsaw | 5 | Stopwatch Beta | STV","players":null},{"server_id":54,"name":"Uncletopia | Warsaw | 6 | Community","name_short":"waw-6","host":"waw-1.pl.uncletopia.com","port":27065,"enabled":true,"region":"eu","cc":"pl","latitude":52.2297,"longitude":21.017532,"reserved":0,"last_update":"0001-01-01T00:00:00Z","name_a2s":"Uncletopia | Warsaw | 6 | Community","protocol":17,"map":"koth_highpass","folder":"tf","game":"Team Fortress","app_id":440,"player_count":0,"max_players":24,"Bots":0,"server_type":"Dedicated","server_os":"Linux","password":true,"vac":true,"version":"7742253","steam_id":85568392925397856,"keywords":["cp","nocrits","nodmgspread","uncletopia"],"game_id":440,"stv_port":27066,"stv_name":"Uncletopia | Warsaw | 6 | Community | STV","players":null}]}