{"status":true,"message":"","result":[{"server_id":9,"name":"Uncletopia | Atlanta | 1 | All Maps","name_short":"atl-1","host":"atl-1.us.uncletopia.com","port":27015,"enabled":true,"region":"us-east","cc":"us","latitude":33.753746,"longitude":-84.38633,"reserved":0,"last_update":"0001-01-01T00:00:00Z","name_a2s":"Uncletopia | Atlanta | 1 | All Maps","protocol":17,"map":"pl_thundermountain","folder":"tf","game":"Team Fortress","app_id":440,"player_count":24,"max_players":24,"Bots":0,"server_type":"Dedicated","server_os":"Linux","password":true,"vac":true,"version":"7961495","steam_id":85568392924469982,"keywords":["nocrits","nodmgspread","payload","uncletopia"],"game_id":440,"stv_port":27016,"stv_name":"Uncletopia | Atlanta | 1 | All Maps | STV","players":[{"user_id":272,"name":"hayes","steam_id":76561198057101042,"connected_time":3013000000000,"state":"active","ping":72},{"user_id":333,"name":"JebusTheSavior","steam_id":76561197970083444,"connected_time":804000000000,"state":"active","ping":72},{"user_id":329,"name":"Heathcliff","steam_id":76561198044288534,"connected_time":816000000000,"state":"active","ping":78},{"user_id":343,"name":"Vee (very cool)","steam_id":76561198330432889,"connected_time":378000000000,"state":"active","ping":66},{"user_id":355,"name":"COOLLER","steam_id":76561198116564779,"connected_time":15000000000,"state":"spawning","ping":30},{"user_id":332,"name":"Ursus Ludius","steam_id":76561198025470722,"connected_time":809000000000,"state":"active","ping":87},{"user_id":330,"name":"retard salad","steam_id":76561198310555568,"connected_time":813000000000,"state":"active","ping":91},{"user_id":136,"name":"lynt","steam_id":76561198988333976,"connected_time":13274000000000,"state":"active","ping":41},{"user_id":319,"name":"zacmattsmith","steam_id":76561199027704149,"connected_time":1138000000000,"state":"active","ping":83},{"user_id":264,"name":"Decolour","steam_id":76561199045608372,"connected_time":3913000000000,"state":"active","ping":97},{"user_id":260,"name":"marguerite","steam_id":76561198170873495,"connected_time":4670000000000,"state":"active","ping":51},{"user_id":254,"name":"Boneless Blithen","steam_id":76561197989955619,"connected_time":4691000000000,"state":"active","ping":122},{"user_id":284,"name":"BoyWithTheBeanie","steam_id":76561199435079308,"connected_time":2003000000000,"state":"active","ping":135},{"user_id":305,"name":"lurid","steam_id":76561199134999203,"connected_time":1409000000000,"state":"active","ping":60},{"user_id":341,"name":"Quality","steam_id":76561198361132101,"connected_time":529000000000,"state":"active","ping":88},{"user_id":334,"name":"Phil","steam_id":76561198398918486,"connected_time":770000000000,"state":"active","ping":74},{"user_id":289,"name":"AmC","steam_id":76561198109731140,"connected_time":1550000000000,"state":"active","ping":107},{"user_id":335,"name":"Obelisk","steam_id":76561198049416866,"connected_time":729000000000,"state":"active","ping":55},{"user_id":262,"name":"eish","steam_id":76561198089463603,"connected_time":4662000000000,"state":"active","ping":132},{"user_id":282,"name":"row","steam_id":76561198040946044,"connected_time":2199000000000,"state":"active","ping":87},{"user_id":288,"name":"e0e0","steam_id":76561198293839750,"connected_time":1800000000000,"state":"active","ping":61},{"user_id":263,"name":"Pango","steam_id":76561198069811545,"connected_time":4040000000000,"state":"active","ping":44},{"user_id":274,"name":"Bodhi (she/they)","steam_id":76561198103230995,"connected_time":3012000000000,"state":"active","ping":62},{"user_id":348,"name":"jordanddean2016","steam_id":76561198323772677,"connected_time":220000000000,"state":"active","ping":127}]},{"server_id":104,"name":"Uncletopia | Atlanta | 2 | All Maps","name_short":"atl-2","host":"atl-1.us.uncletopia.com","port":27025,"enabled":true,"region":"us-east","cc":"us","latitude":33.753746,"longitude":-84.38633,"reserved":0,"last_update":"0001-01-01T00:00:00Z","name_a2s":"Uncletopia | Atlanta | 2 | All Maps","protocol":17,"map":"ctf_2fort","folder":"tf","game":"Team Fortress","app_id":440,"player_count":1,"max_players":24,"Bots":0,"server_type":"Dedicated","server_os":"Linux","password":true,"vac":true,"version":"7961495","steam_id":85568392924469983,"keywords":["ctf","nocrits","nodmgspread","uncletopia"],"game_id":440,"stv_port":27026,"stv_name":"Uncletopia | Atlanta | 2 | All Maps | STV","players":[{"user_id":32,"name":"jandajanda","steam_id":76561198235722476,"connected_time":21000000000,"state":"active","ping":49}]},{"server_id":400,"name":"Uncletopia | Atlanta | 3 | Stopwatch","name_short":"atl-3","host":"atl-1.us.uncletopia.com","port":27035,"enabled":true,"region":"us-east","cc":"us","latitude":33.753746,"longitude":-84.38633,"reserved":0,"last_update":"0001-01-01T00:00:00Z","name_a2s":"Uncletopia | Atlanta | 3 | Stopwatch","protocol":17,"map":"koth_lakeside_final","folder":"tf","game":"Team Fortress","app_id":440,"player_count":23,"max_players":24,"Bots":0,"server_type":"Dedicated","server_os":"Linux","password":true,"vac":true,"version":"7961495","steam_id":85568392924515187,"keywords":["cp","nocrits","nodmgspread","uncletopia"],"game_id":440,"stv_port":27036,"stv_name":"Uncletopia | Atlanta | 3 | Stopwatch | STV","players":[{"user_id":190,"name":"Amy Roxwell","steam_id":76561198303391830,"connected_time":1575000000000,"state":"active","ping":112},{"user_id":150,"name":"turtlewho","steam_id":76561199071366637,"connected_time":4528000000000,"state":"active","ping":56},{"user_id":215,"name":"Sexy Kitten (toxic)","steam_id":76561197979056451,"connected_time":652000000000,"state":"active","ping":105},{"user_id":207,"name":"MegaMudkipz","steam_id":76561198354776000,"connected_time":973000000000,"state":"active","ping":91},{"user_id":162,"name":"indi","steam_id":76561198045917538,"connected_time":3382000000000,"state":"active","ping":73},{"user_id":213,"name":"DankusMemius","steam_id":76561198155223222,"connected_time":809000000000,"state":"active","ping":74},{"user_id":220,"name":"pupperowns","steam_id":76561198171274581,"connected_time":443000000000,"state":"active","ping":98},{"user_id":224,"name":"37 septillion tapeworms","steam_id":76561198186128723,"connected_time":126000000000,"state":"active","ping":71},{"user_id":142,"name":"jello","steam_id":76561199274158922,"connected_time":4709000000000,"state":"active","ping":111},{"user_id":170,"name":"I Have Huge Guts","steam_id":76561198103496593,"connected_time":2887000000000,"state":"active","ping":46},{"user_id":80,"name":"Man On Night Mode","steam_id":76561198012469076,"connected_time":8801000000000,"state":"active","ping":91},{"user_id":225,"name":"dongpirate","steam_id":76561198085746632,"connected_time":4000000000,"state":"spawning","ping":105},{"user_id":214,"name":"Sauce","steam_id":76561198398722419,"connected_time":808000000000,"state":"active","ping":87},{"user_id":223,"name":"joelaulau","steam_id":76561198376642201,"connected_time":217000000000,"state":"active","ping":138},{"user_id":217,"name":"superx","steam_id":76561198044976613,"connected_time":511000000000,"state":"active","ping":62},{"user_id":222,"name":"Big McThankies From McSpankies","steam_id":76561198020516880,"connected_time":331000000000,"state":"active","ping":77},{"user_id":175,"name":"Zeelidox","steam_id":76561198110613375,"connected_time":2602000000000,"state":"active","ping":63},{"user_id":182,"name":"Blueseer","steam_id":76561198060326533,"connected_time":2431000000000,"state":"active","ping":62},{"user_id":196,"name":"Invictus","steam_id":76561198079517075,"connected_time":1362000000000,"state":"active","ping":90},{"user_id":205,"name":"HasheM","steam_id":76561198090308879,"connected_time":999000000000,"state":"active","ping":132},{"user_id":149,"name":"Willy the Wonderdog","steam_id":76561198067089970,"connected_time":4550000000000,"state":"active","ping":62},{"user_id":219,"name":"the fundraiser","steam_id":76561198841016072,"connected_time":472000000000,"state":"active","ping":117},{"user_id":152,"name":"IsleBound","steam_id":76561198278451717,"connected_time":4510000000000,"state":"active","ping":75}]},{"server_id":401,"name":"Uncletopia | Atlanta | 4 | Community","name_short":"atl-4","host":"atl-1.us.uncletopia.com","port":27045,"enabled":true,"region":"us-east","cc":"us","latitude":33.753746,"longitude":-84.38633,"reserved":0,"last_update":"0001-01-01T00:00:00Z","name_a2s":"Uncletopia | Atlanta | 4 | Community","protocol":17,"map":"workshop/pl_phoenix_b4a.ugc2969509359","folder":"tf","game":"Team Fortress","app_id":440,"player_count":2,"max_players":24,"Bots":0,"server_type":"Dedicated","server_os":"Linux","password":true,"vac":true,"version":"7961495","steam_id":85568392924515188,"keywords":["nocrits","nodmgspread","payload","uncletopia"],"game_id":440,"stv_port":27046,"stv_name":"Uncletopia | Atlanta | 4 | Community | STV","players":[{"user_id":8,"name":"think before you believe","steam_id":76561198857358730,"connected_time":1040000000000,"state":"active","ping":48},{"user_id":9,"name":"Bonk Boy","steam_id":76561199241513961,"connected_time":18000000000,"state":"active","ping":82}]},{"server_id":2,"name":"Uncletopia | Chicago | 1 | All Maps","name_short":"chi-1","host":"chi-1.us.uncletopia.com","port":27015,"enabled":true,"region":"us-central","cc":"us","latitude":41.881832,"longitude":-87.62318,"reserved":0,"last_update":"0001-01-01T00:00:00Z","name_a2s":"Uncletopia | Chicago | 1 | All Maps","protocol":17,"map":"pl_upward","folder":"tf","game":"Team Fortress","app_id":440,"player_count":24,"max_players":24,"Bots":0,"server_type":"Dedicated","server_os":"Linux","password":true,"vac":true,"version":"7961495","steam_id":85568392924469984,"keywords":["nocrits","nodmgspread","payload","uncletopia"],"game_id":440,"stv_port":27016,"stv_name":"Uncletopia | Chicago | 1 | All Maps | STV","players":[{"user_id":138,"name":"Toxic Mercenary","steam_id":76561197988501611,"connected_time":3201000000000,"state":"active","ping":93},{"user_id":137,"name":"Jerry Bondle","steam_id":76561198337512213,"connected_time":3212000000000,"state":"active","ping":69},{"user_id":162,"name":"Milkmur","steam_id":76561198210043821,"connected_time":1596000000000,"state":"active","ping":59},{"user_id":168,"name":"Tec-9 Fubar","steam_id":76561198403649648,"connected_time":1022000000000,"state":"active","ping":49},{"user_id":163,"name":"Boofenshmirtz","steam_id":76561198071649858,"connected_time":1592000000000,"state":"active","ping":72},{"user_id":159,"name":"Lee Surge (fishtank.live)","steam_id":76561198202272884,"connected_time":1683000000000,"state":"active","ping":76},{"user_id":123,"name":"cheddar baked ruffles","steam_id":76561198799404824,"connected_time":4191000000000,"state":"active","ping":76},{"user_id":176,"name":"Sergeant Snowflake","steam_id":76561198041474489,"connected_time":765000000000,"state":"active","ping":41},{"user_id":181,"name":"Fami","steam_id":76561198193580105,"connected_time":532000000000,"state":"active","ping":93},{"user_id":170,"name":"rat eater","steam_id":76561199216874750,"connected_time":1005000000000,"state":"active","ping":38},{"user_id":165,"name":"Pixler544","steam_id":76561198240575132,"connected_time":1560000000000,"state":"active","ping":69},{"user_id":152,"name":"Forgeblazer","steam_id":76561198073710034,"connected_time":2600000000000,"state":"active","ping":58},{"user_id":185,"name":"I'm Only 4 Inches","steam_id":76561198055542546,"connected_time":28000000000,"state":"active","ping":56},{"user_id":183,"name":"crnloony","steam_id":76561198374903320,"connected_time":164000000000,"state":"active","ping":100},{"user_id":151,"name":"Tala\u003c3","steam_id":76561198169200739,"connected_time":2639000000000,"state":"active","ping":45},{"user_id":158,"name":"MedRed™ #IATAH","steam_id":76561198002962970,"connected_time":2122000000000,"state":"active","ping":94},{"user_id":175,"name":"Im totally a hacker","steam_id":76561198888005736,"connected_time":810000000000,"state":"active","ping":64},{"user_id":166,"name":"IV","steam_id":76561198061775515,"connected_time":1410000000000,"state":"active","ping":58},{"user_id":178,"name":"folly","steam_id":76561198133933158,"connected_time":618000000000,"state":"active","ping":114},{"user_id":173,"name":"goblin","steam_id":76561199004451589,"connected_time":950000000000,"state":"active","ping":68},{"user_id":184,"name":"The Fiend","steam_id":76561199229771413,"connected_time":66000000000,"state":"active","ping":65},{"user_id":167,"name":"TallBit","steam_id":76561199059748976,"connected_time":1230000000000,"state":"active","ping":50},{"user_id":186,"name":"PageBoiSkull","steam_id":76561198237353578,"connected_time":17000000000,"state":"active","ping":96},{"user_id":157,"name":"hej","steam_id":76561197996366940,"connected_time":2158000000000,"state":"active","ping":60}]},{"server_id":106,"name":"Uncletopia | Chicago | 2 | All Maps","name_short":"chi-2","host":"chi-1.us.uncletopia.com","port":27025,"enabled":true,"region":"us-central","cc":"us","latitude":41.881832,"longitude":-87.62318,"reserved":0,"last_update":"0001-01-01T00:00:00Z","name_a2s":"Uncletopia | Chicago | 2 | All Maps","protocol":17,"map":"cp_gorge","folder":"tf","game":"Team Fortress","app_id":440,"player_count":24,"max_players":24,"Bots":0,"server_type":"Dedicated","server_os":"Linux","password":true,"vac":true,"version":"7961495","steam_id":85568392924469985,"keywords":["cp","nocrits","nodmgspread","uncletopia"],"game_id":440,"stv_port":27026,"stv_name":"Uncletopia | Chicago | 2 | All Maps | STV","players":[{"user_id":209,"name":"nalon","steam_id":76561199499587098,"connected_time":666000000000,"state":"active","ping":54},{"user_id":207,"name":"Hamlindigo Blue™","steam_id":76561198116337540,"connected_time":1010000000000,"state":"active","ping":79},{"user_id":173,"name":"laptop_user431","steam_id":76561198420227358,"connected_time":3411000000000,"state":"active","ping":77},{"user_id":194,"name":"SomeRandomCat","steam_id":76561199107044061,"connected_time":2065000000000,"state":"active","ping":61},{"user_id":211,"name":"Kola ✧","steam_id":76561198049995341,"connected_time":644000000000,"state":"active","ping":50},{"user_id":203,"name":"non_ai","steam_id":76561198270951938,"connected_time":1547000000000,"state":"active","ping":61},{"user_id":213,"name":"AkaDoggo","steam_id":76561198968291063,"connected_time":553000000000,"state":"active","ping":50},{"user_id":166,"name":"Ceige","steam_id":76561198068538473,"connected_time":3592000000000,"state":"active","ping":77},{"user_id":210,"name":"Q Whang","steam_id":76561198122479810,"connected_time":656000000000,"state":"active","ping":54},{"user_id":182,"name":"Chris P. Bacon","steam_id":76561198000851038,"connected_time":2514000000000,"state":"active","ping":74},{"user_id":219,"name":"Big_Beans888","steam_id":76561198100822287,"connected_time":448000000000,"state":"active","ping":84},{"user_id":208,"name":"kjc105","steam_id":76561198880364422,"connected_time":962000000000,"state":"active","ping":79},{"user_id":202,"name":"Nathan","steam_id":76561198127924646,"connected_time":1613000000000,"state":"active","ping":83},{"user_id":220,"name":"Toxic-Fluid","steam_id":76561198115530353,"connected_time":413000000000,"state":"active","ping":74},{"user_id":221,"name":"Lydia","steam_id":76561197970501260,"connected_time":87000000000,"state":"active","ping":52},{"user_id":206,"name":"Meh","steam_id":76561198078187920,"connected_time":1082000000000,"state":"active","ping":83},{"user_id":183,"name":"Goomby","steam_id":76561198079416561,"connected_time":2513000000000,"state":"active","ping":115},{"user_id":184,"name":"Yamn Zaddy","steam_id":76561198074678001,"connected_time":2480000000000,"state":"active","ping":108},{"user_id":178,"name":"onionaid","steam_id":76561198065266282,"connected_time":2694000000000,"state":"active","ping":72},{"user_id":201,"name":"Debarro","steam_id":76561198452105948,"connected_time":1828000000000,"state":"active","ping":64},{"user_id":175,"name":"BEEEEEEEEEEEEEEEES","steam_id":76561199431280503,"connected_time":3340000000000,"state":"active","ping":73},{"user_id":156,"name":"D(b) Hell","steam_id":76561198067869016,"connected_time":4814000000000,"state":"active","ping":45},{"user_id":218,"name":"That One Idiot Joe","steam_id":76561198967761529,"connected_time":503000000000,"state":"active","ping":75},{"user_id":217,"name":"put fentanyl back in pepsi","steam_id":76561198238592900,"connected_time":542000000000,"state":"active","ping":83}]},{"server_id":402,"name":"Uncletopia | Chicago | 3 | All Maps","name_short":"chi-3","host":"chi-1.us.uncletopia.com","port":27035,"enabled":true,"region":"us-central","cc":"us","latitude":41.881832,"longitude":-87.62318,"reserved":0,"last_update":"0001-01-01T00:00:00Z","name_a2s":"Uncletopia | Chicago | 3 | All Maps","protocol":17,"map":"koth_cascade","folder":"tf","game":"Team Fortress","app_id":440,"player_count":0,"max_players":24,"Bots":0,"server_type":"Dedicated","server_os":"Linux","password":true,"vac":true,"version":"7961495","steam_id":85568392924515191,"keywords":["cp","nocrits","nodmgspread","uncletopia"],"game_id":440,"stv_port":27036,"stv_name":"Uncletopia | Chicago | 3 | All Maps | STV","players":null},{"server_id":403,"name":"Uncletopia | Chicago | 4 | All Maps","name_short":"chi-4","host":"chi-1.us.uncletopia.com","port":27045,"enabled":true,"region":"us-central","cc":"us","latitude":41.881832,"longitude":-87.62318,"reserved":0,"last_update":"0001-01-01T00:00:00Z","name_a2s":"Uncletopia | Chicago | 4 | All Maps","protocol":17,"map":"pl_badwater","folder":"tf","game":"Team Fortress","app_id":440,"player_count":24,"max_players":24,"Bots":0,"server_type":"Dedicated","server_os":"Linux","password":true,"vac":true,"version":"7961495","steam_id":85568392924515193,"keywords":["nocrits","nodmgspread","payload","uncletopia"],"game_id":440,"stv_port":27046,"stv_name":"Uncletopia | Chicago | 4 | All Maps | STV","players":[{"user_id":321,"name":"Jacob Deveau","steam_id":76561198997341499,"connected_time":676000000000,"state":"active","ping":59},{"user_id":307,"name":"losing","steam_id":76561198003206947,"connected_time":1541000000000,"state":"active","ping":64},{"user_id":324,"name":"Varveer","steam_id":76561198218897383,"connected_time":223000000000,"state":"active","ping":62},{"user_id":316,"name":"Thequirka","steam_id":76561198968058652,"connected_time":1231000000000,"state":"active","ping":100},{"user_id":325,"name":"MechanicalMenace14","steam_id":76561199063956054,"connected_time":222000000000,"state":"active","ping":103},{"user_id":326,"name":"mightpickles","steam_id":76561198367518533,"connected_time":213000000000,"state":"active","ping":119},{"user_id":310,"name":"Gorilla","steam_id":76561198353451603,"connected_time":1400000000000,"state":"active","ping":76},{"user_id":327,"name":"SimplisticNapoleon","steam_id":76561199014842904,"connected_time":210000000000,"state":"active","ping":115},{"user_id":319,"name":"Comrade","steam_id":76561199056721863,"connected_time":1155000000000,"state":"active","ping":82},{"user_id":328,"name":"e doctor","steam_id":76561198081851446,"connected_time":196000000000,"state":"active","ping":45},{"user_id":288,"name":"Lain","steam_id":76561198029303534,"connected_time":2816000000000,"state":"active","ping":69},{"user_id":312,"name":"H0wlr","steam_id":76561198012332824,"connected_time":1354000000000,"state":"active","ping":73},{"user_id":329,"name":"Dan","steam_id":76561198205054883,"connected_time":177000000000,"state":"active","ping":100},{"user_id":313,"name":"Yukiteru Amano","steam_id":76561198267480166,"connected_time":1348000000000,"state":"active","ping":93},{"user_id":268,"name":"♥ Tomboy ♥","steam_id":76561198069881436,"connected_time":3939000000000,"state":"active","ping":75},{"user_id":291,"name":"heyCharn","steam_id":76561198058641350,"connected_time":2772000000000,"state":"active","ping":103},{"user_id":330,"name":"derby","steam_id":76561198127149121,"connected_time":160000000000,"state":"active","ping":78},{"user_id":320,"name":"Brothir","steam_id":76561198202989120,"connected_time":986000000000,"state":"active","ping":86},{"user_id":317,"name":"Nixon Me, Dixon Me","steam_id":76561198126519537,"connected_time":1198000000000,"state":"active","ping":67},{"user_id":274,"name":"Chanter","steam_id":76561198246701796,"connected_time":3582000000000,"state":"active","ping":74},{"user_id":292,"name":"A Loaf Of Fetus","steam_id":76561198058016214,"connected_time":2771000000000,"state":"active","ping":106},{"user_id":301,"name":"Viewie","steam_id":76561198280108853,"connected_time":2127000000000,"state":"active","ping":83},{"user_id":257,"name":"Gangsta monkey","steam_id":76561198282395338,"connected_time":4403000000000,"state":"active","ping":81},{"user_id":323,"name":"fresco","steam_id":76561199101199477,"connected_time":372000000000,"state":"active","ping":57}]},{"server_id":36,"name":"Uncletopia | Chicago | 5 | All Maps","name_short":"chi-5","host":"chi-2.us.uncletopia.com","port":27015,"enabled":true,"region":"us-central","cc":"us","latitude":41.881832,"longitude":-87.62318,"reserved":0,"last_update":"0001-01-01T00:00:00Z","name_a2s":"Uncletopia | Chicago | 5 | All Maps","protocol":17,"map":"cp_altitude","folder":"tf","game":"Team Fortress","app_id":440,"player_count":3,"max_players":24,"Bots":0,"server_type":"Dedicated","server_os":"Linux","password":true,"vac":true,"version":"7961495","steam_id":85568392924866362,"keywords":["cp","nocrits","nodmgspread","uncletopia"],"game_id":440,"stv_port":27016,"stv_name":"Uncletopia | Chicago | 5 | All Maps | STV","players":[{"user_id":5,"name":"Engiqueer Gaming","steam_id":76561199075186597,"connected_time":772000000000,"state":"active","ping":56},{"user_id":9,"name":"Shawniqua","steam_id":76561198350691501,"connected_time":75000000000,"state":"active","ping":76},{"user_id":8,"name":"chiswola","steam_id":76561198046920142,"connected_time":136000000000,"state":"active","ping":66}]},{"server_id":37,"name":"Uncletopia | Chicago | 6 | All Maps","name_short":"chi-6","host":"chi-2.us.uncletopia.com","port":27025,"enabled":true,"region":"us-central","cc":"us","latitude":41.881832,"longitude":-87.62318,"reserved":0,"last_update":"0001-01-01T00:00:00Z","name_a2s":"Uncletopia | Chicago | 6 | All Maps","protocol":17,"map":"pl_borneo","folder":"tf","game":"Team Fortress","app_id":440,"player_count":24,"max_players":24,"Bots":0,"server_type":"Dedicated","server_os":"Linux","password":true,"vac":true,"version":"7961495","steam_id":85568392924866363,"keywords":["nocrits","nodmgspread","payload","uncletopia"],"game_id":440,"stv_port":27026,"stv_name":"Uncletopia | Chicago | 6 | All Maps | STV","players":[{"user_id":419,"name":"sidhaktheguy","steam_id":76561198306006593,"connected_time":124000000000,"state":"active","ping":58},{"user_id":420,"name":"Novu","steam_id":76561198886997024,"connected_time":118000000000,"state":"active","ping":84},{"user_id":400,"name":"ö¿rö  ù π (NGï○á x 21","steam_id":76561198069589278,"connected_time":1244000000000,"state":"active","ping":144},{"user_id":393,"name":"JakeTheSnake2007","steam_id":76561199101642283,"connected_time":1551000000000,"state":"active","ping":54},{"user_id":415,"name":"corviraptor (certified failgirl","steam_id":76561198058284392,"connected_time":194000000000,"state":"active","ping":75},{"user_id":398,"name":"TONY SOPRANO","steam_id":76561198162029332,"connected_time":1372000000000,"state":"active","ping":69},{"user_id":379,"name":"LargerThanAverageDragon","steam_id":76561198152036300,"connected_time":1898000000000,"state":"active","ping":67},{"user_id":416,"name":"Pigzilla","steam_id":76561198373968267,"connected_time":191000000000,"state":"active","ping":60},{"user_id":418,"name":"Aztea","steam_id":76561198982089893,"connected_time":180000000000,"state":"active","ping":77},{"user_id":371,"name":"TheMemeHead","steam_id":76561198351995227,"connected_time":2375000000000,"state":"active","ping":62},{"user_id":425,"name":"Smoke","steam_id":76561198071892587,"connected_time":49000000000,"state":"active","ping":105},{"user_id":422,"name":"Spare(8)Ball","steam_id":76561197982432995,"connected_time":78000000000,"state":"active","ping":101},{"user_id":408,"name":"aurro","steam_id":76561198315692300,"connected_time":1052000000000,"state":"active","ping":47},{"user_id":403,"name":"Skuth","steam_id":76561198041470939,"connected_time":1220000000000,"state":"active","ping":69},{"user_id":414,"name":"JRB","steam_id":76561198054629439,"connected_time":405000000000,"state":"active","ping":50},{"user_id":385,"name":"megakronos479","steam_id":76561198867315071,"connected_time":1796000000000,"state":"active","ping":101},{"user_id":405,"name":"Deez","steam_id":76561198881080524,"connected_time":1111000000000,"state":"active","ping":147},{"user_id":302,"name":"Docthenotable","steam_id":76561199389114520,"connected_time":8569000000000,"state":"active","ping":62},{"user_id":406,"name":"GuyGoom","steam_id":76561198254522178,"connected_time":1078000000000,"state":"active","ping":57},{"user_id":426,"name":"Vagrant","steam_id":76561198242536886,"connected_time":40000000000,"state":"active","ping":88},{"user_id":407,"name":"Skudge Sister","steam_id":76561198041766766,"connected_time":1072000000000,"state":"active","ping":75},{"user_id":395,"name":"The Idiot","steam_id":76561198049837377,"connected_time":1526000000000,"state":"active","ping":50},{"user_id":396,"name":"the milk man","steam_id":76561199094547569,"connected_time":1515000000000,"state":"active","ping":57},{"user_id":411,"name":"Ranger","steam_id":76561198064096654,"connected_time":819000000000,"state":"active","ping":45}]},{"server_id":38,"name":"Uncletopia | Chicago | 7 | Stopwatch","name_short":"chi-7","host":"chi-2.us.uncletopia.com","port":27035,"enabled":true,"region":"us-central","cc":"us","latitude":41.881832,"longitude":-87.62318,"reserved":0,"last_update":"0001-01-01T00:00:00Z","name_a2s":"Uncletopia | Chicago | 7 | Stopwatch","protocol":17,"map":"koth_lakeside_final","folder":"tf","game":"Team Fortress","app_id":440,"player_count":0,"max_players":24,"Bots":0,"server_type":"Dedicated","server_os":"Linux","password":true,"vac":true,"version":"7961495","steam_id":85568392924866364,"keywords":["cp","nocrits","nodmgspread","uncletopia"],"game_id":440,"stv_port":27036,"stv_name":"Uncletopia | Chicago | 7 | Stopwatch | STV","players":null},{"server_id":39,"name":"Uncletopia | Chicago | 8 | Community","name_short":"chi-8","host":"chi-2.us.uncletopia.com","port":27045,"enabled":true,"region":"us-central","cc":"us","latitude":41.881832,"longitude":-87.62318,"reserved":0,"last_update":"0001-01-01T00:00:00Z","name_a2s":"Uncletopia | Chicago | 8 | Community","protocol":17,"map":"workshop/cp_caldera_rc3.ugc2834196889","folder":"tf","game":"Team Fortress","app_id":440,"player_count":0,"max_players":24,"Bots":0,"server_type":"Dedicated","server_os":"Linux","password":true,"vac":true,"version":"7961495","steam_id":85568392924866365,"keywords":["cp","nocrits","nodmgspread","uncletopia"],"game_id":440,"stv_port":27046,"stv_name":"Uncletopia | Chicago | 8 | Community | STV","players":null},{"server_id":8,"name":"Uncletopia | Dallas | 1 | All Maps","name_short":"dal-1","host":"dal-1.us.uncletopia.com","port":27015,"enabled":true,"region":"us-central","cc":"us","latitude":32.779167,"longitude":-96.80889,"reserved":0,"last_update":"0001-01-01T00:00:00Z","name_a2s":"Uncletopia | Dallas | 1 | All Maps","protocol":17,"map":"cp_gorge","folder":"tf","game":"Team Fortress","app_id":440,"player_count":24,"max_players":24,"Bots":0,"server_type":"Dedicated","server_os":"Linux","password":true,"vac":true,"version":"7961495","steam_id":85568392924469986,"keywords":["cp","nocrits","nodmgspread","uncletopia"],"game_id":440,"stv_port":27016,"stv_name":"Uncletopia | Dallas | 1 | All Maps | STV","players":[{"user_id":31,"name":"Crλf227","steam_id":76561198196211121,"connected_time":4732000000000,"state":"active","ping":72},{"user_id":76,"name":"Certified Hood Classic","steam_id":76561199086159354,"connected_time":2195000000000,"state":"active","ping":55},{"user_id":80,"name":"nicholas","steam_id":76561198058211873,"connected_time":1995000000000,"state":"active","ping":59},{"user_id":95,"name":"AzuriousAlex","steam_id":76561198158026405,"connected_time":134000000000,"state":"active","ping":78},{"user_id":86,"name":"Your Dinosaurs","steam_id":76561198392670237,"connected_time":1446000000000,"state":"active","ping":87},{"user_id":84,"name":"owl","steam_id":76561198088403016,"connected_time":1463000000000,"state":"active","ping":166},{"user_id":65,"name":"freesia","steam_id":76561198127525888,"connected_time":3119000000000,"state":"active","ping":49},{"user_id":42,"name":"Human_Duck_Box","steam_id":76561199216572071,"connected_time":4123000000000,"state":"active","ping":100},{"user_id":94,"name":"Smitty Werbenjagermanjensen","steam_id":76561198065782439,"connected_time":285000000000,"state":"active","ping":74},{"user_id":73,"name":"donkey kong master","steam_id":76561198142732734,"connected_time":2475000000000,"state":"active","ping":72},{"user_id":46,"name":"Whoops!","steam_id":76561198151315898,"connected_time":3743000000000,"state":"active","ping":68},{"user_id":90,"name":"a Salty Individual","steam_id":76561197979951077,"connected_time":988000000000,"state":"active","ping":120},{"user_id":48,"name":"Zycron0","steam_id":76561199122983789,"connected_time":3708000000000,"state":"active","ping":98},{"user_id":63,"name":"EMPTY WITCH","steam_id":76561198068800572,"connected_time":3344000000000,"state":"active","ping":80},{"user_id":91,"name":"Drew","steam_id":76561198991129355,"connected_time":969000000000,"state":"active","ping":102},{"user_id":96,"name":"Mr. Warcrimes (B.F.B.L)","steam_id":76561198154254733,"connected_time":34000000000,"state":"spawning","ping":62},{"user_id":52,"name":"Catgirl Explise","steam_id":76561198044413891,"connected_time":3659000000000,"state":"active","ping":106},{"user_id":92,"name":"Anthid","steam_id":76561198074493797,"connected_time":567000000000,"state":"active","ping":60},{"user_id":93,"name":"Jatt","steam_id":76561198822011219,"connected_time":387000000000,"state":"active","ping":83},{"user_id":79,"name":"fish","steam_id":76561198111396488,"connected_time":2023000000000,"state":"active","ping":45},{"user_id":61,"name":"ebbaxter13","steam_id":76561198839647688,"connected_time":3405000000000,"state":"active","ping":99},{"user_id":85,"name":"Firedust19","steam_id":76561198153238631,"connected_time":1457000000000,"state":"active","ping":88},{"user_id":89,"name":"asm_ghost","steam_id":76561199205363547,"connected_time":1071000000000,"state":"active","ping":94},{"user_id":60,"name":"Vroooooooooooooooom","steam_id":76561198139913628,"connected_time":3486000000000,"state":"active","ping":61}]},{"server_id":108,"name":"Uncletopia | Dallas | 2 | All Maps","name_short":"dal-2","host":"dal-1.us.uncletopia.com","port":27025,"enabled":true,"region":"us-central","cc":"us","latitude":32.779167,"longitude":-96.80889,"reserved":0,"last_update":"0001-01-01T00:00:00Z","name_a2s":"Uncletopia | Dallas | 2 | All Maps","protocol":17,"map":"pl_frontier_final","folder":"tf","game":"Team Fortress","app_id":440,"player_count":24,"max_players":24,"Bots":0,"server_type":"Dedicated","server_os":"Linux","password":true,"vac":true,"version":"7961495","steam_id":85568392924469988,"keywords":["nocrits","nodmgspread","payload","uncletopia"],"game_id":440,"stv_port":27026,"stv_name":"Uncletopia | Dallas | 2 | All Maps | STV","players":[{"user_id":92,"name":"❤ Ashleyyy ❤","steam_id":76561198056428303,"connected_time":4018000000000,"state":"active","ping":75},{"user_id":178,"name":"TB2438","steam_id":76561199220105335,"connected_time":600000000000,"state":"active","ping":93},{"user_id":179,"name":"Your Local Subway Employee","steam_id":76561198811130843,"connected_time":591000000000,"state":"active","ping":105},{"user_id":114,"name":"Prof. Eggnog","steam_id":76561198193389166,"connected_time":2203000000000,"state":"active","ping":101},{"user_id":181,"name":"L-","steam_id":76561198046074220,"connected_time":572000000000,"state":"active","ping":84},{"user_id":180,"name":"booxofdeath","steam_id":76561198358253942,"connected_time":586000000000,"state":"active","ping":67},{"user_id":185,"name":"Skab E²","steam_id":76561199126112357,"connected_time":207000000000,"state":"active","ping":79},{"user_id":186,"name":"Lil B (Tha Based/God)","steam_id":76561198133195238,"connected_time":52000000000,"state":"active","ping":96},{"user_id":112,"name":"Xavibite","steam_id":76561198209380493,"connected_time":2212000000000,"state":"active","ping":84},{"user_id":106,"name":"The Anime Protagonist","steam_id":76561198131400543,"connected_time":2233000000000,"state":"active","ping":71},{"user_id":176,"name":"Dreamzapp","steam_id":76561199084936632,"connected_time":640000000000,"state":"active","ping":93},{"user_id":143,"name":"Cambonieboo","steam_id":76561198139174433,"connected_time":1507000000000,"state":"active","ping":73},{"user_id":103,"name":"mkl","steam_id":76561197986401685,"connected_time":2801000000000,"state":"active","ping":56},{"user_id":108,"name":"schmuck","steam_id":76561198143789773,"connected_time":2232000000000,"state":"active","ping":56},{"user_id":156,"name":"Jovyel","steam_id":76561198118777065,"connected_time":1249000000000,"state":"active","ping":60},{"user_id":184,"name":"millennial on cell phone","steam_id":76561198972619900,"connected_time":390000000000,"state":"active","ping":48},{"user_id":62,"name":"K.O. Stradivarius","steam_id":76561198974913245,"connected_time":5992000000000,"state":"active","ping":90},{"user_id":49,"name":"✧.*Remzy✧.*","steam_id":76561199239412094,"connected_time":6951000000000,"state":"active","ping":178},{"user_id":166,"name":"Platinum","steam_id":76561198052463484,"connected_time":899000000000,"state":"active","ping":104},{"user_id":157,"name":"Grapes","steam_id":76561198799237970,"connected_time":1202000000000,"state":"active","ping":142},{"user_id":118,"name":"gru","steam_id":76561198208576396,"connected_time":2155000000000,"state":"active","ping":75},{"user_id":158,"name":"Xraverz","steam_id":76561198008891628,"connected_time":1148000000000,"state":"active","ping":108},{"user_id":182,"name":"Rin \"Hindwing\" Redtail","steam_id":76561199074865638,"connected_time":560000000000,"state":"active","ping":54},{"user_id":121,"name":"purple yellow red \u0026 blue","steam_id":76561198188722751,"connected_time":2131000000000,"state":"active","ping":92}]},{"server_id":404,"name":"Uncletopia | Dallas | 3 | All Maps","name_short":"dal-3","host":"dal-1.us.uncletopia.com","port":27035,"enabled":true,"region":"us-central","cc":"us","latitude":32.779167,"longitude":-96.80889,"reserved":0,"last_update":"0001-01-01T00:00:00Z","name_a2s":"Uncletopia | Dallas | 3 | All Maps","protocol":17,"map":"ctf_2fort","folder":"tf","game":"Team Fortress","app_id":440,"player_count":3,"max_players":24,"Bots":0,"server_type":"Dedicated","server_os":"Linux","password":true,"vac":true,"version":"7961495","steam_id":85568392924515219,"keywords":["ctf","nocrits","nodmgspread","uncletopia"],"game_id":440,"stv_port":27036,"stv_name":"Uncletopia | Dallas | 3 | All Maps | STV","players":[{"user_id":11,"name":"Ros","steam_id":76561199055963822,"connected_time":1149000000000,"state":"active","ping":65},{"user_id":12,"name":"banana97286","steam_id":76561199367847817,"connected_time":1134000000000,"state":"active","ping":77},{"user_id":18,"name":"fishies :)","steam_id":76561198317943203,"connected_time":143000000000,"state":"active","ping":38}]},{"server_id":405,"name":"Uncletopia | Dallas | 4 | Community","name_short":"dal-4","host":"dal-1.us.uncletopia.com","port":27045,"enabled":true,"region":"us-central","cc":"us","latitude":32.779167,"longitude":-96.80889,"reserved":0,"last_update":"0001-01-01T00:00:00Z","name_a2s":"Uncletopia | Dallas | 4 | Community","protocol":17,"map":"workshop/cp_croissant_final.ugc458840209","folder":"tf","game":"Team Fortress","app_id":440,"player_count":0,"max_players":24,"Bots":0,"server_type":"Dedicated","server_os":"Linux","password":true,"vac":true,"version":"7961495","steam_id":85568392924515220,"keywords":["cp","nocrits","nodmgspread","uncletopia"],"game_id":440,"stv_port":27046,"stv_name":"Uncletopia | Dallas | 4 | Community | STV","players":null},{"server_id":5,"name":"Uncletopia | Frankfurt | 1 | All Maps","name_short":"frk-1","host":"frk-1.de.uncletopia.com","port":27015,"enabled":true,"region":"eu","cc":"de","latitude":50.110924,"longitude":8.682127,"reserved":0,"last_update":"0001-01-01T00:00:00Z","name_a2s":"Uncletopia | Frankfurt | 1 | All Maps","protocol":17,"map":"pl_upward","folder":"tf","game":"Team Fortress","app_id":440,"player_count":24,"max_players":24,"Bots":0,"server_type":"Dedicated","server_os":"Linux","password":true,"vac":true,"version":"7961495","steam_id":85568392924469989,"keywords":["nocrits","nodmgspread","payload","uncletopia"],"game_id":440,"stv_port":27016,"stv_name":"Uncletopia | Frankfurt | 1 | All Maps | STV","players":[{"user_id":618,"name":"SpyCrab  Erik Twice","steam_id":76561198009710309,"connected_time":473000000000,"state":"active","ping":59},{"user_id":616,"name":"Doctor Mobius","steam_id":76561197971281806,"connected_time":489000000000,"state":"active","ping":66},{"user_id":622,"name":"Umbro","steam_id":76561198087930438,"connected_time":286000000000,"state":"active","ping":72},{"user_id":597,"name":"Rogernuke","steam_id":76561198312815194,"connected_time":2730000000000,"state":"active","ping":74},{"user_id":566,"name":"えななん","steam_id":76561199427679148,"connected_time":5044000000000,"state":"active","ping":60},{"user_id":568,"name":"lemoul","steam_id":76561198078099059,"connected_time":4827000000000,"state":"active","ping":48},{"user_id":612,"name":"Hey, I´m Andy!","steam_id":76561198060337777,"connected_time":504000000000,"state":"active","ping":67},{"user_id":531,"name":"david zaydullin (Charles McGill","steam_id":76561198965191846,"connected_time":7678000000000,"state":"active","ping":77},{"user_id":602,"name":"kenzou","steam_id":76561199180054996,"connected_time":2007000000000,"state":"active","ping":69},{"user_id":615,"name":"STiNGHAN","steam_id":76561198023989090,"connected_time":495000000000,"state":"active","ping":59},{"user_id":592,"name":"snayke","steam_id":76561198077822932,"connected_time":2855000000000,"state":"active","ping":61},{"user_id":528,"name":"antihuman","steam_id":76561198116027948,"connected_time":8014000000000,"state":"active","ping":74},{"user_id":603,"name":"nyanezt","steam_id":76561198253734265,"connected_time":2007000000000,"state":"active","ping":105},{"user_id":588,"name":"MiguelYaBoy","steam_id":76561198406295464,"connected_time":3400000000000,"state":"active","ping":63},{"user_id":609,"name":"LEGEND FUMO.","steam_id":76561198061033903,"connected_time":1067000000000,"state":"active","ping":45},{"user_id":617,"name":"Tomol","steam_id":76561198014523468,"connected_time":486000000000,"state":"active","ping":73},{"user_id":613,"name":"Chappi","steam_id":76561198075512843,"connected_time":504000000000,"state":"active","ping":76},{"user_id":611,"name":"Roland Deschain","steam_id":76561198023296355,"connected_time":512000000000,"state":"active","ping":76},{"user_id":623,"name":"waj","steam_id":76561198053628243,"connected_time":95000000000,"state":"active","ping":56},{"user_id":610,"name":"Mario Bazzuga","steam_id":76561198056690312,"connected_time":915000000000,"state":"active","ping":74},{"user_id":599,"name":"chiyonii.","steam_id":76561198021854431,"connected_time":2026000000000,"state":"active","ping":80},{"user_id":614,"name":"generic alias","steam_id":76561198271607226,"connected_time":503000000000,"state":"active","ping":83},{"user_id":619,"name":"SynthBox3","steam_id":76561199094075745,"connected_time":434000000000,"state":"active","ping":106},{"user_id":621,"name":"MR BUBBLES","steam_id":76561198019005259,"connected_time":384000000000,"state":"active","ping":102}]},{"server_id":110,"name":"Uncletopia | Frankfurt | 2 | All Maps","name_short":"frk-2","host":"frk-1.de.uncletopia.com","port":27025,"enabled":true,"region":"eu","cc":"de","latitude":50.110924,"longitude":8.682127,"reserved":0,"last_update":"0001-01-01T00:00:00Z","name_a2s":"Uncletopia | Frankfurt | 2 | All Maps","protocol":17,"map":"plr_bananabay","folder":"tf","game":"Team Fortress","app_id":440,"player_count":23,"max_players":24,"Bots":0,"server_type":"Dedicated","server_os":"Linux","password":true,"vac":true,"version":"7961495","steam_id":85568392924469990,"keywords":["nocrits","nodmgspread","payload","uncletopia"],"game_id":440,"stv_port":27026,"stv_name":"Uncletopia | Frankfurt | 2 | All Maps | STV","players":[{"user_id":517,"name":"Tea","steam_id":76561198799243030,"connected_time":2628000000000,"state":"active","ping":75},{"user_id":564,"name":"potar","steam_id":76561198017677744,"connected_time":382000000000,"state":"active","ping":83},{"user_id":541,"name":"ComatosePhoenix","steam_id":76561198071702821,"connected_time":1335000000000,"state":"active","ping":147},{"user_id":506,"name":"Laru","steam_id":76561197998838438,"connected_time":3344000000000,"state":"active","ping":81},{"user_id":553,"name":"doctour","steam_id":76561198063964992,"connected_time":896000000000,"state":"active","ping":63},{"user_id":522,"name":"jonh","steam_id":76561198261853441,"connected_time":2364000000000,"state":"active","ping":60},{"user_id":532,"name":"monocle chicken","steam_id":76561199020106029,"connected_time":1982000000000,"state":"active","ping":80},{"user_id":547,"name":"RA1234526","steam_id":76561199245954610,"connected_time":1039000000000,"state":"active","ping":121},{"user_id":554,"name":"Alyx","steam_id":76561198064654326,"connected_time":888000000000,"state":"active","ping":65},{"user_id":529,"name":"baver","steam_id":76561198135293142,"connected_time":2062000000000,"state":"active","ping":70},{"user_id":530,"name":"Ham","steam_id":76561199030215955,"connected_time":2056000000000,"state":"active","ping":96},{"user_id":560,"name":"Lux","steam_id":76561198060417740,"connected_time":440000000000,"state":"active","ping":49},{"user_id":551,"name":"Hypn0tic","steam_id":76561198120730525,"connected_time":920000000000,"state":"active","ping":88},{"user_id":523,"name":"gaggle","steam_id":76561197988226281,"connected_time":2363000000000,"state":"active","ping":58},{"user_id":566,"name":"manure merchant","steam_id":76561198010109316,"connected_time":117000000000,"state":"active","ping":57},{"user_id":524,"name":"didi_gaga","steam_id":76561198797688627,"connected_time":2360000000000,"state":"active","ping":68},{"user_id":511,"name":"camperboy","steam_id":76561198138410890,"connected_time":2837000000000,"state":"active","ping":61},{"user_id":548,"name":"Scout","steam_id":76561198992898803,"connected_time":1038000000000,"state":"active","ping":60},{"user_id":555,"name":"Dezzebdragon","steam_id":76561198321268457,"connected_time":881000000000,"state":"active","ping":76},{"user_id":563,"name":"Henry","steam_id":76561198108018305,"connected_time":391000000000,"state":"active","ping":69},{"user_id":565,"name":"I jazzed myself","steam_id":76561198203016603,"connected_time":349000000000,"state":"active","ping":69},{"user_id":557,"name":"gregi104","steam_id":76561198135449843,"connected_time":757000000000,"state":"active","ping":68},{"user_id":475,"name":"Mayor Wank from Wanker Town","steam_id":76561197998253588,"connected_time":5162000000000,"state":"active","ping":44}]},{"server_id":308,"name":"Uncletopia | Frankfurt | 3 | All Maps","name_short":"frk-3","host":"frk-1.de.uncletopia.com","port":27035,"enabled":true,"region":"eu","cc":"de","latitude":50.110924,"longitude":8.682127,"reserved":0,"last_update":"0001-01-01T00:00:00Z","name_a2s":"Uncletopia | Frankfurt | 3 | All Maps","protocol":17,"map":"cp_process_final","folder":"tf","game":"Team Fortress","app_id":440,"player_count":24,"max_players":24,"Bots":0,"server_type":"Dedicated","server_os":"Linux","password":true,"vac":true,"version":"7961495","steam_id":85568392924504274,"keywords":["cp","nocrits","nodmgspread","uncletopia"],"game_id":440,"stv_port":27036,"stv_name":"Uncletopia | Frankfurt | 3 | All Maps | STV","players":[{"user_id":343,"name":"Scorpionking","steam_id":76561197980983667,"connected_time":0,"state":"spawning","ping":14},{"user_id":328,"name":"Spinya","steam_id":76561198086653667,"connected_time":1241000000000,"state":"active","ping":64},{"user_id":335,"name":"Emperor Mateus","steam_id":76561198263503740,"connected_time":753000000000,"state":"active","ping":76},{"user_id":287,"name":"shooryukami","steam_id":76561199466594692,"connected_time":2823000000000,"state":"active","ping":110},{"user_id":281,"name":"wasto-/-™","steam_id":76561198102888038,"connected_time":2871000000000,"state":"active","ping":45},{"user_id":339,"name":"Cagnus Marlsen","steam_id":76561198077859721,"connected_time":430000000000,"state":"active","ping":52},{"user_id":298,"name":"Domdmar","steam_id":76561198104649922,"connected_time":2439000000000,"state":"active","ping":109},{"user_id":342,"name":"Woody","steam_id":76561198179465197,"connected_time":166000000000,"state":"active","ping":69},{"user_id":338,"name":"Nickbro101","steam_id":76561198044271692,"connected_time":667000000000,"state":"active","ping":60},{"user_id":311,"name":"ultim8","steam_id":76561198201501691,"connected_time":2088000000000,"state":"active","ping":47},{"user_id":332,"name":"Desnot","steam_id":76561198862581894,"connected_time":994000000000,"state":"active","ping":77},{"user_id":306,"name":"★poyo★","steam_id":76561198150078959,"connected_time":2212000000000,"state":"active","ping":72},{"user_id":309,"name":"swg","steam_id":76561198147246166,"connected_time":2189000000000,"state":"active","ping":72},{"user_id":294,"name":"duckington duck","steam_id":76561199157117063,"connected_time":2655000000000,"state":"active","ping":56},{"user_id":331,"name":"you will shit bricks","steam_id":76561198139303045,"connected_time":1002000000000,"state":"active","ping":85},{"user_id":246,"name":"abra-kablam","steam_id":76561198195857751,"connected_time":5899000000000,"state":"active","ping":64},{"user_id":326,"name":"mr.resetti","steam_id":76561198974520642,"connected_time":1328000000000,"state":"active","ping":69},{"user_id":325,"name":"pandeux","steam_id":76561198343527617,"connected_time":1394000000000,"state":"active","ping":59},{"user_id":319,"name":"Ecton","steam_id":76561198025103720,"connected_time":1820000000000,"state":"active","ping":59},{"user_id":330,"name":"Lucan","steam_id":76561198219195135,"connected_time":1199000000000,"state":"active","ping":53},{"user_id":327,"name":"shapeshifter","steam_id":76561198052898368,"connected_time":1327000000000,"state":"active","ping":67},{"user_id":329,"name":"DudeoftheRock","steam_id":76561198059401865,"connected_time":1236000000000,"state":"active","ping":68},{"user_id":278,"name":"pjena","steam_id":76561198207643025,"connected_time":3050000000000,"state":"active","ping":51},{"user_id":337,"name":"Arturias","steam_id":76561198188720263,"connected_time":720000000000,"state":"active","ping":48}]},{"server_id":309,"name":"Uncletopia | Frankfurt | 4 | All Maps","name_short":"frk-4","host":"frk-1.de.uncletopia.com","port":27045,"enabled":true,"region":"eu","cc":"de","latitude":50.110924,"longitude":8.682127,"reserved":0,"last_update":"0001-01-01T00:00:00Z","name_a2s":"Uncletopia | Frankfurt | 4 | All Maps","protocol":17,"map":"cp_process_final","folder":"tf","game":"Team Fortress","app_id":440,"player_count":23,"max_players":24,"Bots":0,"server_type":"Dedicated","server_os":"Linux","password":true,"vac":true,"version":"7961495","steam_id":85568392924504275,"keywords":["cp","nocrits","nodmgspread","uncletopia"],"game_id":440,"stv_port":27046,"stv_name":"Uncletopia | Frankfurt | 4 | All Maps | STV","players":[{"user_id":382,"name":"Zazou","steam_id":76561198028076362,"connected_time":1058000000000,"state":"active","ping":56},{"user_id":387,"name":"Farmercy","steam_id":76561198000038039,"connected_time":941000000000,"state":"active","ping":60},{"user_id":368,"name":"Milfshake","steam_id":76561198208740557,"connected_time":2423000000000,"state":"active","ping":49},{"user_id":359,"name":"HayLeX","steam_id":76561198130997343,"connected_time":2879000000000,"state":"active","ping":85},{"user_id":400,"name":"fénix","steam_id":76561198083199151,"connected_time":329000000000,"state":"active","ping":60},{"user_id":398,"name":"the rizzard of oz","steam_id":76561198066631833,"connected_time":456000000000,"state":"active","ping":72},{"user_id":388,"name":"asu","steam_id":76561197994492154,"connected_time":936000000000,"state":"active","ping":59},{"user_id":358,"name":"wavelength","steam_id":76561198154677956,"connected_time":2905000000000,"state":"active","ping":71},{"user_id":402,"name":"KayPay","steam_id":76561198112127032,"connected_time":39000000000,"state":"active","ping":88},{"user_id":399,"name":"got that dawg in me","steam_id":76561198067459427,"connected_time":442000000000,"state":"active","ping":52},{"user_id":351,"name":"Teo","steam_id":76561198030853412,"connected_time":3184000000000,"state":"active","ping":48},{"user_id":401,"name":"Waffle","steam_id":76561198830637524,"connected_time":75000000000,"state":"active","ping":63},{"user_id":375,"name":"adil jay","steam_id":76561198182233723,"connected_time":1573000000000,"state":"active","ping":143},{"user_id":338,"name":"EoN","steam_id":76561198103660553,"connected_time":4113000000000,"state":"active","ping":90},{"user_id":381,"name":"magma core enjoyer","steam_id":76561199042470246,"connected_time":1072000000000,"state":"active","ping":50},{"user_id":371,"name":"Germanium_Ge","steam_id":76561198130561775,"connected_time":2007000000000,"state":"active","ping":51},{"user_id":331,"name":"Godjan","steam_id":76561198077554447,"connected_time":4382000000000,"state":"active","ping":134},{"user_id":312,"name":"hubert's mistake","steam_id":76561198057722639,"connected_time":5656000000000,"state":"active","ping":74},{"user_id":367,"name":"A Kobold With a Large Gun","steam_id":76561198060638325,"connected_time":2583000000000,"state":"active","ping":43},{"user_id":392,"name":"AI | Davidoscki","steam_id":76561198129166046,"connected_time":673000000000,"state":"active","ping":93},{"user_id":396,"name":"biden cart 15 dollars","steam_id":76561198253731826,"connected_time":544000000000,"state":"active","ping":159},{"user_id":317,"name":"Kamanie","steam_id":76561198135448255,"connected_time":5608000000000,"state":"active","ping":45},{"user_id":376,"name":"9A6","steam_id":76561199192434258,"connected_time":1282000000000,"state":"active","ping":74}]},{"server_id":310,"name":"Uncletopia | Frankfurt | 5 | All Maps","name_short":"frk-5","host":"frk-1.de.uncletopia.com","port":27055,"enabled":true,"region":"eu","cc":"de","latitude":50.110924,"longitude":8.682127,"reserved":0,"last_update":"0001-01-01T00:00:00Z","name_a2s":"Uncletopia | Frankfurt | 5 | All Maps","protocol":17,"map":"cp_process_final","folder":"tf","game":"Team Fortress","app_id":440,"player_count":22,"max_players":24,"Bots":0,"server_type":"Dedicated","server_os":"Linux","password":true,"vac":true,"version":"7961495","steam_id":85568392924504277,"keywords":["cp","nocrits","nodmgspread","uncletopia"],"game_id":440,"stv_port":27056,"stv_name":"Uncletopia | Frankfurt | 5 | All Maps | STV","players":[{"user_id":553,"name":"zak","steam_id":76561197998895428,"connected_time":1769000000000,"state":"active","ping":48},{"user_id":548,"name":"Noxifoxis","steam_id":76561198838493783,"connected_time":2048000000000,"state":"active","ping":81},{"user_id":491,"name":"Cepakas","steam_id":76561198878369698,"connected_time":6465000000000,"state":"active","ping":80},{"user_id":577,"name":"Barbatruc","steam_id":76561198119019916,"connected_time":360000000000,"state":"active","ping":61},{"user_id":572,"name":"totis","steam_id":76561198968410569,"connected_time":725000000000,"state":"active","ping":91},{"user_id":581,"name":"asasaBaboon","steam_id":76561198001144642,"connected_time":323000000000,"state":"active","ping":60},{"user_id":592,"name":"M4R1O","steam_id":76561198050528464,"connected_time":28000000000,"state":"active","ping":48},{"user_id":541,"name":"sAmasam","steam_id":76561198114953928,"connected_time":2889000000000,"state":"active","ping":60},{"user_id":579,"name":"lulu","steam_id":76561199147764133,"connected_time":340000000000,"state":"active","ping":75},{"user_id":538,"name":"Carry Krypl","steam_id":76561198136938121,"connected_time":3023000000000,"state":"active","ping":57},{"user_id":580,"name":"Ink in veins","steam_id":76561199082262091,"connected_time":336000000000,"state":"active","ping":70},{"user_id":582,"name":"bananilson","steam_id":76561198044219183,"connected_time":317000000000,"state":"active","ping":80},{"user_id":549,"name":"Rad","steam_id":76561198273632736,"connected_time":1897000000000,"state":"active","ping":96},{"user_id":574,"name":"deflox","steam_id":76561198087450635,"connected_time":390000000000,"state":"active","ping":45},{"user_id":583,"name":"Dakeyras","steam_id":76561198057069564,"connected_time":310000000000,"state":"active","ping":111},{"user_id":449,"name":"yush","steam_id":76561198121688934,"connected_time":8443000000000,"state":"active","ping":74},{"user_id":587,"name":"ALARM","steam_id":76561198120686521,"connected_time":256000000000,"state":"active","ping":48},{"user_id":589,"name":"Puro ♥","steam_id":76561198039016765,"connected_time":168000000000,"state":"active","ping":89},{"user_id":588,"name":"Blar","steam_id":76561198042438229,"connected_time":222000000000,"state":"active","ping":65},{"user_id":543,"name":"t0ksi","steam_id":76561198107240798,"connected_time":2687000000000,"state":"active","ping":64},{"user_id":575,"name":"Edsuedi","steam_id":76561198074722832,"connected_time":381000000000,"state":"active","ping":50}]},{"server_id":311,"name":"Uncletopia | Frankfurt | 6 | All Maps","name_short":"frk-6","host":"frk-1.de.uncletopia.com","port":27065,"enabled":true,"region":"eu","cc":"de","latitude":50.110924,"longitude":8.682127,"reserved":0,"last_update":"0001-01-01T00:00:00Z","name_a2s":"Uncletopia | Frankfurt | 6 | All Maps","protocol":17,"map":"cp_gravelpit","folder":"tf","game":"Team Fortress","app_id":440,"player_count":13,"max_players":24,"Bots":0,"server_type":"Dedicated","server_os":"Linux","password":true,"vac":true,"version":"7961495","steam_id":85568392924504278,"keywords":["cp","nocrits","nodmgspread","uncletopia"],"game_id":440,"stv_port":27066,"stv_name":"Uncletopia | Frankfurt | 6 | All Maps | STV","players":[{"user_id":360,"name":"Killroywashere","steam_id":76561198169854979,"connected_time":3356000000000,"state":"active","ping":91},{"user_id":363,"name":"Swiss_Nostalgia","steam_id":76561199159896259,"connected_time":3052000000000,"state":"active","ping":65},{"user_id":367,"name":"FiuffyDaisy!","steam_id":76561198241732704,"connected_time":2551000000000,"state":"active","ping":66},{"user_id":374,"name":"golfmastr","steam_id":76561198993144124,"connected_time":1805000000000,"state":"active","ping":69},{"user_id":390,"name":"COCAINE BICEPS","steam_id":76561197993633944,"connected_time":838000000000,"state":"active","ping":61},{"user_id":393,"name":"Pilaarius","steam_id":76561198120273212,"connected_time":121000000000,"state":"active","ping":95},{"user_id":389,"name":"Ryan","steam_id":76561198004943931,"connected_time":970000000000,"state":"active","ping":53},{"user_id":392,"name":"Ziemniaczki","steam_id":76561198061866742,"connected_time":398000000000,"state":"active","ping":55},{"user_id":377,"name":"Ściana","steam_id":76561198196617407,"connected_time":1712000000000,"state":"active","ping":75},{"user_id":382,"name":"shoras","steam_id":76561198019680159,"connected_time":1618000000000,"state":"active","ping":86},{"user_id":386,"name":"DONK","steam_id":76561198109679698,"connected_time":1157000000000,"state":"active","ping":61},{"user_id":383,"name":"Tomy two","steam_id":76561198021775885,"connected_time":1612000000000,"state":"active","ping":52},{"user_id":384,"name":"guess who's beck","steam_id":76561198190073005,"connected_time":1609000000000,"state":"active","ping":48}]},{"server_id":23,"name":"Uncletopia | Frankfurt | 7 | Stopwatch","name_short":"frk-7","host":"frk-1.de.uncletopia.com","port":27075,"enabled":true,"region":"eu","cc":"de","latitude":50.110924,"longitude":8.682127,"reserved":0,"last_update":"0001-01-01T00:00:00Z","name_a2s":"Uncletopia | Frankfurt | 7 | Stopwatch","protocol":17,"map":"workshop/koth_ashville_final.ugc2130459942","folder":"tf","game":"Team Fortress","app_id":440,"player_count":20,"max_players":24,"Bots":0,"server_type":"Dedicated","server_os":"Linux","password":true,"vac":true,"version":"7961495","steam_id":85568392924742827,"keywords":["cp","nocrits","nodmgspread","uncletopia"],"game_id":440,"stv_port":27076,"stv_name":"Uncletopia | Frankfurt | 7 | Stopwatch | STV","players":[{"user_id":24,"name":"nota","steam_id":76561198144554259,"connected_time":771000000000,"state":"active","ping":62},{"user_id":46,"name":"BurningJoke","steam_id":76561199014358707,"connected_time":154000000000,"state":"active","ping":47},{"user_id":22,"name":"ItsGertje","steam_id":76561199063680083,"connected_time":939000000000,"state":"active","ping":54},{"user_id":23,"name":"ItsSamson","steam_id":76561199074263107,"connected_time":936000000000,"state":"active","ping":72},{"user_id":27,"name":"AverageArchie","steam_id":76561198163246758,"connected_time":701000000000,"state":"active","ping":64},{"user_id":28,"name":"точно проверено","steam_id":76561198005742337,"connected_time":681000000000,"state":"active","ping":56},{"user_id":29,"name":"nexmean","steam_id":76561198076316058,"connected_time":666000000000,"state":"active","ping":75},{"user_id":30,"name":"K3YRING","steam_id":76561198408597576,"connected_time":573000000000,"state":"active","ping":91},{"user_id":31,"name":"Олексій | UA","steam_id":76561198802594676,"connected_time":563000000000,"state":"active","ping":73},{"user_id":32,"name":"Vinnidict","steam_id":76561198037087000,"connected_time":547000000000,"state":"active","ping":75},{"user_id":38,"name":"Irbynx","steam_id":76561197980421195,"connected_time":362000000000,"state":"active","ping":75},{"user_id":35,"name":"noticed","steam_id":76561198205976029,"connected_time":469000000000,"state":"active","ping":89},{"user_id":40,"name":"NEZ","steam_id":76561198320935413,"connected_time":337000000000,"state":"active","ping":98},{"user_id":41,"name":"Momovsky","steam_id":76561198005738407,"connected_time":297000000000,"state":"active","ping":66},{"user_id":42,"name":"Team Fortress","steam_id":76561198058722801,"connected_time":265000000000,"state":"active","ping":52},{"user_id":44,"name":"Hacker Studios","steam_id":76561199209653826,"connected_time":239000000000,"state":"active","ping":64},{"user_id":45,"name":"Umby","steam_id":76561198166584580,"connected_time":231000000000,"state":"active","ping":52},{"user_id":47,"name":"askulap","steam_id":76561197992018795,"connected_time":113000000000,"state":"active","ping":71},{"user_id":48,"name":"BIG Dave Gaming","steam_id":76561199170843929,"connected_time":96000000000,"state":"active","ping":51},{"user_id":49,"name":"tadisab","steam_id":76561199484049632,"connected_time":70000000000,"state":"active","ping":154}]},{"server_id":24,"name":"Uncletopia | Frankfurt | 8 | Community","name_short":"frk-8","host":"frk-1.de.uncletopia.com","port":27085,"enabled":true,"region":"eu","cc":"de","latitude":50.110924,"longitude":8.682127,"reserved":0,"last_update":"0001-01-01T00:00:00Z","name_a2s":"Uncletopia | Frankfurt | 8 | Community","protocol":17,"map":"workshop/cp_overgrown_rc8.ugc503939302","folder":"tf","game":"Team Fortress","app_id":440,"player_count":0,"max_players":24,"Bots":0,"server_type":"Dedicated","server_os":"Linux","password":true,"vac":true,"version":"7961495","steam_id":85568392924742828,"keywords":["cp","nocrits","nodmgspread","uncletopia"],"game_id":440,"stv_port":27086,"stv_name":"Uncletopia | Frankfurt | 8 | Community | STV","players":null},{"server_id":202,"name":"Uncletopia | Hong Kong | 1 | All Maps","name_short":"hgk-1","host":"hgk-1.hk.uncletopia.com","port":27015,"enabled":true,"region":"asia","cc":"hk","latitude":22.302711,"longitude":114.177216,"reserved":0,"last_update":"0001-01-01T00:00:00Z","name_a2s":"Uncletopia | Hong Kong | 1 | All Maps","protocol":17,"map":"cp_dustbowl","folder":"tf","game":"Team Fortress","app_id":440,"player_count":0,"max_players":24,"Bots":0,"server_type":"Dedicated","server_os":"Linux","password":true,"vac":true,"version":"7961495","steam_id":85568392924494504,"keywords":["cp","nocrits","nodmgspread","uncletopia"],"game_id":440,"stv_port":27016,"stv_name":"Uncletopia | Hong Kong | 1 | All Maps | STV","players":null},{"server_id":1,"name":"Uncletopia | Los Angeles | 1 | All Maps","name_short":"lax-1","host":"lax-1.us.uncletopia.com","port":27015,"enabled":true,"region":"us-west","cc":"us","latitude":33.94279,"longitude":-118.41004,"reserved":0,"last_update":"0001-01-01T00:00:00Z","name_a2s":"Uncletopia | Los Angeles | 1 | All Maps","protocol":17,"map":"koth_lakeside_final","folder":"tf","game":"Team Fortress","app_id":440,"player_count":4,"max_players":24,"Bots":0,"server_type":"Dedicated","server_os":"Linux","password":true,"vac":true,"version":"7961495","steam_id":85568392924469991,"keywords":["cp","nocrits","nodmgspread","uncletopia"],"game_id":440,"stv_port":27016,"stv_name":"Uncletopia | Los Angeles | 1 | All Maps | STV","players":[{"user_id":14,"name":"FlexTape","steam_id":76561198871834867,"connected_time":886000000000,"state":"active","ping":74},{"user_id":15,"name":"harambe 101","steam_id":76561198366850003,"connected_time":873000000000,"state":"active","ping":51},{"user_id":16,"name":"Cowboyfos","steam_id":76561199055740230,"connected_time":835000000000,"state":"active","ping":47},{"user_id":17,"name":"tigermouse1939","steam_id":76561199078976251,"connected_time":784000000000,"state":"active","ping":63}]},{"server_id":112,"name":"Uncletopia | Los Angeles | 2 | All Maps","name_short":"lax-2","host":"lax-1.us.uncletopia.com","port":27025,"enabled":true,"region":"us-west","cc":"us","latitude":33.94279,"longitude":-118.41004,"reserved":0,"last_update":"0001-01-01T00:00:00Z","name_a2s":"Uncletopia | Los Angeles | 2 | All Maps","protocol":17,"map":"koth_lazarus","folder":"tf","game":"Team Fortress","app_id":440,"player_count":0,"max_players":24,"Bots":0,"server_type":"Dedicated","server_os":"Linux","password":true,"vac":true,"version":"7961495","steam_id":85568392924469992,"keywords":["cp","nocrits","nodmgspread","uncletopia"],"game_id":440,"stv_port":27026,"stv_name":"Uncletopia | Los Angeles | 2 | All Maps | STV","players":null},{"server_id":324,"name":"Uncletopia | Los Angeles | 3 | All Maps","name_short":"lax-3","host":"lax-1.us.uncletopia.com","port":27035,"enabled":true,"region":"us-west","cc":"us","latitude":33.94279,"longitude":-118.41004,"reserved":0,"last_update":"0001-01-01T00:00:00Z","name_a2s":"Uncletopia | Los Angeles | 3 | All Maps","protocol":17,"map":"pl_borneo","folder":"tf","game":"Team Fortress","app_id":440,"player_count":0,"max_players":24,"Bots":0,"server_type":"Dedicated","server_os":"Linux","password":true,"vac":true,"version":"7961495","steam_id":85568392924510198,"keywords":["nocrits","nodmgspread","payload","uncletopia"],"game_id":440,"stv_port":27036,"stv_name":"Uncletopia | Los Angeles | 3 | All Maps | STV","players":null},{"server_id":25,"name":"Uncletopia | Los Angeles | 4 | Stopwatch","name_short":"lax-4","host":"lax-1.us.uncletopia.com","port":27045,"enabled":true,"region":"us-west","cc":"us","latitude":33.94279,"longitude":-118.41004,"reserved":0,"last_update":"0001-01-01T00:00:00Z","name_a2s":"Uncletopia | Los Angeles | 4 | Stopwatch","protocol":17,"map":"pl_upward","folder":"tf","game":"Team Fortress","app_id":440,"player_count":0,"max_players":24,"Bots":0,"server_type":"Dedicated","server_os":"Linux","password":true,"vac":true,"version":"7961495","steam_id":85568392924510199,"keywords":["nocrits","nodmgspread","payload","uncletopia"],"game_id":440,"stv_port":27046,"stv_name":"Uncletopia | Los Angeles | 4 | Stopwatch | STV","players":null},{"server_id":11,"name":"Uncletopia | London | 1 | All Maps","name_short":"lon-1","host":"lon-1.uk.uncletopia.com","port":27015,"enabled":true,"region":"eu","cc":"gb","latitude":51.509865,"longitude":-0.118092,"reserved":0,"last_update":"0001-01-01T00:00:00Z","name_a2s":"Uncletopia | London | 1 | All Maps","protocol":17,"map":"pl_upward","folder":"tf","game":"Team Fortress","app_id":440,"player_count":23,"max_players":24,"Bots":0,"server_type":"Dedicated","server_os":"Linux","password":true,"vac":true,"version":"7961495","steam_id":85568392924367362,"keywords":["nocrits","nodmgspread","payload","uncletopia"],"game_id":440,"stv_port":27016,"stv_name":"Uncletopia | London | 1 | All Maps | STV","players":[{"user_id":660,"name":".:TEAM:. Rusty™","steam_id":76561198042400381,"connected_time":4117000000000,"state":"active","ping":56},{"user_id":589,"name":"Healix","steam_id":76561198130270161,"connected_time":8526000000000,"state":"active","ping":58},{"user_id":616,"name":"hitbox criminal","steam_id":76561198079277466,"connected_time":5721000000000,"state":"active","ping":64},{"user_id":692,"name":"Viv","steam_id":76561198199110998,"connected_time":819000000000,"state":"active","ping":78},{"user_id":686,"name":"Smokio","steam_id":76561198069650580,"connected_time":1184000000000,"state":"active","ping":89},{"user_id":615,"name":"bapab","steam_id":76561198307556377,"connected_time":5748000000000,"state":"active","ping":47},{"user_id":649,"name":"dec","steam_id":76561198009660168,"connected_time":4499000000000,"state":"active","ping":57},{"user_id":691,"name":"Bumblebee","steam_id":76561198033551105,"connected_time":871000000000,"state":"active","ping":72},{"user_id":697,"name":"doktor spiele","steam_id":76561199057953617,"connected_time":171000000000,"state":"active","ping":70},{"user_id":661,"name":"Watch The Matrix 1999 HD online","steam_id":76561198168207306,"connected_time":3975000000000,"state":"active","ping":101},{"user_id":696,"name":"Kurt Beyber","steam_id":76561198047207247,"connected_time":214000000000,"state":"active","ping":75},{"user_id":677,"name":"flappi","steam_id":76561198072892783,"connected_time":2008000000000,"state":"active","ping":66},{"user_id":668,"name":"gibb (this game fucking sucks)","steam_id":76561198074097655,"connected_time":3293000000000,"state":"active","ping":62},{"user_id":695,"name":"quickfast","steam_id":76561199438900919,"connected_time":658000000000,"state":"active","ping":45},{"user_id":689,"name":"Endi","steam_id":76561198914938199,"connected_time":1149000000000,"state":"active","ping":101},{"user_id":676,"name":"The Goon","steam_id":76561198086913973,"connected_time":2044000000000,"state":"active","ping":66},{"user_id":698,"name":"Bobirulez","steam_id":76561198009125458,"connected_time":131000000000,"state":"active","ping":75},{"user_id":560,"name":"Lyra","steam_id":76561198043601838,"connected_time":10195000000000,"state":"active","ping":60},{"user_id":565,"name":"wk ohw","steam_id":76561198106049954,"connected_time":9859000000000,"state":"active","ping":75},{"user_id":688,"name":"tapeworms!","steam_id":76561198069649097,"connected_time":1164000000000,"state":"active","ping":38},{"user_id":683,"name":"naah you off the Google+ perc","steam_id":76561198190583242,"connected_time":1291000000000,"state":"active","ping":88},{"user_id":685,"name":"jüri","steam_id":76561198107460765,"connected_time":1218000000000,"state":"active","ping":45},{"user_id":667,"name":"Solymr ibn Wali Barad","steam_id":76561198044008976,"connected_time":3421000000000,"state":"active","ping":66}]},{"server_id":114,"name":"Uncletopia | London | 2 | All Maps","name_short":"lon-2","host":"lon-1.uk.uncletopia.com","port":27025,"enabled":true,"region":"eu","cc":"gb","latitude":51.509865,"longitude":-0.118092,"reserved":0,"last_update":"0001-01-01T00:00:00Z","name_a2s":"Uncletopia | London | 2 | All Maps","protocol":17,"map":"koth_cascade","folder":"tf","game":"Team Fortress","app_id":440,"player_count":22,"max_players":24,"Bots":0,"server_type":"Dedicated","server_os":"Linux","password":true,"vac":true,"version":"7961495","steam_id":85568392924470941,"keywords":["cp","nocrits","nodmgspread","uncletopia"],"game_id":440,"stv_port":27026,"stv_name":"Uncletopia | London | 2 | All Maps | STV","players":[{"user_id":116,"name":"ORTEGA","steam_id":76561198105721091,"connected_time":132000000000,"state":"active","ping":46},{"user_id":64,"name":"Johnny Law (Sad Style)","steam_id":76561198402829980,"connected_time":2209000000000,"state":"active","ping":63},{"user_id":65,"name":"Hungeryan","steam_id":76561198887299930,"connected_time":2015000000000,"state":"active","ping":94},{"user_id":117,"name":"qiberino","steam_id":76561199014227778,"connected_time":123000000000,"state":"active","ping":74},{"user_id":72,"name":"skilltissues","steam_id":76561198025828664,"connected_time":1653000000000,"state":"active","ping":59},{"user_id":119,"name":"Qdarks","steam_id":76561198013391340,"connected_time":13000000000,"state":"spawning","ping":166},{"user_id":69,"name":"Deez nuts","steam_id":76561199429562693,"connected_time":1861000000000,"state":"active","ping":65},{"user_id":115,"name":"giclure :;","steam_id":76561197986362828,"connected_time":201000000000,"state":"active","ping":76},{"user_id":120,"name":"theconqueror","steam_id":76561199229806456,"connected_time":7000000000,"state":"spawning","ping":130},{"user_id":91,"name":"melon","steam_id":76561198128854032,"connected_time":1115000000000,"state":"active","ping":62},{"user_id":75,"name":"Ricey","steam_id":76561198832961307,"connected_time":1410000000000,"state":"active","ping":45},{"user_id":76,"name":"Flavia ♥","steam_id":76561198108360671,"connected_time":1404000000000,"state":"active","ping":111},{"user_id":100,"name":"frbuz (ع)","steam_id":76561198327135462,"connected_time":991000000000,"state":"active","ping":170},{"user_id":114,"name":"Supercoxylac","steam_id":76561198376300138,"connected_time":528000000000,"state":"active","ping":66},{"user_id":96,"name":"tekt","steam_id":76561198044554387,"connected_time":1050000000000,"state":"active","ping":92},{"user_id":83,"name":"The worst TF2 player(Real)","steam_id":76561199184873889,"connected_time":1155000000000,"state":"active","ping":72},{"user_id":101,"name":"BTU_GiperNinja","steam_id":76561198888074280,"connected_time":985000000000,"state":"active","ping":90},{"user_id":113,"name":"MrKampfCookie","steam_id":76561198085490175,"connected_time":618000000000,"state":"active","ping":53},{"user_id":89,"name":"mean \u0026 gene","steam_id":76561198088201976,"connected_time":1124000000000,"state":"active","ping":38},{"user_id":97,"name":"Shibe","steam_id":76561198071312153,"connected_time":1050000000000,"state":"active","ping":76},{"user_id":106,"name":"i eat trash daily","steam_id":76561198154714698,"connected_time":859000000000,"state":"active","ping":54},{"user_id":102,"name":"chimpsawesome2000","steam_id":76561198854358215,"connected_time":985000000000,"state":"active","ping":52}]},{"server_id":320,"name":"Uncletopia | London | 3 | All Maps","name_short":"lon-3","host":"lon-1.uk.uncletopia.com","port":27035,"enabled":true,"region":"eu","cc":"gb","latitude":51.509865,"longitude":-0.118092,"reserved":0,"last_update":"0001-01-01T00:00:00Z","name_a2s":"Uncletopia | London | 3 | All Maps","protocol":17,"map":"cp_dustbowl","folder":"tf","game":"Team Fortress","app_id":440,"player_count":22,"max_players":24,"Bots":0,"server_type":"Dedicated","server_os":"Linux","password":true,"vac":true,"version":"7961495","steam_id":85568392924510192,"keywords":["cp","nocrits","nodmgspread","uncletopia"],"game_id":440,"stv_port":27036,"stv_name":"Uncletopia | London | 3 | All Maps | STV","players":[{"user_id":203,"name":"Vanilla Autismotron","steam_id":76561198278604277,"connected_time":1112000000000,"state":"active","ping":53},{"user_id":148,"name":"Egor Pomidor","steam_id":76561199175688390,"connected_time":2747000000000,"state":"active","ping":79},{"user_id":207,"name":"fischman","steam_id":76561199064142670,"connected_time":104000000000,"state":"active","ping":60},{"user_id":150,"name":"rockBustaz","steam_id":76561198088290698,"connected_time":2673000000000,"state":"active","ping":53},{"user_id":197,"name":"JustMayor","steam_id":76561198050515503,"connected_time":1567000000000,"state":"active","ping":72},{"user_id":152,"name":"Voks_","steam_id":76561198159687785,"connected_time":2668000000000,"state":"active","ping":69},{"user_id":155,"name":"Serenity","steam_id":76561198170355609,"connected_time":2573000000000,"state":"active","ping":48},{"user_id":169,"name":"RedPyro2009","steam_id":76561198935824363,"connected_time":2433000000000,"state":"active","ping":473},{"user_id":179,"name":"Chief Engineer Michael","steam_id":76561198003537558,"connected_time":2151000000000,"state":"active","ping":70},{"user_id":200,"name":"Ady Pádlo","steam_id":76561198263104437,"connected_time":1220000000000,"state":"active","ping":66},{"user_id":164,"name":"Wellink","steam_id":76561198854204494,"connected_time":2495000000000,"state":"active","ping":72},{"user_id":204,"name":"James","steam_id":76561198168882012,"connected_time":1072000000000,"state":"active","ping":52},{"user_id":166,"name":"5UP3R TH30 B4G","steam_id":76561198852348375,"connected_time":2465000000000,"state":"active","ping":51},{"user_id":199,"name":"Coby","steam_id":76561198060876389,"connected_time":1387000000000,"state":"active","ping":81},{"user_id":184,"name":"Theodore Argesh","steam_id":76561198122028307,"connected_time":2079000000000,"state":"active","ping":56},{"user_id":206,"name":"Marcus7276","steam_id":76561199000280910,"connected_time":216000000000,"state":"active","ping":84},{"user_id":185,"name":"Mitrixie","steam_id":76561198842023498,"connected_time":2077000000000,"state":"active","ping":98},{"user_id":186,"name":"Jeff (♀)","steam_id":76561198280101970,"connected_time":2059000000000,"state":"active","ping":66},{"user_id":173,"name":"Zemo","steam_id":76561198079421552,"connected_time":2406000000000,"state":"active","ping":52},{"user_id":201,"name":"niandits","steam_id":76561198419798900,"connected_time":1200000000000,"state":"active","ping":144},{"user_id":176,"name":"NodeOne","steam_id":76561197993040629,"connected_time":2382000000000,"state":"active","ping":76},{"user_id":188,"name":"OG loc","steam_id":76561198007477328,"connected_time":2033000000000,"state":"active","ping":54}]},{"server_id":321,"name":"Uncletopia | London | 4 | All Maps","name_short":"lon-4","host":"lon-1.uk.uncletopia.com","port":27045,"enabled":true,"region":"eu","cc":"gb","latitude":51.509865,"longitude":-0.118092,"reserved":0,"last_update":"0001-01-01T00:00:00Z","name_a2s":"Uncletopia | London | 4 | All Maps","protocol":17,"map":"pl_borneo","folder":"tf","game":"Team Fortress","app_id":440,"player_count":23,"max_players":24,"Bots":0,"server_type":"Dedicated","server_os":"Linux","password":true,"vac":true,"version":"7961495","steam_id":85568392924510193,"keywords":["nocrits","nodmgspread","payload","uncletopia"],"game_id":440,"stv_port":27046,"stv_name":"Uncletopia | London | 4 | All Maps | STV","players":[{"user_id":263,"name":"Explosive Poptart","steam_id":76561198023918830,"connected_time":500000000000,"state":"active","ping":44},{"user_id":243,"name":"DemonBolt","steam_id":76561198190409861,"connected_time":1735000000000,"state":"active","ping":78},{"user_id":245,"name":"Monsy","steam_id":76561198025735006,"connected_time":1355000000000,"state":"active","ping":52},{"user_id":231,"name":"TheBeardedM1G","steam_id":76561198040208946,"connected_time":2942000000000,"state":"active","ping":46},{"user_id":264,"name":"Epicengineer(esp)","steam_id":76561198397408326,"connected_time":344000000000,"state":"active","ping":77},{"user_id":191,"name":"çodar","steam_id":76561198235518444,"connected_time":5367000000000,"state":"active","ping":35},{"user_id":244,"name":"kirkan","steam_id":76561198029873185,"connected_time":1389000000000,"state":"active","ping":55},{"user_id":265,"name":"Glitch","steam_id":76561198081895538,"connected_time":254000000000,"state":"active","ping":47},{"user_id":248,"name":"Nonok","steam_id":76561199480685498,"connected_time":1320000000000,"state":"active","ping":57},{"user_id":266,"name":"Best Poulet","steam_id":76561198086188655,"connected_time":235000000000,"state":"active","ping":62},{"user_id":218,"name":"Nox Equites","steam_id":76561198115438449,"connected_time":3439000000000,"state":"active","ping":80},{"user_id":271,"name":"Silverkeys","steam_id":76561197986012496,"connected_time":21000000000,"state":"active","ping":167},{"user_id":268,"name":"Pagey2911","steam_id":76561198018465350,"connected_time":191000000000,"state":"active","ping":57},{"user_id":240,"name":"caramel❤","steam_id":76561198819353867,"connected_time":2027000000000,"state":"active","ping":31},{"user_id":215,"name":"housing crisis#savetf2","steam_id":76561198119984382,"connected_time":3769000000000,"state":"active","ping":54},{"user_id":226,"name":"gitlitwitit","steam_id":76561197980019054,"connected_time":3301000000000,"state":"active","ping":71},{"user_id":122,"name":"Miss Asstickles","steam_id":76561198030286622,"connected_time":11087000000000,"state":"active","ping":60},{"user_id":251,"name":"蓮 Lotus","steam_id":76561198083141117,"connected_time":1296000000000,"state":"active","ping":60},{"user_id":253,"name":"hawkblob","steam_id":76561198803720565,"connected_time":1283000000000,"state":"active","ping":74},{"user_id":269,"name":"MeBandae","steam_id":76561198910770432,"connected_time":186000000000,"state":"active","ping":64},{"user_id":255,"name":"dafydd","steam_id":76561198052200325,"connected_time":1278000000000,"state":"active","ping":87},{"user_id":233,"name":"Biglet","steam_id":76561198077243439,"connected_time":2622000000000,"state":"active","ping":52},{"user_id":257,"name":"ラス","steam_id":76561198124320485,"connected_time":1211000000000,"state":"active","ping":86}]},{"server_id":21,"name":"Uncletopia | London | 5 | All Maps","name_short":"lon-5","host":"lon-1.uk.uncletopia.com","port":27055,"enabled":true,"region":"eu","cc":"gb","latitude":51.509865,"longitude":-0.118092,"reserved":0,"last_update":"0001-01-01T00:00:00Z","name_a2s":"Uncletopia | London | 5 | All Maps","protocol":17,"map":"pl_frontier_final","folder":"tf","game":"Team Fortress","app_id":440,"player_count":24,"max_players":24,"Bots":0,"server_type":"Dedicated","server_os":"Linux","password":true,"vac":true,"version":"7961495","steam_id":85568392924742829,"keywords":["nocrits","nodmgspread","payload","uncletopia"],"game_id":440,"stv_port":27056,"stv_name":"Uncletopia | London | 5 | All Maps | STV","players":[{"user_id":667,"name":"Swift","steam_id":76561197998799889,"connected_time":254000000000,"state":"active","ping":47},{"user_id":533,"name":"literallyjasonx","steam_id":76561198835895387,"connected_time":5497000000000,"state":"active","ping":69},{"user_id":632,"name":"mt","steam_id":76561197961319303,"connected_time":1057000000000,"state":"active","ping":64},{"user_id":669,"name":"Gay Potato","steam_id":76561198018859519,"connected_time":120000000000,"state":"active","ping":63},{"user_id":579,"name":"SSAAMMII","steam_id":76561199168609647,"connected_time":2648000000000,"state":"active","ping":52},{"user_id":636,"name":"Zerfesh","steam_id":76561198117534358,"connected_time":995000000000,"state":"active","ping":89},{"user_id":666,"name":"Haha?","steam_id":76561198056882245,"connected_time":266000000000,"state":"active","ping":42},{"user_id":580,"name":"Skelet (zooted)","steam_id":76561198051685232,"connected_time":2580000000000,"state":"active","ping":49},{"user_id":605,"name":"Pan Pan","steam_id":76561199074670515,"connected_time":1799000000000,"state":"active","ping":84},{"user_id":668,"name":"Brookteni","steam_id":76561198069121151,"connected_time":245000000000,"state":"active","ping":52},{"user_id":621,"name":"Esquiloz","steam_id":76561198075645336,"connected_time":1311000000000,"state":"active","ping":72},{"user_id":627,"name":"faccboi","steam_id":76561198137816642,"connected_time":1129000000000,"state":"active","ping":52},{"user_id":661,"name":"Hot milk in your area","steam_id":76561198173218318,"connected_time":381000000000,"state":"active","ping":61},{"user_id":670,"name":"Neyika","steam_id":76561199075639138,"connected_time":88000000000,"state":"active","ping":52},{"user_id":555,"name":"Dei Genetrix","steam_id":76561198305678122,"connected_time":4024000000000,"state":"active","ping":50},{"user_id":671,"name":"tiko","steam_id":76561199478948953,"connected_time":61000000000,"state":"active","ping":79},{"user_id":635,"name":"Skaza","steam_id":76561198010292540,"connected_time":1004000000000,"state":"active","ping":80},{"user_id":586,"name":"hoe","steam_id":76561198078902326,"connected_time":2504000000000,"state":"active","ping":44},{"user_id":663,"name":"Jussukka","steam_id":76561198122894683,"connected_time":353000000000,"state":"active","ping":87},{"user_id":562,"name":"spy among us","steam_id":76561197972287320,"connected_time":3372000000000,"state":"active","ping":71},{"user_id":608,"name":"Salad Bar's medic","steam_id":76561199006455750,"connected_time":1673000000000,"state":"active","ping":42},{"user_id":604,"name":"merc","steam_id":76561198377533237,"connected_time":1833000000000,"state":"active","ping":75},{"user_id":609,"name":"The_voices","steam_id":76561199095701143,"connected_time":1664000000000,"state":"active","ping":86},{"user_id":597,"name":"thuke","steam_id":76561198093821065,"connected_time":2145000000000,"state":"active","ping":84}]},{"server_id":22,"name":"Uncletopia | London | 6 | All Maps","name_short":"lon-6","host":"lon-1.uk.uncletopia.com","port":27065,"enabled":true,"region":"eu","cc":"gb","latitude":51.509865,"longitude":-0.118092,"reserved":0,"last_update":"0001-01-01T00:00:00Z","name_a2s":"Uncletopia | London | 6 | All Maps","protocol":17,"map":"pl_borneo","folder":"tf","game":"Team Fortress","app_id":440,"player_count":14,"max_players":24,"Bots":0,"server_type":"Dedicated","server_os":"Linux","password":true,"vac":true,"version":"7961495","steam_id":85568392924742830,"keywords":["nocrits","nodmgspread","payload","uncletopia"],"game_id":440,"stv_port":27066,"stv_name":"Uncletopia | London | 6 | All Maps | STV","players":[{"user_id":263,"name":"toomas2018(not racist)(real)","steam_id":76561199105796083,"connected_time":501000000000,"state":"active","ping":78},{"user_id":264,"name":"Stinky Whizzleteats","steam_id":76561197968945306,"connected_time":102000000000,"state":"active","ping":60},{"user_id":165,"name":"wee bit depresso","steam_id":76561198097507847,"connected_time":7972000000000,"state":"active","ping":75},{"user_id":265,"name":"zvekan","steam_id":76561198381101196,"connected_time":87000000000,"state":"active","ping":72},{"user_id":246,"name":"the one who gibs","steam_id":76561199024168373,"connected_time":2518000000000,"state":"active","ping":318},{"user_id":266,"name":"Enclave Soundcloud Rapper","steam_id":76561198438876215,"connected_time":17000000000,"state":"spawning","ping":130},{"user_id":248,"name":"Flarp von Karma","steam_id":76561198043855292,"connected_time":2329000000000,"state":"active","ping":48},{"user_id":267,"name":"Chubercik","steam_id":76561198151214786,"connected_time":16000000000,"state":"spawning","ping":75},{"user_id":251,"name":"goku ピップ・ペタル","steam_id":76561198147668373,"connected_time":1829000000000,"state":"active","ping":68},{"user_id":169,"name":"Wee bit espresso","steam_id":76561198067204908,"connected_time":7820000000000,"state":"active","ping":59},{"user_id":241,"name":"Dan Dan the Furious","steam_id":76561198091032527,"connected_time":2905000000000,"state":"active","ping":42},{"user_id":249,"name":"jeff","steam_id":76561198272815746,"connected_time":2239000000000,"state":"active","ping":59},{"user_id":261,"name":"Crit Gaming","steam_id":76561198090055406,"connected_time":738000000000,"state":"active","ping":75},{"user_id":255,"name":"tWIn","steam_id":76561197989544103,"connected_time":1503000000000,"state":"active","ping":61}]},{"server_id":40,"name":"Uncletopia | London | 7 | Stopwatch","name_short":"lon-7","host":"lon-1.uk.uncletopia.com","port":27075,"enabled":true,"region":"eu","cc":"gb","latitude":51.509865,"longitude":-0.118092,"reserved":0,"last_update":"0001-01-01T00:00:00Z","name_a2s":"Uncletopia | London | 7 | Stopwatch","protocol":17,"map":"workshop/koth_clearcut_b15.ugc2107050255","folder":"tf","game":"Team Fortress","app_id":440,"player_count":0,"max_players":24,"Bots":0,"server_type":"Dedicated","server_os":"Linux","password":true,"vac":true,"version":"7961495","steam_id":85568392924964314,"keywords":["cp","nocrits","nodmgspread","uncletopia"],"game_id":440,"stv_port":27076,"stv_name":"Uncletopia | London | 7 | Stopwatch | STV","players":null},{"server_id":41,"name":"Uncletopia | London | 8 | Community","name_short":"lon-8","host":"lon-1.uk.uncletopia.com","port":27085,"enabled":true,"region":"eu","cc":"gb","latitude":51.509865,"longitude":-0.118092,"reserved":0,"last_update":"0001-01-01T00:00:00Z","name_a2s":"Uncletopia | London | 8 | Community","protocol":17,"map":"workshop/koth_kemptown_rc1.ugc767410655","folder":"tf","game":"Team Fortress","app_id":440,"player_count":0,"max_players":24,"Bots":0,"server_type":"Dedicated","server_os":"Linux","password":true,"vac":true,"version":"7961495","steam_id":85568392924964315,"keywords":["cp","nocrits","nodmgspread","uncletopia"],"game_id":440,"stv_port":27086,"stv_name":"Uncletopia | London | 8 | Community | STV","players":null},{"server_id":300,"name":"Uncletopia | Montréal | 1 | One Thousand Uncles","name_short":"mtl-1","host":"mtl-1.ca.uncletopia.com","port":27015,"enabled":true,"region":"us-east","cc":"ca","latitude":45.50889,"longitude":-73.56167,"reserved":0,"last_update":"0001-01-01T00:00:00Z","name_a2s":"Uncletopia | Montréal | 1 | One Thousand Uncles","protocol":17,"map":"pl_badwater","folder":"tf","game":"Team Fortress","app_id":440,"player_count":26,"max_players":32,"Bots":20,"server_type":"Dedicated","server_os":"Linux","password":true,"vac":true,"version":"7961495","steam_id":85568392924500087,"keywords":["alltalk","bots","danepve","increased_maxplayers","norespawntime","payload","uncletopia"],"game_id":440,"stv_port":0,"stv_name":"","players":[{"user_id":102,"name":"Ata","steam_id":76561198349085545,"connected_time":424000000000,"state":"active","ping":113},{"user_id":107,"name":"St. Arnold of Soissons","steam_id":76561197974133892,"connected_time":297000000000,"state":"active","ping":60},{"user_id":104,"name":"Joshie","steam_id":76561199268553718,"connected_time":366000000000,"state":"active","ping":91},{"user_id":105,"name":"Eli","steam_id":76561198819439451,"connected_time":308000000000,"state":"active","ping":73},{"user_id":106,"name":"Lots0","steam_id":76561198043143145,"connected_time":307000000000,"state":"active","ping":106},{"user_id":108,"name":"Midnite","steam_id":76561198314804290,"connected_time":295000000000,"state":"active","ping":82}]},{"server_id":301,"name":"Uncletopia | Montréal | 2 | One Thousand Uncles","name_short":"mtl-2","host":"mtl-1.ca.uncletopia.com","port":27025,"enabled":true,"region":"us-east","cc":"ca","latitude":45.50889,"longitude":-73.56167,"reserved":0,"last_update":"0001-01-01T00:00:00Z","name_a2s":"Uncletopia | Montréal | 2 | One Thousand Uncles","protocol":17,"map":"pl_swiftwater_final1","folder":"tf","game":"Team Fortress","app_id":440,"player_count":0,"max_players":32,"Bots":0,"server_type":"Dedicated","server_os":"Linux","password":true,"vac":true,"version":"7961495","steam_id":85568392924500088,"keywords":["alltalk","danepve","increased_maxplayers","norespawntime","payload","uncletopia"],"game_id":440,"stv_port":0,"stv_name":"","players":null},{"server_id":302,"name":"Uncletopia | Montréal | 3 | One Thousand Uncles","name_short":"mtl-3","host":"mtl-1.ca.uncletopia.com","port":27035,"enabled":true,"region":"us-east","cc":"ca","latitude":45.50889,"longitude":-73.56167,"reserved":0,"last_update":"0001-01-01T00:00:00Z","name_a2s":"Uncletopia | Montréal | 3 | One Thousand Uncles","protocol":17,"map":"pl_swiftwater_final1","folder":"tf","game":"Team Fortress","app_id":440,"player_count":0,"max_players":32,"Bots":0,"server_type":"Dedicated","server_os":"Linux","password":true,"vac":true,"version":"7961495","steam_id":85568392924500089,"keywords":["alltalk","danepve","increased_maxplayers","norespawntime","payload","uncletopia"],"game_id":440,"stv_port":0,"stv_name":"","players":null},{"server_id":13,"name":"Uncletopia | New York City | 1 | All Maps","name_short":"nyc-1","host":"nyc-1.us.uncletopia.com","port":27015,"enabled":true,"region":"us-east","cc":"us","latitude":40.73061,"longitude":-73.93524,"reserved":0,"last_update":"0001-01-01T00:00:00Z","name_a2s":"Uncletopia | New York City | 1 | All Maps","protocol":17,"map":"cp_sunshine","folder":"tf","game":"Team Fortress","app_id":440,"player_count":24,"max_players":24,"Bots":0,"server_type":"Dedicated","server_os":"Linux","password":true,"vac":true,"version":"7961495","steam_id":85568392924469993,"keywords":["cp","nocrits","nodmgspread","uncletopia"],"game_id":440,"stv_port":27016,"stv_name":"Uncletopia | New York City | 1 | All Maps | STV","players":[{"user_id":309,"name":"Walmart Employee","steam_id":76561198840373909,"connected_time":1560000000000,"state":"active","ping":97},{"user_id":315,"name":"ThreatLvl 9 (she/her)","steam_id":76561198079410533,"connected_time":1352000000000,"state":"active","ping":66},{"user_id":285,"name":"King","steam_id":76561198039763676,"connected_time":2892000000000,"state":"active","ping":75},{"user_id":270,"name":"mG| Clippy","steam_id":76561198046403202,"connected_time":4547000000000,"state":"active","ping":134},{"user_id":308,"name":"Mr. Pink","steam_id":76561198065858172,"connected_time":1835000000000,"state":"active","ping":46},{"user_id":324,"name":"cfamadas","steam_id":76561199055881965,"connected_time":704000000000,"state":"active","ping":63},{"user_id":325,"name":"Shlump","steam_id":76561198188021354,"connected_time":539000000000,"state":"active","ping":39},{"user_id":277,"name":"Mattie43","steam_id":76561198012053433,"connected_time":3604000000000,"state":"active","ping":39},{"user_id":287,"name":"Cowabummer","steam_id":76561198272640432,"connected_time":2858000000000,"state":"active","ping":103},{"user_id":312,"name":"DualiTea","steam_id":76561198081733870,"connected_time":1444000000000,"state":"active","ping":75},{"user_id":332,"name":"your very own pocket medic","steam_id":76561199489320369,"connected_time":211000000000,"state":"active","ping":64},{"user_id":314,"name":"comfy.","steam_id":76561198008818346,"connected_time":1383000000000,"state":"active","ping":58},{"user_id":296,"name":"BB Lorexav","steam_id":76561198207565988,"connected_time":2705000000000,"state":"active","ping":66},{"user_id":305,"name":"Lost CS2 player","steam_id":76561198892387723,"connected_time":2118000000000,"state":"active","ping":49},{"user_id":331,"name":"SoWhich","steam_id":76561198237125842,"connected_time":234000000000,"state":"active","ping":73},{"user_id":327,"name":"b-dot","steam_id":76561198160786631,"connected_time":456000000000,"state":"active","ping":72},{"user_id":307,"name":"Linguine Alfredo","steam_id":76561198022045816,"connected_time":1982000000000,"state":"active","ping":60},{"user_id":239,"name":"Chadmander","steam_id":76561197974136337,"connected_time":6328000000000,"state":"active","ping":58},{"user_id":117,"name":"CDBeans","steam_id":76561198046990367,"connected_time":14905000000000,"state":"active","ping":82},{"user_id":330,"name":"OneTrueCorvid","steam_id":76561199012953221,"connected_time":240000000000,"state":"active","ping":93},{"user_id":321,"name":"ᵘᶻʳ","steam_id":76561198799343084,"connected_time":1084000000000,"state":"active","ping":113},{"user_id":333,"name":"Junk","steam_id":76561198024382753,"connected_time":150000000000,"state":"active","ping":67},{"user_id":328,"name":"Hamhog","steam_id":76561198353967566,"connected_time":319000000000,"state":"active","ping":55},{"user_id":278,"name":"feelsgoodman.jpg","steam_id":76561198046798273,"connected_time":3374000000000,"state":"active","ping":114}]},{"server_id":14,"name":"Uncletopia | New York City | 2 | All Maps","name_short":"nyc-2","host":"nyc-1.us.uncletopia.com","port":27025,"enabled":true,"region":"us-east","cc":"us","latitude":40.73061,"longitude":-73.93524,"reserved":0,"last_update":"0001-01-01T00:00:00Z","name_a2s":"Uncletopia | New York City | 2 | All Maps","protocol":17,"map":"pl_swiftwater_final1","folder":"tf","game":"Team Fortress","app_id":440,"player_count":24,"max_players":24,"Bots":0,"server_type":"Dedicated","server_os":"Linux","password":true,"vac":true,"version":"7961495","steam_id":85568392924469994,"keywords":["nocrits","nodmgspread","payload","uncletopia"],"game_id":440,"stv_port":27026,"stv_name":"Uncletopia | New York City | 2 | All Maps | STV","players":[{"user_id":366,"name":"ZYKLONBased","steam_id":76561199005365607,"connected_time":3940000000000,"state":"active","ping":70},{"user_id":419,"name":"Capybara Enjoyer","steam_id":76561199147114434,"connected_time":170000000000,"state":"active","ping":125},{"user_id":405,"name":"TOTALLY HARDCORE","steam_id":76561198842311643,"connected_time":698000000000,"state":"active","ping":84},{"user_id":406,"name":"Weird","steam_id":76561199082362722,"connected_time":679000000000,"state":"active","ping":108},{"user_id":407,"name":"Callahan","steam_id":76561198849981151,"connected_time":663000000000,"state":"active","ping":87},{"user_id":387,"name":"Victoria Wood (as seen on TV)","steam_id":76561198066243851,"connected_time":2518000000000,"state":"active","ping":107},{"user_id":404,"name":"DaNuke","steam_id":76561198067866914,"connected_time":717000000000,"state":"active","ping":84},{"user_id":368,"name":"SEGNO","steam_id":76561198102780113,"connected_time":3660000000000,"state":"active","ping":87},{"user_id":397,"name":"❋Pfc. BFS","steam_id":76561198326359972,"connected_time":1699000000000,"state":"active","ping":78},{"user_id":388,"name":"Bullwinkle J. Moose","steam_id":76561198075977196,"connected_time":2392000000000,"state":"active","ping":80},{"user_id":415,"name":"hydrationing","steam_id":76561199429069267,"connected_time":474000000000,"state":"active","ping":59},{"user_id":417,"name":"TTVPlumSmug","steam_id":76561198103960265,"connected_time":245000000000,"state":"active","ping":60},{"user_id":413,"name":"Bootes","steam_id":76561197968255551,"connected_time":554000000000,"state":"active","ping":47},{"user_id":400,"name":"Underscorn","steam_id":76561198374209415,"connected_time":1626000000000,"state":"active","ping":88},{"user_id":418,"name":"leumas","steam_id":76561198240408540,"connected_time":236000000000,"state":"active","ping":62},{"user_id":352,"name":"HungryPenguin","steam_id":76561198039803880,"connected_time":4434000000000,"state":"active","ping":60},{"user_id":414,"name":"The Undead Knight","steam_id":76561198010654500,"connected_time":541000000000,"state":"active","ping":82},{"user_id":372,"name":"Jason","steam_id":76561198107058140,"connected_time":3313000000000,"state":"active","ping":55},{"user_id":411,"name":"pineApple Zoo","steam_id":76561198013732450,"connected_time":645000000000,"state":"active","ping":84},{"user_id":412,"name":"OneDay","steam_id":76561198061184362,"connected_time":622000000000,"state":"active","ping":56},{"user_id":395,"name":"Moofins","steam_id":76561198050291949,"connected_time":1855000000000,"state":"active","ping":79},{"user_id":396,"name":"rocket1714","steam_id":76561198255152396,"connected_time":1847000000000,"state":"active","ping":95},{"user_id":337,"name":"airballer","steam_id":76561198165899125,"connected_time":6044000000000,"state":"active","ping":46},{"user_id":402,"name":"nachopugz","steam_id":76561199120480873,"connected_time":968000000000,"state":"active","ping":139}]},{"server_id":15,"name":"Uncletopia | New York City | 3 | Stopwatch","name_short":"nyc-3","host":"nyc-1.us.uncletopia.com","port":27035,"enabled":true,"region":"us-east","cc":"us","latitude":40.73061,"longitude":-73.93524,"reserved":0,"last_update":"0001-01-01T00:00:00Z","name_a2s":"Uncletopia | New York City | 3 | Stopwatch","protocol":17,"map":"workshop/koth_clearcut_b15.ugc2107050255","folder":"tf","game":"Team Fortress","app_id":440,"player_count":16,"max_players":24,"Bots":0,"server_type":"Dedicated","server_os":"Linux","password":true,"vac":true,"version":"7961495","steam_id":85568392924742820,"keywords":["cp","nocrits","nodmgspread","uncletopia"],"game_id":440,"stv_port":27036,"stv_name":"Uncletopia | New York City | 3 | Stopwatch | STV","players":[{"user_id":205,"name":"User","steam_id":76561198123471222,"connected_time":203000000000,"state":"active","ping":49},{"user_id":206,"name":"Snazzy_","steam_id":76561198014803098,"connected_time":157000000000,"state":"active","ping":45},{"user_id":208,"name":"itscajuntime","steam_id":76561198972790488,"connected_time":31000000000,"state":"spawning","ping":176},{"user_id":209,"name":"Captain Mac","steam_id":76561198043613068,"connected_time":3000000000,"state":"spawning","ping":66},{"user_id":197,"name":"Rhea","steam_id":76561198066626240,"connected_time":807000000000,"state":"active","ping":106},{"user_id":177,"name":"Shaunymon","steam_id":76561198089311104,"connected_time":2204000000000,"state":"active","ping":113},{"user_id":193,"name":"DaMultiversalist","steam_id":76561198239552412,"connected_time":1017000000000,"state":"active","ping":70},{"user_id":202,"name":"Kisari15","steam_id":76561198204362701,"connected_time":524000000000,"state":"active","ping":140},{"user_id":163,"name":"ItsThatBear","steam_id":76561198169617659,"connected_time":2672000000000,"state":"active","ping":64},{"user_id":198,"name":"Acid trip through time","steam_id":76561198322448472,"connected_time":792000000000,"state":"active","ping":78},{"user_id":148,"name":"Brenda Delam","steam_id":76561198006983771,"connected_time":4021000000000,"state":"active","ping":62},{"user_id":199,"name":"Helper19g","steam_id":76561198157523264,"connected_time":669000000000,"state":"active","ping":73},{"user_id":200,"name":"Brightwizard21","steam_id":76561198198710257,"connected_time":631000000000,"state":"active","ping":60},{"user_id":203,"name":"the monkey in trader joes","steam_id":76561199384148877,"connected_time":522000000000,"state":"active","ping":111},{"user_id":176,"name":"Username","steam_id":76561198198918781,"connected_time":2234000000000,"state":"active","ping":113},{"user_id":88,"name":"Ginger Jesus","steam_id":76561198052386458,"connected_time":7653000000000,"state":"spawning","ping":111}]},{"server_id":16,"name":"Uncletopia | New York City | 4 | Community","name_short":"nyc-4","host":"nyc-1.us.uncletopia.com","port":27045,"enabled":true,"region":"us-east","cc":"us","latitude":40.73061,"longitude":-73.93524,"reserved":0,"last_update":"0001-01-01T00:00:00Z","name_a2s":"Uncletopia | New York City | 4 | Community","protocol":17,"map":"workshop/cp_reckoner_rc6.ugc674719999","folder":"tf","game":"Team Fortress","app_id":440,"player_count":0,"max_players":24,"Bots":0,"server_type":"Dedicated","server_os":"Linux","password":true,"vac":true,"version":"7961495","steam_id":85568392924742821,"keywords":["cp","nocrits","nodmgspread","uncletopia"],"game_id":440,"stv_port":27046,"stv_name":"Uncletopia | New York City | 4 | Community | STV","players":null},{"server_id":142,"name":"Uncletopia | São Paulo | 1 | All Maps","name_short":"sao-1","host":"sao-1.br.uncletopia.com","port":27015,"enabled":true,"region":"sa","cc":"br","latitude":-23.533773,"longitude":-46.62529,"reserved":0,"last_update":"0001-01-01T00:00:00Z","name_a2s":"Uncletopia | São Paulo | 1 | All Maps","protocol":17,"map":"cp_gorge","folder":"tf","game":"Team Fortress","app_id":440,"player_count":11,"max_players":24,"Bots":0,"server_type":"Dedicated","server_os":"Linux","password":true,"vac":true,"version":"7961495","steam_id":85568392924469996,"keywords":["cp","nocrits","nodmgspread","uncletopia"],"game_id":440,"stv_port":27016,"stv_name":"Uncletopia | São Paulo | 1 | All Maps | STV","players":[{"user_id":4,"name":"churrasco","steam_id":76561199258316129,"connected_time":3035000000000,"state":"active","ping":50},{"user_id":5,"name":"Maddy","steam_id":76561198370075846,"connected_time":3015000000000,"state":"active","ping":36},{"user_id":9,"name":"rafiuskis9","steam_id":76561199098564093,"connected_time":2648000000000,"state":"active","ping":30},{"user_id":22,"name":"Adolf_Dripler_1945","steam_id":76561198963738808,"connected_time":69000000000,"state":"active","ping":38},{"user_id":8,"name":"Gamer Prime","steam_id":76561199193370083,"connected_time":2777000000000,"state":"active","ping":50},{"user_id":11,"name":"Hazmat","steam_id":76561199188918789,"connected_time":1874000000000,"state":"active","ping":51},{"user_id":12,"name":"Mumia216","steam_id":76561199467438225,"connected_time":1606000000000,"state":"active","ping":94},{"user_id":15,"name":"pee man","steam_id":76561199243684443,"connected_time":739000000000,"state":"active","ping":93},{"user_id":14,"name":"MGFP","steam_id":76561198887457028,"connected_time":969000000000,"state":"active","ping":65},{"user_id":16,"name":"Local Summer","steam_id":76561198334007014,"connected_time":645000000000,"state":"active","ping":44},{"user_id":20,"name":"Pale Blue Dot","steam_id":76561198073906026,"connected_time":372000000000,"state":"active","ping":36}]},{"server_id":143,"name":"Uncletopia | São Paulo | 2 | Community","name_short":"sao-2","host":"sao-2.br.uncletopia.com","port":27015,"enabled":true,"region":"sa","cc":"br","latitude":-23.533773,"longitude":-46.62529,"reserved":0,"last_update":"0001-01-01T00:00:00Z","name_a2s":"Uncletopia | São Paulo | 2 | Community","protocol":17,"map":"workshop/koth_slaughter_rc1.ugc1712845210","folder":"tf","game":"Team Fortress","app_id":440,"player_count":0,"max_players":24,"Bots":0,"server_type":"Dedicated","server_os":"Linux","password":true,"vac":true,"version":"7961495","steam_id":85568392924485349,"keywords":["cp","nocrits","nodmgspread","uncletopia"],"game_id":440,"stv_port":27016,"stv_name":"Uncletopia | São Paulo | 2 | Community | STV","players":null},{"server_id":7,"name":"Uncletopia | Seattle | 1 | All Maps","name_short":"sea-1","host":"sea-1.us.uncletopia.com","port":27015,"enabled":true,"region":"us-west","cc":"us","latitude":47.608013,"longitude":-122.33517,"reserved":0,"last_update":"0001-01-01T00:00:00Z","name_a2s":"Uncletopia | Seattle | 1 | All Maps","protocol":17,"map":"pl_snowycoast","folder":"tf","game":"Team Fortress","app_id":440,"player_count":24,"max_players":24,"Bots":0,"server_type":"Dedicated","server_os":"Linux","password":true,"vac":true,"version":"7961495","steam_id":85568392924469997,"keywords":["nocrits","nodmgspread","payload","uncletopia"],"game_id":440,"stv_port":27016,"stv_name":"Uncletopia | Seattle | 1 | All Maps | STV","players":[{"user_id":160,"name":"[TrC] Dackstrus","steam_id":76561197973518509,"connected_time":1445000000000,"state":"active","ping":59},{"user_id":146,"name":"Whisper!","steam_id":76561198119609795,"connected_time":3614000000000,"state":"active","ping":78},{"user_id":173,"name":"The Coal Connoisseur","steam_id":76561198149061447,"connected_time":105000000000,"state":"active","ping":57},{"user_id":18,"name":"★CaseyGlows★","steam_id":76561198113616168,"connected_time":15077000000000,"state":"active","ping":65},{"user_id":156,"name":"HAT-WEARING™ Maggot Gamer Cat","steam_id":76561197973992705,"connected_time":2672000000000,"state":"active","ping":70},{"user_id":158,"name":"Dargoos","steam_id":76561198366212046,"connected_time":2490000000000,"state":"active","ping":68},{"user_id":142,"name":"USS Arizona","steam_id":76561198866629645,"connected_time":4862000000000,"state":"active","ping":60},{"user_id":70,"name":"dust | it/she [its a vr headset","steam_id":76561198045218909,"connected_time":11696000000000,"state":"active","ping":45},{"user_id":174,"name":"too many fives","steam_id":76561198128465482,"connected_time":67000000000,"state":"active","ping":89},{"user_id":92,"name":"YOU WHAT?!","steam_id":76561198418679471,"connected_time":10213000000000,"state":"active","ping":121},{"user_id":167,"name":"Mx. Headroom","steam_id":76561198310731946,"connected_time":1328000000000,"state":"active","ping":87},{"user_id":168,"name":"zzrat","steam_id":76561198014925415,"connected_time":1057000000000,"state":"active","ping":47},{"user_id":164,"name":"DaddyGalaxy","steam_id":76561198139697796,"connected_time":1419000000000,"state":"active","ping":56},{"user_id":154,"name":"TÖZI","steam_id":76561198045268695,"connected_time":3269000000000,"state":"active","ping":133},{"user_id":151,"name":"Altruisticailuridae","steam_id":76561198335295596,"connected_time":3391000000000,"state":"active","ping":82},{"user_id":130,"name":"3669 Hours - total","steam_id":76561198116023052,"connected_time":5994000000000,"state":"active","ping":73},{"user_id":137,"name":"Imitation Caucasian","steam_id":76561198320536166,"connected_time":5009000000000,"state":"active","ping":90},{"user_id":110,"name":"soda (they/she)","steam_id":76561198105924953,"connected_time":8239000000000,"state":"active","ping":67},{"user_id":152,"name":"Hazel That/Thing","steam_id":76561199247095754,"connected_time":3330000000000,"state":"active","ping":72},{"user_id":155,"name":"K2f","steam_id":76561198049600563,"connected_time":3212000000000,"state":"active","ping":84},{"user_id":141,"name":"Sagusky","steam_id":76561199020014535,"connected_time":4893000000000,"state":"active","ping":85},{"user_id":175,"name":"Scout w/ a type 3 stair allergy","steam_id":76561198027321950,"connected_time":39000000000,"state":"active","ping":70},{"user_id":96,"name":"SHTEWIE GUHRIFFUHN","steam_id":76561198255721392,"connected_time":9976000000000,"state":"active","ping":125},{"user_id":162,"name":"Oaky Loafs","steam_id":76561198317179010,"connected_time":1439000000000,"state":"active","ping":52}]},{"server_id":119,"name":"Uncletopia | Seattle | 2 | All Maps","name_short":"sea-2","host":"sea-1.us.uncletopia.com","port":27025,"enabled":true,"region":"us-west","cc":"us","latitude":47.608013,"longitude":-122.33517,"reserved":0,"last_update":"0001-01-01T00:00:00Z","name_a2s":"Uncletopia | Seattle | 2 | All Maps","protocol":17,"map":"cp_process_final","folder":"tf","game":"Team Fortress","app_id":440,"player_count":0,"max_players":24,"Bots":0,"server_type":"Dedicated","server_os":"Linux","password":true,"vac":true,"version":"7961495","steam_id":85568392924469998,"keywords":["cp","nocrits","nodmgspread","uncletopia"],"game_id":440,"stv_port":27026,"stv_name":"Uncletopia | Seattle | 2 | All Maps | STV","players":null},{"server_id":406,"name":"Uncletopia | Seattle | 3 | Stopwatch","name_short":"sea-3","host":"sea-1.us.uncletopia.com","port":27035,"enabled":true,"region":"us-west","cc":"us","latitude":47.608013,"longitude":-122.33517,"reserved":0,"last_update":"0001-01-01T00:00:00Z","name_a2s":"Uncletopia | Seattle | 3 | Stopwatch","protocol":17,"map":"cp_gullywash_final1","folder":"tf","game":"Team Fortress","app_id":440,"player_count":0,"max_players":24,"Bots":0,"server_type":"Dedicated","server_os":"Linux","password":true,"vac":true,"version":"7961495","steam_id":85568392924515217,"keywords":["cp","nocrits","nodmgspread","uncletopia"],"game_id":440,"stv_port":27036,"stv_name":"Uncletopia | Seattle | 3 | Stopwatch | STV","players":null},{"server_id":17,"name":"Uncletopia | San Francisco | 1 | All Maps","name_short":"sfo-1","host":"sfo-1.us.uncletopia.com","port":27015,"enabled":true,"region":"us-west","cc":"us","latitude":37.77397,"longitude":-122.4313,"reserved":0,"last_update":"0001-01-01T00:00:00Z","name_a2s":"Uncletopia | San Francisco | 1 | All Maps","protocol":17,"map":"koth_viaduct","folder":"tf","game":"Team Fortress","app_id":440,"player_count":0,"max_players":24,"Bots":0,"server_type":"Dedicated","server_os":"Linux","password":true,"vac":true,"version":"7961495","steam_id":85568392924469999,"keywords":["cp","nocrits","nodmgspread","uncletopia"],"game_id":440,"stv_port":27016,"stv_name":"Uncletopia | San Francisco | 1 | All Maps | STV","players":null},{"server_id":18,"name":"Uncletopia | San Francisco | 2 | All Maps","name_short":"sfo-2","host":"sfo-1.us.uncletopia.com","port":27025,"enabled":true,"region":"us-west","cc":"us","latitude":37.77397,"longitude":-122.4313,"reserved":0,"last_update":"0001-01-01T00:00:00Z","name_a2s":"Uncletopia | San Francisco | 2 | All Maps","protocol":17,"map":"pl_hoodoo_final","folder":"tf","game":"Team Fortress","app_id":440,"player_count":0,"max_players":24,"Bots":0,"server_type":"Dedicated","server_os":"Linux","password":true,"vac":true,"version":"7961495","steam_id":85568392924470000,"keywords":["nocrits","nodmgspread","payload","uncletopia"],"game_id":440,"stv_port":27026,"stv_name":"Uncletopia | San Francisco | 2 | All Maps | STV","players":null},{"server_id":19,"name":"Uncletopia | San Francisco | 3 | Stopwatch","name_short":"sfo-3","host":"sfo-1.us.uncletopia.com","port":27035,"enabled":true,"region":"us-west","cc":"us","latitude":37.77397,"longitude":-122.4313,"reserved":0,"last_update":"0001-01-01T00:00:00Z","name_a2s":"Uncletopia | San Francisco | 3 | Stopwatch","protocol":17,"map":"workshop/koth_clearcut_b15.ugc2107050255","folder":"tf","game":"Team Fortress","app_id":440,"player_count":0,"max_players":24,"Bots":0,"server_type":"Dedicated","server_os":"Linux","password":true,"vac":true,"version":"7961495","steam_id":85568392924742824,"keywords":["cp","nocrits","nodmgspread","uncletopia"],"game_id":440,"stv_port":27036,"stv_name":"Uncletopia | San Francisco | 3 | Stopwatch | STV","players":null},{"server_id":20,"name":"Uncletopia | San Francisco | 4 | Community","name_short":"sfo-4","host":"sfo-1.us.uncletopia.com","port":27045,"enabled":true,"region":"us-west","cc":"us","latitude":37.77397,"longitude":-122.4313,"reserved":0,"last_update":"0001-01-01T00:00:00Z","name_a2s":"Uncletopia | San Francisco | 4 | Community","protocol":17,"map":"workshop/cp_reckoner_rc6.ugc674719999","folder":"tf","game":"Team Fortress","app_id":440,"player_count":0,"max_players":24,"Bots":0,"server_type":"Dedicated","server_os":"Linux","password":true,"vac":true,"version":"7961495","steam_id":85568392924742826,"keywords":["cp","nocrits","nodmgspread","uncletopia"],"game_id":440,"stv_port":27046,"stv_name":"Uncletopia | San Francisco | 4 | Community | STV","players":null},{"server_id":141,"name":"Uncletopia | Sydney | 1 | All Maps","name_short":"syd-1","host":"syd-1.au.uncletopia.com","port":27015,"enabled":true,"region":"au","cc":"au","latitude":-33.865143,"longitude":151.2099,"reserved":0,"last_update":"0001-01-01T00:00:00Z","name_a2s":"Uncletopia | Sydney | 1 | All Maps","protocol":17,"map":"cp_process_final","folder":"tf","game":"Team Fortress","app_id":440,"player_count":0,"max_players":24,"Bots":0,"server_type":"Dedicated","server_os":"Linux","password":true,"vac":true,"version":"7961495","steam_id":85568392924470001,"keywords":["cp","nocrits","nodmgspread","uncletopia"],"game_id":440,"stv_port":27016,"stv_name":"Uncletopia | Sydney | 1 | All Maps | STV","players":null},{"server_id":123,"name":"Uncletopia | Sydney | 2 | All Maps","name_short":"syd-2","host":"syd-1.au.uncletopia.com","port":27025,"enabled":true,"region":"au","cc":"au","latitude":-33.865143,"longitude":151.2099,"reserved":0,"last_update":"0001-01-01T00:00:00Z","name_a2s":"Uncletopia | Sydney | 2 | All Maps","protocol":17,"map":"koth_viaduct","folder":"tf","game":"Team Fortress","app_id":440,"player_count":0,"max_players":24,"Bots":0,"server_type":"Dedicated","server_os":"Linux","password":true,"vac":true,"version":"7961495","steam_id":85568392924470002,"keywords":["cp","nocrits","nodmgspread","uncletopia"],"game_id":440,"stv_port":27026,"stv_name":"Uncletopia | Sydney | 2 | All Maps | STV","players":null},{"server_id":395,"name":"Uncletopia | Sydney | 3 | All Maps","name_short":"syd-3","host":"syd-1.au.uncletopia.com","port":27035,"enabled":true,"region":"au","cc":"au","latitude":-33.865143,"longitude":151.2099,"reserved":0,"last_update":"0001-01-01T00:00:00Z","name_a2s":"Uncletopia | Sydney | 3 | All Maps","protocol":17,"map":"koth_lakeside_final","folder":"tf","game":"Team Fortress","app_id":440,"player_count":0,"max_players":24,"Bots":0,"server_type":"Dedicated","server_os":"Linux","password":true,"vac":true,"version":"7961495","steam_id":85568392925194467,"keywords":["cp","nocrits","nodmgspread","uncletopia"],"game_id":440,"stv_port":27036,"stv_name":"Uncletopia | Sydney | 3 | All Maps | STV","players":null},{"server_id":396,"name":"Uncletopia | Sydney | 4 | All Maps","name_short":"syd-4","host":"syd-1.au.uncletopia.com","port":27045,"enabled":true,"region":"au","cc":"au","latitude":-33.865143,"longitude":151.2099,"reserved":0,"last_update":"0001-01-01T00:00:00Z","name_a2s":"Uncletopia | Sydney | 4 | All Maps","protocol":17,"map":"cp_snakewater_final1","folder":"tf","game":"Team Fortress","app_id":440,"player_count":0,"max_players":24,"Bots":0,"server_type":"Dedicated","server_os":"Linux","password":true,"vac":true,"version":"7961495","steam_id":85568392925397958,"keywords":["cp","nocrits","nodmgspread","uncletopia"],"game_id":440,"stv_port":27046,"stv_name":"Uncletopia | Sydney | 4 | All Maps | STV","players":null},{"server_id":58,"name":"Uncletopia | Sydney | 5 | Stopwatch","name_short":"syd-5","host":"syd-1.au.uncletopia.com","port":27055,"enabled":true,"region":"au","cc":"au","latitude":-33.865143,"longitude":151.2099,"reserved":0,"last_update":"0001-01-01T00:00:00Z","name_a2s":"Uncletopia | Sydney | 5 | Stopwatch","protocol":17,"map":"workshop/pl_summercoast_rc8e.ugc1761528829","folder":"tf","game":"Team Fortress","app_id":440,"player_count":0,"max_players":24,"Bots":0,"server_type":"Dedicated","server_os":"Linux","password":true,"vac":true,"version":"7961495","steam_id":85568392925397959,"keywords":["nocrits","nodmgspread","payload","uncletopia"],"game_id":440,"stv_port":27056,"stv_name":"Uncletopia | Sydney | 5 | Stopwatch | STV","players":null},{"server_id":59,"name":"Uncletopia | Sydney | 6 | Community","name_short":"syd-6","host":"syd-1.au.uncletopia.com","port":27065,"enabled":true,"region":"au","cc":"au","latitude":-33.865143,"longitude":151.2099,"reserved":0,"last_update":"0001-01-01T00:00:00Z","name_a2s":"Uncletopia | Sydney | 6 | Community","protocol":17,"map":"workshop/koth_soot_final1.ugc2969540689","folder":"tf","game":"Team Fortress","app_id":440,"player_count":0,"max_players":24,"Bots":0,"server_type":"Dedicated","server_os":"Linux","password":true,"vac":true,"version":"7961495","steam_id":85568392925397960,"keywords":["cp","nocrits","nodmgspread","uncletopia"],"game_id":440,"stv_port":27066,"stv_name":"Uncletopia | Sydney | 6 | Community | STV","players":null},{"server_id":49,"name":"Uncletopia | Warsaw | 1 | One Thousand Uncles","name_short":"waw-1","host":"waw-1.pl.uncletopia.com","port":27015,"enabled":true,"region":"eu","cc":"pl","latitude":52.2297,"longitude":21.017532,"reserved":0,"last_update":"0001-01-01T00:00:00Z","name_a2s":"Uncletopia | Warsaw | 1 | One Thousand Uncles","protocol":17,"map":"cp_dustbowl","folder":"tf","game":"Team Fortress","app_id":440,"player_count":25,"max_players":32,"Bots":20,"server_type":"Dedicated","server_os":"Linux","password":true,"vac":true,"version":"7961495","steam_id":85568392925397850,"keywords":["alltalk","bots","cp","danepve","increased_maxplayers","norespawntime","uncletopia"],"game_id":440,"stv_port":0,"stv_name":"","players":[{"user_id":169,"name":"EL LOCO","steam_id":76561198257656274,"connected_time":265000000000,"state":"active","ping":45},{"user_id":168,"name":"Womanticore","steam_id":76561199235582031,"connected_time":708000000000,"state":"active","ping":256},{"user_id":170,"name":"digilith","steam_id":76561199106966802,"connected_time":229000000000,"state":"active","ping":64},{"user_id":156,"name":"Grabek☁","steam_id":76561198312702702,"connected_time":3168000000000,"state":"active","ping":93},{"user_id":163,"name":"[HK]我係香港人","steam_id":76561198165376815,"connected_time":1505000000000,"state":"active","ping":86}]},{"server_id":50,"name":"Uncletopia | Warsaw | 2 | One Thousand Uncles","name_short":"waw-2","host":"waw-1.pl.uncletopia.com","port":27025,"enabled":true,"region":"eu","cc":"pl","latitude":52.2297,"longitude":21.017532,"reserved":0,"last_update":"0001-01-01T00:00:00Z","name_a2s":"Uncletopia | Warsaw | 2 | One Thousand Uncles","protocol":17,"map":"cp_mercenarypark","folder":"tf","game":"Team Fortress","app_id":440,"player_count":32,"max_players":32,"Bots":20,"server_type":"Dedicated","server_os":"Linux","password":true,"vac":true,"version":"7961495","steam_id":85568392925397851,"keywords":["alltalk","bots","cp","danepve","increased_maxplayers","norespawntime","uncletopia"],"game_id":440,"stv_port":0,"stv_name":"","players":[{"user_id":537,"name":"The Boss","steam_id":76561198264576571,"connected_time":909000000000,"state":"active","ping":91},{"user_id":504,"name":"Sandvich Delivery Service","steam_id":76561199447202311,"connected_time":3053000000000,"state":"active","ping":196},{"user_id":539,"name":"sokoltd31","steam_id":76561199481892547,"connected_time":225000000000,"state":"active","ping":96},{"user_id":535,"name":"minecraft is my life!","steam_id":76561199213571483,"connected_time":1596000000000,"state":"active","ping":67},{"user_id":454,"name":"judasz","steam_id":76561198057378108,"connected_time":8143000000000,"state":"active","ping":64},{"user_id":506,"name":"adv6","steam_id":76561198029789989,"connected_time":2919000000000,"state":"active","ping":81},{"user_id":500,"name":"rofflehouse","steam_id":76561198090470768,"connected_time":3366000000000,"state":"active","ping":148},{"user_id":507,"name":"The Troglodyte","steam_id":76561199119744358,"connected_time":2841000000000,"state":"active","ping":90},{"user_id":501,"name":"I have anxiety ;3","steam_id":76561198871081291,"connected_time":3253000000000,"state":"active","ping":238},{"user_id":538,"name":"pavel_mkd","steam_id":76561199088118112,"connected_time":741000000000,"state":"active","ping":102},{"user_id":464,"name":"John Noob","steam_id":76561197999170026,"connected_time":5642000000000,"state":"active","ping":109},{"user_id":503,"name":"Aflojack","steam_id":76561198156450269,"connected_time":3145000000000,"state":"active","ping":77}]},{"server_id":51,"name":"Uncletopia | Warsaw | 3 | All Maps","name_short":"waw-3","host":"waw-1.pl.uncletopia.com","port":27035,"enabled":true,"region":"eu","cc":"pl","latitude":52.2297,"longitude":21.017532,"reserved":0,"last_update":"0001-01-01T00:00:00Z","name_a2s":"Uncletopia | Warsaw | 3 | All Maps","protocol":17,"map":"pl_badwater","folder":"tf","game":"Team Fortress","app_id":440,"player_count":0,"max_players":24,"Bots":0,"server_type":"Dedicated","server_os":"Linux","password":true,"vac":true,"version":"7961495","steam_id":85568392925397852,"keywords":["nocrits","nodmgspread","payload","uncletopia"],"game_id":440,"stv_port":27036,"stv_name":"Uncletopia | Warsaw | 3 | All Maps | STV","players":null},{"server_id":52,"name":"Uncletopia | Warsaw | 4 | All Maps","name_short":"waw-4","host":"waw-1.pl.uncletopia.com","port":27045,"enabled":true,"region":"eu","cc":"pl","latitude":52.2297,"longitude":21.017532,"reserved":0,"last_update":"0001-01-01T00:00:00Z","name_a2s":"Uncletopia | Warsaw | 4 | All Maps","protocol":17,"map":"koth_viaduct","folder":"tf","game":"Team Fortress","app_id":440,"player_count":0,"max_players":24,"Bots":0,"server_type":"Dedicated","server_os":"Linux","password":true,"vac":true,"version":"7961495","steam_id":85568392925397853,"keywords":["cp","nocrits","nodmgspread","uncletopia"],"game_id":440,"stv_port":27046,"stv_name":"Uncletopia | Warsaw | 4 | All Maps | STV","players":null},{"server_id":53,"name":"Uncletopia | Warsaw | 5 | Stopwatch","name_short":"waw-5","host":"waw-1.pl.uncletopia.com","port":27055,"enabled":true,"region":"eu","cc":"pl","latitude":52.2297,"longitude":21.017532,"reserved":0,"last_update":"0001-01-01T00:00:00Z","name_a2s":"Uncletopia | Warsaw | 5 | Stopwatch","protocol":17,"map":"workshop/koth_clearcut_b15.ugc2107050255","folder":"tf","game":"Team Fortress","app_id":440,"player_count":0,"max_players":24,"Bots":0,"server_type":"Dedicated","server_os":"Linux","password":true,"vac":true,"version":"7961495","steam_id":85568392925397854,"keywords":["cp","nocrits","nodmgspread","uncletopia"],"game_id":440,"stv_port":27056,"stv_name":"Uncletopia | Warsaw | 5 | Stopwatch | STV","players":null},{"server_id":54,"name":"Uncletopia | Warsaw | 6 | Community","name_short":"waw-6","host":"waw-1.pl.uncletopia.com","port":27065,"enabled":true,"region":"eu","cc":"pl","latitude":52.2297,"longitude":21.017532,"reserved":0,"last_update":"0001-01-01T00:00:00Z","name_a2s":"Uncletopia | Warsaw | 6 | Community","protocol":17,"map":"workshop/pl_boundary_final1.ugc456799153","folder":"tf","game":"Team Fortress","app_id":440,"player_count":0,"max_players":24,"Bots":0,"server_type":"Dedicated","server_os":"Linux","password":true,"vac":true,"version":"7961495","steam_id":85568392925397856,"keywords":["nocrits","nodmgspread","payload","uncletopia"],"game_id":440,"stv_port":27066,"stv_name":"Uncletopia | Warsaw | 6 | Community | STV","players":null}]}