{"status":true,"message":"","result":[{"server_id":9,"name":"Uncletopia | Atlanta | 1 | All Maps","name_short":"atl-1","host":"atl-1.us.uncletopia.com","port":27015,"enabled":true,"region":"us-east","cc":"us","latitude":33.753746,"longitude":-84.38633,"reserved":0,"last_update":"0001-01-01T00:00:00Z","name_a2s":"Uncletopia | Atlanta | 1 | All Maps","protocol":17,"map":"pl_pier","folder":"tf","game":"Team Fortress","app_id":440,"player_count":24,"max_players":24,"Bots":0,"server_type":"Dedicated","server_os":"Linux","password":true,"vac":true,"version":"7757534","steam_id":85568392924469982,"keywords":["nocrits","nodmgspread","payload","uncletopia"],"game_id":440,"stv_port":27016,"stv_name":"Uncletopia | Atlanta | 1 | All Maps | STV","players":[{"user_id":395,"name":"ATL1 | Lylith!!!","steam_id":76561198386687546,"connected_time":483000000000,"state":"active","ping":46},{"user_id":393,"name":"mingus dingus the powerful fetu","steam_id":76561198115189870,"connected_time":557000000000,"state":"active","ping":76},{"user_id":398,"name":"ATL1 | Bandi","steam_id":76561198432036026,"connected_time":288000000000,"state":"active","ping":48},{"user_id":380,"name":"AlphaScout","steam_id":76561198047797890,"connected_time":1237000000000,"state":"active","ping":77},{"user_id":404,"name":"BubbyBoy27","steam_id":76561199102009679,"connected_time":210000000000,"state":"active","ping":82},{"user_id":367,"name":"Icaras","steam_id":76561198416724843,"connected_time":2227000000000,"state":"active","ping":131},{"user_id":356,"name":"NoobleCup","steam_id":76561199021279162,"connected_time":3164000000000,"state":"active","ping":71},{"user_id":400,"name":"Training Arc","steam_id":76561198038832034,"connected_time":283000000000,"state":"active","ping":116},{"user_id":392,"name":"cold spaghetti","steam_id":76561198983037944,"connected_time":592000000000,"state":"active","ping":77},{"user_id":397,"name":"vareh","steam_id":76561197993190926,"connected_time":345000000000,"state":"active","ping":124},{"user_id":387,"name":"DFR Le4n!!!","steam_id":76561198045522596,"connected_time":832000000000,"state":"active","ping":71},{"user_id":363,"name":"creeeeeee","steam_id":76561198392539722,"connected_time":2892000000000,"state":"active","ping":77},{"user_id":402,"name":"Î©îÎöúÍ∏∞","steam_id":76561198103503647,"connected_time":262000000000,"state":"active","ping":116},{"user_id":405,"name":"cleopatra","steam_id":76561199382129166,"connected_time":199000000000,"state":"active","ping":66},{"user_id":372,"name":"mylomalopi","steam_id":76561198354990729,"connected_time":2025000000000,"state":"active","ping":83},{"user_id":378,"name":"\\|)=|_|=(|/","steam_id":76561198171491110,"connected_time":1296000000000,"state":"active","ping":67},{"user_id":375,"name":"sweaty femboy thighs","steam_id":76561198239286750,"connected_time":1768000000000,"state":"active","ping":72},{"user_id":353,"name":"DuckKey","steam_id":76561198904477889,"connected_time":3256000000000,"state":"active","ping":60},{"user_id":374,"name":"Furry Fighter Plane","steam_id":76561198085815757,"connected_time":1866000000000,"state":"active","ping":107},{"user_id":390,"name":"Mr. Call You Back","steam_id":76561198025172811,"connected_time":676000000000,"state":"active","ping":59},{"user_id":386,"name":"psychburst","steam_id":76561198116903731,"connected_time":870000000000,"state":"active","ping":67},{"user_id":396,"name":"DougGPT„ÉÑ","steam_id":76561198020534493,"connected_time":480000000000,"state":"active","ping":90},{"user_id":377,"name":"ZARDOZ","steam_id":76561198412326945,"connected_time":1511000000000,"state":"active","ping":105},{"user_id":158,"name":"Token","steam_id":76561198067814426,"connected_time":10572000000000,"state":"active","ping":83}]},{"server_id":104,"name":"Uncletopia | Atlanta | 2 | All Maps","name_short":"atl-2","host":"atl-1.us.uncletopia.com","port":27025,"enabled":true,"region":"us-east","cc":"us","latitude":33.753746,"longitude":-84.38633,"reserved":0,"last_update":"0001-01-01T00:00:00Z","name_a2s":"Uncletopia | Atlanta | 2 | All Maps","protocol":17,"map":"pl_borneo","folder":"tf","game":"Team Fortress","app_id":440,"player_count":24,"max_players":24,"Bots":0,"server_type":"Dedicated","server_os":"Linux","password":true,"vac":true,"version":"7757534","steam_id":85568392924469983,"keywords":["nocrits","nodmgspread","payload","uncletopia"],"game_id":440,"stv_port":27026,"stv_name":"Uncletopia | Atlanta | 2 | All Maps | STV","players":[{"user_id":159,"name":"walrus","steam_id":76561198057853319,"connected_time":516000000000,"state":"active","ping":68},{"user_id":153,"name":"Unchained Zeity","steam_id":76561198414129606,"connected_time":1981000000000,"state":"active","ping":158},{"user_id":154,"name":"Rad","steam_id":76561198413125750,"connected_time":1979000000000,"state":"active","ping":68},{"user_id":166,"name":"Daniel Craig Fan","steam_id":76561198053467923,"connected_time":220000000000,"state":"active","ping":83},{"user_id":152,"name":"Minininjin :3","steam_id":76561198231288168,"connected_time":2082000000000,"state":"active","ping":59},{"user_id":141,"name":"Kuddly Kay (She/Her)","steam_id":76561198353432576,"connected_time":2524000000000,"state":"active","ping":91},{"user_id":142,"name":"Willem Dafoe","steam_id":76561198037453253,"connected_time":2491000000000,"state":"active","ping":81},{"user_id":161,"name":"xXcLaImEd__ReApErXx [F2P]","steam_id":76561198067232540,"connected_time":488000000000,"state":"active","ping":91},{"user_id":143,"name":"CollDragon","steam_id":76561198067534450,"connected_time":2491000000000,"state":"active","ping":64},{"user_id":144,"name":"Positive0","steam_id":76561198035780181,"connected_time":2489000000000,"state":"active","ping":79},{"user_id":151,"name":"Lemony Lilly (She/Her)","steam_id":76561198042479066,"connected_time":2141000000000,"state":"active","ping":113},{"user_id":167,"name":"marguerite","steam_id":76561198170873495,"connected_time":139000000000,"state":"active","ping":50},{"user_id":162,"name":"Stick","steam_id":76561198001509374,"connected_time":486000000000,"state":"active","ping":67},{"user_id":119,"name":"Testosteroblerone","steam_id":76561199031278496,"connected_time":4046000000000,"state":"active","ping":111},{"user_id":157,"name":"MerrytheManokit :3","steam_id":76561198991013998,"connected_time":1495000000000,"state":"active","ping":63},{"user_id":165,"name":"Arverite","steam_id":76561198059038604,"connected_time":255000000000,"state":"active","ping":114},{"user_id":158,"name":"roo the observer","steam_id":76561198120684348,"connected_time":914000000000,"state":"active","ping":75},{"user_id":163,"name":"time has run out","steam_id":76561198066450438,"connected_time":471000000000,"state":"active","ping":79},{"user_id":96,"name":"Reshy","steam_id":76561198065161326,"connected_time":5115000000000,"state":"active","ping":83},{"user_id":97,"name":"Brother 6","steam_id":76561198258291262,"connected_time":5110000000000,"state":"active","ping":93},{"user_id":148,"name":"Ôº≥Ôº¨Ôº∂Ôº¥Ôº£Ôº®Ôº°Ôº≠Ôº∞","steam_id":76561198883157736,"connected_time":2388000000000,"state":"active","ping":122},{"user_id":164,"name":"lol","steam_id":76561199097866312,"connected_time":344000000000,"state":"active","ping":89},{"user_id":99,"name":"Snivy64","steam_id":76561198423445376,"connected_time":5058000000000,"state":"active","ping":94},{"user_id":100,"name":"CoffeePasta","steam_id":76561198969890522,"connected_time":5050000000000,"state":"active","ping":104}]},{"server_id":400,"name":"Uncletopia | Atlanta | 3 | Community","name_short":"atl-3","host":"atl-1.us.uncletopia.com","port":27035,"enabled":true,"region":"us-east","cc":"us","latitude":33.753746,"longitude":-84.38633,"reserved":0,"last_update":"0001-01-01T00:00:00Z","name_a2s":"Uncletopia | Atlanta | 3 | Community","protocol":17,"map":"workshop/cp_glassworks_rc6a.ugc454118349","folder":"tf","game":"Team Fortress","app_id":440,"player_count":0,"max_players":24,"Bots":0,"server_type":"Dedicated","server_os":"Linux","password":true,"vac":true,"version":"7757534","steam_id":85568392924515187,"keywords":["cp","nocrits","nodmgspread","uncletopia"],"game_id":440,"stv_port":27036,"stv_name":"Uncletopia | Atlanta | 3 | Community | STV","players":null},{"server_id":401,"name":"Uncletopia | Atlanta | 4 | No Payload","name_short":"atl-4","host":"atl-1.us.uncletopia.com","port":27045,"enabled":true,"region":"us-east","cc":"us","latitude":33.753746,"longitude":-84.38633,"reserved":0,"last_update":"0001-01-01T00:00:00Z","name_a2s":"","protocol":0,"map":"","folder":"","game":"","app_id":0,"player_count":0,"max_players":0,"Bots":0,"server_type":"","server_os":"","password":false,"vac":false,"version":"","steam_id":0,"keywords":null,"game_id":0,"stv_port":0,"stv_name":"","players":null},{"server_id":2,"name":"Uncletopia | Chicago | 1 | All Maps","name_short":"chi-1","host":"chi-1.us.uncletopia.com","port":27015,"enabled":true,"region":"us-central","cc":"us","latitude":41.881832,"longitude":-87.62318,"reserved":0,"last_update":"0001-01-01T00:00:00Z","name_a2s":"Uncletopia | Chicago | 1 | All Maps","protocol":17,"map":"pl_borneo","folder":"tf","game":"Team Fortress","app_id":440,"player_count":24,"max_players":24,"Bots":0,"server_type":"Dedicated","server_os":"Linux","password":true,"vac":true,"version":"7757534","steam_id":85568392924469984,"keywords":["nocrits","nodmgspread","payload","uncletopia"],"game_id":440,"stv_port":27016,"stv_name":"Uncletopia | Chicago | 1 | All Maps | STV","players":[{"user_id":392,"name":"TheSnipersHat","steam_id":76561198057684066,"connected_time":708000000000,"state":"active","ping":57},{"user_id":364,"name":"poe","steam_id":76561198155720118,"connected_time":2625000000000,"state":"active","ping":46},{"user_id":385,"name":"golly gee willikers","steam_id":76561198069407799,"connected_time":1312000000000,"state":"active","ping":74},{"user_id":395,"name":"Dips","steam_id":76561198251975850,"connected_time":662000000000,"state":"active","ping":80},{"user_id":394,"name":"Bean","steam_id":76561199215043894,"connected_time":699000000000,"state":"active","ping":86},{"user_id":381,"name":"GooniOoni","steam_id":76561198102154561,"connected_time":1670000000000,"state":"active","ping":44},{"user_id":365,"name":"Super Ghostbusters (Full Album)","steam_id":76561198057415490,"connected_time":2606000000000,"state":"active","ping":43},{"user_id":386,"name":"Mew","steam_id":76561198078578085,"connected_time":1235000000000,"state":"active","ping":41},{"user_id":343,"name":"lemon","steam_id":76561198282764599,"connected_time":4148000000000,"state":"active","ping":46},{"user_id":401,"name":"Aurro","steam_id":76561198315692300,"connected_time":269000000000,"state":"active","ping":51},{"user_id":390,"name":"Swifgz","steam_id":76561198162875756,"connected_time":1013000000000,"state":"active","ping":59},{"user_id":387,"name":"Acehay14","steam_id":76561198052373291,"connected_time":1132000000000,"state":"active","ping":56},{"user_id":393,"name":"koompa_stomp","steam_id":76561198073081735,"connected_time":700000000000,"state":"active","ping":96},{"user_id":388,"name":"cooked chicken enjoyer","steam_id":76561198278282836,"connected_time":1132000000000,"state":"active","ping":55},{"user_id":398,"name":"blakejack226","steam_id":76561199128917566,"connected_time":336000000000,"state":"active","ping":84},{"user_id":375,"name":"Duckywinner","steam_id":76561198254828139,"connected_time":1783000000000,"state":"active","ping":93},{"user_id":400,"name":"Fullway HP108 Performance Tire","steam_id":76561199013174366,"connected_time":293000000000,"state":"active","ping":61},{"user_id":391,"name":"Sonidad","steam_id":76561198082763204,"connected_time":913000000000,"state":"active","ping":80},{"user_id":397,"name":"andyiscolorless","steam_id":76561199239870921,"connected_time":617000000000,"state":"active","ping":141},{"user_id":349,"name":"kametro4","steam_id":76561198835430429,"connected_time":3992000000000,"state":"active","ping":91},{"user_id":402,"name":"DarthEthanBoy","steam_id":76561198441643581,"connected_time":188000000000,"state":"active","ping":63},{"user_id":384,"name":"Jill Stingray","steam_id":76561198074209737,"connected_time":1352000000000,"state":"active","ping":60},{"user_id":361,"name":"Capt.Swag","steam_id":76561198088340994,"connected_time":3038000000000,"state":"active","ping":76},{"user_id":380,"name":"Ceiling Man","steam_id":76561198003959902,"connected_time":1741000000000,"state":"active","ping":59}]},{"server_id":106,"name":"Uncletopia | Chicago | 2 | All Maps","name_short":"chi-2","host":"chi-1.us.uncletopia.com","port":27025,"enabled":true,"region":"us-central","cc":"us","latitude":41.881832,"longitude":-87.62318,"reserved":0,"last_update":"0001-01-01T00:00:00Z","name_a2s":"Uncletopia | Chicago | 2 | All Maps","protocol":17,"map":"pl_badwater","folder":"tf","game":"Team Fortress","app_id":440,"player_count":24,"max_players":24,"Bots":0,"server_type":"Dedicated","server_os":"Linux","password":true,"vac":true,"version":"7757534","steam_id":85568392924469985,"keywords":["nocrits","nodmgspread","payload","uncletopia"],"game_id":440,"stv_port":27026,"stv_name":"Uncletopia | Chicago | 2 | All Maps | STV","players":[{"user_id":406,"name":"Nespreco","steam_id":76561198252035336,"connected_time":3798000000000,"state":"active","ping":59},{"user_id":435,"name":"Foreskin Reattachment service","steam_id":76561198060342804,"connected_time":1724000000000,"state":"active","ping":70},{"user_id":360,"name":"ChillSasquatch","steam_id":76561198068408798,"connected_time":8970000000000,"state":"active","ping":71},{"user_id":444,"name":"G6 1920","steam_id":76561198111669774,"connected_time":993000000000,"state":"active","ping":46},{"user_id":462,"name":"boykkisser49","steam_id":76561198390443273,"connected_time":70000000000,"state":"active","ping":304},{"user_id":374,"name":"ThatGamingKiwi","steam_id":76561199170522237,"connected_time":8040000000000,"state":"active","ping":71},{"user_id":447,"name":"William Wallace","steam_id":76561199343316814,"connected_time":914000000000,"state":"active","ping":72},{"user_id":430,"name":"Pop","steam_id":76561199012562851,"connected_time":1796000000000,"state":"active","ping":85},{"user_id":426,"name":"Nimdok","steam_id":76561198052213644,"connected_time":2549000000000,"state":"active","ping":75},{"user_id":390,"name":"bryyte","steam_id":76561198012377833,"connected_time":5318000000000,"state":"active","ping":46},{"user_id":326,"name":"¬ø¬øF-Colombian??","steam_id":76561198257720165,"connected_time":11181000000000,"state":"active","ping":146},{"user_id":431,"name":"Aye","steam_id":76561198123441203,"connected_time":1793000000000,"state":"active","ping":79},{"user_id":452,"name":"uufyfuu","steam_id":76561198142787212,"connected_time":730000000000,"state":"active","ping":75},{"user_id":453,"name":"The local hobo","steam_id":76561198289650060,"connected_time":714000000000,"state":"active","ping":106},{"user_id":434,"name":"racist","steam_id":76561198869535018,"connected_time":1737000000000,"state":"active","ping":120},{"user_id":446,"name":"enmgxcltayiqoacx","steam_id":76561197974965536,"connected_time":929000000000,"state":"active","ping":56},{"user_id":429,"name":"money getting 1 percenter","steam_id":76561198012796388,"connected_time":2179000000000,"state":"active","ping":50},{"user_id":442,"name":"Ejaculation Zach","steam_id":76561198203765200,"connected_time":1481000000000,"state":"active","ping":63},{"user_id":457,"name":"KrautCakes!","steam_id":76561198133973878,"connected_time":579000000000,"state":"active","ping":69},{"user_id":454,"name":"joyboy","steam_id":76561198400381132,"connected_time":704000000000,"state":"active","ping":60},{"user_id":455,"name":"box","steam_id":76561198049531483,"connected_time":591000000000,"state":"active","ping":56},{"user_id":448,"name":"twizted","steam_id":76561197960407274,"connected_time":861000000000,"state":"active","ping":72},{"user_id":456,"name":"atlas","steam_id":76561198398383076,"connected_time":585000000000,"state":"active","ping":83},{"user_id":438,"name":"Mikmoomamimocki","steam_id":76561199077167536,"connected_time":1688000000000,"state":"active","ping":72}]},{"server_id":402,"name":"Uncletopia | Chicago | 3 | All Maps","name_short":"chi-3","host":"chi-1.us.uncletopia.com","port":27035,"enabled":true,"region":"us-central","cc":"us","latitude":41.881832,"longitude":-87.62318,"reserved":0,"last_update":"0001-01-01T00:00:00Z","name_a2s":"Uncletopia | Chicago | 3 | All Maps","protocol":17,"map":"koth_lakeside_final","folder":"tf","game":"Team Fortress","app_id":440,"player_count":0,"max_players":24,"Bots":0,"server_type":"Dedicated","server_os":"Linux","password":true,"vac":true,"version":"7757534","steam_id":85568392924515191,"keywords":["cp","nocrits","nodmgspread","uncletopia"],"game_id":440,"stv_port":27036,"stv_name":"Uncletopia | Chicago | 3 | All Maps | STV","players":null},{"server_id":403,"name":"Uncletopia | Chicago | 4 | All Maps","name_short":"chi-4","host":"chi-1.us.uncletopia.com","port":27045,"enabled":true,"region":"us-central","cc":"us","latitude":41.881832,"longitude":-87.62318,"reserved":0,"last_update":"0001-01-01T00:00:00Z","name_a2s":"Uncletopia | Chicago | 4 | All Maps","protocol":17,"map":"koth_lakeside_final","folder":"tf","game":"Team Fortress","app_id":440,"player_count":0,"max_players":24,"Bots":0,"server_type":"Dedicated","server_os":"Linux","password":true,"vac":true,"version":"7757534","steam_id":85568392924515193,"keywords":["cp","nocrits","nodmgspread","uncletopia"],"game_id":440,"stv_port":27046,"stv_name":"Uncletopia | Chicago | 4 | All Maps | STV","players":null},{"server_id":36,"name":"Uncletopia | Chicago | 5 | All Maps","name_short":"chi-5","host":"chi-2.us.uncletopia.com","port":27015,"enabled":true,"region":"us-central","cc":"us","latitude":41.881832,"longitude":-87.62318,"reserved":0,"last_update":"0001-01-01T00:00:00Z","name_a2s":"Uncletopia | Chicago | 5 | All Maps","protocol":17,"map":"koth_cascade","folder":"tf","game":"Team Fortress","app_id":440,"player_count":0,"max_players":24,"Bots":0,"server_type":"Dedicated","server_os":"Linux","password":true,"vac":true,"version":"7757534","steam_id":85568392924866362,"keywords":["cp","nocrits","nodmgspread","uncletopia"],"game_id":440,"stv_port":27016,"stv_name":"Uncletopia | Chicago | 5 | All Maps | STV","players":null},{"server_id":37,"name":"Uncletopia | Chicago | 6 | All Maps","name_short":"chi-6","host":"chi-2.us.uncletopia.com","port":27025,"enabled":true,"region":"us-central","cc":"us","latitude":41.881832,"longitude":-87.62318,"reserved":0,"last_update":"0001-01-01T00:00:00Z","name_a2s":"Uncletopia | Chicago | 6 | All Maps","protocol":17,"map":"koth_viaduct","folder":"tf","game":"Team Fortress","app_id":440,"player_count":0,"max_players":24,"Bots":0,"server_type":"Dedicated","server_os":"Linux","password":true,"vac":true,"version":"7757534","steam_id":85568392924866363,"keywords":["cp","nocrits","nodmgspread","uncletopia"],"game_id":440,"stv_port":27026,"stv_name":"Uncletopia | Chicago | 6 | All Maps | STV","players":null},{"server_id":38,"name":"Uncletopia | Chicago | 7 | Stopwatch Beta","name_short":"chi-7","host":"chi-2.us.uncletopia.com","port":27035,"enabled":true,"region":"us-central","cc":"us","latitude":41.881832,"longitude":-87.62318,"reserved":0,"last_update":"0001-01-01T00:00:00Z","name_a2s":"Uncletopia | Chicago | 7 | Stopwatch Beta","protocol":17,"map":"pl_barnblitz","folder":"tf","game":"Team Fortress","app_id":440,"player_count":0,"max_players":24,"Bots":0,"server_type":"Dedicated","server_os":"Linux","password":true,"vac":true,"version":"7757534","steam_id":85568392924866364,"keywords":["nocrits","nodmgspread","payload","uncletopia"],"game_id":440,"stv_port":27036,"stv_name":"Uncletopia | Chicago | 7 | Stopwatch Beta | STV","players":null},{"server_id":39,"name":"Uncletopia | Chicago | 8 | Community","name_short":"chi-8","host":"chi-2.us.uncletopia.com","port":27045,"enabled":true,"region":"us-central","cc":"us","latitude":41.881832,"longitude":-87.62318,"reserved":0,"last_update":"0001-01-01T00:00:00Z","name_a2s":"Uncletopia | Chicago | 8 | Community","protocol":17,"map":"koth_cascade","folder":"tf","game":"Team Fortress","app_id":440,"player_count":0,"max_players":24,"Bots":0,"server_type":"Dedicated","server_os":"Linux","password":true,"vac":true,"version":"7757534","steam_id":85568392924866365,"keywords":["cp","nocrits","nodmgspread","uncletopia"],"game_id":440,"stv_port":27046,"stv_name":"Uncletopia | Chicago | 8 | Community | STV","players":null},{"server_id":8,"name":"Uncletopia | Dallas | 1 | All Maps","name_short":"dal-1","host":"dal-1.us.uncletopia.com","port":27015,"enabled":true,"region":"us-central","cc":"us","latitude":32.779167,"longitude":-96.80889,"reserved":0,"last_update":"0001-01-01T00:00:00Z","name_a2s":"Uncletopia | Dallas | 1 | All Maps","protocol":17,"map":"plr_pipeline","folder":"tf","game":"Team Fortress","app_id":440,"player_count":24,"max_players":24,"Bots":0,"server_type":"Dedicated","server_os":"Linux","password":true,"vac":true,"version":"7757534","steam_id":85568392924469986,"keywords":["nocrits","nodmgspread","payload","uncletopia"],"game_id":440,"stv_port":27016,"stv_name":"Uncletopia | Dallas | 1 | All Maps | STV","players":[{"user_id":386,"name":"syme","steam_id":76561197990512752,"connected_time":582000000000,"state":"active","ping":84},{"user_id":388,"name":"Jimmy jam123","steam_id":76561199216003981,"connected_time":126000000000,"state":"active","ping":96},{"user_id":389,"name":"Gods Drunkest Driver","steam_id":76561198390108910,"connected_time":108000000000,"state":"active","ping":98},{"user_id":374,"name":"Parker","steam_id":76561198046044893,"connected_time":922000000000,"state":"active","ping":71},{"user_id":365,"name":"twink sniper zaddY","steam_id":76561198283687382,"connected_time":1843000000000,"state":"active","ping":79},{"user_id":345,"name":"Pump","steam_id":76561198085846167,"connected_time":3961000000000,"state":"active","ping":103},{"user_id":376,"name":"CreativeUsername","steam_id":76561198186045503,"connected_time":895000000000,"state":"active","ping":77},{"user_id":355,"name":"Garfield","steam_id":76561198037803087,"connected_time":2884000000000,"state":"active","ping":67},{"user_id":370,"name":"VaL-ASROC","steam_id":76561198886493635,"connected_time":1145000000000,"state":"active","ping":62},{"user_id":364,"name":"MarcoPolow","steam_id":76561198128044316,"connected_time":2280000000000,"state":"active","ping":89},{"user_id":390,"name":"Slazzer","steam_id":76561198404351844,"connected_time":32000000000,"state":"active","ping":89},{"user_id":377,"name":"Dietrich","steam_id":76561198028163840,"connected_time":888000000000,"state":"active","ping":71},{"user_id":378,"name":"Limepop","steam_id":76561198157371776,"connected_time":881000000000,"state":"active","ping":75},{"user_id":384,"name":"B·µ¢g B‚Çí‚Çõ‚Çõ","steam_id":76561198090271815,"connected_time":651000000000,"state":"active","ping":119},{"user_id":379,"name":"Lux E Tenebris","steam_id":76561198072664199,"connected_time":857000000000,"state":"active","ping":75},{"user_id":380,"name":"Jus71n","steam_id":76561198133487430,"connected_time":848000000000,"state":"active","ping":86},{"user_id":383,"name":"GoldtoothFour","steam_id":76561198055529332,"connected_time":756000000000,"state":"active","ping":79},{"user_id":381,"name":"Heart","steam_id":76561198171449661,"connected_time":840000000000,"state":"active","ping":92},{"user_id":363,"name":"ÁßÅ„ÅØ‰∏çÊ≠£Ë°åÁÇ∫„Çí„Åó„Å¶„ÅÑ","steam_id":76561199465653959,"connected_time":2455000000000,"state":"active","ping":141},{"user_id":387,"name":"Cryonics","steam_id":76561198314197911,"connected_time":547000000000,"state":"active","ping":89},{"user_id":382,"name":"Marge \"ZaZa\" Simpson","steam_id":76561198156496197,"connected_time":829000000000,"state":"active","ping":78},{"user_id":385,"name":"SGDS USMailman","steam_id":76561198068631543,"connected_time":614000000000,"state":"active","ping":95},{"user_id":310,"name":"PaC","steam_id":76561198081053203,"connected_time":6860000000000,"state":"active","ping":108},{"user_id":335,"name":"Romo","steam_id":76561198243101572,"connected_time":4946000000000,"state":"active","ping":78}]},{"server_id":108,"name":"Uncletopia | Dallas | 2 | All Maps","name_short":"dal-2","host":"dal-1.us.uncletopia.com","port":27025,"enabled":true,"region":"us-central","cc":"us","latitude":32.779167,"longitude":-96.80889,"reserved":0,"last_update":"0001-01-01T00:00:00Z","name_a2s":"Uncletopia | Dallas | 2 | All Maps","protocol":17,"map":"pl_barnblitz","folder":"tf","game":"Team Fortress","app_id":440,"player_count":24,"max_players":24,"Bots":0,"server_type":"Dedicated","server_os":"Linux","password":true,"vac":true,"version":"7757534","steam_id":85568392924469988,"keywords":["nocrits","nodmgspread","payload","uncletopia"],"game_id":440,"stv_port":27026,"stv_name":"Uncletopia | Dallas | 2 | All Maps | STV","players":[{"user_id":14,"name":"Swiggs","steam_id":76561198135015291,"connected_time":3415000000000,"state":"active","ping":67},{"user_id":32,"name":"Jerphf","steam_id":76561198328825964,"connected_time":1493000000000,"state":"active","ping":60},{"user_id":60,"name":"Jester","steam_id":76561198153102922,"connected_time":670000000000,"state":"active","ping":55},{"user_id":64,"name":"Blud walked 0 miles üò≠üò≠\ufffd\ufffd\ufffd","steam_id":76561199285074344,"connected_time":87000000000,"state":"active","ping":81},{"user_id":62,"name":"Biosock Infiknit","steam_id":76561198072693794,"connected_time":567000000000,"state":"active","ping":65},{"user_id":20,"name":"SeaBass","steam_id":76561197982949108,"connected_time":2787000000000,"state":"active","ping":80},{"user_id":25,"name":"OttoDogX","steam_id":76561198042007578,"connected_time":1673000000000,"state":"active","ping":60},{"user_id":43,"name":"VexT","steam_id":76561199471734115,"connected_time":1264000000000,"state":"active","ping":68},{"user_id":49,"name":"k3nny11","steam_id":76561198182533757,"connected_time":1232000000000,"state":"active","ping":70},{"user_id":28,"name":"SuperFresh","steam_id":76561198200723198,"connected_time":1641000000000,"state":"active","ping":58},{"user_id":52,"name":"Colonel Chikara","steam_id":76561198010021087,"connected_time":1166000000000,"state":"active","ping":85},{"user_id":33,"name":"mkl","steam_id":76561197986401685,"connected_time":1473000000000,"state":"active","ping":58},{"user_id":34,"name":"Crystallixed","steam_id":76561198072263515,"connected_time":1464000000000,"state":"active","ping":84},{"user_id":35,"name":"Legit_Jaxer","steam_id":76561198172234053,"connected_time":1458000000000,"state":"active","ping":104},{"user_id":36,"name":"UgandaFOREVER","steam_id":76561198175681322,"connected_time":1409000000000,"state":"active","ping":82},{"user_id":59,"name":"Bronze Age Furvert","steam_id":76561198859118263,"connected_time":1002000000000,"state":"active","ping":92},{"user_id":53,"name":"Korla","steam_id":76561198014229053,"connected_time":1109000000000,"state":"active","ping":111},{"user_id":41,"name":"consider shucking","steam_id":76561198042682297,"connected_time":1336000000000,"state":"active","ping":75},{"user_id":42,"name":"Teleporter  (Entrance, Level 3)","steam_id":76561198316927664,"connected_time":1333000000000,"state":"active","ping":106},{"user_id":54,"name":"gromit","steam_id":76561198037746805,"connected_time":1108000000000,"state":"active","ping":95},{"user_id":48,"name":"Bongle","steam_id":76561198170112811,"connected_time":1235000000000,"state":"active","ping":64},{"user_id":55,"name":"[PAYDAY 3 LOGO REVEAL]","steam_id":76561198002377726,"connected_time":1103000000000,"state":"active","ping":122},{"user_id":57,"name":"bitch","steam_id":76561198003344621,"connected_time":1076000000000,"state":"active","ping":99},{"user_id":63,"name":"Asanez3","steam_id":76561198037381436,"connected_time":531000000000,"state":"active","ping":89}]},{"server_id":5,"name":"Uncletopia | Frankfurt | 1 | All Maps","name_short":"frk-1","host":"frk-1.de.uncletopia.com","port":27015,"enabled":true,"region":"eu","cc":"de","latitude":50.110924,"longitude":8.682127,"reserved":0,"last_update":"0001-01-01T00:00:00Z","name_a2s":"Uncletopia | Frankfurt | 1 | All Maps","protocol":17,"map":"pl_barnblitz","folder":"tf","game":"Team Fortress","app_id":440,"player_count":24,"max_players":24,"Bots":0,"server_type":"Dedicated","server_os":"Linux","password":true,"vac":true,"version":"7757534","steam_id":85568392924469989,"keywords":["nocrits","nodmgspread","payload","uncletopia"],"game_id":440,"stv_port":27016,"stv_name":"Uncletopia | Frankfurt | 1 | All Maps | STV","players":[{"user_id":842,"name":"slippin jimmy","steam_id":76561198090788590,"connected_time":2236000000000,"state":"active","ping":46},{"user_id":827,"name":"BUREK od Sira","steam_id":76561198092589818,"connected_time":3408000000000,"state":"active","ping":63},{"user_id":824,"name":"Majami","steam_id":76561198054365738,"connected_time":3483000000000,"state":"active","ping":83},{"user_id":864,"name":"Tesla","steam_id":76561198378649144,"connected_time":818000000000,"state":"active","ping":47},{"user_id":861,"name":"justgvbe","steam_id":76561199193230375,"connected_time":1084000000000,"state":"active","ping":52},{"user_id":841,"name":"Saxophone","steam_id":76561198984346408,"connected_time":2427000000000,"state":"active","ping":69},{"user_id":843,"name":"Helon","steam_id":76561198050761682,"connected_time":1861000000000,"state":"active","ping":60},{"user_id":820,"name":"mohemmedmokhter2005","steam_id":76561199197650506,"connected_time":3592000000000,"state":"active","ping":128},{"user_id":866,"name":"Mr_Joergen","steam_id":76561198364713702,"connected_time":512000000000,"state":"active","ping":66},{"user_id":867,"name":"Vitamin Weee","steam_id":76561199183937747,"connected_time":190000000000,"state":"active","ping":76},{"user_id":856,"name":"REN","steam_id":76561198000596385,"connected_time":1287000000000,"state":"active","ping":72},{"user_id":849,"name":"stoppen","steam_id":76561197960281482,"connected_time":1676000000000,"state":"active","ping":71},{"user_id":831,"name":"asdqwer","steam_id":76561198058312220,"connected_time":3329000000000,"state":"active","ping":60},{"user_id":858,"name":"quickfast","steam_id":76561199438900919,"connected_time":1220000000000,"state":"active","ping":58},{"user_id":860,"name":"frosty","steam_id":76561198094560834,"connected_time":1181000000000,"state":"active","ping":60},{"user_id":863,"name":"Matteo Besho","steam_id":76561199159657855,"connected_time":884000000000,"state":"active","ping":64},{"user_id":835,"name":"FaZe Gabi","steam_id":76561198215250728,"connected_time":2870000000000,"state":"active","ping":70},{"user_id":846,"name":"Devil","steam_id":76561198129721935,"connected_time":1814000000000,"state":"active","ping":87},{"user_id":862,"name":"marshmallow","steam_id":76561198120166752,"connected_time":890000000000,"state":"active","ping":74},{"user_id":847,"name":"someone","steam_id":76561198377208758,"connected_time":1809000000000,"state":"active","ping":98},{"user_id":865,"name":"The tiniest boy","steam_id":76561198044165189,"connected_time":647000000000,"state":"active","ping":62},{"user_id":855,"name":"LOBZIK","steam_id":76561198114830120,"connected_time":1336000000000,"state":"active","ping":79},{"user_id":822,"name":"Bred Sheeran","steam_id":76561198045692016,"connected_time":3548000000000,"state":"active","ping":49},{"user_id":853,"name":"The Pestilence","steam_id":76561199081252282,"connected_time":1501000000000,"state":"active","ping":174}]},{"server_id":110,"name":"Uncletopia | Frankfurt | 2 | All Maps","name_short":"frk-2","host":"frk-1.de.uncletopia.com","port":27025,"enabled":true,"region":"eu","cc":"de","latitude":50.110924,"longitude":8.682127,"reserved":0,"last_update":"0001-01-01T00:00:00Z","name_a2s":"Uncletopia | Frankfurt | 2 | All Maps","protocol":17,"map":"pl_pier","folder":"tf","game":"Team Fortress","app_id":440,"player_count":24,"max_players":24,"Bots":0,"server_type":"Dedicated","server_os":"Linux","password":true,"vac":true,"version":"7757534","steam_id":85568392924469990,"keywords":["nocrits","nodmgspread","payload","uncletopia"],"game_id":440,"stv_port":27026,"stv_name":"Uncletopia | Frankfurt | 2 | All Maps | STV","players":[{"user_id":547,"name":"jovi_","steam_id":76561198449280552,"connected_time":541000000000,"state":"active","ping":69},{"user_id":541,"name":"cl","steam_id":76561199436640904,"connected_time":721000000000,"state":"active","ping":64},{"user_id":425,"name":"lvl. 50 honkler","steam_id":76561198061688660,"connected_time":3881000000000,"state":"active","ping":101},{"user_id":554,"name":"Oldworldjazz","steam_id":76561198184632645,"connected_time":61000000000,"state":"active","ping":80},{"user_id":548,"name":"Slav-matros","steam_id":76561198251977912,"connected_time":509000000000,"state":"active","ping":52},{"user_id":322,"name":"Kurage","steam_id":76561198021221288,"connected_time":7023000000000,"state":"active","ping":59},{"user_id":549,"name":"zuz","steam_id":76561199479080253,"connected_time":508000000000,"state":"active","ping":60},{"user_id":524,"name":"hichem","steam_id":76561198056197307,"connected_time":1325000000000,"state":"active","ping":52},{"user_id":421,"name":"Sebastian","steam_id":76561198199302394,"connected_time":4052000000000,"state":"active","ping":67},{"user_id":411,"name":"butts","steam_id":76561198060105180,"connected_time":4298000000000,"state":"active","ping":77},{"user_id":521,"name":"Dewotter","steam_id":76561198007653168,"connected_time":1838000000000,"state":"active","ping":74},{"user_id":518,"name":"VanillaWoof","steam_id":76561198158343951,"connected_time":2017000000000,"state":"active","ping":55},{"user_id":457,"name":"[P-roc] Cmm Bert","steam_id":76561198016658674,"connected_time":3067000000000,"state":"active","ping":87},{"user_id":552,"name":"‚ô¨ ·¥õ·¥á·¥ã…™·¥õ ‚ô¨","steam_id":76561198111704722,"connected_time":457000000000,"state":"active","ping":77},{"user_id":553,"name":"20BB Raxor","steam_id":76561198239927434,"connected_time":138000000000,"state":"active","ping":85},{"user_id":326,"name":"juckport","steam_id":76561198211967715,"connected_time":6790000000000,"state":"active","ping":98},{"user_id":328,"name":"Tre3","steam_id":76561198054795379,"connected_time":6753000000000,"state":"active","ping":60},{"user_id":540,"name":"pako","steam_id":76561198429046379,"connected_time":749000000000,"state":"active","ping":54},{"user_id":512,"name":"Gruby","steam_id":76561198879745824,"connected_time":2166000000000,"state":"active","ping":61},{"user_id":459,"name":"Chen","steam_id":76561198440363619,"connected_time":3043000000000,"state":"active","ping":51},{"user_id":436,"name":"MAKENTAKEN","steam_id":76561199127359587,"connected_time":3606000000000,"state":"active","ping":89},{"user_id":508,"name":"ricky pee pee","steam_id":76561198152620745,"connected_time":2209000000000,"state":"active","ping":73},{"user_id":551,"name":"Cookies and Bakies","steam_id":76561198017442928,"connected_time":469000000000,"state":"active","ping":69},{"user_id":441,"name":"[P-roc] Lovely","steam_id":76561198074361075,"connected_time":3441000000000,"state":"active","ping":79}]},{"server_id":308,"name":"Uncletopia | Frankfurt | 3 | All Maps","name_short":"frk-3","host":"frk-1.de.uncletopia.com","port":27035,"enabled":true,"region":"eu","cc":"de","latitude":50.110924,"longitude":8.682127,"reserved":0,"last_update":"0001-01-01T00:00:00Z","name_a2s":"Uncletopia | Frankfurt | 3 | All Maps","protocol":17,"map":"koth_king","folder":"tf","game":"Team Fortress","app_id":440,"player_count":24,"max_players":24,"Bots":0,"server_type":"Dedicated","server_os":"Linux","password":true,"vac":true,"version":"7757534","steam_id":85568392924504274,"keywords":["cp","nocrits","nodmgspread","uncletopia"],"game_id":440,"stv_port":27036,"stv_name":"Uncletopia | Frankfurt | 3 | All Maps | STV","players":[{"user_id":360,"name":"Gray","steam_id":76561198449128916,"connected_time":125000000000,"state":"active","ping":82},{"user_id":285,"name":"dotdotdot","steam_id":76561198057628751,"connected_time":3986000000000,"state":"active","ping":60},{"user_id":330,"name":"Olfrad","steam_id":76561198161763817,"connected_time":1927000000000,"state":"active","ping":47},{"user_id":329,"name":"Carrotcracker","steam_id":76561198034862396,"connected_time":2157000000000,"state":"active","ping":72},{"user_id":274,"name":"romos","steam_id":76561199123161420,"connected_time":4874000000000,"state":"active","ping":55},{"user_id":357,"name":"CarrotFlowers","steam_id":76561198154714698,"connected_time":211000000000,"state":"active","ping":52},{"user_id":345,"name":"Mercenary","steam_id":76561198965998351,"connected_time":507000000000,"state":"active","ping":57},{"user_id":361,"name":"Gaspar","steam_id":76561198290425716,"connected_time":122000000000,"state":"active","ping":67},{"user_id":305,"name":"nedilya","steam_id":76561198039692077,"connected_time":3155000000000,"state":"active","ping":52},{"user_id":338,"name":"Ewelinka Zniszczenia","steam_id":76561198307374456,"connected_time":1328000000000,"state":"active","ping":66},{"user_id":346,"name":"Nithle","steam_id":76561198025372740,"connected_time":483000000000,"state":"active","ping":50},{"user_id":324,"name":"Fabos","steam_id":76561199119843346,"connected_time":2489000000000,"state":"active","ping":75},{"user_id":362,"name":"jimjam707","steam_id":76561198023756261,"connected_time":121000000000,"state":"active","ping":59},{"user_id":354,"name":"diam","steam_id":76561198015364262,"connected_time":329000000000,"state":"active","ping":70},{"user_id":351,"name":"LemonLeCitron","steam_id":76561198215545267,"connected_time":343000000000,"state":"active","ping":71},{"user_id":347,"name":"DubiozaK","steam_id":76561199428701264,"connected_time":450000000000,"state":"active","ping":95},{"user_id":289,"name":"WW3 Enjoyer","steam_id":76561198042593027,"connected_time":3904000000000,"state":"active","ping":89},{"user_id":359,"name":"aphextwinsucks","steam_id":76561198132185926,"connected_time":166000000000,"state":"active","ping":60},{"user_id":350,"name":"Zenssei","steam_id":76561198209895623,"connected_time":350000000000,"state":"active","ping":102},{"user_id":356,"name":"Ronald Reagan","steam_id":76561198867589286,"connected_time":265000000000,"state":"active","ping":144},{"user_id":353,"name":"Harpenden, Harpenden, Harpenden","steam_id":76561198118138546,"connected_time":335000000000,"state":"active","ping":58},{"user_id":333,"name":"Steen","steam_id":76561198122992510,"connected_time":1680000000000,"state":"active","ping":51},{"user_id":355,"name":"the least schizo med main","steam_id":76561198048530109,"connected_time":322000000000,"state":"active","ping":61},{"user_id":283,"name":"Mari Christmas","steam_id":76561197997020707,"connected_time":4439000000000,"state":"active","ping":73}]},{"server_id":309,"name":"Uncletopia | Frankfurt | 4 | All Maps","name_short":"frk-4","host":"frk-1.de.uncletopia.com","port":27045,"enabled":true,"region":"eu","cc":"de","latitude":50.110924,"longitude":8.682127,"reserved":0,"last_update":"0001-01-01T00:00:00Z","name_a2s":"Uncletopia | Frankfurt | 4 | All Maps","protocol":17,"map":"pl_pier","folder":"tf","game":"Team Fortress","app_id":440,"player_count":24,"max_players":24,"Bots":0,"server_type":"Dedicated","server_os":"Linux","password":true,"vac":true,"version":"7757534","steam_id":85568392924504275,"keywords":["nocrits","nodmgspread","payload","uncletopia"],"game_id":440,"stv_port":27046,"stv_name":"Uncletopia | Frankfurt | 4 | All Maps | STV","players":[{"user_id":219,"name":"Michael","steam_id":76561198003146906,"connected_time":1130000000000,"state":"active","ping":60},{"user_id":232,"name":"Yrj√∂ Koskinen Yrj√∂-Koskinen","steam_id":76561198368181145,"connected_time":223000000000,"state":"active","ping":76},{"user_id":208,"name":"RudiPrico4","steam_id":76561199014381495,"connected_time":1974000000000,"state":"active","ping":46},{"user_id":181,"name":"Koby","steam_id":76561198118554071,"connected_time":4419000000000,"state":"active","ping":73},{"user_id":233,"name":"_Starlight_","steam_id":76561197993885738,"connected_time":218000000000,"state":"active","ping":85},{"user_id":221,"name":"maerd.","steam_id":76561198031942623,"connected_time":824000000000,"state":"active","ping":74},{"user_id":186,"name":"Predrag218","steam_id":76561199242439630,"connected_time":3553000000000,"state":"active","ping":121},{"user_id":195,"name":"mimi","steam_id":76561198060648946,"connected_time":3222000000000,"state":"active","ping":59},{"user_id":229,"name":"Lilliputt","steam_id":76561198090146457,"connected_time":381000000000,"state":"active","ping":59},{"user_id":226,"name":"Jonathan","steam_id":76561198087988880,"connected_time":617000000000,"state":"active","ping":55},{"user_id":187,"name":"Mza28","steam_id":76561198873993324,"connected_time":3517000000000,"state":"active","ping":79},{"user_id":217,"name":"Wattseyy","steam_id":76561198248567360,"connected_time":1217000000000,"state":"active","ping":53},{"user_id":224,"name":"Intake","steam_id":76561198034755432,"connected_time":790000000000,"state":"active","ping":87},{"user_id":151,"name":"Anonymous47007","steam_id":76561199005211417,"connected_time":5612000000000,"state":"active","ping":77},{"user_id":230,"name":"gaming","steam_id":76561198044461938,"connected_time":333000000000,"state":"active","ping":55},{"user_id":201,"name":"no. 1 lucki fan","steam_id":76561198022382969,"connected_time":2714000000000,"state":"active","ping":78},{"user_id":189,"name":"king251311","steam_id":76561199063310889,"connected_time":3449000000000,"state":"active","ping":83},{"user_id":228,"name":"Miton","steam_id":76561197970323209,"connected_time":573000000000,"state":"active","ping":82},{"user_id":65,"name":"Mr. Mietsch","steam_id":76561198077516818,"connected_time":12079000000000,"state":"active","ping":54},{"user_id":179,"name":"Syll","steam_id":76561198040736202,"connected_time":4527000000000,"state":"active","ping":100},{"user_id":223,"name":"rz-/Atomic Punch","steam_id":76561199195508541,"connected_time":808000000000,"state":"active","ping":83},{"user_id":225,"name":"Akio","steam_id":76561198197606282,"connected_time":743000000000,"state":"active","ping":59},{"user_id":234,"name":"Mighty Truck-sama","steam_id":76561198826861582,"connected_time":201000000000,"state":"active","ping":81},{"user_id":231,"name":"ErJu","steam_id":76561198106273165,"connected_time":238000000000,"state":"active","ping":71}]},{"server_id":310,"name":"Uncletopia | Frankfurt | 5 | All Maps","name_short":"frk-5","host":"frk-1.de.uncletopia.com","port":27055,"enabled":true,"region":"eu","cc":"de","latitude":50.110924,"longitude":8.682127,"reserved":0,"last_update":"0001-01-01T00:00:00Z","name_a2s":"Uncletopia | Frankfurt | 5 | All Maps","protocol":17,"map":"koth_viaduct","folder":"tf","game":"Team Fortress","app_id":440,"player_count":0,"max_players":24,"Bots":0,"server_type":"Dedicated","server_os":"Linux","password":true,"vac":true,"version":"7757534","steam_id":85568392924504277,"keywords":["cp","nocrits","nodmgspread","uncletopia"],"game_id":440,"stv_port":27056,"stv_name":"Uncletopia | Frankfurt | 5 | All Maps | STV","players":null},{"server_id":311,"name":"Uncletopia | Frankfurt | 6 | All Maps","name_short":"frk-6","host":"frk-1.de.uncletopia.com","port":27065,"enabled":true,"region":"eu","cc":"de","latitude":50.110924,"longitude":8.682127,"reserved":0,"last_update":"0001-01-01T00:00:00Z","name_a2s":"Uncletopia | Frankfurt | 6 | All Maps","protocol":17,"map":"pl_pier","folder":"tf","game":"Team Fortress","app_id":440,"player_count":24,"max_players":24,"Bots":0,"server_type":"Dedicated","server_os":"Linux","password":true,"vac":true,"version":"7757534","steam_id":85568392924504278,"keywords":["nocrits","nodmgspread","payload","uncletopia"],"game_id":440,"stv_port":27066,"stv_name":"Uncletopia | Frankfurt | 6 | All Maps | STV","players":[{"user_id":542,"name":"will uber light classes","steam_id":76561198117033273,"connected_time":447000000000,"state":"active","ping":63},{"user_id":540,"name":"Charles Darwin","steam_id":76561197973496139,"connected_time":555000000000,"state":"active","ping":60},{"user_id":537,"name":"—Ç–æ–ª—è","steam_id":76561199098518615,"connected_time":827000000000,"state":"active","ping":75},{"user_id":522,"name":"DreadAngel","steam_id":76561198049357836,"connected_time":1480000000000,"state":"active","ping":72},{"user_id":520,"name":"hananamanna","steam_id":76561198006570285,"connected_time":1519000000000,"state":"active","ping":107},{"user_id":530,"name":"JK_Kosta","steam_id":76561198435632368,"connected_time":1308000000000,"state":"active","ping":63},{"user_id":473,"name":"Chromega","steam_id":76561199075307750,"connected_time":4359000000000,"state":"active","ping":56},{"user_id":519,"name":"‡∂ûbominasus 2137  #SaveTF2","steam_id":76561198030062981,"connected_time":1531000000000,"state":"active","ping":68},{"user_id":547,"name":"FoOzTV","steam_id":76561197998636728,"connected_time":197000000000,"state":"active","ping":73},{"user_id":485,"name":"Pixie","steam_id":76561198044038797,"connected_time":3877000000000,"state":"active","ping":84},{"user_id":541,"name":"tob:ias","steam_id":76561198832146626,"connected_time":511000000000,"state":"active","ping":45},{"user_id":487,"name":"Raymus","steam_id":76561198021330407,"connected_time":3796000000000,"state":"active","ping":67},{"user_id":502,"name":"‚ú™ m_br3","steam_id":76561198044981990,"connected_time":2790000000000,"state":"active","ping":63},{"user_id":550,"name":"‚ìÇ‚ìá‚ìä‚ìå‚ìÄ‚ìÑ‚íø‚í∂‚íπ","steam_id":76561198341896223,"connected_time":33000000000,"state":"active","ping":86},{"user_id":533,"name":"snovi","steam_id":76561198984436595,"connected_time":1250000000000,"state":"active","ping":73},{"user_id":548,"name":"lol","steam_id":76561198104438656,"connected_time":141000000000,"state":"active","ping":62},{"user_id":544,"name":"Thingamabob inventor","steam_id":76561198146180114,"connected_time":285000000000,"state":"active","ping":91},{"user_id":516,"name":"darke","steam_id":76561198211553036,"connected_time":1835000000000,"state":"active","ping":78},{"user_id":505,"name":"Udinese Dion","steam_id":76561198067931573,"connected_time":2690000000000,"state":"active","ping":53},{"user_id":525,"name":"HwK!","steam_id":76561198287835588,"connected_time":1435000000000,"state":"active","ping":89},{"user_id":543,"name":"Datenegassie","steam_id":76561198089417032,"connected_time":423000000000,"state":"active","ping":68},{"user_id":538,"name":"Sirzen","steam_id":76561198170155434,"connected_time":630000000000,"state":"active","ping":46},{"user_id":549,"name":"ùî±ùî¥ùî≤ùîßùî∞ùî±ùîû\ufffd\ufffd\ufffd","steam_id":76561198155944450,"connected_time":71000000000,"state":"active","ping":117},{"user_id":526,"name":"Oxitocin","steam_id":76561198119542899,"connected_time":1429000000000,"state":"active","ping":75}]},{"server_id":23,"name":"Uncletopia | Frankfurt | 7 | Stopwatch Beta","name_short":"frk-7","host":"frk-1.de.uncletopia.com","port":27075,"enabled":true,"region":"eu","cc":"de","latitude":50.110924,"longitude":8.682127,"reserved":0,"last_update":"0001-01-01T00:00:00Z","name_a2s":"Uncletopia | Frankfurt | 7 | Stopwatch Beta","protocol":17,"map":"workshop/koth_ramjam_rc1.ugc459778887","folder":"tf","game":"Team Fortress","app_id":440,"player_count":0,"max_players":24,"Bots":0,"server_type":"Dedicated","server_os":"Linux","password":true,"vac":true,"version":"7757534","steam_id":85568392924742827,"keywords":["cp","nocrits","nodmgspread","uncletopia"],"game_id":440,"stv_port":27076,"stv_name":"Uncletopia | Frankfurt | 7 | Stopwatch Beta | STV","players":null},{"server_id":24,"name":"Uncletopia | Frankfurt | 8 | Community","name_short":"frk-8","host":"frk-1.de.uncletopia.com","port":27085,"enabled":true,"region":"eu","cc":"de","latitude":50.110924,"longitude":8.682127,"reserved":0,"last_update":"0001-01-01T00:00:00Z","name_a2s":"Uncletopia | Frankfurt | 8 | Community","protocol":17,"map":"workshop/pl_badwater_pro_v12.ugc2142942074","folder":"tf","game":"Team Fortress","app_id":440,"player_count":24,"max_players":24,"Bots":0,"server_type":"Dedicated","server_os":"Linux","password":true,"vac":true,"version":"7757534","steam_id":85568392924742828,"keywords":["nocrits","nodmgspread","payload","uncletopia"],"game_id":440,"stv_port":27086,"stv_name":"Uncletopia | Frankfurt | 8 | Community | STV","players":[{"user_id":47,"name":"Valke","steam_id":76561198152898538,"connected_time":2536000000000,"state":"active","ping":61},{"user_id":88,"name":"Keks","steam_id":76561198109155202,"connected_time":922000000000,"state":"active","ping":61},{"user_id":46,"name":":\u003ezem","steam_id":76561198864329072,"connected_time":2563000000000,"state":"active","ping":84},{"user_id":81,"name":"(can't chat)mafutbolero","steam_id":76561199233664005,"connected_time":1469000000000,"state":"active","ping":78},{"user_id":84,"name":"PolygoN_","steam_id":76561198058151016,"connected_time":1354000000000,"state":"active","ping":53},{"user_id":60,"name":"MK-Ultra Violence","steam_id":76561198081328238,"connected_time":2113000000000,"state":"active","ping":75},{"user_id":90,"name":"Setter Ball Gaul","steam_id":76561198130427881,"connected_time":912000000000,"state":"active","ping":151},{"user_id":102,"name":"Zembis","steam_id":76561198008017918,"connected_time":43000000000,"state":"active","ping":96},{"user_id":103,"name":"nyanezt","steam_id":76561198253734265,"connected_time":43000000000,"state":"active","ping":90},{"user_id":44,"name":"Daikon","steam_id":76561198044017083,"connected_time":2578000000000,"state":"active","ping":72},{"user_id":48,"name":"mud","steam_id":76561198141497461,"connected_time":2471000000000,"state":"active","ping":64},{"user_id":49,"name":"dum","steam_id":76561198053386482,"connected_time":2461000000000,"state":"active","ping":156},{"user_id":53,"name":"fifrok","steam_id":76561198799267621,"connected_time":2308000000000,"state":"active","ping":74},{"user_id":104,"name":"city of stars","steam_id":76561198101292843,"connected_time":6000000000,"state":"spawning","ping":76},{"user_id":92,"name":"DelT","steam_id":76561198204007537,"connected_time":909000000000,"state":"active","ping":58},{"user_id":96,"name":"GMsU | AuxiliusM","steam_id":76561198071903356,"connected_time":703000000000,"state":"active","ping":39},{"user_id":100,"name":"acuifex","steam_id":76561198106266513,"connected_time":202000000000,"state":"active","ping":75},{"user_id":56,"name":"John Warsaw","steam_id":76561198076661772,"connected_time":2219000000000,"state":"active","ping":89},{"user_id":71,"name":"Carol Olston","steam_id":76561198080257273,"connected_time":1653000000000,"state":"active","ping":59},{"user_id":101,"name":"Edla","steam_id":76561198062815315,"connected_time":179000000000,"state":"active","ping":109},{"user_id":99,"name":"I.C. Wiener","steam_id":76561197999912254,"connected_time":363000000000,"state":"active","ping":85},{"user_id":95,"name":"Technic","steam_id":76561198128096130,"connected_time":891000000000,"state":"active","ping":55},{"user_id":79,"name":"ToniGAM3S","steam_id":76561198128605351,"connected_time":1514000000000,"state":"active","ping":60},{"user_id":80,"name":"Nugget","steam_id":76561198338916407,"connected_time":1495000000000,"state":"active","ping":81}]},{"server_id":202,"name":"Uncletopia | Hong Kong | 1 | All Maps","name_short":"hgk-1","host":"hgk-1.hk.uncletopia.com","port":27015,"enabled":true,"region":"asia","cc":"hk","latitude":22.302711,"longitude":114.177216,"reserved":0,"last_update":"0001-01-01T00:00:00Z","name_a2s":"Uncletopia | Hong Kong | 1 | All Maps","protocol":17,"map":"koth_highpass","folder":"tf","game":"Team Fortress","app_id":440,"player_count":0,"max_players":24,"Bots":0,"server_type":"Dedicated","server_os":"Linux","password":true,"vac":true,"version":"7757534","steam_id":85568392924494504,"keywords":["cp","nocrits","nodmgspread","uncletopia"],"game_id":440,"stv_port":27016,"stv_name":"Uncletopia | Hong Kong | 1 | All Maps | STV","players":null},{"server_id":1,"name":"Uncletopia | Los Angeles | 1 | All Maps","name_short":"lax-1","host":"lax-1.us.uncletopia.com","port":27015,"enabled":true,"region":"us-west","cc":"us","latitude":33.94279,"longitude":-118.41004,"reserved":0,"last_update":"0001-01-01T00:00:00Z","name_a2s":"Uncletopia | Los Angeles | 1 | All Maps","protocol":17,"map":"koth_lakeside_final","folder":"tf","game":"Team Fortress","app_id":440,"player_count":0,"max_players":24,"Bots":0,"server_type":"Dedicated","server_os":"Linux","password":true,"vac":true,"version":"7757534","steam_id":85568392924469991,"keywords":["cp","nocrits","nodmgspread","uncletopia"],"game_id":440,"stv_port":27016,"stv_name":"Uncletopia | Los Angeles | 1 | All Maps | STV","players":null},{"server_id":112,"name":"Uncletopia | Los Angeles | 2 | All Maps","name_short":"lax-2","host":"lax-1.us.uncletopia.com","port":27025,"enabled":true,"region":"us-west","cc":"us","latitude":33.94279,"longitude":-118.41004,"reserved":0,"last_update":"0001-01-01T00:00:00Z","name_a2s":"Uncletopia | Los Angeles | 2 | All Maps","protocol":17,"map":"pl_pier","folder":"tf","game":"Team Fortress","app_id":440,"player_count":24,"max_players":24,"Bots":0,"server_type":"Dedicated","server_os":"Linux","password":true,"vac":true,"version":"7757534","steam_id":85568392924469992,"keywords":["nocrits","nodmgspread","payload","uncletopia"],"game_id":440,"stv_port":27026,"stv_name":"Uncletopia | Los Angeles | 2 | All Maps | STV","players":[{"user_id":5,"name":"weedmaster","steam_id":76561199012869095,"connected_time":2034000000000,"state":"active","ping":110},{"user_id":6,"name":"Badwater's Mechanic","steam_id":76561199027981643,"connected_time":1633000000000,"state":"active","ping":101},{"user_id":37,"name":"[DEEP] offrow","steam_id":76561198123596791,"connected_time":97000000000,"state":"active","ping":45},{"user_id":14,"name":"mrthugpug1732","steam_id":76561198881200768,"connected_time":1067000000000,"state":"active","ping":68},{"user_id":36,"name":"a chicken","steam_id":76561198313121580,"connected_time":121000000000,"state":"active","ping":45},{"user_id":16,"name":"goongremlin","steam_id":76561198278196215,"connected_time":970000000000,"state":"active","ping":58},{"user_id":11,"name":"BrightOrangeMango","steam_id":76561198023144607,"connected_time":1183000000000,"state":"active","ping":62},{"user_id":23,"name":"Cosmic Visor","steam_id":76561197990817172,"connected_time":355000000000,"state":"active","ping":111},{"user_id":19,"name":"ccardenaz29","steam_id":76561199430657783,"connected_time":591000000000,"state":"active","ping":51},{"user_id":20,"name":"Shalom","steam_id":76561198410005222,"connected_time":486000000000,"state":"active","ping":74},{"user_id":21,"name":"Elroy Spark / Cave","steam_id":76561198071776428,"connected_time":420000000000,"state":"active","ping":54},{"user_id":22,"name":"johnman gooberguy","steam_id":76561199014859764,"connected_time":394000000000,"state":"active","ping":71},{"user_id":24,"name":"Holt","steam_id":76561198055512742,"connected_time":354000000000,"state":"active","ping":58},{"user_id":25,"name":"Paragon","steam_id":76561198274263793,"connected_time":350000000000,"state":"active","ping":115},{"user_id":26,"name":"Static_Magmafox","steam_id":76561198929327807,"connected_time":327000000000,"state":"active","ping":113},{"user_id":27,"name":"Mr. Dick‚Ñ¢","steam_id":76561198047309044,"connected_time":300000000000,"state":"active","ping":83},{"user_id":28,"name":"Jimmy Johns Stupid Sandwich","steam_id":76561198143443816,"connected_time":238000000000,"state":"active","ping":75},{"user_id":29,"name":"Phobz","steam_id":76561198060409081,"connected_time":197000000000,"state":"active","ping":69},{"user_id":30,"name":"accela","steam_id":76561198195787682,"connected_time":181000000000,"state":"active","ping":81},{"user_id":31,"name":"carrion goat","steam_id":76561198262064871,"connected_time":168000000000,"state":"active","ping":97},{"user_id":32,"name":"ploopy","steam_id":76561198087862706,"connected_time":164000000000,"state":"active","ping":99},{"user_id":33,"name":"Pinder","steam_id":76561198176708643,"connected_time":160000000000,"state":"active","ping":97},{"user_id":34,"name":"Rhutebeer","steam_id":76561198018302761,"connected_time":152000000000,"state":"active","ping":113},{"user_id":35,"name":"mumbles","steam_id":76561197994528974,"connected_time":152000000000,"state":"active","ping":105}]},{"server_id":324,"name":"Uncletopia | Los Angeles | 3 | All Maps","name_short":"lax-3","host":"lax-1.us.uncletopia.com","port":27035,"enabled":true,"region":"us-west","cc":"us","latitude":33.94279,"longitude":-118.41004,"reserved":0,"last_update":"0001-01-01T00:00:00Z","name_a2s":"Uncletopia | Los Angeles | 3 | All Maps","protocol":17,"map":"pl_barnblitz","folder":"tf","game":"Team Fortress","app_id":440,"player_count":0,"max_players":24,"Bots":0,"server_type":"Dedicated","server_os":"Linux","password":true,"vac":true,"version":"7757534","steam_id":85568392924510198,"keywords":["nocrits","nodmgspread","payload","uncletopia"],"game_id":440,"stv_port":27036,"stv_name":"Uncletopia | Los Angeles | 3 | All Maps | STV","players":null},{"server_id":25,"name":"Uncletopia | Los Angeles | 4 | Stopwatch Beta","name_short":"lax-4","host":"lax-1.us.uncletopia.com","port":27045,"enabled":true,"region":"us-west","cc":"us","latitude":33.94279,"longitude":-118.41004,"reserved":0,"last_update":"0001-01-01T00:00:00Z","name_a2s":"Uncletopia | Los Angeles | 4 | Stopwatch Beta","protocol":17,"map":"pl_swiftwater_final1","folder":"tf","game":"Team Fortress","app_id":440,"player_count":0,"max_players":24,"Bots":0,"server_type":"Dedicated","server_os":"Linux","password":true,"vac":true,"version":"7757534","steam_id":85568392924510199,"keywords":["nocrits","nodmgspread","payload","uncletopia"],"game_id":440,"stv_port":27046,"stv_name":"Uncletopia | Los Angeles | 4 | Stopwatch Beta | STV","players":null},{"server_id":11,"name":"Uncletopia | London | 1 | All Maps","name_short":"lon-1","host":"lon-1.uk.uncletopia.com","port":27015,"enabled":true,"region":"eu","cc":"gb","latitude":51.509865,"longitude":-0.118092,"reserved":0,"last_update":"0001-01-01T00:00:00Z","name_a2s":"Uncletopia | London | 1 | All Maps","protocol":17,"map":"pl_upward","folder":"tf","game":"Team Fortress","app_id":440,"player_count":24,"max_players":24,"Bots":0,"server_type":"Dedicated","server_os":"Linux","password":true,"vac":true,"version":"7757534","steam_id":85568392924367362,"keywords":["nocrits","nodmgspread","payload","uncletopia"],"game_id":440,"stv_port":27016,"stv_name":"Uncletopia | London | 1 | All Maps | STV","players":[{"user_id":526,"name":"ppprc","steam_id":76561199100663886,"connected_time":2201000000000,"state":"active","ping":106},{"user_id":364,"name":"sinologist","steam_id":76561198080912087,"connected_time":16453000000000,"state":"active","ping":65},{"user_id":530,"name":"twitch.tv/awoolensleevelet","steam_id":76561198051476520,"connected_time":2148000000000,"state":"active","ping":60},{"user_id":310,"name":"i am not schizophrenic","steam_id":76561198079277466,"connected_time":20263000000000,"state":"active","ping":60},{"user_id":535,"name":"soofoul","steam_id":76561198285862099,"connected_time":1784000000000,"state":"active","ping":32},{"user_id":468,"name":"killer of noob, winner of game","steam_id":76561198190583242,"connected_time":8798000000000,"state":"active","ping":74},{"user_id":539,"name":"robsan","steam_id":76561198137375391,"connected_time":1439000000000,"state":"active","ping":77},{"user_id":531,"name":"Qpangfire","steam_id":76561198094354139,"connected_time":2135000000000,"state":"active","ping":45},{"user_id":544,"name":"LemonZEF","steam_id":76561198411262628,"connected_time":853000000000,"state":"active","ping":132},{"user_id":540,"name":"Kretur","steam_id":76561198161086266,"connected_time":1365000000000,"state":"active","ping":103},{"user_id":547,"name":"rng","steam_id":76561198436059214,"connected_time":157000000000,"state":"active","ping":38},{"user_id":502,"name":"AidenQG","steam_id":76561198864678536,"connected_time":4250000000000,"state":"active","ping":66},{"user_id":338,"name":"aibohpsnart","steam_id":76561198168207306,"connected_time":17815000000000,"state":"active","ping":92},{"user_id":548,"name":"aGryphoN","steam_id":76561198245175308,"connected_time":90000000000,"state":"active","ping":54},{"user_id":490,"name":"Ocelot","steam_id":76561198263386006,"connected_time":5376000000000,"state":"active","ping":112},{"user_id":546,"name":"cantsniff","steam_id":76561198259668029,"connected_time":251000000000,"state":"active","ping":49},{"user_id":543,"name":"WiiSportKing","steam_id":76561198114139081,"connected_time":873000000000,"state":"active","ping":58},{"user_id":542,"name":".CRIMINAL","steam_id":76561198413545609,"connected_time":931000000000,"state":"active","ping":48},{"user_id":538,"name":"doas.conf","steam_id":76561198290817537,"connected_time":1522000000000,"state":"active","ping":86},{"user_id":537,"name":"Vector","steam_id":76561198084693440,"connected_time":1630000000000,"state":"active","ping":61},{"user_id":527,"name":"bonk","steam_id":76561198953939723,"connected_time":2200000000000,"state":"active","ping":110},{"user_id":518,"name":"Jinx my beloved","steam_id":76561198819986745,"connected_time":3157000000000,"state":"active","ping":110},{"user_id":532,"name":"Een schaap zonder slaap","steam_id":76561198084808410,"connected_time":2131000000000,"state":"active","ping":60},{"user_id":549,"name":"Finn","steam_id":76561198112456809,"connected_time":59000000000,"state":"active","ping":77}]},{"server_id":114,"name":"Uncletopia | London | 2 | All Maps","name_short":"lon-2","host":"lon-1.uk.uncletopia.com","port":27025,"enabled":true,"region":"eu","cc":"gb","latitude":51.509865,"longitude":-0.118092,"reserved":0,"last_update":"0001-01-01T00:00:00Z","name_a2s":"Uncletopia | London | 2 | All Maps","protocol":17,"map":"koth_cascade","folder":"tf","game":"Team Fortress","app_id":440,"player_count":24,"max_players":24,"Bots":0,"server_type":"Dedicated","server_os":"Linux","password":true,"vac":true,"version":"7757534","steam_id":85568392924470941,"keywords":["cp","nocrits","nodmgspread","uncletopia"],"game_id":440,"stv_port":27026,"stv_name":"Uncletopia | London | 2 | All Maps | STV","players":[{"user_id":401,"name":"JoltStryke","steam_id":76561198072955299,"connected_time":1325000000000,"state":"active","ping":61},{"user_id":406,"name":"Madmoose96","steam_id":76561198081888486,"connected_time":1134000000000,"state":"active","ping":72},{"user_id":400,"name":"Koli","steam_id":76561197992428783,"connected_time":1337000000000,"state":"active","ping":60},{"user_id":384,"name":"Tort","steam_id":76561198329646769,"connected_time":2505000000000,"state":"active","ping":61},{"user_id":385,"name":"do not google Gay porn","steam_id":76561198418538887,"connected_time":2426000000000,"state":"active","ping":101},{"user_id":415,"name":"FlukeY","steam_id":76561198026137327,"connected_time":51000000000,"state":"active","ping":64},{"user_id":409,"name":"‚ô• trixy ‚ô•","steam_id":76561199474154775,"connected_time":1012000000000,"state":"active","ping":56},{"user_id":398,"name":"Nope.avi","steam_id":76561198396687651,"connected_time":1618000000000,"state":"active","ping":91},{"user_id":356,"name":"Ichbaplaya","steam_id":76561198152701211,"connected_time":4444000000000,"state":"active","ping":75},{"user_id":383,"name":"Princess Peach","steam_id":76561198260272240,"connected_time":2576000000000,"state":"active","ping":51},{"user_id":313,"name":"Welder","steam_id":76561198355300561,"connected_time":7693000000000,"state":"active","ping":70},{"user_id":351,"name":"Johan","steam_id":76561199380849468,"connected_time":4942000000000,"state":"active","ping":60},{"user_id":305,"name":"Fat Pigeon","steam_id":76561198817940142,"connected_time":8435000000000,"state":"active","ping":45},{"user_id":402,"name":"please stop cl_interping bruh","steam_id":76561199116696395,"connected_time":1313000000000,"state":"active","ping":46},{"user_id":403,"name":"KnugenIV","steam_id":76561198127091993,"connected_time":1309000000000,"state":"active","ping":60},{"user_id":413,"name":"MARCEL","steam_id":76561198083122029,"connected_time":874000000000,"state":"active","ping":120},{"user_id":372,"name":"Gbus","steam_id":76561198072335838,"connected_time":3608000000000,"state":"active","ping":54},{"user_id":405,"name":"Sneikijs","steam_id":76561198052549308,"connected_time":1287000000000,"state":"active","ping":54},{"user_id":358,"name":"Keittokapteeni","steam_id":76561198271579939,"connected_time":4368000000000,"state":"active","ping":87},{"user_id":363,"name":"Circular","steam_id":76561198001536710,"connected_time":4160000000000,"state":"active","ping":51},{"user_id":396,"name":"Roachy","steam_id":76561198004508448,"connected_time":1753000000000,"state":"active","ping":45},{"user_id":333,"name":"fearlessbot","steam_id":76561199002587064,"connected_time":6629000000000,"state":"active","ping":58},{"user_id":379,"name":"agony","steam_id":76561199192434258,"connected_time":2710000000000,"state":"active","ping":93}]},{"server_id":320,"name":"Uncletopia | London | 3 | All Maps","name_short":"lon-3","host":"lon-1.uk.uncletopia.com","port":27035,"enabled":true,"region":"eu","cc":"gb","latitude":51.509865,"longitude":-0.118092,"reserved":0,"last_update":"0001-01-01T00:00:00Z","name_a2s":"Uncletopia | London | 3 | All Maps","protocol":17,"map":"ctf_well","folder":"tf","game":"Team Fortress","app_id":440,"player_count":24,"max_players":24,"Bots":0,"server_type":"Dedicated","server_os":"Linux","password":true,"vac":true,"version":"7757534","steam_id":85568392924510192,"keywords":["ctf","nocrits","nodmgspread","uncletopia"],"game_id":440,"stv_port":27036,"stv_name":"Uncletopia | London | 3 | All Maps | STV","players":[{"user_id":525,"name":"SmoothJazz","steam_id":76561198143044358,"connected_time":1938000000000,"state":"active","ping":74},{"user_id":559,"name":"Harrison256","steam_id":76561198078975210,"connected_time":181000000000,"state":"active","ping":55},{"user_id":526,"name":"Utvar","steam_id":76561198131838460,"connected_time":1889000000000,"state":"active","ping":54},{"user_id":516,"name":"Tegnerud","steam_id":76561198214185612,"connected_time":2869000000000,"state":"active","ping":77},{"user_id":522,"name":"Sippie","steam_id":76561198130393388,"connected_time":2170000000000,"state":"active","ping":67},{"user_id":527,"name":"Gozzer","steam_id":76561197984155185,"connected_time":1835000000000,"state":"active","ping":69},{"user_id":564,"name":"crowo","steam_id":76561198271660240,"connected_time":114000000000,"state":"active","ping":74},{"user_id":560,"name":"Monara12th","steam_id":76561199478607360,"connected_time":181000000000,"state":"active","ping":56},{"user_id":488,"name":"Lyncurion","steam_id":76561199260022725,"connected_time":4734000000000,"state":"active","ping":84},{"user_id":563,"name":"cynical","steam_id":76561198322518169,"connected_time":141000000000,"state":"active","ping":78},{"user_id":547,"name":"8 Ball","steam_id":76561197960988736,"connected_time":944000000000,"state":"active","ping":44},{"user_id":553,"name":"k.piano","steam_id":76561198199729461,"connected_time":373000000000,"state":"active","ping":49},{"user_id":552,"name":"Sigmund Fraude","steam_id":76561198072093365,"connected_time":495000000000,"state":"active","ping":52},{"user_id":397,"name":"Sn1perK1ng","steam_id":76561198128065329,"connected_time":10148000000000,"state":"active","ping":55},{"user_id":562,"name":"The Pisszard¬∞","steam_id":76561198103343210,"connected_time":153000000000,"state":"active","ping":82},{"user_id":557,"name":"YBOT554","steam_id":76561198836830645,"connected_time":189000000000,"state":"active","ping":45},{"user_id":555,"name":"KHGC","steam_id":76561199084927578,"connected_time":291000000000,"state":"active","ping":143},{"user_id":515,"name":"GazerBazer","steam_id":76561198879107565,"connected_time":2894000000000,"state":"active","ping":60},{"user_id":511,"name":"Raldow","steam_id":76561198021389301,"connected_time":3152000000000,"state":"active","ping":59},{"user_id":533,"name":"Êó•Êú¨Ë™û „Åå Â•Ω„Åç","steam_id":76561199143890639,"connected_time":1756000000000,"state":"active","ping":129},{"user_id":537,"name":"Stayprone","steam_id":76561197963491785,"connected_time":1694000000000,"state":"active","ping":71},{"user_id":556,"name":"Danin Civilnetworks.net","steam_id":76561198197542067,"connected_time":287000000000,"state":"active","ping":96},{"user_id":538,"name":"/ff bouseux","steam_id":76561198095238286,"connected_time":1687000000000,"state":"active","ping":46},{"user_id":496,"name":"Clovis","steam_id":76561198076881381,"connected_time":4571000000000,"state":"active","ping":72}]},{"server_id":321,"name":"Uncletopia | London | 4 | All Maps","name_short":"lon-4","host":"lon-1.uk.uncletopia.com","port":27045,"enabled":true,"region":"eu","cc":"gb","latitude":51.509865,"longitude":-0.118092,"reserved":0,"last_update":"0001-01-01T00:00:00Z","name_a2s":"Uncletopia | London | 4 | All Maps","protocol":17,"map":"pl_pier","folder":"tf","game":"Team Fortress","app_id":440,"player_count":11,"max_players":24,"Bots":0,"server_type":"Dedicated","server_os":"Linux","password":true,"vac":true,"version":"7757534","steam_id":85568392924510193,"keywords":["nocrits","nodmgspread","payload","uncletopia"],"game_id":440,"stv_port":27046,"stv_name":"Uncletopia | London | 4 | All Maps | STV","players":[{"user_id":46,"name":"dogs","steam_id":76561198068683174,"connected_time":1154000000000,"state":"active","ping":50},{"user_id":47,"name":"toin","steam_id":76561198086751010,"connected_time":1142000000000,"state":"active","ping":55},{"user_id":48,"name":"villainous_bean","steam_id":76561198084578847,"connected_time":1104000000000,"state":"active","ping":140},{"user_id":49,"name":"TOG II*","steam_id":76561197993906091,"connected_time":767000000000,"state":"active","ping":45},{"user_id":50,"name":"juntao","steam_id":76561198363882056,"connected_time":517000000000,"state":"active","ping":30},{"user_id":51,"name":"Frederick","steam_id":76561198344445693,"connected_time":395000000000,"state":"active","ping":72},{"user_id":52,"name":"Glitch","steam_id":76561198309789756,"connected_time":136000000000,"state":"active","ping":75},{"user_id":53,"name":"Lethal","steam_id":76561198452042648,"connected_time":122000000000,"state":"active","ping":73},{"user_id":55,"name":"leloraps","steam_id":76561199434036706,"connected_time":64000000000,"state":"active","ping":154},{"user_id":56,"name":"Baron von bacon","steam_id":76561199126182307,"connected_time":13000000000,"state":"spawning","ping":87},{"user_id":57,"name":"LiterallyRyanGosling","steam_id":76561199017856691,"connected_time":9000000000,"state":"active","ping":138}]},{"server_id":21,"name":"Uncletopia | London | 5 | All Maps","name_short":"lon-5","host":"lon-1.uk.uncletopia.com","port":27055,"enabled":true,"region":"eu","cc":"gb","latitude":51.509865,"longitude":-0.118092,"reserved":0,"last_update":"0001-01-01T00:00:00Z","name_a2s":"Uncletopia | London | 5 | All Maps","protocol":17,"map":"pl_badwater","folder":"tf","game":"Team Fortress","app_id":440,"player_count":24,"max_players":24,"Bots":0,"server_type":"Dedicated","server_os":"Linux","password":true,"vac":true,"version":"7757534","steam_id":85568392924742829,"keywords":["nocrits","nodmgspread","payload","uncletopia"],"game_id":440,"stv_port":27056,"stv_name":"Uncletopia | London | 5 | All Maps | STV","players":[{"user_id":275,"name":"Tomo -∆í$-","steam_id":76561199015097595,"connected_time":3395000000000,"state":"active","ping":46},{"user_id":307,"name":"Kneh","steam_id":76561198121744739,"connected_time":600000000000,"state":"active","ping":73},{"user_id":202,"name":"Sal","steam_id":76561198079290898,"connected_time":7363000000000,"state":"active","ping":54},{"user_id":293,"name":"CiVillain","steam_id":76561198059617732,"connected_time":1997000000000,"state":"active","ping":72},{"user_id":279,"name":"avenje","steam_id":76561198155824845,"connected_time":3105000000000,"state":"active","ping":141},{"user_id":308,"name":"Burpman","steam_id":76561198022897937,"connected_time":559000000000,"state":"active","ping":46},{"user_id":304,"name":"Enda","steam_id":76561198202980164,"connected_time":625000000000,"state":"active","ping":88},{"user_id":309,"name":"Purplish","steam_id":76561198006393993,"connected_time":536000000000,"state":"active","ping":46},{"user_id":270,"name":"The Daniella","steam_id":76561198023075547,"connected_time":3845000000000,"state":"active","ping":63},{"user_id":301,"name":"Nakamyzz","steam_id":76561199253667238,"connected_time":873000000000,"state":"active","ping":73},{"user_id":310,"name":"AJsurfer","steam_id":76561198897045252,"connected_time":499000000000,"state":"active","ping":131},{"user_id":237,"name":"blazeeight","steam_id":76561198159456502,"connected_time":5244000000000,"state":"active","ping":49},{"user_id":303,"name":"Butterz","steam_id":76561198408184830,"connected_time":747000000000,"state":"active","ping":108},{"user_id":315,"name":"pancake toaster","steam_id":76561198799089628,"connected_time":450000000000,"state":"active","ping":44},{"user_id":312,"name":"RandomName","steam_id":76561198055552108,"connected_time":474000000000,"state":"active","ping":59},{"user_id":313,"name":"port :o3","steam_id":76561198059151809,"connected_time":472000000000,"state":"active","ping":74},{"user_id":300,"name":"generic alias","steam_id":76561198271607226,"connected_time":1016000000000,"state":"active","ping":100},{"user_id":290,"name":"racism","steam_id":76561199126154762,"connected_time":2093000000000,"state":"active","ping":76},{"user_id":285,"name":"Voks_","steam_id":76561198159687785,"connected_time":2495000000000,"state":"active","ping":72},{"user_id":314,"name":"Borat","steam_id":76561198122226417,"connected_time":468000000000,"state":"active","ping":46},{"user_id":316,"name":"I have a dream... mrNiceguy","steam_id":76561198053176402,"connected_time":437000000000,"state":"active","ping":88},{"user_id":318,"name":"Hearny","steam_id":76561198015413751,"connected_time":434000000000,"state":"active","ping":62},{"user_id":319,"name":"Tom","steam_id":76561198005899912,"connected_time":406000000000,"state":"active","ping":55},{"user_id":276,"name":"Luk3","steam_id":76561198340519063,"connected_time":3367000000000,"state":"active","ping":63}]},{"server_id":22,"name":"Uncletopia | London | 6 | All Maps","name_short":"lon-6","host":"lon-1.uk.uncletopia.com","port":27065,"enabled":true,"region":"eu","cc":"gb","latitude":51.509865,"longitude":-0.118092,"reserved":0,"last_update":"0001-01-01T00:00:00Z","name_a2s":"Uncletopia | London | 6 | All Maps","protocol":17,"map":"koth_lakeside_final","folder":"tf","game":"Team Fortress","app_id":440,"player_count":0,"max_players":24,"Bots":0,"server_type":"Dedicated","server_os":"Linux","password":true,"vac":true,"version":"7757534","steam_id":85568392924742830,"keywords":["cp","nocrits","nodmgspread","uncletopia"],"game_id":440,"stv_port":27066,"stv_name":"Uncletopia | London | 6 | All Maps | STV","players":null},{"server_id":40,"name":"Uncletopia | London | 7 | No Payload","name_short":"lon-7","host":"lon-1.uk.uncletopia.com","port":27075,"enabled":true,"region":"eu","cc":"gb","latitude":51.509865,"longitude":-0.118092,"reserved":0,"last_update":"0001-01-01T00:00:00Z","name_a2s":"Uncletopia | London | 7 | No Payload","protocol":17,"map":"cp_gravelpit","folder":"tf","game":"Team Fortress","app_id":440,"player_count":0,"max_players":24,"Bots":0,"server_type":"Dedicated","server_os":"Linux","password":true,"vac":true,"version":"7757534","steam_id":85568392924964314,"keywords":["cp","nocrits","nodmgspread","uncletopia"],"game_id":440,"stv_port":27076,"stv_name":"Uncletopia | London | 7 | No Payload | STV","players":null},{"server_id":41,"name":"Uncletopia | London | 8 | Community","name_short":"lon-8","host":"lon-1.uk.uncletopia.com","port":27085,"enabled":true,"region":"eu","cc":"gb","latitude":51.509865,"longitude":-0.118092,"reserved":0,"last_update":"0001-01-01T00:00:00Z","name_a2s":"Uncletopia | London | 8 | Community","protocol":17,"map":"workshop/cp_snowbase_b18.ugc2081770490","folder":"tf","game":"Team Fortress","app_id":440,"player_count":0,"max_players":24,"Bots":0,"server_type":"Dedicated","server_os":"Linux","password":true,"vac":true,"version":"7757534","steam_id":85568392924964315,"keywords":["cp","nocrits","nodmgspread","uncletopia"],"game_id":440,"stv_port":27086,"stv_name":"Uncletopia | London | 8 | Community | STV","players":null},{"server_id":300,"name":"Uncletopia | Montr√©al | 1 | All Maps","name_short":"mtl-1","host":"mtl-1.ca.uncletopia.com","port":27015,"enabled":true,"region":"us-east","cc":"ca","latitude":45.50889,"longitude":-73.56167,"reserved":0,"last_update":"0001-01-01T00:00:00Z","name_a2s":"Uncletopia | Montr√©al | 1 | All Maps","protocol":17,"map":"pl_swiftwater_final1","folder":"tf","game":"Team Fortress","app_id":440,"player_count":0,"max_players":24,"Bots":0,"server_type":"Dedicated","server_os":"Linux","password":true,"vac":true,"version":"7757534","steam_id":85568392924500087,"keywords":["nocrits","nodmgspread","payload","uncletopia"],"game_id":440,"stv_port":27016,"stv_name":"Uncletopia | Montr√©al | 1 | All Maps | STV","players":null},{"server_id":301,"name":"Uncletopia | Montr√©al | 2 | All Maps","name_short":"mtl-2","host":"mtl-1.ca.uncletopia.com","port":27025,"enabled":true,"region":"us-east","cc":"ca","latitude":45.50889,"longitude":-73.56167,"reserved":0,"last_update":"0001-01-01T00:00:00Z","name_a2s":"Uncletopia | Montr√©al | 2 | All Maps","protocol":17,"map":"cp_dustbowl","folder":"tf","game":"Team Fortress","app_id":440,"player_count":0,"max_players":24,"Bots":0,"server_type":"Dedicated","server_os":"Linux","password":true,"vac":true,"version":"7757534","steam_id":85568392924500088,"keywords":["cp","nocrits","nodmgspread","uncletopia"],"game_id":440,"stv_port":27026,"stv_name":"Uncletopia | Montr√©al | 2 | All Maps | STV","players":null},{"server_id":302,"name":"Uncletopia | Montr√©al | 3 | All Maps","name_short":"mtl-3","host":"mtl-1.ca.uncletopia.com","port":27035,"enabled":true,"region":"us-east","cc":"ca","latitude":45.50889,"longitude":-73.56167,"reserved":0,"last_update":"0001-01-01T00:00:00Z","name_a2s":"Uncletopia | Montr√©al | 3 | All Maps","protocol":17,"map":"pl_swiftwater_final1","folder":"tf","game":"Team Fortress","app_id":440,"player_count":0,"max_players":24,"Bots":0,"server_type":"Dedicated","server_os":"Linux","password":true,"vac":true,"version":"7757534","steam_id":85568392924500089,"keywords":["nocrits","nodmgspread","payload","uncletopia"],"game_id":440,"stv_port":27036,"stv_name":"Uncletopia | Montr√©al | 3 | All Maps | STV","players":null},{"server_id":303,"name":"Uncletopia | Montr√©al | 4 | No Payload","name_short":"mtl-4","host":"mtl-1.ca.uncletopia.com","port":27045,"enabled":true,"region":"us-east","cc":"ca","latitude":45.50889,"longitude":-73.56167,"reserved":0,"last_update":"0001-01-01T00:00:00Z","name_a2s":"Uncletopia | Montr√©al | 4 | No Payload","protocol":17,"map":"pl_pier","folder":"tf","game":"Team Fortress","app_id":440,"player_count":0,"max_players":24,"Bots":0,"server_type":"Dedicated","server_os":"Linux","password":true,"vac":true,"version":"7757534","steam_id":85568392924500090,"keywords":["nocrits","nodmgspread","payload","uncletopia"],"game_id":440,"stv_port":27046,"stv_name":"Uncletopia | Montr√©al | 4 | No Payload | STV","players":null},{"server_id":13,"name":"Uncletopia | New York City | 1 | All Maps","name_short":"nyc-1","host":"nyc-1.us.uncletopia.com","port":27015,"enabled":true,"region":"us-east","cc":"us","latitude":40.73061,"longitude":-73.93524,"reserved":0,"last_update":"0001-01-01T00:00:00Z","name_a2s":"Uncletopia | New York City | 1 | All Maps","protocol":17,"map":"pl_badwater","folder":"tf","game":"Team Fortress","app_id":440,"player_count":24,"max_players":24,"Bots":0,"server_type":"Dedicated","server_os":"Linux","password":true,"vac":true,"version":"7757534","steam_id":85568392924469993,"keywords":["nocrits","nodmgspread","payload","uncletopia"],"game_id":440,"stv_port":27016,"stv_name":"Uncletopia | New York City | 1 | All Maps | STV","players":[{"user_id":315,"name":"RX 6500 XT","steam_id":76561197999657118,"connected_time":3832000000000,"state":"active","ping":69},{"user_id":297,"name":"Diarrhea Gaming","steam_id":76561198090589784,"connected_time":4326000000000,"state":"active","ping":76},{"user_id":345,"name":"RogueOstrich","steam_id":76561198246274348,"connected_time":652000000000,"state":"active","ping":51},{"user_id":346,"name":"Senpa1","steam_id":76561198140297250,"connected_time":384000000000,"state":"active","ping":38},{"user_id":333,"name":"Kirbs","steam_id":76561198970654800,"connected_time":1600000000000,"state":"active","ping":47},{"user_id":351,"name":"ËõãÊç≤:D","steam_id":76561198353606160,"connected_time":32000000000,"state":"active","ping":72},{"user_id":335,"name":"Grebnedulgo The Elder","steam_id":76561199123285878,"connected_time":1323000000000,"state":"active","ping":61},{"user_id":322,"name":"LunarrD","steam_id":76561198811220107,"connected_time":2711000000000,"state":"active","ping":65},{"user_id":347,"name":"Chinese Cabbage","steam_id":76561198311588768,"connected_time":104000000000,"state":"active","ping":68},{"user_id":337,"name":"Skullypoo","steam_id":76561198067912022,"connected_time":1266000000000,"state":"active","ping":72},{"user_id":338,"name":"Jmciano24","steam_id":76561198050723212,"connected_time":1205000000000,"state":"active","ping":48},{"user_id":350,"name":"Schmingus","steam_id":76561199476148332,"connected_time":62000000000,"state":"active","ping":97},{"user_id":304,"name":"Sergeant Joker #savetf2","steam_id":76561198854616604,"connected_time":4247000000000,"state":"active","ping":60},{"user_id":349,"name":"captain red","steam_id":76561198191587983,"connected_time":76000000000,"state":"active","ping":91},{"user_id":309,"name":"The Great Wart","steam_id":76561198107906150,"connected_time":4156000000000,"state":"active","ping":46},{"user_id":340,"name":"Loafus","steam_id":76561198154561111,"connected_time":1187000000000,"state":"active","ping":99},{"user_id":323,"name":"F0restFerret","steam_id":76561199112458876,"connected_time":2489000000000,"state":"active","ping":53},{"user_id":348,"name":"Axities","steam_id":76561198278008225,"connected_time":84000000000,"state":"active","ping":89},{"user_id":310,"name":"-Extreme-","steam_id":76561198013900127,"connected_time":4147000000000,"state":"active","ping":170},{"user_id":341,"name":"Kubait","steam_id":76561198178022623,"connected_time":1187000000000,"state":"active","ping":131},{"user_id":342,"name":"Mario","steam_id":76561198321794277,"connected_time":1182000000000,"state":"active","ping":75},{"user_id":344,"name":"THE BURGER","steam_id":76561198311704368,"connected_time":852000000000,"state":"active","ping":53},{"user_id":294,"name":"ISuckAtGames","steam_id":76561198346318249,"connected_time":4724000000000,"state":"active","ping":70},{"user_id":318,"name":"Bigsumoslammer","steam_id":76561198044505076,"connected_time":3390000000000,"state":"active","ping":48}]},{"server_id":14,"name":"Uncletopia | New York City | 2 | All Maps","name_short":"nyc-2","host":"nyc-1.us.uncletopia.com","port":27025,"enabled":true,"region":"us-east","cc":"us","latitude":40.73061,"longitude":-73.93524,"reserved":0,"last_update":"0001-01-01T00:00:00Z","name_a2s":"Uncletopia | New York City | 2 | All Maps","protocol":17,"map":"cp_mountainlab","folder":"tf","game":"Team Fortress","app_id":440,"player_count":5,"max_players":24,"Bots":0,"server_type":"Dedicated","server_os":"Linux","password":true,"vac":true,"version":"7757534","steam_id":85568392924469994,"keywords":["cp","nocrits","nodmgspread","uncletopia"],"game_id":440,"stv_port":27026,"stv_name":"Uncletopia | New York City | 2 | All Maps | STV","players":[{"user_id":19,"name":"M16A1Sauce","steam_id":76561199058049384,"connected_time":3034000000000,"state":"active","ping":62},{"user_id":35,"name":"liamdunn2008","steam_id":76561199017906046,"connected_time":368000000000,"state":"active","ping":60},{"user_id":37,"name":"Cootato","steam_id":76561198265081683,"connected_time":143000000000,"state":"active","ping":54},{"user_id":26,"name":"Chimpish","steam_id":76561199263493270,"connected_time":1394000000000,"state":"active","ping":96},{"user_id":38,"name":"fiasco","steam_id":76561198070800553,"connected_time":103000000000,"state":"active","ping":39}]},{"server_id":15,"name":"Uncletopia | New York City | 3 | Stopwatch Beta","name_short":"nyc-3","host":"nyc-1.us.uncletopia.com","port":27035,"enabled":true,"region":"us-east","cc":"us","latitude":40.73061,"longitude":-73.93524,"reserved":0,"last_update":"0001-01-01T00:00:00Z","name_a2s":"Uncletopia | New York City | 3 | Stopwatch Beta","protocol":17,"map":"pl_upward","folder":"tf","game":"Team Fortress","app_id":440,"player_count":0,"max_players":24,"Bots":0,"server_type":"Dedicated","server_os":"Linux","password":true,"vac":true,"version":"7757534","steam_id":85568392924742820,"keywords":["nocrits","nodmgspread","payload","uncletopia"],"game_id":440,"stv_port":27036,"stv_name":"Uncletopia | New York City | 3 | Stopwatch Beta | STV","players":null},{"server_id":16,"name":"Uncletopia | New York City | 4 | Community","name_short":"nyc-4","host":"nyc-1.us.uncletopia.com","port":27045,"enabled":true,"region":"us-east","cc":"us","latitude":40.73061,"longitude":-73.93524,"reserved":0,"last_update":"0001-01-01T00:00:00Z","name_a2s":"Uncletopia | New York City | 4 | Community","protocol":17,"map":"workshop/koth_ashville_final.ugc2130459942","folder":"tf","game":"Team Fortress","app_id":440,"player_count":0,"max_players":24,"Bots":0,"server_type":"Dedicated","server_os":"Linux","password":true,"vac":true,"version":"7757534","steam_id":85568392924742821,"keywords":["cp","nocrits","nodmgspread","uncletopia"],"game_id":440,"stv_port":27046,"stv_name":"Uncletopia | New York City | 4 | Community | STV","players":null},{"server_id":142,"name":"Uncletopia | S√£o Paulo | 1 | All Maps","name_short":"sao-1","host":"sao-1.br.uncletopia.com","port":27015,"enabled":true,"region":"sa","cc":"br","latitude":-23.533773,"longitude":-46.62529,"reserved":0,"last_update":"0001-01-01T00:00:00Z","name_a2s":"Uncletopia | S√£o Paulo | 1 | All Maps","protocol":17,"map":"koth_viaduct","folder":"tf","game":"Team Fortress","app_id":440,"player_count":0,"max_players":24,"Bots":0,"server_type":"Dedicated","server_os":"Linux","password":true,"vac":true,"version":"7757534","steam_id":85568392924469996,"keywords":["cp","nocrits","nodmgspread","uncletopia"],"game_id":440,"stv_port":27016,"stv_name":"Uncletopia | S√£o Paulo | 1 | All Maps | STV","players":null},{"server_id":143,"name":"Uncletopia | S√£o Paulo | 2 | All Maps","name_short":"sao-2","host":"sao-2.br.uncletopia.com","port":27015,"enabled":true,"region":"sa","cc":"br","latitude":-23.533773,"longitude":-46.62529,"reserved":0,"last_update":"0001-01-01T00:00:00Z","name_a2s":"Uncletopia | S√£o Paulo | 2 | All Maps","protocol":17,"map":"cp_process_final","folder":"tf","game":"Team Fortress","app_id":440,"player_count":3,"max_players":24,"Bots":0,"server_type":"Dedicated","server_os":"Linux","password":true,"vac":true,"version":"7757534","steam_id":85568392924485349,"keywords":["cp","nocrits","nodmgspread","uncletopia"],"game_id":440,"stv_port":27016,"stv_name":"Uncletopia | S√£o Paulo | 2 | All Maps | STV","players":[{"user_id":8,"name":"Macho Potter","steam_id":76561198053317633,"connected_time":154000000000,"state":"active","ping":46},{"user_id":11,"name":"Ninethyed","steam_id":76561198208071575,"connected_time":74000000000,"state":"active","ping":38},{"user_id":13,"name":"HeadShotGamerBR","steam_id":76561198116856702,"connected_time":16000000000,"state":"active","ping":80}]},{"server_id":7,"name":"Uncletopia | Seattle | 1 | All Maps","name_short":"sea-1","host":"sea-1.us.uncletopia.com","port":27015,"enabled":true,"region":"us-west","cc":"us","latitude":47.608013,"longitude":-122.33517,"reserved":0,"last_update":"0001-01-01T00:00:00Z","name_a2s":"Uncletopia | Seattle | 1 | All Maps","protocol":17,"map":"pl_upward","folder":"tf","game":"Team Fortress","app_id":440,"player_count":24,"max_players":24,"Bots":0,"server_type":"Dedicated","server_os":"Linux","password":true,"vac":true,"version":"7757534","steam_id":85568392924469997,"keywords":["nocrits","nodmgspread","payload","uncletopia"],"game_id":440,"stv_port":27016,"stv_name":"Uncletopia | Seattle | 1 | All Maps | STV","players":[{"user_id":354,"name":"Username","steam_id":76561198855586261,"connected_time":638000000000,"state":"active","ping":64},{"user_id":350,"name":"SirJellyRolls","steam_id":76561198119277244,"connected_time":846000000000,"state":"active","ping":63},{"user_id":331,"name":"Cosmic","steam_id":76561198350638894,"connected_time":2402000000000,"state":"active","ping":88},{"user_id":337,"name":"MECHANISM MALE","steam_id":76561198855935442,"connected_time":2201000000000,"state":"active","ping":60},{"user_id":339,"name":"NovaScotianDuckRetriever","steam_id":76561198061867269,"connected_time":1992000000000,"state":"active","ping":36},{"user_id":351,"name":"Tom Skirrett","steam_id":76561198014600788,"connected_time":720000000000,"state":"active","ping":63},{"user_id":330,"name":"grinny08","steam_id":76561199078875445,"connected_time":2409000000000,"state":"active","ping":89},{"user_id":328,"name":"zSkele","steam_id":76561198128960931,"connected_time":2608000000000,"state":"active","ping":112},{"user_id":344,"name":"The Pepsi¬Æ Superbowl¬Æ!","steam_id":76561198080828981,"connected_time":1435000000000,"state":"active","ping":77},{"user_id":274,"name":"toes","steam_id":76561198221151676,"connected_time":6174000000000,"state":"active","ping":55},{"user_id":348,"name":"Cottontail","steam_id":76561198213634567,"connected_time":907000000000,"state":"active","ping":67},{"user_id":325,"name":"Sprucelass","steam_id":76561197998391724,"connected_time":2715000000000,"state":"active","ping":105},{"user_id":343,"name":"soda","steam_id":76561198105924953,"connected_time":1591000000000,"state":"active","ping":66},{"user_id":318,"name":"laszlo","steam_id":76561198141198352,"connected_time":3246000000000,"state":"active","ping":94},{"user_id":356,"name":"nutslicker","steam_id":76561197999663001,"connected_time":495000000000,"state":"active","ping":73},{"user_id":309,"name":"‚ô•Curvo‚ô•","steam_id":76561198209474913,"connected_time":3608000000000,"state":"active","ping":69},{"user_id":326,"name":"tf you mean forgot the gluestic","steam_id":76561199006886644,"connected_time":2654000000000,"state":"active","ping":73},{"user_id":304,"name":"SibilantSerpent","steam_id":76561198154488754,"connected_time":4218000000000,"state":"active","ping":55},{"user_id":316,"name":"stoned jester","steam_id":76561198079609974,"connected_time":3297000000000,"state":"active","ping":85},{"user_id":258,"name":"SadFapping","steam_id":76561198076651049,"connected_time":8197000000000,"state":"active","ping":61},{"user_id":310,"name":"cARAMELO","steam_id":76561199057760766,"connected_time":3600000000000,"state":"active","ping":65},{"user_id":324,"name":"imtoofadedicantevendapuup","steam_id":76561198180372310,"connected_time":2769000000000,"state":"active","ping":62},{"user_id":306,"name":"Y2K","steam_id":76561199191855486,"connected_time":3773000000000,"state":"active","ping":49},{"user_id":336,"name":"mega","steam_id":76561198089520959,"connected_time":2312000000000,"state":"active","ping":96}]},{"server_id":119,"name":"Uncletopia | Seattle | 2 | All Maps","name_short":"sea-2","host":"sea-1.us.uncletopia.com","port":27025,"enabled":true,"region":"us-west","cc":"us","latitude":47.608013,"longitude":-122.33517,"reserved":0,"last_update":"0001-01-01T00:00:00Z","name_a2s":"Uncletopia | Seattle | 2 | All Maps","protocol":17,"map":"pl_barnblitz","folder":"tf","game":"Team Fortress","app_id":440,"player_count":24,"max_players":24,"Bots":0,"server_type":"Dedicated","server_os":"Linux","password":true,"vac":true,"version":"7757534","steam_id":85568392924469998,"keywords":["nocrits","nodmgspread","payload","uncletopia"],"game_id":440,"stv_port":27026,"stv_name":"Uncletopia | Seattle | 2 | All Maps | STV","players":[{"user_id":166,"name":"KitofKats","steam_id":76561198137242573,"connected_time":53000000000,"state":"active","ping":65},{"user_id":57,"name":"Smoky","steam_id":76561198041551259,"connected_time":7141000000000,"state":"active","ping":70},{"user_id":144,"name":"FullMetalHanson","steam_id":76561198149565623,"connected_time":1686000000000,"state":"active","ping":94},{"user_id":146,"name":"McTriggered69","steam_id":76561198854334889,"connected_time":1340000000000,"state":"active","ping":91},{"user_id":100,"name":"EleventhGoose","steam_id":76561198912390211,"connected_time":3351000000000,"state":"active","ping":106},{"user_id":124,"name":"too funky ·óúÀ¨·óú","steam_id":76561199120399776,"connected_time":2257000000000,"state":"active","ping":75},{"user_id":84,"name":"‡πá","steam_id":76561198067666595,"connected_time":4554000000000,"state":"active","ping":43},{"user_id":120,"name":"cirno","steam_id":76561198166081596,"connected_time":2566000000000,"state":"active","ping":102},{"user_id":90,"name":"Matches *‚ô•‚Äß‚ÇäÀö           ","steam_id":76561198048925904,"connected_time":3786000000000,"state":"active","ping":90},{"user_id":154,"name":"Why am I the only person who","steam_id":76561198139634916,"connected_time":678000000000,"state":"active","ping":44},{"user_id":156,"name":"KellyKapoor","steam_id":76561198040828123,"connected_time":608000000000,"state":"active","ping":48},{"user_id":158,"name":"C U Next Tuesday","steam_id":76561198058493492,"connected_time":532000000000,"state":"active","ping":52},{"user_id":165,"name":"Meth cooker","steam_id":76561199371685870,"connected_time":120000000000,"state":"active","ping":146},{"user_id":162,"name":"MisterManne","steam_id":76561198106598600,"connected_time":469000000000,"state":"active","ping":61},{"user_id":151,"name":"Major_Pippy","steam_id":76561198004482878,"connected_time":891000000000,"state":"active","ping":54},{"user_id":164,"name":"The Bombinomicon","steam_id":76561198209881263,"connected_time":446000000000,"state":"active","ping":81},{"user_id":152,"name":"FrogStompers","steam_id":76561198138977097,"connected_time":775000000000,"state":"active","ping":49},{"user_id":159,"name":"mrnotsogudguy","steam_id":76561199289893241,"connected_time":521000000000,"state":"active","ping":113},{"user_id":160,"name":"Crazy-Potato","steam_id":76561198055487913,"connected_time":506000000000,"state":"active","ping":86},{"user_id":161,"name":"Strikerbolt","steam_id":76561199095622897,"connected_time":487000000000,"state":"active","ping":47},{"user_id":137,"name":"The Moon","steam_id":76561198082926682,"connected_time":1966000000000,"state":"active","ping":62},{"user_id":142,"name":"crumblejon","steam_id":76561198111273302,"connected_time":1841000000000,"state":"active","ping":76},{"user_id":148,"name":"mountain*‚ú©‚Äß‚ÇäÀö","steam_id":76561198078395002,"connected_time":1307000000000,"state":"active","ping":116},{"user_id":116,"name":"DatFluffyPancake","steam_id":76561198271958697,"connected_time":2775000000000,"state":"active","ping":59}]},{"server_id":406,"name":"Uncletopia | Seattle | 3 | Stopwatch Beta","name_short":"sea-3","host":"sea-1.us.uncletopia.com","port":27035,"enabled":true,"region":"us-west","cc":"us","latitude":47.608013,"longitude":-122.33517,"reserved":0,"last_update":"0001-01-01T00:00:00Z","name_a2s":"Uncletopia | Seattle | 3 | Stopwatch Beta","protocol":17,"map":"koth_highpass","folder":"tf","game":"Team Fortress","app_id":440,"player_count":0,"max_players":24,"Bots":0,"server_type":"Dedicated","server_os":"Linux","password":true,"vac":true,"version":"7757534","steam_id":85568392924515217,"keywords":["cp","nocrits","nodmgspread","uncletopia"],"game_id":440,"stv_port":27036,"stv_name":"Uncletopia | Seattle | 3 | Stopwatch Beta | STV","players":null},{"server_id":17,"name":"Uncletopia | San Francisco | 1 | All Maps","name_short":"sfo-1","host":"sfo-1.us.uncletopia.com","port":27015,"enabled":true,"region":"us-west","cc":"us","latitude":37.77397,"longitude":-122.4313,"reserved":0,"last_update":"0001-01-01T00:00:00Z","name_a2s":"Uncletopia | San Francisco | 1 | All Maps","protocol":17,"map":"pl_borneo","folder":"tf","game":"Team Fortress","app_id":440,"player_count":23,"max_players":24,"Bots":0,"server_type":"Dedicated","server_os":"Linux","password":true,"vac":true,"version":"7757534","steam_id":85568392924469999,"keywords":["nocrits","nodmgspread","payload","uncletopia"],"game_id":440,"stv_port":27016,"stv_name":"Uncletopia | San Francisco | 1 | All Maps | STV","players":[{"user_id":80,"name":"kritz me","steam_id":76561198439899407,"connected_time":4737000000000,"state":"active","ping":60},{"user_id":146,"name":"Bluesleek | backpack.tf","steam_id":76561199207607835,"connected_time":868000000000,"state":"active","ping":61},{"user_id":130,"name":"Demonics","steam_id":76561199065270339,"connected_time":2119000000000,"state":"active","ping":64},{"user_id":151,"name":"Scoober","steam_id":76561198100314799,"connected_time":626000000000,"state":"active","ping":105},{"user_id":136,"name":"Logan likes to pee himself","steam_id":76561198029612812,"connected_time":1518000000000,"state":"active","ping":63},{"user_id":137,"name":"LemonZest","steam_id":76561199196369249,"connected_time":1459000000000,"state":"active","ping":119},{"user_id":142,"name":"Chimpanzee","steam_id":76561198850387282,"connected_time":1225000000000,"state":"active","ping":113},{"user_id":141,"name":"PeptoBismol","steam_id":76561198082669076,"connected_time":1279000000000,"state":"active","ping":63},{"user_id":147,"name":"no vc no c","steam_id":76561197989503095,"connected_time":793000000000,"state":"active","ping":147},{"user_id":110,"name":"Daxuran","steam_id":76561198136197524,"connected_time":3215000000000,"state":"active","ping":67},{"user_id":117,"name":"mrselfdestruct13","steam_id":76561197992054553,"connected_time":2856000000000,"state":"active","ping":63},{"user_id":131,"name":"Ghoulbreath","steam_id":76561198062517442,"connected_time":2116000000000,"state":"active","ping":70},{"user_id":152,"name":"Tort boi","steam_id":76561198125327110,"connected_time":580000000000,"state":"active","ping":68},{"user_id":86,"name":"Merconium","steam_id":76561197960551851,"connected_time":4426000000000,"state":"active","ping":116},{"user_id":156,"name":"RapidXenophage","steam_id":76561198175149973,"connected_time":353000000000,"state":"active","ping":73},{"user_id":154,"name":"SquibJib","steam_id":76561199176919819,"connected_time":448000000000,"state":"active","ping":153},{"user_id":157,"name":"ground control to major tom","steam_id":76561198044265737,"connected_time":231000000000,"state":"active","ping":96},{"user_id":84,"name":"KatyAnna","steam_id":76561197992684543,"connected_time":4651000000000,"state":"active","ping":116},{"user_id":155,"name":"cute Soldier","steam_id":76561199468131065,"connected_time":431000000000,"state":"active","ping":85},{"user_id":149,"name":"t.tv/FamilyGuyFunnyMoments277","steam_id":76561198416047580,"connected_time":774000000000,"state":"active","ping":119},{"user_id":150,"name":"Guwop","steam_id":76561197970425737,"connected_time":761000000000,"state":"active","ping":103},{"user_id":159,"name":"H-keyLF","steam_id":76561198376014891,"connected_time":125000000000,"state":"active","ping":46},{"user_id":123,"name":"The Nyangineer","steam_id":76561198400058665,"connected_time":2578000000000,"state":"active","ping":118}]},{"server_id":18,"name":"Uncletopia | San Francisco | 2 | All Maps","name_short":"sfo-2","host":"sfo-1.us.uncletopia.com","port":27025,"enabled":true,"region":"us-west","cc":"us","latitude":37.77397,"longitude":-122.4313,"reserved":0,"last_update":"0001-01-01T00:00:00Z","name_a2s":"Uncletopia | San Francisco | 2 | All Maps","protocol":17,"map":"koth_highpass","folder":"tf","game":"Team Fortress","app_id":440,"player_count":0,"max_players":24,"Bots":0,"server_type":"Dedicated","server_os":"Linux","password":true,"vac":true,"version":"7757534","steam_id":85568392924470000,"keywords":["cp","nocrits","nodmgspread","uncletopia"],"game_id":440,"stv_port":27026,"stv_name":"Uncletopia | San Francisco | 2 | All Maps | STV","players":null},{"server_id":19,"name":"Uncletopia | San Francisco | 3 | Stopwatch Beta","name_short":"sfo-3","host":"sfo-1.us.uncletopia.com","port":27035,"enabled":true,"region":"us-west","cc":"us","latitude":37.77397,"longitude":-122.4313,"reserved":0,"last_update":"0001-01-01T00:00:00Z","name_a2s":"Uncletopia | San Francisco | 3 | Stopwatch Beta","protocol":17,"map":"pl_swiftwater_final1","folder":"tf","game":"Team Fortress","app_id":440,"player_count":0,"max_players":24,"Bots":0,"server_type":"Dedicated","server_os":"Linux","password":true,"vac":true,"version":"7757534","steam_id":85568392924742824,"keywords":["nocrits","nodmgspread","payload","uncletopia"],"game_id":440,"stv_port":27036,"stv_name":"Uncletopia | San Francisco | 3 | Stopwatch Beta | STV","players":null},{"server_id":20,"name":"Uncletopia | San Francisco | 4 | Community","name_short":"sfo-4","host":"sfo-1.us.uncletopia.com","port":27045,"enabled":true,"region":"us-west","cc":"us","latitude":37.77397,"longitude":-122.4313,"reserved":0,"last_update":"0001-01-01T00:00:00Z","name_a2s":"Uncletopia | San Francisco | 4 | Community","protocol":17,"map":"workshop/cp_indulge.ugc528106646","folder":"tf","game":"Team Fortress","app_id":440,"player_count":0,"max_players":24,"Bots":0,"server_type":"Dedicated","server_os":"Linux","password":true,"vac":true,"version":"7757534","steam_id":85568392924742826,"keywords":["cp","nocrits","nodmgspread","uncletopia"],"game_id":440,"stv_port":27046,"stv_name":"Uncletopia | San Francisco | 4 | Community | STV","players":null},{"server_id":141,"name":"Uncletopia | Sydney | 1 | All Maps","name_short":"syd-1","host":"syd-1.au.uncletopia.com","port":27015,"enabled":true,"region":"au","cc":"au","latitude":-33.865143,"longitude":151.2099,"reserved":0,"last_update":"0001-01-01T00:00:00Z","name_a2s":"Uncletopia | Sydney | 1 | All Maps","protocol":17,"map":"koth_viaduct","folder":"tf","game":"Team Fortress","app_id":440,"player_count":0,"max_players":24,"Bots":0,"server_type":"Dedicated","server_os":"Linux","password":true,"vac":true,"version":"7757534","steam_id":85568392924470001,"keywords":["cp","nocrits","nodmgspread","uncletopia"],"game_id":440,"stv_port":27016,"stv_name":"Uncletopia | Sydney | 1 | All Maps | STV","players":null},{"server_id":123,"name":"Uncletopia | Sydney | 2 | All Maps","name_short":"syd-2","host":"syd-1.au.uncletopia.com","port":27025,"enabled":true,"region":"au","cc":"au","latitude":-33.865143,"longitude":151.2099,"reserved":0,"last_update":"0001-01-01T00:00:00Z","name_a2s":"Uncletopia | Sydney | 2 | All Maps","protocol":17,"map":"cp_process_final","folder":"tf","game":"Team Fortress","app_id":440,"player_count":0,"max_players":24,"Bots":0,"server_type":"Dedicated","server_os":"Linux","password":true,"vac":true,"version":"7757534","steam_id":85568392924470002,"keywords":["cp","nocrits","nodmgspread","uncletopia"],"game_id":440,"stv_port":27026,"stv_name":"Uncletopia | Sydney | 2 | All Maps | STV","players":null},{"server_id":395,"name":"Uncletopia | Sydney | 3 | All Maps","name_short":"syd-3","host":"syd-1.au.uncletopia.com","port":27035,"enabled":true,"region":"au","cc":"au","latitude":-33.865143,"longitude":151.2099,"reserved":0,"last_update":"0001-01-01T00:00:00Z","name_a2s":"Uncletopia | Sydney | 3 | All Maps","protocol":17,"map":"pl_swiftwater_final1","folder":"tf","game":"Team Fortress","app_id":440,"player_count":0,"max_players":24,"Bots":0,"server_type":"Dedicated","server_os":"Linux","password":true,"vac":true,"version":"7757534","steam_id":85568392925194467,"keywords":["nocrits","nodmgspread","payload","uncletopia"],"game_id":440,"stv_port":27036,"stv_name":"Uncletopia | Sydney | 3 | All Maps | STV","players":null},{"server_id":396,"name":"Uncletopia | Sydney | 4 | All Maps","name_short":"syd-4","host":"syd-1.au.uncletopia.com","port":27045,"enabled":true,"region":"au","cc":"au","latitude":-33.865143,"longitude":151.2099,"reserved":0,"last_update":"0001-01-01T00:00:00Z","name_a2s":"Uncletopia | Sydney | 4 | All Maps","protocol":17,"map":"koth_highpass","folder":"tf","game":"Team Fortress","app_id":440,"player_count":0,"max_players":24,"Bots":0,"server_type":"Dedicated","server_os":"Linux","password":true,"vac":true,"version":"7757534","steam_id":85568392925397958,"keywords":["cp","nocrits","nodmgspread","uncletopia"],"game_id":440,"stv_port":27046,"stv_name":"Uncletopia | Sydney | 4 | All Maps | STV","players":null},{"server_id":58,"name":"Uncletopia | Sydney | 5 | Stopwatch Beta","name_short":"syd-5","host":"syd-1.au.uncletopia.com","port":27055,"enabled":true,"region":"au","cc":"au","latitude":-33.865143,"longitude":151.2099,"reserved":0,"last_update":"0001-01-01T00:00:00Z","name_a2s":"Uncletopia | Sydney | 5 | Stopwatch Beta","protocol":17,"map":"koth_cascade","folder":"tf","game":"Team Fortress","app_id":440,"player_count":0,"max_players":24,"Bots":0,"server_type":"Dedicated","server_os":"Linux","password":true,"vac":true,"version":"7757534","steam_id":85568392925397959,"keywords":["cp","nocrits","nodmgspread","uncletopia"],"game_id":440,"stv_port":27056,"stv_name":"Uncletopia | Sydney | 5 | Stopwatch Beta | STV","players":null},{"server_id":59,"name":"Uncletopia | Sydney | 6 | Community","name_short":"syd-6","host":"syd-1.au.uncletopia.com","port":27065,"enabled":true,"region":"au","cc":"au","latitude":-33.865143,"longitude":151.2099,"reserved":0,"last_update":"0001-01-01T00:00:00Z","name_a2s":"Uncletopia | Sydney | 6 | Community","protocol":17,"map":"cp_snakewater_final1","folder":"tf","game":"Team Fortress","app_id":440,"player_count":0,"max_players":24,"Bots":0,"server_type":"Dedicated","server_os":"Linux","password":true,"vac":true,"version":"7757534","steam_id":85568392925397960,"keywords":["cp","nocrits","nodmgspread","uncletopia"],"game_id":440,"stv_port":27066,"stv_name":"Uncletopia | Sydney | 6 | Community | STV","players":null},{"server_id":49,"name":"Uncletopia | Warsaw | 1 | All Maps","name_short":"waw-1","host":"waw-1.pl.uncletopia.com","port":27015,"enabled":true,"region":"eu","cc":"pl","latitude":52.2297,"longitude":21.017532,"reserved":0,"last_update":"0001-01-01T00:00:00Z","name_a2s":"","protocol":0,"map":"","folder":"","game":"","app_id":0,"player_count":0,"max_players":0,"Bots":0,"server_type":"","server_os":"","password":false,"vac":false,"version":"","steam_id":0,"keywords":null,"game_id":0,"stv_port":0,"stv_name":"","players":null},{"server_id":50,"name":"Uncletopia | Warsaw | 2 | All Maps","name_short":"waw-2","host":"waw-1.pl.uncletopia.com","port":27025,"enabled":true,"region":"eu","cc":"pl","latitude":52.2297,"longitude":21.017532,"reserved":0,"last_update":"0001-01-01T00:00:00Z","name_a2s":"Uncletopia | Warsaw | 2 | All Maps","protocol":17,"map":"koth_viaduct","folder":"tf","game":"Team Fortress","app_id":440,"player_count":0,"max_players":24,"Bots":0,"server_type":"Dedicated","server_os":"Linux","password":true,"vac":true,"version":"7757534","steam_id":85568392925397851,"keywords":["cp","nocrits","nodmgspread","uncletopia"],"game_id":440,"stv_port":27026,"stv_name":"Uncletopia | Warsaw | 2 | All Maps | STV","players":null},{"server_id":51,"name":"Uncletopia | Warsaw | 3 | All Maps","name_short":"waw-3","host":"waw-1.pl.uncletopia.com","port":27035,"enabled":true,"region":"eu","cc":"pl","latitude":52.2297,"longitude":21.017532,"reserved":0,"last_update":"0001-01-01T00:00:00Z","name_a2s":"Uncletopia | Warsaw | 3 | All Maps","protocol":17,"map":"pl_swiftwater_final1","folder":"tf","game":"Team Fortress","app_id":440,"player_count":0,"max_players":24,"Bots":0,"server_type":"Dedicated","server_os":"Linux","password":true,"vac":true,"version":"7757534","steam_id":85568392925397852,"keywords":["nocrits","nodmgspread","payload","uncletopia"],"game_id":440,"stv_port":27036,"stv_name":"Uncletopia | Warsaw | 3 | All Maps | STV","players":null},{"server_id":52,"name":"Uncletopia | Warsaw | 4 | All Maps","name_short":"waw-4","host":"waw-1.pl.uncletopia.com","port":27045,"enabled":true,"region":"eu","cc":"pl","latitude":52.2297,"longitude":21.017532,"reserved":0,"last_update":"0001-01-01T00:00:00Z","name_a2s":"Uncletopia | Warsaw | 4 | All Maps","protocol":17,"map":"koth_lakeside_final","folder":"tf","game":"Team Fortress","app_id":440,"player_count":0,"max_players":24,"Bots":0,"server_type":"Dedicated","server_os":"Linux","password":true,"vac":true,"version":"7757534","steam_id":85568392925397853,"keywords":["cp","nocrits","nodmgspread","uncletopia"],"game_id":440,"stv_port":27046,"stv_name":"Uncletopia | Warsaw | 4 | All Maps | STV","players":null},{"server_id":53,"name":"Uncletopia | Warsaw | 5 | Stopwatch Beta","name_short":"waw-5","host":"waw-1.pl.uncletopia.com","port":27055,"enabled":true,"region":"eu","cc":"pl","latitude":52.2297,"longitude":21.017532,"reserved":0,"last_update":"0001-01-01T00:00:00Z","name_a2s":"Uncletopia | Warsaw | 5 | Stopwatch Beta","protocol":17,"map":"pl_borneo","folder":"tf","game":"Team Fortress","app_id":440,"player_count":0,"max_players":24,"Bots":0,"server_type":"Dedicated","server_os":"Linux","password":true,"vac":true,"version":"7757534","steam_id":85568392925397854,"keywords":["nocrits","nodmgspread","payload","uncletopia"],"game_id":440,"stv_port":27056,"stv_name":"Uncletopia | Warsaw | 5 | Stopwatch Beta | STV","players":null},{"server_id":54,"name":"Uncletopia | Warsaw | 6 | Community","name_short":"waw-6","host":"waw-1.pl.uncletopia.com","port":27065,"enabled":true,"region":"eu","cc":"pl","latitude":52.2297,"longitude":21.017532,"reserved":0,"last_update":"0001-01-01T00:00:00Z","name_a2s":"Uncletopia | Warsaw | 6 | Community","protocol":17,"map":"koth_lakeside_final","folder":"tf","game":"Team Fortress","app_id":440,"player_count":0,"max_players":24,"Bots":0,"server_type":"Dedicated","server_os":"Linux","password":true,"vac":true,"version":"7757534","steam_id":85568392925397856,"keywords":["cp","nocrits","nodmgspread","uncletopia"],"game_id":440,"stv_port":27066,"stv_name":"Uncletopia | Warsaw | 6 | Community | STV","players":null}]}