{"status":true,"message":"","result":[{"server_id":9,"name":"Uncletopia | Atlanta | 1 | All Maps","name_short":"atl-1","host":"atl-1.us.uncletopia.com","port":27015,"enabled":true,"region":"us-east","cc":"us","latitude":33.753746,"longitude":-84.38633,"reserved":0,"last_update":"0001-01-01T00:00:00Z","name_a2s":"Uncletopia | Atlanta | 1 | All Maps","protocol":17,"map":"cp_snakewater_final1","folder":"tf","game":"Team Fortress","app_id":440,"player_count":24,"max_players":24,"Bots":0,"server_type":"Dedicated","server_os":"Linux","password":true,"vac":true,"version":"7723704","steam_id":85568392924469982,"keywords":["cp","nocrits","nodmgspread","uncletopia"],"game_id":440,"stv_port":27016,"stv_name":"Uncletopia | Atlanta | 1 | All Maps | STV","players":[{"user_id":82,"name":"fice (autumnheals)","steam_id":76561198860361610,"connected_time":1094000000000,"state":"active","ping":77},{"user_id":75,"name":"saywhat_","steam_id":76561198088191503,"connected_time":1732000000000,"state":"active","ping":70},{"user_id":5,"name":"mommy claus","steam_id":76561199230929836,"connected_time":5083000000000,"state":"active","ping":79},{"user_id":87,"name":"ATL1 | on my hunting trip","steam_id":76561198315341646,"connected_time":399000000000,"state":"active","ping":70},{"user_id":7,"name":"HEFTY HOG","steam_id":76561198079923652,"connected_time":5082000000000,"state":"active","ping":72},{"user_id":84,"name":"David De Bergerac","steam_id":76561198010306294,"connected_time":929000000000,"state":"active","ping":78},{"user_id":88,"name":"checkswing","steam_id":76561198999816132,"connected_time":5000000000,"state":"spawning","ping":87},{"user_id":86,"name":"SHADOW (he/him)","steam_id":76561198207768148,"connected_time":508000000000,"state":"active","ping":114},{"user_id":13,"name":"Big ol' Willy Gaming","steam_id":76561198048545731,"connected_time":5071000000000,"state":"active","ping":134},{"user_id":66,"name":"BB Lorexav","steam_id":76561198207565988,"connected_time":2424000000000,"state":"active","ping":59},{"user_id":78,"name":"ATL1 | Mayhem","steam_id":76561199246637881,"connected_time":1175000000000,"state":"active","ping":55},{"user_id":72,"name":"Cat Fanada","steam_id":76561198116765135,"connected_time":2047000000000,"state":"active","ping":123},{"user_id":17,"name":"flappyflap2","steam_id":76561198285048973,"connected_time":5060000000000,"state":"active","ping":63},{"user_id":73,"name":"PROFILE NAME","steam_id":76561199438851854,"connected_time":2044000000000,"state":"active","ping":132},{"user_id":20,"name":"DeckofDragons","steam_id":76561198057398213,"connected_time":5054000000000,"state":"active","ping":78},{"user_id":69,"name":"athletesfoot","steam_id":76561197997331867,"connected_time":2158000000000,"state":"active","ping":61},{"user_id":37,"name":"lao","steam_id":76561198047857698,"connected_time":4332000000000,"state":"active","ping":131},{"user_id":49,"name":"Chicken Nugget","steam_id":76561198082601232,"connected_time":3145000000000,"state":"active","ping":68},{"user_id":76,"name":"depressed raiders fan","steam_id":76561199014893268,"connected_time":1569000000000,"state":"active","ping":109},{"user_id":79,"name":"shadow3004","steam_id":76561198064870076,"connected_time":1175000000000,"state":"active","ping":93},{"user_id":51,"name":"ghostedghost","steam_id":76561198111410905,"connected_time":3110000000000,"state":"active","ping":93},{"user_id":62,"name":"eggo","steam_id":76561198105515914,"connected_time":2752000000000,"state":"active","ping":90},{"user_id":57,"name":"swag commander in chief","steam_id":76561198143132686,"connected_time":2991000000000,"state":"active","ping":104},{"user_id":65,"name":"natalie","steam_id":76561198084507532,"connected_time":2495000000000,"state":"active","ping":147}]},{"server_id":400,"name":"Uncletopia | Atlanta | 3 | Stopwatch Beta","name_short":"atl-3","host":"atl-1.us.uncletopia.com","port":27035,"enabled":true,"region":"us-east","cc":"us","latitude":33.753746,"longitude":-84.38633,"reserved":0,"last_update":"0001-01-01T00:00:00Z","name_a2s":"Uncletopia | Atlanta | 3 | Stopwatch Beta","protocol":17,"map":"koth_cascade","folder":"tf","game":"Team Fortress","app_id":440,"player_count":0,"max_players":24,"Bots":0,"server_type":"Dedicated","server_os":"Linux","password":true,"vac":true,"version":"7723704","steam_id":85568392924515187,"keywords":["cp","nocrits","nodmgspread","uncletopia"],"game_id":440,"stv_port":27036,"stv_name":"Uncletopia | Atlanta | 3 | Stopwatch Beta | STV","players":null},{"server_id":401,"name":"Uncletopia | Atlanta | 4 | No Payload","name_short":"atl-4","host":"atl-1.us.uncletopia.com","port":27045,"enabled":true,"region":"us-east","cc":"us","latitude":33.753746,"longitude":-84.38633,"reserved":0,"last_update":"0001-01-01T00:00:00Z","name_a2s":"Uncletopia | Atlanta | 4 | No Payload","protocol":17,"map":"ctf_doublecross","folder":"tf","game":"Team Fortress","app_id":440,"player_count":18,"max_players":24,"Bots":0,"server_type":"Dedicated","server_os":"Linux","password":true,"vac":true,"version":"7723704","steam_id":85568392924515188,"keywords":["ctf","nocrits","nodmgspread","uncletopia"],"game_id":440,"stv_port":27046,"stv_name":"Uncletopia | Atlanta | 4 | No Payload | STV","players":[{"user_id":283,"name":"bingle","steam_id":76561198359413453,"connected_time":16000000000,"state":"active","ping":65},{"user_id":276,"name":"tell me about it","steam_id":76561198277799227,"connected_time":231000000000,"state":"active","ping":67},{"user_id":279,"name":"hops_a_pops","steam_id":76561198210902109,"connected_time":100000000000,"state":"active","ping":46},{"user_id":202,"name":"devamar","steam_id":76561198069115467,"connected_time":3270000000000,"state":"active","ping":82},{"user_id":274,"name":"Phantasm","steam_id":76561198036954108,"connected_time":293000000000,"state":"active","ping":80},{"user_id":280,"name":"Grape Juice","steam_id":76561198380337568,"connected_time":57000000000,"state":"active","ping":53},{"user_id":211,"name":"Poyo","steam_id":76561198389364816,"connected_time":2783000000000,"state":"active","ping":82},{"user_id":281,"name":"breathing meat donut","steam_id":76561198123566649,"connected_time":46000000000,"state":"active","ping":72},{"user_id":284,"name":"dealer","steam_id":76561197961095970,"connected_time":8000000000,"state":"spawning","ping":87},{"user_id":285,"name":"catboy trickster","steam_id":76561198075665211,"connected_time":8000000000,"state":"spawning","ping":134},{"user_id":257,"name":"NoShen","steam_id":76561198147434663,"connected_time":434000000000,"state":"active","ping":46},{"user_id":277,"name":"Animal Slices","steam_id":76561198137545511,"connected_time":179000000000,"state":"active","ping":64},{"user_id":216,"name":"Brother Garland","steam_id":76561198108026255,"connected_time":2613000000000,"state":"active","ping":51},{"user_id":263,"name":"MrPunda59","steam_id":76561199178520181,"connected_time":364000000000,"state":"active","ping":62},{"user_id":266,"name":"skaj","steam_id":76561198082278586,"connected_time":350000000000,"state":"active","ping":73},{"user_id":245,"name":"tools","steam_id":76561199010542612,"connected_time":1350000000000,"state":"active","ping":58},{"user_id":267,"name":"Infinity","steam_id":76561199134919099,"connected_time":339000000000,"state":"active","ping":63},{"user_id":273,"name":"Rex","steam_id":76561198138365053,"connected_time":306000000000,"state":"active","ping":112}]},{"server_id":2,"name":"Uncletopia | Chicago | 1 | All Maps","name_short":"chi-1","host":"chi-1.us.uncletopia.com","port":27015,"enabled":true,"region":"us-central","cc":"us","latitude":41.881832,"longitude":-87.62318,"reserved":0,"last_update":"0001-01-01T00:00:00Z","name_a2s":"Uncletopia | Chicago | 1 | All Maps","protocol":17,"map":"cp_dustbowl","folder":"tf","game":"Team Fortress","app_id":440,"player_count":24,"max_players":24,"Bots":0,"server_type":"Dedicated","server_os":"Linux","password":true,"vac":true,"version":"7723704","steam_id":85568392924469984,"keywords":["cp","nocrits","nodmgspread","uncletopia"],"game_id":440,"stv_port":27016,"stv_name":"Uncletopia | Chicago | 1 | All Maps | STV","players":[{"user_id":52,"name":"「Saint」","steam_id":76561198241943070,"connected_time":3320000000000,"state":"active","ping":78},{"user_id":62,"name":"The Weatherman is fucking dying","steam_id":76561198000445420,"connected_time":1761000000000,"state":"active","ping":71},{"user_id":80,"name":"chickenfriedsteak","steam_id":76561198082029579,"connected_time":1042000000000,"state":"active","ping":80},{"user_id":50,"name":"Penjamin Blinkerton","steam_id":76561198111866305,"connected_time":3351000000000,"state":"active","ping":93},{"user_id":70,"name":"Cato Sicarius","steam_id":76561198185598330,"connected_time":1630000000000,"state":"active","ping":67},{"user_id":9,"name":"pie gaming","steam_id":76561198072592880,"connected_time":4945000000000,"state":"active","ping":41},{"user_id":10,"name":"Degmac","steam_id":76561198100163166,"connected_time":4942000000000,"state":"active","ping":47},{"user_id":11,"name":"[slug]","steam_id":76561197989592178,"connected_time":4937000000000,"state":"active","ping":61},{"user_id":88,"name":"Chilihohoho","steam_id":76561198004929152,"connected_time":68000000000,"state":"active","ping":103},{"user_id":54,"name":"BeerDrinker49000000000","steam_id":76561198846515168,"connected_time":3148000000000,"state":"active","ping":122},{"user_id":76,"name":"Grill Skills","steam_id":76561198053575147,"connected_time":1307000000000,"state":"active","ping":102},{"user_id":86,"name":"Scorpie Doodle","steam_id":76561198021845763,"connected_time":481000000000,"state":"active","ping":51},{"user_id":16,"name":"hej","steam_id":76561197996366940,"connected_time":4901000000000,"state":"active","ping":60},{"user_id":44,"name":"Money Collector","steam_id":76561198046249467,"connected_time":3914000000000,"state":"active","ping":48},{"user_id":18,"name":"Swash","steam_id":76561197969421355,"connected_time":4898000000000,"state":"active","ping":54},{"user_id":89,"name":"greg club","steam_id":76561198370506193,"connected_time":7000000000,"state":"spawning","ping":69},{"user_id":73,"name":"Cyborg","steam_id":76561198278373788,"connected_time":1573000000000,"state":"active","ping":42},{"user_id":21,"name":"MedRed™ #IATAH","steam_id":76561198002962970,"connected_time":4891000000000,"state":"active","ping":101},{"user_id":83,"name":"Wolverine466","steam_id":76561198417522516,"connected_time":544000000000,"state":"active","ping":41},{"user_id":74,"name":"TransWomanGaming","steam_id":76561198809645656,"connected_time":1549000000000,"state":"active","ping":76},{"user_id":77,"name":"jumbert","steam_id":76561198355231658,"connected_time":1292000000000,"state":"active","ping":83},{"user_id":79,"name":"General Fisticuffs","steam_id":76561198255721392,"connected_time":1228000000000,"state":"active","ping":79},{"user_id":87,"name":"Garbage","steam_id":76561198286796934,"connected_time":465000000000,"state":"active","ping":72},{"user_id":84,"name":"Audiphon","steam_id":76561198051340300,"connected_time":530000000000,"state":"active","ping":148}]},{"server_id":106,"name":"Uncletopia | Chicago | 2 | All Maps","name_short":"chi-2","host":"chi-1.us.uncletopia.com","port":27025,"enabled":true,"region":"us-central","cc":"us","latitude":41.881832,"longitude":-87.62318,"reserved":0,"last_update":"0001-01-01T00:00:00Z","name_a2s":"Uncletopia | Chicago | 2 | All Maps","protocol":17,"map":"pl_borneo","folder":"tf","game":"Team Fortress","app_id":440,"player_count":24,"max_players":24,"Bots":0,"server_type":"Dedicated","server_os":"Linux","password":true,"vac":true,"version":"7723704","steam_id":85568392924469985,"keywords":["nocrits","nodmgspread","payload","uncletopia"],"game_id":440,"stv_port":27026,"stv_name":"Uncletopia | Chicago | 2 | All Maps | STV","players":[{"user_id":59,"name":"beatwice from uwumineko","steam_id":76561198114679256,"connected_time":1214000000000,"state":"active","ping":65},{"user_id":65,"name":"slimjim557","steam_id":76561199094710853,"connected_time":499000000000,"state":"active","ping":64},{"user_id":51,"name":"Fluffeline","steam_id":76561198352909489,"connected_time":2267000000000,"state":"active","ping":142},{"user_id":56,"name":"Artic_Ryuu","steam_id":76561198182194918,"connected_time":1782000000000,"state":"active","ping":82},{"user_id":64,"name":"GUINNESS ANYONE?","steam_id":76561197985970131,"connected_time":616000000000,"state":"active","ping":67},{"user_id":71,"name":"XavierPlayR","steam_id":76561198151429366,"connected_time":132000000000,"state":"active","ping":64},{"user_id":13,"name":"Devious Wink","steam_id":76561198043571022,"connected_time":4662000000000,"state":"active","ping":62},{"user_id":47,"name":"River Rat","steam_id":76561198116383976,"connected_time":2451000000000,"state":"active","ping":105},{"user_id":68,"name":"PinkSpider","steam_id":76561198310119828,"connected_time":475000000000,"state":"active","ping":85},{"user_id":74,"name":"forklift circumcised","steam_id":76561198278756087,"connected_time":69000000000,"state":"active","ping":90},{"user_id":30,"name":"『Hazon』","steam_id":76561198119852107,"connected_time":3124000000000,"state":"active","ping":64},{"user_id":50,"name":"NataKilar","steam_id":76561198041274441,"connected_time":2325000000000,"state":"active","ping":55},{"user_id":67,"name":"Why Kappa","steam_id":76561198374425955,"connected_time":489000000000,"state":"active","ping":61},{"user_id":34,"name":"Second Hand Smoke Gaming","steam_id":76561198380926090,"connected_time":3015000000000,"state":"active","ping":47},{"user_id":54,"name":"Blitzy","steam_id":76561198149472890,"connected_time":1851000000000,"state":"active","ping":74},{"user_id":36,"name":"Yogsto-dude","steam_id":76561199180079018,"connected_time":2966000000000,"state":"active","ping":174},{"user_id":37,"name":"glug slug","steam_id":76561197988690273,"connected_time":2955000000000,"state":"active","ping":71},{"user_id":48,"name":"ctap2lean","steam_id":76561198068538473,"connected_time":2396000000000,"state":"active","ping":80},{"user_id":39,"name":"merty","steam_id":76561198067874268,"connected_time":2931000000000,"state":"active","ping":63},{"user_id":40,"name":"longer arms","steam_id":76561197984752473,"connected_time":2923000000000,"state":"active","ping":54},{"user_id":62,"name":"Dill","steam_id":76561197985091914,"connected_time":1210000000000,"state":"active","ping":63},{"user_id":53,"name":"Jimmy","steam_id":76561197970838363,"connected_time":1868000000000,"state":"active","ping":67},{"user_id":43,"name":"MagicKing27ttv","steam_id":76561198276953046,"connected_time":2898000000000,"state":"active","ping":62},{"user_id":72,"name":"Wso1123","steam_id":76561198048040111,"connected_time":123000000000,"state":"active","ping":60}]},{"server_id":402,"name":"Uncletopia | Chicago | 3 | All Maps","name_short":"chi-3","host":"chi-1.us.uncletopia.com","port":27035,"enabled":true,"region":"us-central","cc":"us","latitude":41.881832,"longitude":-87.62318,"reserved":0,"last_update":"0001-01-01T00:00:00Z","name_a2s":"Uncletopia | Chicago | 3 | All Maps","protocol":17,"map":"cp_mountainlab","folder":"tf","game":"Team Fortress","app_id":440,"player_count":0,"max_players":24,"Bots":0,"server_type":"Dedicated","server_os":"Linux","password":true,"vac":true,"version":"7723704","steam_id":85568392924515191,"keywords":["cp","nocrits","nodmgspread","uncletopia"],"game_id":440,"stv_port":27036,"stv_name":"Uncletopia | Chicago | 3 | All Maps | STV","players":null},{"server_id":403,"name":"Uncletopia | Chicago | 4 | All Maps","name_short":"chi-4","host":"chi-1.us.uncletopia.com","port":27045,"enabled":true,"region":"us-central","cc":"us","latitude":41.881832,"longitude":-87.62318,"reserved":0,"last_update":"0001-01-01T00:00:00Z","name_a2s":"Uncletopia | Chicago | 4 | All Maps","protocol":17,"map":"pl_badwater","folder":"tf","game":"Team Fortress","app_id":440,"player_count":23,"max_players":24,"Bots":0,"server_type":"Dedicated","server_os":"Linux","password":true,"vac":true,"version":"7723704","steam_id":85568392924515193,"keywords":["nocrits","nodmgspread","payload","uncletopia"],"game_id":440,"stv_port":27046,"stv_name":"Uncletopia | Chicago | 4 | All Maps | STV","players":[{"user_id":13,"name":"M249 | Spectre","steam_id":76561198118334485,"connected_time":4848000000000,"state":"active","ping":69},{"user_id":4,"name":"Ye (I Love Hitler) West","steam_id":76561198068830312,"connected_time":4958000000000,"state":"active","ping":45},{"user_id":8,"name":"Zodyxajon","steam_id":76561198165561581,"connected_time":4921000000000,"state":"active","ping":61},{"user_id":7,"name":"Wug","steam_id":76561198084112264,"connected_time":4943000000000,"state":"active","ping":75},{"user_id":36,"name":"Strange Child","steam_id":76561198082523009,"connected_time":3914000000000,"state":"active","ping":49},{"user_id":37,"name":"Bloop","steam_id":76561198253563271,"connected_time":3802000000000,"state":"active","ping":43},{"user_id":60,"name":"weeb_whacker #Jenius","steam_id":76561198187098041,"connected_time":943000000000,"state":"active","ping":55},{"user_id":40,"name":"q!k.glodfyeehs","steam_id":76561198086008437,"connected_time":3176000000000,"state":"active","ping":80},{"user_id":53,"name":"nightmare","steam_id":76561198170642407,"connected_time":1314000000000,"state":"active","ping":74},{"user_id":68,"name":"WONDER.","steam_id":76561198092527854,"connected_time":760000000000,"state":"active","ping":93},{"user_id":57,"name":"NyanPigz","steam_id":76561198124136007,"connected_time":1287000000000,"state":"active","ping":63},{"user_id":38,"name":"NOLSEY","steam_id":76561198108959504,"connected_time":3187000000000,"state":"active","ping":55},{"user_id":71,"name":"just call me joe","steam_id":76561198043911582,"connected_time":8000000000,"state":"spawning","ping":66},{"user_id":22,"name":"yuji","steam_id":76561198401572620,"connected_time":4521000000000,"state":"active","ping":56},{"user_id":70,"name":"jt","steam_id":76561198059575962,"connected_time":434000000000,"state":"active","ping":52},{"user_id":66,"name":"ramensniffer","steam_id":76561198046870291,"connected_time":819000000000,"state":"active","ping":60},{"user_id":41,"name":"{AmethystPlays}","steam_id":76561198314936891,"connected_time":2905000000000,"state":"active","ping":85},{"user_id":67,"name":"Zee❤","steam_id":76561198274550638,"connected_time":816000000000,"state":"active","ping":51},{"user_id":54,"name":"Murk Wahlberg","steam_id":76561198131467867,"connected_time":1311000000000,"state":"active","ping":88},{"user_id":52,"name":"josh","steam_id":76561198111565081,"connected_time":1374000000000,"state":"active","ping":106},{"user_id":62,"name":"❤ Ashley ❤","steam_id":76561198056428303,"connected_time":942000000000,"state":"active","ping":142},{"user_id":32,"name":"cube","steam_id":76561197991759721,"connected_time":4352000000000,"state":"active","ping":61},{"user_id":39,"name":"Rat God","steam_id":76561198066161598,"connected_time":3187000000000,"state":"active","ping":43}]},{"server_id":36,"name":"Uncletopia | Chicago | 5 | All Maps","name_short":"chi-5","host":"chi-2.us.uncletopia.com","port":27015,"enabled":true,"region":"us-central","cc":"us","latitude":41.881832,"longitude":-87.62318,"reserved":0,"last_update":"0001-01-01T00:00:00Z","name_a2s":"Uncletopia | Chicago | 5 | All Maps","protocol":17,"map":"cp_altitude","folder":"tf","game":"Team Fortress","app_id":440,"player_count":4,"max_players":24,"Bots":0,"server_type":"Dedicated","server_os":"Linux","password":true,"vac":true,"version":"7723704","steam_id":85568392924866362,"keywords":["cp","nocrits","nodmgspread","uncletopia"],"game_id":440,"stv_port":27016,"stv_name":"Uncletopia | Chicago | 5 | All Maps | STV","players":[{"user_id":4,"name":"mmph","steam_id":76561198204213057,"connected_time":86000000000,"state":"active","ping":58},{"user_id":5,"name":"The Gentlemen","steam_id":76561198828421684,"connected_time":23000000000,"state":"spawning","ping":228},{"user_id":6,"name":"Crizer","steam_id":76561199006271691,"connected_time":22000000000,"state":"active","ping":64},{"user_id":7,"name":"PoopCock","steam_id":76561198119363542,"connected_time":10000000000,"state":"spawning","ping":59}]},{"server_id":37,"name":"Uncletopia | Chicago | 6 | All Maps","name_short":"chi-6","host":"chi-2.us.uncletopia.com","port":27025,"enabled":true,"region":"us-central","cc":"us","latitude":41.881832,"longitude":-87.62318,"reserved":0,"last_update":"0001-01-01T00:00:00Z","name_a2s":"Uncletopia | Chicago | 6 | All Maps","protocol":17,"map":"pl_swiftwater_final1","folder":"tf","game":"Team Fortress","app_id":440,"player_count":0,"max_players":24,"Bots":0,"server_type":"Dedicated","server_os":"Linux","password":true,"vac":true,"version":"7723704","steam_id":85568392924866363,"keywords":["nocrits","nodmgspread","payload","uncletopia"],"game_id":440,"stv_port":27026,"stv_name":"Uncletopia | Chicago | 6 | All Maps | STV","players":null},{"server_id":38,"name":"Uncletopia | Chicago | 7 | Stopwatch Beta","name_short":"chi-7","host":"chi-2.us.uncletopia.com","port":27035,"enabled":true,"region":"us-central","cc":"us","latitude":41.881832,"longitude":-87.62318,"reserved":0,"last_update":"0001-01-01T00:00:00Z","name_a2s":"Uncletopia | Chicago | 7 | Stopwatch Beta","protocol":17,"map":"pl_badwater","folder":"tf","game":"Team Fortress","app_id":440,"player_count":0,"max_players":24,"Bots":0,"server_type":"Dedicated","server_os":"Linux","password":true,"vac":true,"version":"7723704","steam_id":85568392924866364,"keywords":["nocrits","nodmgspread","payload","uncletopia"],"game_id":440,"stv_port":27036,"stv_name":"Uncletopia | Chicago | 7 | Stopwatch Beta | STV","players":null},{"server_id":39,"name":"Uncletopia | Chicago | 8 | Community","name_short":"chi-8","host":"chi-2.us.uncletopia.com","port":27045,"enabled":true,"region":"us-central","cc":"us","latitude":41.881832,"longitude":-87.62318,"reserved":0,"last_update":"0001-01-01T00:00:00Z","name_a2s":"Uncletopia | Chicago | 8 | Community","protocol":17,"map":"workshop/koth_bagel_rc5.ugc2514036946","folder":"tf","game":"Team Fortress","app_id":440,"player_count":23,"max_players":24,"Bots":0,"server_type":"Dedicated","server_os":"Linux","password":true,"vac":true,"version":"7723704","steam_id":85568392924866365,"keywords":["cp","nocrits","nodmgspread","uncletopia"],"game_id":440,"stv_port":27046,"stv_name":"Uncletopia | Chicago | 8 | Community | STV","players":[{"user_id":89,"name":"DiscoTraveler","steam_id":76561199240168088,"connected_time":1305000000000,"state":"active","ping":63},{"user_id":110,"name":"DoubleCheck","steam_id":76561198105194407,"connected_time":316000000000,"state":"active","ping":38},{"user_id":87,"name":"stump","steam_id":76561198012653832,"connected_time":1414000000000,"state":"active","ping":46},{"user_id":111,"name":"faxxy","steam_id":76561198079621240,"connected_time":137000000000,"state":"active","ping":65},{"user_id":107,"name":"Yunaa","steam_id":76561198244315088,"connected_time":608000000000,"state":"active","ping":52},{"user_id":51,"name":"Snoopy","steam_id":76561198273735974,"connected_time":3290000000000,"state":"active","ping":94},{"user_id":79,"name":"Kdash","steam_id":76561198043829155,"connected_time":1660000000000,"state":"active","ping":81},{"user_id":92,"name":"JakeTheBoi","steam_id":76561199278135331,"connected_time":1250000000000,"state":"active","ping":74},{"user_id":93,"name":"Eon","steam_id":76561198085175016,"connected_time":1243000000000,"state":"active","ping":69},{"user_id":104,"name":"bad","steam_id":76561198090531755,"connected_time":920000000000,"state":"active","ping":75},{"user_id":80,"name":"PlatinumJack","steam_id":76561198336657976,"connected_time":1643000000000,"state":"active","ping":73},{"user_id":41,"name":"TÖZI","steam_id":76561198045268695,"connected_time":3745000000000,"state":"active","ping":61},{"user_id":69,"name":"mohamy_19","steam_id":76561198075833698,"connected_time":1874000000000,"state":"active","ping":75},{"user_id":108,"name":"Tilde Kill","steam_id":76561198144429324,"connected_time":509000000000,"state":"active","ping":56},{"user_id":112,"name":"Soup Dumpling","steam_id":76561197971352904,"connected_time":68000000000,"state":"active","ping":60},{"user_id":27,"name":"Bagaboned","steam_id":76561198043761335,"connected_time":4558000000000,"state":"active","ping":96},{"user_id":113,"name":"LalitoTV","steam_id":76561198334302951,"connected_time":56000000000,"state":"active","ping":95},{"user_id":95,"name":"Lizbeth!","steam_id":76561198134418839,"connected_time":1191000000000,"state":"active","ping":75},{"user_id":109,"name":"Deez Nutz","steam_id":76561198057374871,"connected_time":487000000000,"state":"active","ping":64},{"user_id":114,"name":"Godfinger","steam_id":76561198426346549,"connected_time":46000000000,"state":"active","ping":87},{"user_id":32,"name":"Zubats |TAOZ|","steam_id":76561198041819445,"connected_time":4480000000000,"state":"active","ping":51},{"user_id":100,"name":"JINJI","steam_id":76561198311686677,"connected_time":1116000000000,"state":"active","ping":77},{"user_id":34,"name":"Dad Rock Deluxe","steam_id":76561198051224819,"connected_time":4430000000000,"state":"active","ping":68}]},{"server_id":8,"name":"Uncletopia | Dallas | 1 | All Maps","name_short":"dal-1","host":"dal-1.us.uncletopia.com","port":27015,"enabled":true,"region":"us-central","cc":"us","latitude":32.779167,"longitude":-96.80889,"reserved":0,"last_update":"0001-01-01T00:00:00Z","name_a2s":"Uncletopia | Dallas | 1 | All Maps","protocol":17,"map":"cp_altitude","folder":"tf","game":"Team Fortress","app_id":440,"player_count":0,"max_players":24,"Bots":0,"server_type":"Dedicated","server_os":"Linux","password":true,"vac":true,"version":"7723704","steam_id":85568392924469986,"keywords":["cp","nocrits","nodmgspread","uncletopia"],"game_id":440,"stv_port":27016,"stv_name":"Uncletopia | Dallas | 1 | All Maps | STV","players":null},{"server_id":108,"name":"Uncletopia | Dallas | 2 | All Maps","name_short":"dal-2","host":"dal-1.us.uncletopia.com","port":27025,"enabled":true,"region":"us-central","cc":"us","latitude":32.779167,"longitude":-96.80889,"reserved":0,"last_update":"0001-01-01T00:00:00Z","name_a2s":"Uncletopia | Dallas | 2 | All Maps","protocol":17,"map":"cp_dustbowl","folder":"tf","game":"Team Fortress","app_id":440,"player_count":24,"max_players":24,"Bots":0,"server_type":"Dedicated","server_os":"Linux","password":true,"vac":true,"version":"7723704","steam_id":85568392924469988,"keywords":["cp","nocrits","nodmgspread","uncletopia"],"game_id":440,"stv_port":27026,"stv_name":"Uncletopia | Dallas | 2 | All Maps | STV","players":[{"user_id":18,"name":"B R O U T","steam_id":76561199161322235,"connected_time":4937000000000,"state":"active","ping":60},{"user_id":19,"name":"meh","steam_id":76561198136808129,"connected_time":4936000000000,"state":"active","ping":63},{"user_id":21,"name":"★CyberWario★","steam_id":76561198362810244,"connected_time":4933000000000,"state":"active","ping":48},{"user_id":51,"name":"bigturr","steam_id":76561199043827112,"connected_time":750000000000,"state":"active","ping":79},{"user_id":14,"name":"G. Howard Dee","steam_id":76561198058382812,"connected_time":4947000000000,"state":"active","ping":63},{"user_id":44,"name":"Lezabel","steam_id":76561198970753261,"connected_time":948000000000,"state":"active","ping":74},{"user_id":46,"name":"Vazquez Perez","steam_id":76561199185750989,"connected_time":929000000000,"state":"active","ping":70},{"user_id":62,"name":"Faust main","steam_id":76561198971799149,"connected_time":233000000000,"state":"active","ping":62},{"user_id":64,"name":"Tokey","steam_id":76561198825943127,"connected_time":62000000000,"state":"active","ping":71},{"user_id":38,"name":"+","steam_id":76561198262422184,"connected_time":2530000000000,"state":"active","ping":54},{"user_id":13,"name":"★CyberMario★","steam_id":76561198045798329,"connected_time":4950000000000,"state":"active","ping":51},{"user_id":65,"name":"18 pounds","steam_id":76561198025804838,"connected_time":58000000000,"state":"active","ping":47},{"user_id":39,"name":"Medical Asshat","steam_id":76561198004584315,"connected_time":2529000000000,"state":"active","ping":88},{"user_id":17,"name":"poey","steam_id":76561198865346767,"connected_time":4938000000000,"state":"active","ping":69},{"user_id":50,"name":"El Benjador","steam_id":76561198345883103,"connected_time":797000000000,"state":"active","ping":69},{"user_id":23,"name":"r0ck","steam_id":76561198141716764,"connected_time":4929000000000,"state":"active","ping":99},{"user_id":55,"name":"Daz","steam_id":76561198041431938,"connected_time":552000000000,"state":"active","ping":79},{"user_id":43,"name":"★CyberWaluigi★","steam_id":76561198845834620,"connected_time":1563000000000,"state":"active","ping":55},{"user_id":27,"name":"Apetometrist","steam_id":76561198045391635,"connected_time":4903000000000,"state":"active","ping":76},{"user_id":61,"name":"canadian birds","steam_id":76561198059466588,"connected_time":247000000000,"state":"active","ping":76},{"user_id":60,"name":"TeaPirate [TTC]","steam_id":76561197993068398,"connected_time":436000000000,"state":"active","ping":79},{"user_id":59,"name":"aaaaaaaAAAAAAAAAAA :D","steam_id":76561198198984282,"connected_time":451000000000,"state":"active","ping":99},{"user_id":40,"name":"Pinetree w/ apples.","steam_id":76561198105411709,"connected_time":1955000000000,"state":"active","ping":105},{"user_id":67,"name":"belieber2011","steam_id":76561198998340318,"connected_time":55000000000,"state":"active","ping":128}]},{"server_id":5,"name":"Uncletopia | Frankfurt | 1 | All Maps","name_short":"frk-1","host":"frk-1.de.uncletopia.com","port":27015,"enabled":true,"region":"eu","cc":"de","latitude":50.110924,"longitude":8.682127,"reserved":0,"last_update":"0001-01-01T00:00:00Z","name_a2s":"Uncletopia | Frankfurt | 1 | All Maps","protocol":17,"map":"koth_highpass","folder":"tf","game":"Team Fortress","app_id":440,"player_count":0,"max_players":24,"Bots":0,"server_type":"Dedicated","server_os":"Linux","password":true,"vac":true,"version":"7723704","steam_id":85568392924469989,"keywords":["cp","nocrits","nodmgspread","uncletopia"],"game_id":440,"stv_port":27016,"stv_name":"Uncletopia | Frankfurt | 1 | All Maps | STV","players":null},{"server_id":110,"name":"Uncletopia | Frankfurt | 2 | All Maps","name_short":"frk-2","host":"frk-1.de.uncletopia.com","port":27025,"enabled":true,"region":"eu","cc":"de","latitude":50.110924,"longitude":8.682127,"reserved":0,"last_update":"0001-01-01T00:00:00Z","name_a2s":"Uncletopia | Frankfurt | 2 | All Maps","protocol":17,"map":"cp_snakewater_final1","folder":"tf","game":"Team Fortress","app_id":440,"player_count":0,"max_players":24,"Bots":0,"server_type":"Dedicated","server_os":"Linux","password":true,"vac":true,"version":"7723704","steam_id":85568392924469990,"keywords":["cp","nocrits","nodmgspread","uncletopia"],"game_id":440,"stv_port":27026,"stv_name":"Uncletopia | Frankfurt | 2 | All Maps | STV","players":null},{"server_id":308,"name":"Uncletopia | Frankfurt | 3 | All Maps","name_short":"frk-3","host":"frk-1.de.uncletopia.com","port":27035,"enabled":true,"region":"eu","cc":"de","latitude":50.110924,"longitude":8.682127,"reserved":0,"last_update":"0001-01-01T00:00:00Z","name_a2s":"Uncletopia | Frankfurt | 3 | All Maps","protocol":17,"map":"pl_barnblitz","folder":"tf","game":"Team Fortress","app_id":440,"player_count":0,"max_players":24,"Bots":0,"server_type":"Dedicated","server_os":"Linux","password":true,"vac":true,"version":"7723704","steam_id":85568392924504274,"keywords":["nocrits","nodmgspread","payload","uncletopia"],"game_id":440,"stv_port":27036,"stv_name":"Uncletopia | Frankfurt | 3 | All Maps | STV","players":null},{"server_id":309,"name":"Uncletopia | Frankfurt | 4 | All Maps","name_short":"frk-4","host":"frk-1.de.uncletopia.com","port":27045,"enabled":true,"region":"eu","cc":"de","latitude":50.110924,"longitude":8.682127,"reserved":0,"last_update":"0001-01-01T00:00:00Z","name_a2s":"Uncletopia | Frankfurt | 4 | All Maps","protocol":17,"map":"pl_snowycoast","folder":"tf","game":"Team Fortress","app_id":440,"player_count":0,"max_players":24,"Bots":0,"server_type":"Dedicated","server_os":"Linux","password":true,"vac":true,"version":"7723704","steam_id":85568392924504275,"keywords":["nocrits","nodmgspread","payload","uncletopia"],"game_id":440,"stv_port":27046,"stv_name":"Uncletopia | Frankfurt | 4 | All Maps | STV","players":null},{"server_id":310,"name":"Uncletopia | Frankfurt | 5 | All Maps","name_short":"frk-5","host":"frk-1.de.uncletopia.com","port":27055,"enabled":true,"region":"eu","cc":"de","latitude":50.110924,"longitude":8.682127,"reserved":0,"last_update":"0001-01-01T00:00:00Z","name_a2s":"Uncletopia | Frankfurt | 5 | All Maps","protocol":17,"map":"pl_barnblitz","folder":"tf","game":"Team Fortress","app_id":440,"player_count":0,"max_players":24,"Bots":0,"server_type":"Dedicated","server_os":"Linux","password":true,"vac":true,"version":"7723704","steam_id":85568392924504277,"keywords":["nocrits","nodmgspread","payload","uncletopia"],"game_id":440,"stv_port":27056,"stv_name":"Uncletopia | Frankfurt | 5 | All Maps | STV","players":null},{"server_id":311,"name":"Uncletopia | Frankfurt | 6 | All Maps","name_short":"frk-6","host":"frk-1.de.uncletopia.com","port":27065,"enabled":true,"region":"eu","cc":"de","latitude":50.110924,"longitude":8.682127,"reserved":0,"last_update":"0001-01-01T00:00:00Z","name_a2s":"Uncletopia | Frankfurt | 6 | All Maps","protocol":17,"map":"pl_badwater","folder":"tf","game":"Team Fortress","app_id":440,"player_count":0,"max_players":24,"Bots":0,"server_type":"Dedicated","server_os":"Linux","password":true,"vac":true,"version":"7723704","steam_id":85568392924504278,"keywords":["nocrits","nodmgspread","payload","uncletopia"],"game_id":440,"stv_port":27066,"stv_name":"Uncletopia | Frankfurt | 6 | All Maps | STV","players":null},{"server_id":23,"name":"Uncletopia | Frankfurt | 7 | Stopwatch Beta","name_short":"frk-7","host":"frk-1.de.uncletopia.com","port":27075,"enabled":true,"region":"eu","cc":"de","latitude":50.110924,"longitude":8.682127,"reserved":0,"last_update":"0001-01-01T00:00:00Z","name_a2s":"Uncletopia | Frankfurt | 7 | Stopwatch Beta","protocol":17,"map":"koth_viaduct","folder":"tf","game":"Team Fortress","app_id":440,"player_count":0,"max_players":24,"Bots":0,"server_type":"Dedicated","server_os":"Linux","password":true,"vac":true,"version":"7723704","steam_id":85568392924742827,"keywords":["cp","nocrits","nodmgspread","uncletopia"],"game_id":440,"stv_port":27076,"stv_name":"Uncletopia | Frankfurt | 7 | Stopwatch Beta | STV","players":null},{"server_id":24,"name":"Uncletopia | Frankfurt | 8 | Community","name_short":"frk-8","host":"frk-1.de.uncletopia.com","port":27085,"enabled":true,"region":"eu","cc":"de","latitude":50.110924,"longitude":8.682127,"reserved":0,"last_update":"0001-01-01T00:00:00Z","name_a2s":"Uncletopia | Frankfurt | 8 | Community","protocol":17,"map":"pl_frontier_final","folder":"tf","game":"Team Fortress","app_id":440,"player_count":0,"max_players":24,"Bots":0,"server_type":"Dedicated","server_os":"Linux","password":true,"vac":true,"version":"7723704","steam_id":85568392924742828,"keywords":["nocrits","nodmgspread","payload","uncletopia"],"game_id":440,"stv_port":27086,"stv_name":"Uncletopia | Frankfurt | 8 | Community | STV","players":null},{"server_id":202,"name":"Uncletopia | Hong Kong | 1 | All Maps","name_short":"hgk-1","host":"hgk-1.hk.uncletopia.com","port":27015,"enabled":true,"region":"asia","cc":"hk","latitude":22.302711,"longitude":114.177216,"reserved":0,"last_update":"0001-01-01T00:00:00Z","name_a2s":"Uncletopia | Hong Kong | 1 | All Maps","protocol":17,"map":"cp_dustbowl","folder":"tf","game":"Team Fortress","app_id":440,"player_count":24,"max_players":24,"Bots":0,"server_type":"Dedicated","server_os":"Linux","password":true,"vac":true,"version":"7723704","steam_id":85568392924494504,"keywords":["cp","nocrits","nodmgspread","uncletopia"],"game_id":440,"stv_port":27016,"stv_name":"Uncletopia | Hong Kong | 1 | All Maps | STV","players":[{"user_id":33,"name":":D","steam_id":76561198009692495,"connected_time":272000000000,"state":"active","ping":88},{"user_id":4,"name":"Windmill","steam_id":76561199230997986,"connected_time":997000000000,"state":"active","ping":74},{"user_id":5,"name":"Me is gaming","steam_id":76561199025438331,"connected_time":996000000000,"state":"active","ping":56},{"user_id":6,"name":"Creeper-Chan","steam_id":76561198172623219,"connected_time":995000000000,"state":"active","ping":53},{"user_id":7,"name":"UZ","steam_id":76561198179320563,"connected_time":995000000000,"state":"active","ping":85},{"user_id":8,"name":"Pillboi","steam_id":76561198011172886,"connected_time":994000000000,"state":"active","ping":43},{"user_id":34,"name":"Bingsu","steam_id":76561199385814973,"connected_time":28000000000,"state":"active","ping":74},{"user_id":10,"name":"Milk❤ (most hated guy in ut)","steam_id":76561198163911560,"connected_time":993000000000,"state":"active","ping":100},{"user_id":11,"name":"Vortex Morez","steam_id":76561198833527091,"connected_time":992000000000,"state":"active","ping":89},{"user_id":30,"name":"ุ","steam_id":76561198130085148,"connected_time":606000000000,"state":"active","ping":76},{"user_id":13,"name":"Oral Cigarettes","steam_id":76561198347418251,"connected_time":991000000000,"state":"active","ping":63},{"user_id":14,"name":"alphakennybuddy","steam_id":76561199219625644,"connected_time":987000000000,"state":"active","ping":104},{"user_id":15,"name":"Lúd","steam_id":76561198828840546,"connected_time":983000000000,"state":"active","ping":73},{"user_id":16,"name":"i like cheese","steam_id":76561198085893796,"connected_time":983000000000,"state":"active","ping":102},{"user_id":17,"name":"煙海 | Enkai","steam_id":76561198050460825,"connected_time":983000000000,"state":"active","ping":82},{"user_id":18,"name":"KHMaster","steam_id":76561199198453345,"connected_time":981000000000,"state":"active","ping":65},{"user_id":19,"name":"CaptainBozo","steam_id":76561199151959977,"connected_time":976000000000,"state":"active","ping":55},{"user_id":31,"name":"Kek","steam_id":76561199004616229,"connected_time":573000000000,"state":"active","ping":100},{"user_id":22,"name":"Bertengkar","steam_id":76561198213031155,"connected_time":960000000000,"state":"active","ping":99},{"user_id":23,"name":"bakabazooka(merrychrismas)","steam_id":76561198061628689,"connected_time":958000000000,"state":"active","ping":59},{"user_id":32,"name":"r/leroy","steam_id":76561199137927625,"connected_time":501000000000,"state":"active","ping":115},{"user_id":25,"name":"Perajocheck","steam_id":76561198845865566,"connected_time":887000000000,"state":"active","ping":136},{"user_id":26,"name":"The blue phonograph","steam_id":76561199286547213,"connected_time":864000000000,"state":"active","ping":122},{"user_id":29,"name":"Yes'Tir'Day","steam_id":76561198091798037,"connected_time":746000000000,"state":"active","ping":97}]},{"server_id":1,"name":"Uncletopia | Los Angeles | 1 | All Maps","name_short":"lax-1","host":"lax-1.us.uncletopia.com","port":27015,"enabled":true,"region":"us-west","cc":"us","latitude":33.94279,"longitude":-118.41004,"reserved":0,"last_update":"0001-01-01T00:00:00Z","name_a2s":"Uncletopia | Los Angeles | 1 | All Maps","protocol":17,"map":"pl_snowycoast","folder":"tf","game":"Team Fortress","app_id":440,"player_count":0,"max_players":24,"Bots":0,"server_type":"Dedicated","server_os":"Linux","password":true,"vac":true,"version":"7723704","steam_id":85568392924469991,"keywords":["nocrits","nodmgspread","payload","uncletopia"],"game_id":440,"stv_port":27016,"stv_name":"Uncletopia | Los Angeles | 1 | All Maps | STV","players":null},{"server_id":112,"name":"Uncletopia | Los Angeles | 2 | All Maps","name_short":"lax-2","host":"lax-1.us.uncletopia.com","port":27025,"enabled":true,"region":"us-west","cc":"us","latitude":33.94279,"longitude":-118.41004,"reserved":0,"last_update":"0001-01-01T00:00:00Z","name_a2s":"Uncletopia | Los Angeles | 2 | All Maps","protocol":17,"map":"koth_viaduct","folder":"tf","game":"Team Fortress","app_id":440,"player_count":0,"max_players":24,"Bots":0,"server_type":"Dedicated","server_os":"Linux","password":true,"vac":true,"version":"7723704","steam_id":85568392924469992,"keywords":["cp","nocrits","nodmgspread","uncletopia"],"game_id":440,"stv_port":27026,"stv_name":"Uncletopia | Los Angeles | 2 | All Maps | STV","players":null},{"server_id":324,"name":"Uncletopia | Los Angeles | 3 | All Maps","name_short":"lax-3","host":"lax-1.us.uncletopia.com","port":27035,"enabled":true,"region":"us-west","cc":"us","latitude":33.94279,"longitude":-118.41004,"reserved":0,"last_update":"0001-01-01T00:00:00Z","name_a2s":"Uncletopia | Los Angeles | 3 | All Maps","protocol":17,"map":"koth_viaduct","folder":"tf","game":"Team Fortress","app_id":440,"player_count":0,"max_players":24,"Bots":0,"server_type":"Dedicated","server_os":"Linux","password":true,"vac":true,"version":"7723704","steam_id":85568392924510198,"keywords":["cp","nocrits","nodmgspread","uncletopia"],"game_id":440,"stv_port":27036,"stv_name":"Uncletopia | Los Angeles | 3 | All Maps | STV","players":null},{"server_id":25,"name":"Uncletopia | Los Angeles | 4 | Stopwatch Beta","name_short":"lax-4","host":"lax-1.us.uncletopia.com","port":27045,"enabled":true,"region":"us-west","cc":"us","latitude":33.94279,"longitude":-118.41004,"reserved":0,"last_update":"0001-01-01T00:00:00Z","name_a2s":"Uncletopia | Los Angeles | 4 | Stopwatch Beta","protocol":17,"map":"cp_sunshine","folder":"tf","game":"Team Fortress","app_id":440,"player_count":0,"max_players":24,"Bots":0,"server_type":"Dedicated","server_os":"Linux","password":true,"vac":true,"version":"7723704","steam_id":85568392924510199,"keywords":["cp","nocrits","nodmgspread","uncletopia"],"game_id":440,"stv_port":27046,"stv_name":"Uncletopia | Los Angeles | 4 | Stopwatch Beta | STV","players":null},{"server_id":11,"name":"Uncletopia | London | 1 | All Maps","name_short":"lon-1","host":"lon-1.uk.uncletopia.com","port":27015,"enabled":true,"region":"eu","cc":"gb","latitude":51.509865,"longitude":-0.118092,"reserved":0,"last_update":"0001-01-01T00:00:00Z","name_a2s":"Uncletopia | London | 1 | All Maps","protocol":17,"map":"koth_viaduct","folder":"tf","game":"Team Fortress","app_id":440,"player_count":0,"max_players":24,"Bots":0,"server_type":"Dedicated","server_os":"Linux","password":true,"vac":true,"version":"7723704","steam_id":85568392924367362,"keywords":["cp","nocrits","nodmgspread","uncletopia"],"game_id":440,"stv_port":27016,"stv_name":"Uncletopia | London | 1 | All Maps | STV","players":null},{"server_id":114,"name":"Uncletopia | London | 2 | All Maps","name_short":"lon-2","host":"lon-1.uk.uncletopia.com","port":27025,"enabled":true,"region":"eu","cc":"gb","latitude":51.509865,"longitude":-0.118092,"reserved":0,"last_update":"0001-01-01T00:00:00Z","name_a2s":"Uncletopia | London | 2 | All Maps","protocol":17,"map":"pl_upward","folder":"tf","game":"Team Fortress","app_id":440,"player_count":0,"max_players":24,"Bots":0,"server_type":"Dedicated","server_os":"Linux","password":true,"vac":true,"version":"7723704","steam_id":85568392924470941,"keywords":["nocrits","nodmgspread","payload","uncletopia"],"game_id":440,"stv_port":27026,"stv_name":"Uncletopia | London | 2 | All Maps | STV","players":null},{"server_id":320,"name":"Uncletopia | London | 3 | All Maps","name_short":"lon-3","host":"lon-1.uk.uncletopia.com","port":27035,"enabled":true,"region":"eu","cc":"gb","latitude":51.509865,"longitude":-0.118092,"reserved":0,"last_update":"0001-01-01T00:00:00Z","name_a2s":"Uncletopia | London | 3 | All Maps","protocol":17,"map":"pl_snowycoast","folder":"tf","game":"Team Fortress","app_id":440,"player_count":0,"max_players":24,"Bots":0,"server_type":"Dedicated","server_os":"Linux","password":true,"vac":true,"version":"7723704","steam_id":85568392924510192,"keywords":["nocrits","nodmgspread","payload","uncletopia"],"game_id":440,"stv_port":27036,"stv_name":"Uncletopia | London | 3 | All Maps | STV","players":null},{"server_id":321,"name":"Uncletopia | London | 4 | All Maps","name_short":"lon-4","host":"lon-1.uk.uncletopia.com","port":27045,"enabled":true,"region":"eu","cc":"gb","latitude":51.509865,"longitude":-0.118092,"reserved":0,"last_update":"0001-01-01T00:00:00Z","name_a2s":"Uncletopia | London | 4 | All Maps","protocol":17,"map":"koth_lakeside_final","folder":"tf","game":"Team Fortress","app_id":440,"player_count":0,"max_players":24,"Bots":0,"server_type":"Dedicated","server_os":"Linux","password":true,"vac":true,"version":"7723704","steam_id":85568392924510193,"keywords":["cp","nocrits","nodmgspread","uncletopia"],"game_id":440,"stv_port":27046,"stv_name":"Uncletopia | London | 4 | All Maps | STV","players":null},{"server_id":21,"name":"Uncletopia | London | 5 | All Maps","name_short":"lon-5","host":"lon-1.uk.uncletopia.com","port":27055,"enabled":true,"region":"eu","cc":"gb","latitude":51.509865,"longitude":-0.118092,"reserved":0,"last_update":"0001-01-01T00:00:00Z","name_a2s":"Uncletopia | London | 5 | All Maps","protocol":17,"map":"cp_snakewater_final1","folder":"tf","game":"Team Fortress","app_id":440,"player_count":0,"max_players":24,"Bots":0,"server_type":"Dedicated","server_os":"Linux","password":true,"vac":true,"version":"7723704","steam_id":85568392924742829,"keywords":["cp","nocrits","nodmgspread","uncletopia"],"game_id":440,"stv_port":27056,"stv_name":"Uncletopia | London | 5 | All Maps | STV","players":null},{"server_id":22,"name":"Uncletopia | London | 6 | All Maps","name_short":"lon-6","host":"lon-1.uk.uncletopia.com","port":27065,"enabled":true,"region":"eu","cc":"gb","latitude":51.509865,"longitude":-0.118092,"reserved":0,"last_update":"0001-01-01T00:00:00Z","name_a2s":"Uncletopia | London | 6 | All Maps","protocol":17,"map":"cp_process_final","folder":"tf","game":"Team Fortress","app_id":440,"player_count":0,"max_players":24,"Bots":0,"server_type":"Dedicated","server_os":"Linux","password":true,"vac":true,"version":"7723704","steam_id":85568392924742830,"keywords":["cp","nocrits","nodmgspread","uncletopia"],"game_id":440,"stv_port":27066,"stv_name":"Uncletopia | London | 6 | All Maps | STV","players":null},{"server_id":40,"name":"Uncletopia | London | 7 | No Payload","name_short":"lon-7","host":"lon-1.uk.uncletopia.com","port":27075,"enabled":true,"region":"eu","cc":"gb","latitude":51.509865,"longitude":-0.118092,"reserved":0,"last_update":"0001-01-01T00:00:00Z","name_a2s":"Uncletopia | London | 7 | No Payload","protocol":17,"map":"koth_viaduct","folder":"tf","game":"Team Fortress","app_id":440,"player_count":0,"max_players":24,"Bots":0,"server_type":"Dedicated","server_os":"Linux","password":true,"vac":true,"version":"7723704","steam_id":85568392924964314,"keywords":["cp","nocrits","nodmgspread","uncletopia"],"game_id":440,"stv_port":27076,"stv_name":"Uncletopia | London | 7 | No Payload | STV","players":null},{"server_id":41,"name":"Uncletopia | London | 8 | Community","name_short":"lon-8","host":"lon-1.uk.uncletopia.com","port":27085,"enabled":true,"region":"eu","cc":"gb","latitude":51.509865,"longitude":-0.118092,"reserved":0,"last_update":"0001-01-01T00:00:00Z","name_a2s":"Uncletopia | London | 8 | Community","protocol":17,"map":"koth_highpass","folder":"tf","game":"Team Fortress","app_id":440,"player_count":0,"max_players":24,"Bots":0,"server_type":"Dedicated","server_os":"Linux","password":true,"vac":true,"version":"7723704","steam_id":85568392924964315,"keywords":["cp","nocrits","nodmgspread","uncletopia"],"game_id":440,"stv_port":27086,"stv_name":"Uncletopia | London | 8 | Community | STV","players":null},{"server_id":300,"name":"Uncletopia | Montréal | 1 | All Maps","name_short":"mtl-1","host":"mtl-1.ca.uncletopia.com","port":27015,"enabled":true,"region":"us-east","cc":"ca","latitude":45.50889,"longitude":-73.56167,"reserved":0,"last_update":"0001-01-01T00:00:00Z","name_a2s":"Uncletopia | Montréal | 1 | All Maps","protocol":17,"map":"pl_snowycoast","folder":"tf","game":"Team Fortress","app_id":440,"player_count":0,"max_players":24,"Bots":0,"server_type":"Dedicated","server_os":"Linux","password":true,"vac":true,"version":"7723704","steam_id":85568392924500087,"keywords":["nocrits","nodmgspread","payload","uncletopia"],"game_id":440,"stv_port":27016,"stv_name":"Uncletopia | Montréal | 1 | All Maps | STV","players":null},{"server_id":301,"name":"Uncletopia | Montréal | 2 | All Maps","name_short":"mtl-2","host":"mtl-1.ca.uncletopia.com","port":27025,"enabled":true,"region":"us-east","cc":"ca","latitude":45.50889,"longitude":-73.56167,"reserved":0,"last_update":"0001-01-01T00:00:00Z","name_a2s":"Uncletopia | Montréal | 2 | All Maps","protocol":17,"map":"cp_process_final","folder":"tf","game":"Team Fortress","app_id":440,"player_count":0,"max_players":24,"Bots":0,"server_type":"Dedicated","server_os":"Linux","password":true,"vac":true,"version":"7723704","steam_id":85568392924500088,"keywords":["cp","nocrits","nodmgspread","uncletopia"],"game_id":440,"stv_port":27026,"stv_name":"Uncletopia | Montréal | 2 | All Maps | STV","players":null},{"server_id":302,"name":"Uncletopia | Montréal | 3 | All Maps","name_short":"mtl-3","host":"mtl-1.ca.uncletopia.com","port":27035,"enabled":true,"region":"us-east","cc":"ca","latitude":45.50889,"longitude":-73.56167,"reserved":0,"last_update":"0001-01-01T00:00:00Z","name_a2s":"Uncletopia | Montréal | 3 | All Maps","protocol":17,"map":"pl_barnblitz","folder":"tf","game":"Team Fortress","app_id":440,"player_count":0,"max_players":24,"Bots":0,"server_type":"Dedicated","server_os":"Linux","password":true,"vac":true,"version":"7723704","steam_id":85568392924500089,"keywords":["nocrits","nodmgspread","payload","uncletopia"],"game_id":440,"stv_port":27036,"stv_name":"Uncletopia | Montréal | 3 | All Maps | STV","players":null},{"server_id":303,"name":"Uncletopia | Montréal | 4 | No Payload","name_short":"mtl-4","host":"mtl-1.ca.uncletopia.com","port":27045,"enabled":true,"region":"us-east","cc":"ca","latitude":45.50889,"longitude":-73.56167,"reserved":0,"last_update":"0001-01-01T00:00:00Z","name_a2s":"Uncletopia | Montréal | 4 | No Payload","protocol":17,"map":"koth_cascade","folder":"tf","game":"Team Fortress","app_id":440,"player_count":0,"max_players":24,"Bots":0,"server_type":"Dedicated","server_os":"Linux","password":true,"vac":true,"version":"7723704","steam_id":85568392924500090,"keywords":["cp","nocrits","nodmgspread","uncletopia"],"game_id":440,"stv_port":27046,"stv_name":"Uncletopia | Montréal | 4 | No Payload | STV","players":null},{"server_id":13,"name":"Uncletopia | New York City | 1 | All Maps","name_short":"nyc-1","host":"nyc-1.us.uncletopia.com","port":27015,"enabled":true,"region":"us-east","cc":"us","latitude":40.73061,"longitude":-73.93524,"reserved":0,"last_update":"0001-01-01T00:00:00Z","name_a2s":"Uncletopia | New York City | 1 | All Maps","protocol":17,"map":"koth_viaduct","folder":"tf","game":"Team Fortress","app_id":440,"player_count":0,"max_players":24,"Bots":0,"server_type":"Dedicated","server_os":"Linux","password":true,"vac":true,"version":"7723704","steam_id":85568392924469993,"keywords":["cp","nocrits","nodmgspread","uncletopia"],"game_id":440,"stv_port":27016,"stv_name":"Uncletopia | New York City | 1 | All Maps | STV","players":null},{"server_id":14,"name":"Uncletopia | New York City | 2 | All Maps","name_short":"nyc-2","host":"nyc-1.us.uncletopia.com","port":27025,"enabled":true,"region":"us-east","cc":"us","latitude":40.73061,"longitude":-73.93524,"reserved":0,"last_update":"0001-01-01T00:00:00Z","name_a2s":"Uncletopia | New York City | 2 | All Maps","protocol":17,"map":"pl_wutville_event","folder":"tf","game":"Team Fortress","app_id":440,"player_count":24,"max_players":24,"Bots":0,"server_type":"Dedicated","server_os":"Linux","password":true,"vac":true,"version":"7723704","steam_id":85568392924469994,"keywords":["nocrits","nodmgspread","payload","uncletopia"],"game_id":440,"stv_port":27026,"stv_name":"Uncletopia | New York City | 2 | All Maps | STV","players":[{"user_id":62,"name":"The Funny Cat-Heaby","steam_id":76561198439978112,"connected_time":358000000000,"state":"active","ping":173},{"user_id":72,"name":"One-Man Cheeseburger Apocalypse","steam_id":76561198084465676,"connected_time":205000000000,"state":"active","ping":67},{"user_id":5,"name":"munkiツ","steam_id":76561198841270249,"connected_time":5031000000000,"state":"active","ping":39},{"user_id":6,"name":"Grundle Thunder","steam_id":76561197960790338,"connected_time":4973000000000,"state":"active","ping":64},{"user_id":10,"name":"sweet n spicy","steam_id":76561198165660732,"connected_time":4673000000000,"state":"active","ping":46},{"user_id":64,"name":"xxxDABGODxxx","steam_id":76561199061979040,"connected_time":353000000000,"state":"active","ping":127},{"user_id":11,"name":"Insayne","steam_id":76561199237951955,"connected_time":4661000000000,"state":"active","ping":81},{"user_id":36,"name":"sprunk","steam_id":76561198061768122,"connected_time":2891000000000,"state":"active","ping":80},{"user_id":76,"name":"The Great Mighty Poo","steam_id":76561199158397833,"connected_time":76000000000,"state":"active","ping":97},{"user_id":17,"name":"2003 chevy malibu","steam_id":76561199075669125,"connected_time":4114000000000,"state":"active","ping":45},{"user_id":18,"name":"Juri Han","steam_id":76561198041678517,"connected_time":4109000000000,"state":"active","ping":124},{"user_id":77,"name":"SpycyNoodles","steam_id":76561198309439750,"connected_time":22000000000,"state":"active","ping":85},{"user_id":21,"name":"lets do it","steam_id":76561198110314362,"connected_time":4048000000000,"state":"active","ping":65},{"user_id":53,"name":"Seal","steam_id":76561197970204043,"connected_time":830000000000,"state":"active","ping":105},{"user_id":23,"name":"Iggy!","steam_id":76561198035671259,"connected_time":4045000000000,"state":"active","ping":78},{"user_id":66,"name":"scorn","steam_id":76561197966261919,"connected_time":337000000000,"state":"active","ping":91},{"user_id":78,"name":"Indica","steam_id":76561197996611634,"connected_time":14000000000,"state":"active","ping":135},{"user_id":67,"name":"Diamond Jack","steam_id":76561198321304762,"connected_time":325000000000,"state":"active","ping":40},{"user_id":52,"name":"dec","steam_id":76561198009660168,"connected_time":914000000000,"state":"active","ping":132},{"user_id":43,"name":"Lucy Lou!","steam_id":76561198078209088,"connected_time":2694000000000,"state":"active","ping":68},{"user_id":71,"name":"Vulcan","steam_id":76561198061409396,"connected_time":259000000000,"state":"active","ping":74},{"user_id":73,"name":"Juno was mad, knew he'd been ha","steam_id":76561198294013916,"connected_time":195000000000,"state":"active","ping":38},{"user_id":59,"name":"LividALX","steam_id":76561198145429015,"connected_time":468000000000,"state":"active","ping":53},{"user_id":75,"name":"Admiral Misanthrope","steam_id":76561197999529704,"connected_time":119000000000,"state":"active","ping":113}]},{"server_id":15,"name":"Uncletopia | New York City | 3 | Stopwatch Beta","name_short":"nyc-3","host":"nyc-1.us.uncletopia.com","port":27035,"enabled":true,"region":"us-east","cc":"us","latitude":40.73061,"longitude":-73.93524,"reserved":0,"last_update":"0001-01-01T00:00:00Z","name_a2s":"Uncletopia | New York City | 3 | Stopwatch Beta","protocol":17,"map":"workshop/cp_reckoner_rc6.ugc674719999","folder":"tf","game":"Team Fortress","app_id":440,"player_count":0,"max_players":24,"Bots":0,"server_type":"Dedicated","server_os":"Linux","password":true,"vac":true,"version":"7723704","steam_id":85568392924742820,"keywords":["cp","nocrits","nodmgspread","uncletopia"],"game_id":440,"stv_port":27036,"stv_name":"Uncletopia | New York City | 3 | Stopwatch Beta | STV","players":null},{"server_id":16,"name":"Uncletopia | New York City | 4 | Community","name_short":"nyc-4","host":"nyc-1.us.uncletopia.com","port":27045,"enabled":true,"region":"us-east","cc":"us","latitude":40.73061,"longitude":-73.93524,"reserved":0,"last_update":"0001-01-01T00:00:00Z","name_a2s":"Uncletopia | New York City | 4 | Community","protocol":17,"map":"workshop/pl_eruption_b8c.ugc2865677281","folder":"tf","game":"Team Fortress","app_id":440,"player_count":0,"max_players":24,"Bots":0,"server_type":"Dedicated","server_os":"Linux","password":true,"vac":true,"version":"7723704","steam_id":85568392924742821,"keywords":["nocrits","nodmgspread","payload","uncletopia"],"game_id":440,"stv_port":27046,"stv_name":"Uncletopia | New York City | 4 | Community | STV","players":null},{"server_id":142,"name":"Uncletopia | São Paulo | 1 | All Maps","name_short":"sao-1","host":"sao-1.br.uncletopia.com","port":27015,"enabled":true,"region":"sa","cc":"br","latitude":-23.533773,"longitude":-46.62529,"reserved":0,"last_update":"0001-01-01T00:00:00Z","name_a2s":"Uncletopia | São Paulo | 1 | All Maps","protocol":17,"map":"pl_barnblitz","folder":"tf","game":"Team Fortress","app_id":440,"player_count":0,"max_players":24,"Bots":0,"server_type":"Dedicated","server_os":"Linux","password":true,"vac":true,"version":"7723704","steam_id":85568392924469996,"keywords":["nocrits","nodmgspread","payload","uncletopia"],"game_id":440,"stv_port":27016,"stv_name":"Uncletopia | São Paulo | 1 | All Maps | STV","players":null},{"server_id":143,"name":"Uncletopia | São Paulo | 2 | All Maps","name_short":"sao-2","host":"sao-2.br.uncletopia.com","port":27015,"enabled":true,"region":"sa","cc":"br","latitude":-23.533773,"longitude":-46.62529,"reserved":0,"last_update":"0001-01-01T00:00:00Z","name_a2s":"Uncletopia | São Paulo | 2 | All Maps","protocol":17,"map":"pl_frontier_final","folder":"tf","game":"Team Fortress","app_id":440,"player_count":0,"max_players":24,"Bots":0,"server_type":"Dedicated","server_os":"Linux","password":true,"vac":true,"version":"7723704","steam_id":85568392924485349,"keywords":["nocrits","nodmgspread","payload","uncletopia"],"game_id":440,"stv_port":27016,"stv_name":"Uncletopia | São Paulo | 2 | All Maps | STV","players":null},{"server_id":7,"name":"Uncletopia | Seattle | 1 | All Maps","name_short":"sea-1","host":"sea-1.us.uncletopia.com","port":27015,"enabled":true,"region":"us-west","cc":"us","latitude":47.608013,"longitude":-122.33517,"reserved":0,"last_update":"0001-01-01T00:00:00Z","name_a2s":"Uncletopia | Seattle | 1 | All Maps","protocol":17,"map":"pl_pier","folder":"tf","game":"Team Fortress","app_id":440,"player_count":1,"max_players":24,"Bots":0,"server_type":"Dedicated","server_os":"Linux","password":true,"vac":true,"version":"7723704","steam_id":85568392924469997,"keywords":["nocrits","nodmgspread","payload","uncletopia"],"game_id":440,"stv_port":27016,"stv_name":"Uncletopia | Seattle | 1 | All Maps | STV","players":[{"user_id":28,"name":"Dosario","steam_id":76561198298095535,"connected_time":448000000000,"state":"active","ping":54}]},{"server_id":119,"name":"Uncletopia | Seattle | 2 | All Maps","name_short":"sea-2","host":"sea-1.us.uncletopia.com","port":27025,"enabled":true,"region":"us-west","cc":"us","latitude":47.608013,"longitude":-122.33517,"reserved":0,"last_update":"0001-01-01T00:00:00Z","name_a2s":"Uncletopia | Seattle | 2 | All Maps","protocol":17,"map":"koth_viaduct","folder":"tf","game":"Team Fortress","app_id":440,"player_count":24,"max_players":24,"Bots":0,"server_type":"Dedicated","server_os":"Linux","password":true,"vac":true,"version":"7723704","steam_id":85568392924469998,"keywords":["cp","nocrits","nodmgspread","uncletopia"],"game_id":440,"stv_port":27026,"stv_name":"Uncletopia | Seattle | 2 | All Maps | STV","players":[{"user_id":3,"name":"rad killl raccoon","steam_id":76561198980975595,"connected_time":4960000000000,"state":"active","ping":62},{"user_id":63,"name":"timmy","steam_id":76561198063322988,"connected_time":1195000000000,"state":"active","ping":49},{"user_id":5,"name":"Ducks","steam_id":76561198130038345,"connected_time":4955000000000,"state":"active","ping":63},{"user_id":64,"name":"digby","steam_id":76561198079927859,"connected_time":1193000000000,"state":"active","ping":47},{"user_id":68,"name":"Boobanator5000","steam_id":76561198393299316,"connected_time":1133000000000,"state":"active","ping":43},{"user_id":75,"name":"sly1","steam_id":76561198049014977,"connected_time":412000000000,"state":"active","ping":58},{"user_id":56,"name":"Pneumo.","steam_id":76561197987911883,"connected_time":1483000000000,"state":"active","ping":57},{"user_id":67,"name":"R5-D4","steam_id":76561198025196439,"connected_time":1169000000000,"state":"active","ping":48},{"user_id":11,"name":"delight","steam_id":76561197980280272,"connected_time":4946000000000,"state":"active","ping":46},{"user_id":50,"name":"rorytherednosedreindeer","steam_id":76561198065825165,"connected_time":2458000000000,"state":"active","ping":73},{"user_id":70,"name":"goldhed","steam_id":76561198051751133,"connected_time":1119000000000,"state":"active","ping":57},{"user_id":43,"name":"Savant","steam_id":76561197969881916,"connected_time":2669000000000,"state":"active","ping":58},{"user_id":62,"name":"return of gas station buttplug","steam_id":76561198073269122,"connected_time":1203000000000,"state":"active","ping":117},{"user_id":52,"name":"yo merry chirstmas","steam_id":76561198163265338,"connected_time":2432000000000,"state":"active","ping":52},{"user_id":38,"name":"Arsonist Goose","steam_id":76561198147441830,"connected_time":3620000000000,"state":"active","ping":75},{"user_id":20,"name":"Retesaurus","steam_id":76561198045189319,"connected_time":4891000000000,"state":"active","ping":46},{"user_id":21,"name":"Sniff","steam_id":76561198010270922,"connected_time":4888000000000,"state":"active","ping":43},{"user_id":74,"name":"vincy","steam_id":76561198055522158,"connected_time":929000000000,"state":"active","ping":102},{"user_id":23,"name":"[K.Y.L.L.]Drone #0432 (it)","steam_id":76561198027321950,"connected_time":4870000000000,"state":"active","ping":52},{"user_id":69,"name":"KingTinkerer","steam_id":76561198226856548,"connected_time":1130000000000,"state":"active","ping":76},{"user_id":55,"name":"Ayayahuasca","steam_id":76561199002906056,"connected_time":2102000000000,"state":"active","ping":49},{"user_id":73,"name":"orthotic horse shoes","steam_id":76561198083242298,"connected_time":1046000000000,"state":"active","ping":129},{"user_id":29,"name":"jorts","steam_id":76561199041179985,"connected_time":4791000000000,"state":"active","ping":62},{"user_id":42,"name":"The Squid Gamer™","steam_id":76561198340621517,"connected_time":3416000000000,"state":"active","ping":108}]},{"server_id":17,"name":"Uncletopia | San Francisco | 1 | All Maps","name_short":"sfo-1","host":"sfo-1.us.uncletopia.com","port":27015,"enabled":true,"region":"us-west","cc":"us","latitude":37.77397,"longitude":-122.4313,"reserved":0,"last_update":"0001-01-01T00:00:00Z","name_a2s":"Uncletopia | San Francisco | 1 | All Maps","protocol":17,"map":"pl_badwater","folder":"tf","game":"Team Fortress","app_id":440,"player_count":24,"max_players":24,"Bots":0,"server_type":"Dedicated","server_os":"Linux","password":true,"vac":true,"version":"7723704","steam_id":85568392924469999,"keywords":["nocrits","nodmgspread","payload","uncletopia"],"game_id":440,"stv_port":27016,"stv_name":"Uncletopia | San Francisco | 1 | All Maps | STV","players":[{"user_id":79,"name":"chicken salad","steam_id":76561198831172374,"connected_time":270000000000,"state":"active","ping":140},{"user_id":4,"name":"MegaBron James","steam_id":76561198066091050,"connected_time":5011000000000,"state":"active","ping":67},{"user_id":9,"name":"Frongus","steam_id":76561197979056451,"connected_time":4985000000000,"state":"active","ping":61},{"user_id":7,"name":"lol","steam_id":76561198026491738,"connected_time":5000000000000,"state":"active","ping":62},{"user_id":62,"name":"C O M F Y","steam_id":76561198072101210,"connected_time":1030000000000,"state":"active","ping":123},{"user_id":58,"name":"glue consumer","steam_id":76561198083271257,"connected_time":1109000000000,"state":"active","ping":105},{"user_id":71,"name":"UV","steam_id":76561198083936918,"connected_time":498000000000,"state":"active","ping":69},{"user_id":68,"name":"pasta","steam_id":76561198069094862,"connected_time":638000000000,"state":"active","ping":78},{"user_id":64,"name":"A Man Named Pancho","steam_id":76561197984895522,"connected_time":854000000000,"state":"active","ping":55},{"user_id":53,"name":"self sufficient kitten","steam_id":76561197960592612,"connected_time":2096000000000,"state":"active","ping":60},{"user_id":81,"name":"Dwayne \"The Crack Rock\" Johnson","steam_id":76561198073699764,"connected_time":192000000000,"state":"active","ping":58},{"user_id":59,"name":"yockurt","steam_id":76561199006950127,"connected_time":1108000000000,"state":"active","ping":56},{"user_id":67,"name":"Khallaria","steam_id":76561198000706490,"connected_time":738000000000,"state":"active","ping":89},{"user_id":82,"name":"JDizzle","steam_id":76561199122696841,"connected_time":156000000000,"state":"active","ping":74},{"user_id":78,"name":"la loveiathenne","steam_id":76561198046394237,"connected_time":326000000000,"state":"active","ping":67},{"user_id":72,"name":"butt3r_","steam_id":76561198156374792,"connected_time":492000000000,"state":"active","ping":64},{"user_id":46,"name":"Sinn","steam_id":76561199013434543,"connected_time":3181000000000,"state":"active","ping":62},{"user_id":73,"name":"laggy mcstab","steam_id":76561198106379962,"connected_time":491000000000,"state":"active","ping":75},{"user_id":80,"name":"Dullahan","steam_id":76561198119668908,"connected_time":242000000000,"state":"active","ping":46},{"user_id":75,"name":"panda","steam_id":76561198025214612,"connected_time":469000000000,"state":"active","ping":68},{"user_id":76,"name":"_BOBE","steam_id":76561198004578255,"connected_time":453000000000,"state":"active","ping":76},{"user_id":77,"name":"Sivinus","steam_id":76561198025589541,"connected_time":413000000000,"state":"active","ping":62},{"user_id":29,"name":"Darkrain","steam_id":76561197987915511,"connected_time":4843000000000,"state":"active","ping":104},{"user_id":51,"name":"plutonium isotope","steam_id":76561198319442494,"connected_time":2307000000000,"state":"active","ping":61}]},{"server_id":18,"name":"Uncletopia | San Francisco | 2 | All Maps","name_short":"sfo-2","host":"sfo-1.us.uncletopia.com","port":27025,"enabled":true,"region":"us-west","cc":"us","latitude":37.77397,"longitude":-122.4313,"reserved":0,"last_update":"0001-01-01T00:00:00Z","name_a2s":"Uncletopia | San Francisco | 2 | All Maps","protocol":17,"map":"cp_steel","folder":"tf","game":"Team Fortress","app_id":440,"player_count":24,"max_players":24,"Bots":0,"server_type":"Dedicated","server_os":"Linux","password":true,"vac":true,"version":"7723704","steam_id":85568392924470000,"keywords":["cp","nocrits","nodmgspread","uncletopia"],"game_id":440,"stv_port":27026,"stv_name":"Uncletopia | San Francisco | 2 | All Maps | STV","players":[{"user_id":46,"name":"lukamine","steam_id":76561198166827208,"connected_time":3372000000000,"state":"active","ping":70},{"user_id":12,"name":"FCKGW-RHQQ2-YXRKT-8TG6W-2B7Q8","steam_id":76561197993138592,"connected_time":4295000000000,"state":"active","ping":55},{"user_id":54,"name":"sweaterfan","steam_id":76561199389567214,"connected_time":3053000000000,"state":"active","ping":95},{"user_id":13,"name":"Cinna Mon","steam_id":76561198005840633,"connected_time":4228000000000,"state":"active","ping":68},{"user_id":14,"name":"lili.winters","steam_id":76561199391478575,"connected_time":4221000000000,"state":"active","ping":77},{"user_id":74,"name":"SmallErection","steam_id":76561198071770147,"connected_time":1627000000000,"state":"active","ping":76},{"user_id":17,"name":"Raven","steam_id":76561198393887732,"connected_time":3995000000000,"state":"active","ping":79},{"user_id":59,"name":"Seriously Bruh","steam_id":76561198070408485,"connected_time":2521000000000,"state":"active","ping":75},{"user_id":71,"name":"[BR] Taco sauce magic","steam_id":76561198049212890,"connected_time":1943000000000,"state":"active","ping":120},{"user_id":79,"name":"Krow Lyngin (she/her)","steam_id":76561198085410622,"connected_time":1361000000000,"state":"active","ping":63},{"user_id":76,"name":"Morbius","steam_id":76561198387984694,"connected_time":1437000000000,"state":"active","ping":78},{"user_id":80,"name":"Juicebox boi","steam_id":76561198081649681,"connected_time":1196000000000,"state":"active","ping":63},{"user_id":43,"name":"Nez","steam_id":76561197963109059,"connected_time":3525000000000,"state":"active","ping":68},{"user_id":82,"name":"Soviet Potato","steam_id":76561198068546113,"connected_time":868000000000,"state":"active","ping":45},{"user_id":40,"name":"Lambchop","steam_id":76561198043900363,"connected_time":3602000000000,"state":"active","ping":60},{"user_id":70,"name":"DellYoda","steam_id":76561198045919513,"connected_time":1984000000000,"state":"active","ping":78},{"user_id":72,"name":"UnicycleYay!","steam_id":76561198056435646,"connected_time":1908000000000,"state":"active","ping":49},{"user_id":85,"name":"keffers | Chrimbus Time","steam_id":76561198202338796,"connected_time":267000000000,"state":"active","ping":119},{"user_id":83,"name":"SpinnerSpecial","steam_id":76561198065661869,"connected_time":756000000000,"state":"active","ping":104},{"user_id":34,"name":"jc5000","steam_id":76561198052825211,"connected_time":3695000000000,"state":"active","ping":55},{"user_id":81,"name":"Phillip Jeffries","steam_id":76561198064052174,"connected_time":1095000000000,"state":"active","ping":117},{"user_id":77,"name":"Lore","steam_id":76561198098407538,"connected_time":1429000000000,"state":"active","ping":100},{"user_id":84,"name":"Majestic-A","steam_id":76561198988062101,"connected_time":703000000000,"state":"active","ping":62},{"user_id":68,"name":"Jousty","steam_id":76561199162677853,"connected_time":2193000000000,"state":"active","ping":128}]},{"server_id":19,"name":"Uncletopia | San Francisco | 3 | Stopwatch Beta","name_short":"sfo-3","host":"sfo-1.us.uncletopia.com","port":27035,"enabled":true,"region":"us-west","cc":"us","latitude":37.77397,"longitude":-122.4313,"reserved":0,"last_update":"0001-01-01T00:00:00Z","name_a2s":"Uncletopia | San Francisco | 3 | Stopwatch Beta","protocol":17,"map":"cp_gullywash_final1","folder":"tf","game":"Team Fortress","app_id":440,"player_count":2,"max_players":24,"Bots":0,"server_type":"Dedicated","server_os":"Linux","password":true,"vac":true,"version":"7723704","steam_id":85568392924742824,"keywords":["cp","nocrits","nodmgspread","uncletopia"],"game_id":440,"stv_port":27036,"stv_name":"Uncletopia | San Francisco | 3 | Stopwatch Beta | STV","players":[{"user_id":3,"name":"Blake","steam_id":76561198884871311,"connected_time":3403000000000,"state":"active","ping":50},{"user_id":4,"name":"NotAToaster","steam_id":76561198349938357,"connected_time":3341000000000,"state":"active","ping":97}]},{"server_id":20,"name":"Uncletopia | San Francisco | 4 | Community","name_short":"sfo-4","host":"sfo-1.us.uncletopia.com","port":27045,"enabled":true,"region":"us-west","cc":"us","latitude":37.77397,"longitude":-122.4313,"reserved":0,"last_update":"0001-01-01T00:00:00Z","name_a2s":"Uncletopia | San Francisco | 4 | Community","protocol":17,"map":"koth_cascade","folder":"tf","game":"Team Fortress","app_id":440,"player_count":0,"max_players":24,"Bots":0,"server_type":"Dedicated","server_os":"Linux","password":true,"vac":true,"version":"7723704","steam_id":85568392924742826,"keywords":["cp","nocrits","nodmgspread","uncletopia"],"game_id":440,"stv_port":27046,"stv_name":"Uncletopia | San Francisco | 4 | Community | STV","players":null},{"server_id":141,"name":"Uncletopia | Sydney | 1 | All Maps","name_short":"syd-1","host":"syd-1.au.uncletopia.com","port":27015,"enabled":true,"region":"au","cc":"au","latitude":-33.865143,"longitude":151.2099,"reserved":0,"last_update":"0001-01-01T00:00:00Z","name_a2s":"Uncletopia | Sydney | 1 | All Maps","protocol":17,"map":"cp_dustbowl","folder":"tf","game":"Team Fortress","app_id":440,"player_count":0,"max_players":24,"Bots":0,"server_type":"Dedicated","server_os":"Linux","password":true,"vac":true,"version":"7723704","steam_id":85568392924470001,"keywords":["cp","nocrits","nodmgspread","uncletopia"],"game_id":440,"stv_port":27016,"stv_name":"Uncletopia | Sydney | 1 | All Maps | STV","players":null},{"server_id":123,"name":"Uncletopia | Sydney | 2 | All Maps","name_short":"syd-2","host":"syd-1.au.uncletopia.com","port":27025,"enabled":true,"region":"au","cc":"au","latitude":-33.865143,"longitude":151.2099,"reserved":0,"last_update":"0001-01-01T00:00:00Z","name_a2s":"Uncletopia | Sydney | 2 | All Maps","protocol":17,"map":"cp_mountainlab","folder":"tf","game":"Team Fortress","app_id":440,"player_count":11,"max_players":24,"Bots":0,"server_type":"Dedicated","server_os":"Linux","password":true,"vac":true,"version":"7723704","steam_id":85568392924470002,"keywords":["cp","nocrits","nodmgspread","uncletopia"],"game_id":440,"stv_port":27026,"stv_name":"Uncletopia | Sydney | 2 | All Maps | STV","players":[{"user_id":3,"name":"giby","steam_id":76561198984905448,"connected_time":918000000000,"state":"active","ping":63},{"user_id":11,"name":"FrOStY","steam_id":76561198088155805,"connected_time":400000000000,"state":"active","ping":77},{"user_id":12,"name":"Tain","steam_id":76561198255611856,"connected_time":346000000000,"state":"active","ping":62},{"user_id":9,"name":"Kuneho","steam_id":76561198215306437,"connected_time":484000000000,"state":"active","ping":65},{"user_id":8,"name":"BobTheHuminoid","steam_id":76561199241312725,"connected_time":597000000000,"state":"active","ping":82},{"user_id":10,"name":"Rodman","steam_id":76561198073532116,"connected_time":463000000000,"state":"active","ping":94},{"user_id":13,"name":"Pseudoman","steam_id":76561198131158447,"connected_time":336000000000,"state":"active","ping":110},{"user_id":17,"name":"coconut doggy","steam_id":76561198071900361,"connected_time":144000000000,"state":"active","ping":49},{"user_id":18,"name":"Scout","steam_id":76561198322807454,"connected_time":129000000000,"state":"active","ping":95},{"user_id":19,"name":"auhsor","steam_id":76561197970679749,"connected_time":110000000000,"state":"active","ping":38},{"user_id":20,"name":"Pak'n'Save","steam_id":76561199199754055,"connected_time":81000000000,"state":"active","ping":60}]},{"server_id":395,"name":"Uncletopia | Sydney | 3 | All Maps","name_short":"syd-3","host":"syd-1.au.uncletopia.com","port":27035,"enabled":true,"region":"au","cc":"au","latitude":-33.865143,"longitude":151.2099,"reserved":0,"last_update":"0001-01-01T00:00:00Z","name_a2s":"Uncletopia | Sydney | 3 | All Maps","protocol":17,"map":"pl_borneo","folder":"tf","game":"Team Fortress","app_id":440,"player_count":0,"max_players":24,"Bots":0,"server_type":"Dedicated","server_os":"Linux","password":true,"vac":true,"version":"7723704","steam_id":85568392925194467,"keywords":["nocrits","nodmgspread","payload","uncletopia"],"game_id":440,"stv_port":27036,"stv_name":"Uncletopia | Sydney | 3 | All Maps | STV","players":null},{"server_id":396,"name":"Uncletopia | Sydney | 4 | All Maps","name_short":"syd-4","host":"syd-1.au.uncletopia.com","port":27045,"enabled":true,"region":"au","cc":"au","latitude":-33.865143,"longitude":151.2099,"reserved":0,"last_update":"0001-01-01T00:00:00Z","name_a2s":"Uncletopia | Sydney | 4 | All Maps","protocol":17,"map":"pl_pier","folder":"tf","game":"Team Fortress","app_id":440,"player_count":0,"max_players":24,"Bots":0,"server_type":"Dedicated","server_os":"Linux","password":true,"vac":true,"version":"7723704","steam_id":85568392925397958,"keywords":["nocrits","nodmgspread","payload","uncletopia"],"game_id":440,"stv_port":27046,"stv_name":"Uncletopia | Sydney | 4 | All Maps | STV","players":null},{"server_id":58,"name":"Uncletopia | Sydney | 5 | Stopwatch Beta","name_short":"syd-5","host":"syd-1.au.uncletopia.com","port":27055,"enabled":true,"region":"au","cc":"au","latitude":-33.865143,"longitude":151.2099,"reserved":0,"last_update":"0001-01-01T00:00:00Z","name_a2s":"Uncletopia | Sydney | 5 | Stopwatch Beta","protocol":17,"map":"cp_altitude","folder":"tf","game":"Team Fortress","app_id":440,"player_count":0,"max_players":24,"Bots":0,"server_type":"Dedicated","server_os":"Linux","password":true,"vac":true,"version":"7723704","steam_id":85568392925397959,"keywords":["cp","nocrits","nodmgspread","uncletopia"],"game_id":440,"stv_port":27056,"stv_name":"Uncletopia | Sydney | 5 | Stopwatch Beta | STV","players":null},{"server_id":59,"name":"Uncletopia | Sydney | 6 | Community","name_short":"syd-6","host":"syd-1.au.uncletopia.com","port":27065,"enabled":true,"region":"au","cc":"au","latitude":-33.865143,"longitude":151.2099,"reserved":0,"last_update":"0001-01-01T00:00:00Z","name_a2s":"Uncletopia | Sydney | 6 | Community","protocol":17,"map":"pl_frontier_final","folder":"tf","game":"Team Fortress","app_id":440,"player_count":0,"max_players":24,"Bots":0,"server_type":"Dedicated","server_os":"Linux","password":true,"vac":true,"version":"7723704","steam_id":85568392925397960,"keywords":["nocrits","nodmgspread","payload","uncletopia"],"game_id":440,"stv_port":27066,"stv_name":"Uncletopia | Sydney | 6 | Community | STV","players":null},{"server_id":49,"name":"Uncletopia | Warsaw | 1 | All Maps","name_short":"waw-1","host":"waw-1.pl.uncletopia.com","port":27015,"enabled":true,"region":"eu","cc":"pl","latitude":52.2297,"longitude":21.017532,"reserved":0,"last_update":"0001-01-01T00:00:00Z","name_a2s":"Uncletopia | Warsaw | 1 | All Maps","protocol":17,"map":"cp_snakewater_final1","folder":"tf","game":"Team Fortress","app_id":440,"player_count":0,"max_players":24,"Bots":0,"server_type":"Dedicated","server_os":"Linux","password":true,"vac":true,"version":"7723704","steam_id":85568392925397850,"keywords":["cp","nocrits","nodmgspread","uncletopia"],"game_id":440,"stv_port":27016,"stv_name":"Uncletopia | Warsaw | 1 | All Maps | STV","players":null},{"server_id":50,"name":"Uncletopia | Warsaw | 2 | All Maps","name_short":"waw-2","host":"waw-1.pl.uncletopia.com","port":27025,"enabled":true,"region":"eu","cc":"pl","latitude":52.2297,"longitude":21.017532,"reserved":0,"last_update":"0001-01-01T00:00:00Z","name_a2s":"Uncletopia | Warsaw | 2 | All Maps","protocol":17,"map":"pl_barnblitz","folder":"tf","game":"Team Fortress","app_id":440,"player_count":0,"max_players":24,"Bots":0,"server_type":"Dedicated","server_os":"Linux","password":true,"vac":true,"version":"7723704","steam_id":85568392925397851,"keywords":["nocrits","nodmgspread","payload","uncletopia"],"game_id":440,"stv_port":27026,"stv_name":"Uncletopia | Warsaw | 2 | All Maps | STV","players":null},{"server_id":51,"name":"Uncletopia | Warsaw | 3 | All Maps","name_short":"waw-3","host":"waw-1.pl.uncletopia.com","port":27035,"enabled":true,"region":"eu","cc":"pl","latitude":52.2297,"longitude":21.017532,"reserved":0,"last_update":"0001-01-01T00:00:00Z","name_a2s":"Uncletopia | Warsaw | 3 | All Maps","protocol":17,"map":"pl_barnblitz","folder":"tf","game":"Team Fortress","app_id":440,"player_count":0,"max_players":24,"Bots":0,"server_type":"Dedicated","server_os":"Linux","password":true,"vac":true,"version":"7723704","steam_id":85568392925397852,"keywords":["nocrits","nodmgspread","payload","uncletopia"],"game_id":440,"stv_port":27036,"stv_name":"Uncletopia | Warsaw | 3 | All Maps | STV","players":null},{"server_id":52,"name":"Uncletopia | Warsaw | 4 | All Maps","name_short":"waw-4","host":"waw-1.pl.uncletopia.com","port":27045,"enabled":true,"region":"eu","cc":"pl","latitude":52.2297,"longitude":21.017532,"reserved":0,"last_update":"0001-01-01T00:00:00Z","name_a2s":"Uncletopia | Warsaw | 4 | All Maps","protocol":17,"map":"pl_upward","folder":"tf","game":"Team Fortress","app_id":440,"player_count":0,"max_players":24,"Bots":0,"server_type":"Dedicated","server_os":"Linux","password":true,"vac":true,"version":"7723704","steam_id":85568392925397853,"keywords":["nocrits","nodmgspread","payload","uncletopia"],"game_id":440,"stv_port":27046,"stv_name":"Uncletopia | Warsaw | 4 | All Maps | STV","players":null},{"server_id":53,"name":"Uncletopia | Warsaw | 5 | Stopwatch Beta","name_short":"waw-5","host":"waw-1.pl.uncletopia.com","port":27055,"enabled":true,"region":"eu","cc":"pl","latitude":52.2297,"longitude":21.017532,"reserved":0,"last_update":"0001-01-01T00:00:00Z","name_a2s":"Uncletopia | Warsaw | 5 | Stopwatch Beta","protocol":17,"map":"cp_sunshine","folder":"tf","game":"Team Fortress","app_id":440,"player_count":0,"max_players":24,"Bots":0,"server_type":"Dedicated","server_os":"Linux","password":true,"vac":true,"version":"7723704","steam_id":85568392925397854,"keywords":["cp","nocrits","nodmgspread","uncletopia"],"game_id":440,"stv_port":27056,"stv_name":"Uncletopia | Warsaw | 5 | Stopwatch Beta | STV","players":null},{"server_id":54,"name":"Uncletopia | Warsaw | 6 | Community","name_short":"waw-6","host":"waw-1.pl.uncletopia.com","port":27065,"enabled":true,"region":"eu","cc":"pl","latitude":52.2297,"longitude":21.017532,"reserved":0,"last_update":"0001-01-01T00:00:00Z","name_a2s":"Uncletopia | Warsaw | 6 | Community","protocol":17,"map":"pl_snowycoast","folder":"tf","game":"Team Fortress","app_id":440,"player_count":0,"max_players":24,"Bots":0,"server_type":"Dedicated","server_os":"Linux","password":true,"vac":true,"version":"7723704","steam_id":85568392925397856,"keywords":["nocrits","nodmgspread","payload","uncletopia"],"game_id":440,"stv_port":27066,"stv_name":"Uncletopia | Warsaw | 6 | Community | STV","players":null}]}