{"status":true,"message":"","result":[{"server_id":9,"name":"Uncletopia | Atlanta | 1 | All Maps","name_short":"atl-1","host":"atl-1.us.uncletopia.com","port":27015,"enabled":true,"region":"us-east","cc":"us","latitude":33.753746,"longitude":-84.38633,"reserved":0,"last_update":"0001-01-01T00:00:00Z","name_a2s":"Uncletopia | Atlanta | 1 | All Maps","protocol":17,"map":"pl_barnblitz","folder":"tf","game":"Team Fortress","app_id":440,"player_count":24,"max_players":24,"Bots":0,"server_type":"Dedicated","server_os":"Linux","password":true,"vac":true,"version":"7742253","steam_id":85568392924469982,"keywords":["nocrits","nodmgspread","payload","uncletopia"],"game_id":440,"stv_port":27016,"stv_name":"Uncletopia | Atlanta | 1 | All Maps | STV","players":[{"user_id":169,"name":"catboy phroliax","steam_id":76561198207075529,"connected_time":1831000000000,"state":"active","ping":98},{"user_id":177,"name":"Kol","steam_id":76561199151398882,"connected_time":1085000000000,"state":"active","ping":106},{"user_id":176,"name":"G4RZ3N_4L3ST14","steam_id":76561198434995010,"connected_time":1308000000000,"state":"active","ping":109},{"user_id":139,"name":"Ashes!","steam_id":76561197998475441,"connected_time":6185000000000,"state":"active","ping":85},{"user_id":19,"name":"Motreir","steam_id":76561198151717946,"connected_time":13588000000000,"state":"active","ping":76},{"user_id":179,"name":"mechiimi ‚òÖ","steam_id":76561198321627268,"connected_time":573000000000,"state":"active","ping":116},{"user_id":170,"name":"[12V] Marv","steam_id":76561198158638384,"connected_time":1813000000000,"state":"active","ping":52},{"user_id":180,"name":"anewbpro2015","steam_id":76561198214610860,"connected_time":554000000000,"state":"active","ping":80},{"user_id":166,"name":"everytime i die, i do 2+ squat","steam_id":76561198995705248,"connected_time":2209000000000,"state":"active","ping":65},{"user_id":182,"name":"TRHD_Pharaxer","steam_id":76561198051236069,"connected_time":156000000000,"state":"active","ping":159},{"user_id":147,"name":"Bandicario","steam_id":76561198432036026,"connected_time":4981000000000,"state":"active","ping":48},{"user_id":95,"name":"·πΩ‚ßâ  hank","steam_id":76561197977182378,"connected_time":9193000000000,"state":"active","ping":66},{"user_id":156,"name":"goober","steam_id":76561198943598378,"connected_time":3994000000000,"state":"active","ping":55},{"user_id":171,"name":"Andrew","steam_id":76561198070615190,"connected_time":1798000000000,"state":"active","ping":90},{"user_id":181,"name":"Anon","steam_id":76561198109740776,"connected_time":245000000000,"state":"active","ping":114},{"user_id":158,"name":"vid_","steam_id":76561198065159053,"connected_time":3752000000000,"state":"active","ping":47},{"user_id":152,"name":"Mr. Pink","steam_id":76561198065858172,"connected_time":4711000000000,"state":"active","ping":63},{"user_id":116,"name":"amazing","steam_id":76561198386233160,"connected_time":8033000000000,"state":"active","ping":86},{"user_id":165,"name":"Merchants of Misery","steam_id":76561199188142396,"connected_time":2216000000000,"state":"active","ping":96},{"user_id":151,"name":"Omega Move","steam_id":76561198031577205,"connected_time":4940000000000,"state":"active","ping":74},{"user_id":109,"name":"Karma","steam_id":76561198030565234,"connected_time":8405000000000,"state":"active","ping":62},{"user_id":173,"name":"Mario Trapped In a Piano","steam_id":76561198116765135,"connected_time":1770000000000,"state":"active","ping":116},{"user_id":174,"name":"living in mushroom park","steam_id":76561198249206656,"connected_time":1769000000000,"state":"active","ping":87},{"user_id":125,"name":"Weerk","steam_id":76561199209543551,"connected_time":6796000000000,"state":"active","ping":78}]},{"server_id":400,"name":"Uncletopia | Atlanta | 3 | Stopwatch Beta","name_short":"atl-3","host":"atl-1.us.uncletopia.com","port":27035,"enabled":true,"region":"us-east","cc":"us","latitude":33.753746,"longitude":-84.38633,"reserved":0,"last_update":"0001-01-01T00:00:00Z","name_a2s":"Uncletopia | Atlanta | 3 | Stopwatch Beta","protocol":17,"map":"pl_pier","folder":"tf","game":"Team Fortress","app_id":440,"player_count":0,"max_players":24,"Bots":0,"server_type":"Dedicated","server_os":"Linux","password":true,"vac":true,"version":"7742253","steam_id":85568392924515187,"keywords":["nocrits","nodmgspread","payload","uncletopia"],"game_id":440,"stv_port":27036,"stv_name":"Uncletopia | Atlanta | 3 | Stopwatch Beta | STV","players":null},{"server_id":401,"name":"Uncletopia | Atlanta | 4 | No Payload","name_short":"atl-4","host":"atl-1.us.uncletopia.com","port":27045,"enabled":true,"region":"us-east","cc":"us","latitude":33.753746,"longitude":-84.38633,"reserved":0,"last_update":"0001-01-01T00:00:00Z","name_a2s":"Uncletopia | Atlanta | 4 | No Payload","protocol":17,"map":"pl_pier","folder":"tf","game":"Team Fortress","app_id":440,"player_count":0,"max_players":24,"Bots":0,"server_type":"Dedicated","server_os":"Linux","password":true,"vac":true,"version":"7723704","steam_id":85568392924515188,"keywords":["nocrits","nodmgspread","payload","uncletopia"],"game_id":440,"stv_port":27046,"stv_name":"Uncletopia | Atlanta | 4 | No Payload | STV","players":null},{"server_id":2,"name":"Uncletopia | Chicago | 1 | All Maps","name_short":"chi-1","host":"chi-1.us.uncletopia.com","port":27015,"enabled":true,"region":"us-central","cc":"us","latitude":41.881832,"longitude":-87.62318,"reserved":0,"last_update":"0001-01-01T00:00:00Z","name_a2s":"Uncletopia | Chicago | 1 | All Maps","protocol":17,"map":"pl_barnblitz","folder":"tf","game":"Team Fortress","app_id":440,"player_count":25,"max_players":24,"Bots":0,"server_type":"Dedicated","server_os":"Linux","password":true,"vac":true,"version":"7742253","steam_id":85568392924469984,"keywords":["nocrits","nodmgspread","payload","uncletopia"],"game_id":440,"stv_port":27016,"stv_name":"Uncletopia | Chicago | 1 | All Maps | STV","players":[{"user_id":323,"name":"Bait","steam_id":76561198336489647,"connected_time":3003000000000,"state":"active","ping":58},{"user_id":347,"name":"arashsmash","steam_id":76561198277649058,"connected_time":686000000000,"state":"active","ping":59},{"user_id":332,"name":"nomnom","steam_id":76561198152344988,"connected_time":2488000000000,"state":"active","ping":91},{"user_id":357,"name":"FiveHoursLater...","steam_id":76561198092608339,"connected_time":255000000000,"state":"active","ping":91},{"user_id":186,"name":"skrt","steam_id":76561198233984300,"connected_time":15361000000000,"state":"active","ping":46},{"user_id":316,"name":"head crypto bioengineer analyst","steam_id":76561198070635731,"connected_time":3780000000000,"state":"active","ping":65},{"user_id":308,"name":"Astoriae!","steam_id":76561199090168858,"connected_time":4411000000000,"state":"active","ping":60},{"user_id":306,"name":"armed slobbery. enguzzlement.","steam_id":76561198237292756,"connected_time":4787000000000,"state":"active","ping":68},{"user_id":349,"name":"gŒ±n–∫z","steam_id":76561198172087307,"connected_time":665000000000,"state":"active","ping":89},{"user_id":350,"name":"real zingers","steam_id":76561198097160898,"connected_time":640000000000,"state":"active","ping":84},{"user_id":352,"name":"Mr. Nope","steam_id":76561198043851703,"connected_time":612000000000,"state":"active","ping":76},{"user_id":328,"name":"real goblin videos","steam_id":76561198119536224,"connected_time":2511000000000,"state":"active","ping":78},{"user_id":358,"name":"scrapheap","steam_id":76561198202407087,"connected_time":210000000000,"state":"connecting","ping":0},{"user_id":326,"name":"susquis","steam_id":76561199220869794,"connected_time":2517000000000,"state":"active","ping":101},{"user_id":338,"name":"Furry Saul Goodman","steam_id":76561198069580305,"connected_time":1658000000000,"state":"active","ping":46},{"user_id":317,"name":"Found TF2 GF :)","steam_id":76561198202216091,"connected_time":3765000000000,"state":"active","ping":73},{"user_id":341,"name":"the deadliest pyroshark","steam_id":76561198374227766,"connected_time":1502000000000,"state":"active","ping":67},{"user_id":342,"name":"LITTLE FATFUCK MEATBALL","steam_id":76561198111565081,"connected_time":1318000000000,"state":"active","ping":115},{"user_id":360,"name":"Pixler544","steam_id":76561198240575132,"connected_time":186000000000,"state":"active","ping":83},{"user_id":364,"name":"The Land Admiral","steam_id":76561198159356609,"connected_time":1000000000,"state":"spawning","ping":53},{"user_id":244,"name":"Phupperbat","steam_id":76561198098441032,"connected_time":9793000000000,"state":"active","ping":70},{"user_id":307,"name":"Azula's #1 Fan","steam_id":76561198133111058,"connected_time":4686000000000,"state":"active","ping":75},{"user_id":363,"name":"Cherry Juice","steam_id":76561198366570108,"connected_time":44000000000,"state":"active","ping":66},{"user_id":345,"name":"Ejaculation Zach","steam_id":76561198203765200,"connected_time":779000000000,"state":"active","ping":79},{"user_id":362,"name":"PersonWhoJustDiedMaybeIDontKnow","steam_id":76561199109564855,"connected_time":170000000000,"state":"active","ping":100}]},{"server_id":106,"name":"Uncletopia | Chicago | 2 | All Maps","name_short":"chi-2","host":"chi-1.us.uncletopia.com","port":27025,"enabled":true,"region":"us-central","cc":"us","latitude":41.881832,"longitude":-87.62318,"reserved":0,"last_update":"0001-01-01T00:00:00Z","name_a2s":"Uncletopia | Chicago | 2 | All Maps","protocol":17,"map":"pl_goldrush","folder":"tf","game":"Team Fortress","app_id":440,"player_count":23,"max_players":24,"Bots":0,"server_type":"Dedicated","server_os":"Linux","password":true,"vac":true,"version":"7742253","steam_id":85568392924469985,"keywords":["nocrits","nodmgspread","payload","uncletopia"],"game_id":440,"stv_port":27026,"stv_name":"Uncletopia | Chicago | 2 | All Maps | STV","players":[{"user_id":343,"name":"friend :3","steam_id":76561198116821551,"connected_time":147000000000,"state":"active","ping":57},{"user_id":321,"name":"kermitcreeper(ZAZA)","steam_id":76561199222829972,"connected_time":2305000000000,"state":"active","ping":52},{"user_id":307,"name":"Dillon","steam_id":76561198191469611,"connected_time":3345000000000,"state":"active","ping":107},{"user_id":328,"name":"Donk","steam_id":76561198803472441,"connected_time":1063000000000,"state":"active","ping":59},{"user_id":337,"name":"ladies and gentlemen","steam_id":76561198282764599,"connected_time":829000000000,"state":"active","ping":47},{"user_id":332,"name":"Challenger Charles","steam_id":76561198005576553,"connected_time":1035000000000,"state":"active","ping":77},{"user_id":352,"name":"PotatoSoup","steam_id":76561198996317509,"connected_time":67000000000,"state":"active","ping":102},{"user_id":350,"name":"Oneslaught","steam_id":76561198403433377,"connected_time":78000000000,"state":"active","ping":93},{"user_id":287,"name":"TheObserver","steam_id":76561199230056550,"connected_time":4624000000000,"state":"active","ping":111},{"user_id":345,"name":"SEGNO","steam_id":76561198102780113,"connected_time":132000000000,"state":"active","ping":63},{"user_id":355,"name":"HarryjusttHarry","steam_id":76561198982810452,"connected_time":20000000000,"state":"spawning","ping":139},{"user_id":316,"name":"Ted Cruz ate my son","steam_id":76561198050488555,"connected_time":2956000000000,"state":"active","ping":70},{"user_id":335,"name":"Rosemary225","steam_id":76561198038897541,"connected_time":944000000000,"state":"active","ping":56},{"user_id":333,"name":"hauntaholic","steam_id":76561198095051652,"connected_time":1001000000000,"state":"active","ping":63},{"user_id":319,"name":"Misanthrope","steam_id":76561198090692884,"connected_time":2733000000000,"state":"active","ping":79},{"user_id":308,"name":"Maker‚Äôs_Mark","steam_id":76561198198371445,"connected_time":3179000000000,"state":"active","ping":94},{"user_id":334,"name":"e","steam_id":76561198131245396,"connected_time":982000000000,"state":"active","ping":56},{"user_id":317,"name":"Grebnaws","steam_id":76561198001065430,"connected_time":2920000000000,"state":"active","ping":46},{"user_id":339,"name":"loyaldandan0764","steam_id":76561199231020424,"connected_time":509000000000,"state":"active","ping":110},{"user_id":347,"name":"kablong","steam_id":76561199094392047,"connected_time":92000000000,"state":"active","ping":75},{"user_id":353,"name":"Super Noob","steam_id":76561199179611350,"connected_time":63000000000,"state":"spawning","ping":46},{"user_id":342,"name":"DO NOT call me BART SIMPSON!!","steam_id":76561198069113375,"connected_time":383000000000,"state":"active","ping":66},{"user_id":354,"name":"The Enclave","steam_id":76561198257670344,"connected_time":50000000000,"state":"active","ping":191}]},{"server_id":402,"name":"Uncletopia | Chicago | 3 | All Maps","name_short":"chi-3","host":"chi-1.us.uncletopia.com","port":27035,"enabled":true,"region":"us-central","cc":"us","latitude":41.881832,"longitude":-87.62318,"reserved":0,"last_update":"0001-01-01T00:00:00Z","name_a2s":"Uncletopia | Chicago | 3 | All Maps","protocol":17,"map":"koth_nucleus","folder":"tf","game":"Team Fortress","app_id":440,"player_count":24,"max_players":24,"Bots":0,"server_type":"Dedicated","server_os":"Linux","password":true,"vac":true,"version":"7742253","steam_id":85568392924515191,"keywords":["cp","nocrits","nodmgspread","uncletopia"],"game_id":440,"stv_port":27036,"stv_name":"Uncletopia | Chicago | 3 | All Maps | STV","players":[{"user_id":102,"name":"GC.bogey barry","steam_id":76561198053967778,"connected_time":49000000000,"state":"active","ping":82},{"user_id":103,"name":"[BDEF] Sale","steam_id":76561198259132395,"connected_time":25000000000,"state":"active","ping":99},{"user_id":88,"name":"Rasputia","steam_id":76561198132051047,"connected_time":669000000000,"state":"active","ping":103},{"user_id":68,"name":"JetZ","steam_id":76561199122488957,"connected_time":1968000000000,"state":"active","ping":84},{"user_id":71,"name":"bane","steam_id":76561198196769297,"connected_time":1885000000000,"state":"active","ping":59},{"user_id":87,"name":"magic","steam_id":76561198220343213,"connected_time":721000000000,"state":"active","ping":75},{"user_id":89,"name":"Unkle Genny","steam_id":76561198070674442,"connected_time":485000000000,"state":"active","ping":71},{"user_id":67,"name":"Wild_Rumpus","steam_id":76561198066393719,"connected_time":1980000000000,"state":"active","ping":60},{"user_id":61,"name":"THERE'S ONLY ONE BEER LEFT","steam_id":76561198272354852,"connected_time":3020000000000,"state":"active","ping":43},{"user_id":82,"name":"Mateo :-)","steam_id":76561199084303314,"connected_time":904000000000,"state":"active","ping":78},{"user_id":90,"name":"Sebas RA","steam_id":76561198162704802,"connected_time":432000000000,"state":"active","ping":88},{"user_id":53,"name":"Sapphireblitz","steam_id":76561198272635379,"connected_time":3405000000000,"state":"active","ping":77},{"user_id":91,"name":"HyperOrange|#SaveTF2","steam_id":76561198068071327,"connected_time":399000000000,"state":"active","ping":70},{"user_id":101,"name":"pipibaby","steam_id":76561198067430685,"connected_time":109000000000,"state":"active","ping":60},{"user_id":98,"name":"Michael Scarn","steam_id":76561198035740143,"connected_time":193000000000,"state":"active","ping":77},{"user_id":62,"name":"Mister36","steam_id":76561198019132100,"connected_time":2781000000000,"state":"active","ping":76},{"user_id":32,"name":"spinz","steam_id":76561198353098481,"connected_time":4385000000000,"state":"active","ping":70},{"user_id":99,"name":"scrapheap","steam_id":76561198202407087,"connected_time":183000000000,"state":"active","ping":68},{"user_id":86,"name":"skidzz","steam_id":76561198257068611,"connected_time":735000000000,"state":"active","ping":84},{"user_id":55,"name":"custodian","steam_id":76561198058793778,"connected_time":3350000000000,"state":"active","ping":70},{"user_id":95,"name":"Moscow Medic","steam_id":76561198071040516,"connected_time":292000000000,"state":"active","ping":73},{"user_id":39,"name":"JSlayz","steam_id":76561198853768655,"connected_time":4239000000000,"state":"active","ping":45},{"user_id":96,"name":"carter","steam_id":76561198391280639,"connected_time":285000000000,"state":"active","ping":61},{"user_id":73,"name":"GC.raven","steam_id":76561198146255593,"connected_time":1676000000000,"state":"active","ping":75}]},{"server_id":403,"name":"Uncletopia | Chicago | 4 | All Maps","name_short":"chi-4","host":"chi-1.us.uncletopia.com","port":27045,"enabled":true,"region":"us-central","cc":"us","latitude":41.881832,"longitude":-87.62318,"reserved":0,"last_update":"0001-01-01T00:00:00Z","name_a2s":"Uncletopia | Chicago | 4 | All Maps","protocol":17,"map":"koth_lakeside_final","folder":"tf","game":"Team Fortress","app_id":440,"player_count":8,"max_players":24,"Bots":0,"server_type":"Dedicated","server_os":"Linux","password":true,"vac":true,"version":"7742253","steam_id":85568392924515193,"keywords":["cp","nocrits","nodmgspread","uncletopia"],"game_id":440,"stv_port":27046,"stv_name":"Uncletopia | Chicago | 4 | All Maps | STV","players":[{"user_id":8,"name":"autogynocelia","steam_id":76561198038995286,"connected_time":1276000000000,"state":"active","ping":75},{"user_id":7,"name":"Lucy","steam_id":76561198424603937,"connected_time":1532000000000,"state":"active","ping":71},{"user_id":14,"name":"joao.pedro.azambuja.gariglio","steam_id":76561199467438225,"connected_time":247000000000,"state":"active","ping":215},{"user_id":10,"name":"ConducƒÉtor","steam_id":76561198079397980,"connected_time":1106000000000,"state":"active","ping":88},{"user_id":15,"name":"Crim","steam_id":76561198063507222,"connected_time":194000000000,"state":"active","ping":53},{"user_id":13,"name":"Tyck","steam_id":76561198059158013,"connected_time":770000000000,"state":"active","ping":95},{"user_id":16,"name":"Kamin","steam_id":76561198255299559,"connected_time":181000000000,"state":"active","ping":88},{"user_id":17,"name":"yeyoi","steam_id":76561198069821885,"connected_time":161000000000,"state":"active","ping":60}]},{"server_id":36,"name":"Uncletopia | Chicago | 5 | All Maps","name_short":"chi-5","host":"chi-2.us.uncletopia.com","port":27015,"enabled":true,"region":"us-central","cc":"us","latitude":41.881832,"longitude":-87.62318,"reserved":0,"last_update":"0001-01-01T00:00:00Z","name_a2s":"Uncletopia | Chicago | 5 | All Maps","protocol":17,"map":"pl_upward","folder":"tf","game":"Team Fortress","app_id":440,"player_count":24,"max_players":24,"Bots":0,"server_type":"Dedicated","server_os":"Linux","password":true,"vac":true,"version":"7742253","steam_id":85568392924866362,"keywords":["nocrits","nodmgspread","payload","uncletopia"],"game_id":440,"stv_port":27016,"stv_name":"Uncletopia | Chicago | 5 | All Maps | STV","players":[{"user_id":153,"name":"Lilac Lulamoon","steam_id":76561198111402757,"connected_time":1223000000000,"state":"active","ping":62},{"user_id":148,"name":"Sir Iasis","steam_id":76561198035666760,"connected_time":1380000000000,"state":"active","ping":63},{"user_id":159,"name":"Pebbled","steam_id":76561199390347605,"connected_time":211000000000,"state":"active","ping":84},{"user_id":134,"name":"cologne","steam_id":76561198069600113,"connected_time":2660000000000,"state":"active","ping":53},{"user_id":161,"name":"Sheppy","steam_id":76561198295126940,"connected_time":37000000000,"state":"active","ping":57},{"user_id":158,"name":"keep it piping hot","steam_id":76561199195104977,"connected_time":213000000000,"state":"active","ping":66},{"user_id":135,"name":"m.A.A.d city","steam_id":76561198134212003,"connected_time":2645000000000,"state":"active","ping":74},{"user_id":140,"name":"Bee","steam_id":76561198074681324,"connected_time":2191000000000,"state":"active","ping":63},{"user_id":124,"name":"schmopp","steam_id":76561198076490954,"connected_time":3131000000000,"state":"active","ping":46},{"user_id":155,"name":"6t26j","steam_id":76561198278282836,"connected_time":1012000000000,"state":"active","ping":59},{"user_id":152,"name":"Corbe","steam_id":76561198353893927,"connected_time":1258000000000,"state":"active","ping":77},{"user_id":150,"name":"Lord Scrubling","steam_id":76561198263744445,"connected_time":1276000000000,"state":"active","ping":75},{"user_id":154,"name":"Theodore Roosevelt","steam_id":76561197993295656,"connected_time":1164000000000,"state":"active","ping":45},{"user_id":142,"name":"\u003cNULL\u003e","steam_id":76561198079489150,"connected_time":1843000000000,"state":"active","ping":57},{"user_id":160,"name":"hoboways","steam_id":76561198168035195,"connected_time":209000000000,"state":"active","ping":85},{"user_id":73,"name":"Killroy NQP ‚ù§","steam_id":76561198006983771,"connected_time":5890000000000,"state":"active","ping":82},{"user_id":110,"name":"beats","steam_id":76561199245717718,"connected_time":4274000000000,"state":"active","ping":83},{"user_id":157,"name":"sleepy","steam_id":76561198450003554,"connected_time":684000000000,"state":"active","ping":68},{"user_id":151,"name":"steakfarmasian","steam_id":76561198212754036,"connected_time":1275000000000,"state":"active","ping":62},{"user_id":103,"name":"Vinchau üéµ","steam_id":76561198169289662,"connected_time":4617000000000,"state":"active","ping":62},{"user_id":143,"name":"Civic Wayfinder","steam_id":76561198060320953,"connected_time":1835000000000,"state":"active","ping":62},{"user_id":136,"name":"rachel","steam_id":76561198052588144,"connected_time":2627000000000,"state":"active","ping":83},{"user_id":132,"name":"Yimi","steam_id":76561198097984345,"connected_time":2857000000000,"state":"active","ping":90},{"user_id":145,"name":"Tectonic11","steam_id":76561198061169359,"connected_time":1667000000000,"state":"active","ping":66}]},{"server_id":37,"name":"Uncletopia | Chicago | 6 | All Maps","name_short":"chi-6","host":"chi-2.us.uncletopia.com","port":27025,"enabled":true,"region":"us-central","cc":"us","latitude":41.881832,"longitude":-87.62318,"reserved":0,"last_update":"0001-01-01T00:00:00Z","name_a2s":"Uncletopia | Chicago | 6 | All Maps","protocol":17,"map":"pl_swiftwater_final1","folder":"tf","game":"Team Fortress","app_id":440,"player_count":0,"max_players":24,"Bots":0,"server_type":"Dedicated","server_os":"Linux","password":true,"vac":true,"version":"7742253","steam_id":85568392924866363,"keywords":["nocrits","nodmgspread","payload","uncletopia"],"game_id":440,"stv_port":27026,"stv_name":"Uncletopia | Chicago | 6 | All Maps | STV","players":null},{"server_id":38,"name":"Uncletopia | Chicago | 7 | Stopwatch Beta","name_short":"chi-7","host":"chi-2.us.uncletopia.com","port":27035,"enabled":true,"region":"us-central","cc":"us","latitude":41.881832,"longitude":-87.62318,"reserved":0,"last_update":"0001-01-01T00:00:00Z","name_a2s":"Uncletopia | Chicago | 7 | Stopwatch Beta","protocol":17,"map":"koth_lakeside_final","folder":"tf","game":"Team Fortress","app_id":440,"player_count":0,"max_players":24,"Bots":0,"server_type":"Dedicated","server_os":"Linux","password":true,"vac":true,"version":"7742253","steam_id":85568392924866364,"keywords":["cp","nocrits","nodmgspread","uncletopia"],"game_id":440,"stv_port":27036,"stv_name":"Uncletopia | Chicago | 7 | Stopwatch Beta | STV","players":null},{"server_id":39,"name":"Uncletopia | Chicago | 8 | Community","name_short":"chi-8","host":"chi-2.us.uncletopia.com","port":27045,"enabled":true,"region":"us-central","cc":"us","latitude":41.881832,"longitude":-87.62318,"reserved":0,"last_update":"0001-01-01T00:00:00Z","name_a2s":"Uncletopia | Chicago | 8 | Community","protocol":17,"map":"koth_lakeside_final","folder":"tf","game":"Team Fortress","app_id":440,"player_count":0,"max_players":24,"Bots":0,"server_type":"Dedicated","server_os":"Linux","password":true,"vac":true,"version":"7742253","steam_id":85568392924866365,"keywords":["cp","nocrits","nodmgspread","uncletopia"],"game_id":440,"stv_port":27046,"stv_name":"Uncletopia | Chicago | 8 | Community | STV","players":null},{"server_id":8,"name":"Uncletopia | Dallas | 1 | All Maps","name_short":"dal-1","host":"dal-1.us.uncletopia.com","port":27015,"enabled":true,"region":"us-central","cc":"us","latitude":32.779167,"longitude":-96.80889,"reserved":0,"last_update":"0001-01-01T00:00:00Z","name_a2s":"Uncletopia | Dallas | 1 | All Maps","protocol":17,"map":"pl_pier","folder":"tf","game":"Team Fortress","app_id":440,"player_count":0,"max_players":24,"Bots":0,"server_type":"Dedicated","server_os":"Linux","password":true,"vac":true,"version":"7742253","steam_id":85568392924469986,"keywords":["nocrits","nodmgspread","payload","uncletopia"],"game_id":440,"stv_port":27016,"stv_name":"Uncletopia | Dallas | 1 | All Maps | STV","players":null},{"server_id":108,"name":"Uncletopia | Dallas | 2 | All Maps","name_short":"dal-2","host":"dal-1.us.uncletopia.com","port":27025,"enabled":true,"region":"us-central","cc":"us","latitude":32.779167,"longitude":-96.80889,"reserved":0,"last_update":"0001-01-01T00:00:00Z","name_a2s":"Uncletopia | Dallas | 2 | All Maps","protocol":17,"map":"koth_viaduct","folder":"tf","game":"Team Fortress","app_id":440,"player_count":0,"max_players":24,"Bots":0,"server_type":"Dedicated","server_os":"Linux","password":true,"vac":true,"version":"7742253","steam_id":85568392924469988,"keywords":["cp","nocrits","nodmgspread","uncletopia"],"game_id":440,"stv_port":27026,"stv_name":"Uncletopia | Dallas | 2 | All Maps | STV","players":null},{"server_id":5,"name":"Uncletopia | Frankfurt | 1 | All Maps","name_short":"frk-1","host":"frk-1.de.uncletopia.com","port":27015,"enabled":true,"region":"eu","cc":"de","latitude":50.110924,"longitude":8.682127,"reserved":0,"last_update":"0001-01-01T00:00:00Z","name_a2s":"Uncletopia | Frankfurt | 1 | All Maps","protocol":17,"map":"pl_badwater","folder":"tf","game":"Team Fortress","app_id":440,"player_count":24,"max_players":24,"Bots":0,"server_type":"Dedicated","server_os":"Linux","password":true,"vac":true,"version":"7742253","steam_id":85568392924469989,"keywords":["nocrits","nodmgspread","payload","uncletopia"],"game_id":440,"stv_port":27016,"stv_name":"Uncletopia | Frankfurt | 1 | All Maps | STV","players":[{"user_id":99,"name":"TSx* {Demon-Angel}","steam_id":76561198151486463,"connected_time":1634000000000,"state":"active","ping":70},{"user_id":106,"name":"Wattoz","steam_id":76561198127779511,"connected_time":850000000000,"state":"active","ping":71},{"user_id":79,"name":"Clitorina","steam_id":76561198077570815,"connected_time":2868000000000,"state":"active","ping":59},{"user_id":80,"name":"xenia","steam_id":76561198062107879,"connected_time":2851000000000,"state":"active","ping":82},{"user_id":113,"name":"20BB Raxor","steam_id":76561198239927434,"connected_time":338000000000,"state":"active","ping":88},{"user_id":101,"name":"remove cars","steam_id":76561199433578516,"connected_time":1502000000000,"state":"active","ping":83},{"user_id":87,"name":"man juice","steam_id":76561198126524735,"connected_time":2810000000000,"state":"active","ping":73},{"user_id":81,"name":"rat performance","steam_id":76561198065854668,"connected_time":2850000000000,"state":"active","ping":60},{"user_id":114,"name":"Dieu-Sama","steam_id":76561198002075862,"connected_time":333000000000,"state":"active","ping":61},{"user_id":94,"name":"Kratos","steam_id":76561199151759913,"connected_time":2624000000000,"state":"active","ping":61},{"user_id":91,"name":"ÍßÅ‡ºíXenon‡ºíÍßÇ","steam_id":76561198120502313,"connected_time":2713000000000,"state":"active","ping":79},{"user_id":116,"name":"MateMO","steam_id":76561198146180114,"connected_time":287000000000,"state":"active","ping":89},{"user_id":75,"name":"Heavy","steam_id":76561198126398022,"connected_time":2921000000000,"state":"active","ping":70},{"user_id":67,"name":"YEEET","steam_id":76561198914938199,"connected_time":3810000000000,"state":"active","ping":90},{"user_id":100,"name":"syzy2","steam_id":76561198010854110,"connected_time":1505000000000,"state":"active","ping":52},{"user_id":55,"name":"TSx* Osa__PL","steam_id":76561198027016799,"connected_time":4034000000000,"state":"active","ping":72},{"user_id":56,"name":"TSx* Naxer","steam_id":76561198011986779,"connected_time":4028000000000,"state":"active","ping":65},{"user_id":96,"name":"2004 Kanye","steam_id":76561198189000841,"connected_time":2502000000000,"state":"active","ping":83},{"user_id":58,"name":"Penis Contortionist","steam_id":76561198073663784,"connected_time":3968000000000,"state":"active","ping":45},{"user_id":97,"name":"a fresh pan of lemon squares","steam_id":76561197984071376,"connected_time":2157000000000,"state":"active","ping":68},{"user_id":109,"name":"NothingMan","steam_id":76561198051284446,"connected_time":440000000000,"state":"active","ping":51},{"user_id":115,"name":"Michael","steam_id":76561198003146906,"connected_time":327000000000,"state":"active","ping":66},{"user_id":102,"name":"Major Tom","steam_id":76561198117525443,"connected_time":1491000000000,"state":"active","ping":58},{"user_id":111,"name":"thefatcontroller","steam_id":76561199332965146,"connected_time":421000000000,"state":"active","ping":102}]},{"server_id":110,"name":"Uncletopia | Frankfurt | 2 | All Maps","name_short":"frk-2","host":"frk-1.de.uncletopia.com","port":27025,"enabled":true,"region":"eu","cc":"de","latitude":50.110924,"longitude":8.682127,"reserved":0,"last_update":"0001-01-01T00:00:00Z","name_a2s":"Uncletopia | Frankfurt | 2 | All Maps","protocol":17,"map":"pl_barnblitz","folder":"tf","game":"Team Fortress","app_id":440,"player_count":24,"max_players":24,"Bots":0,"server_type":"Dedicated","server_os":"Linux","password":true,"vac":true,"version":"7742253","steam_id":85568392924469990,"keywords":["nocrits","nodmgspread","payload","uncletopia"],"game_id":440,"stv_port":27026,"stv_name":"Uncletopia | Frankfurt | 2 | All Maps | STV","players":[{"user_id":692,"name":"tealoverr.190","steam_id":76561199028497703,"connected_time":119000000000,"state":"active","ping":105},{"user_id":652,"name":"i5","steam_id":76561198212702751,"connected_time":3044000000000,"state":"active","ping":84},{"user_id":679,"name":"Lopata","steam_id":76561198820264239,"connected_time":1008000000000,"state":"active","ping":97},{"user_id":693,"name":"QR-M5TR","steam_id":76561198197626135,"connected_time":119000000000,"state":"active","ping":53},{"user_id":697,"name":"COFFEE","steam_id":76561198869355986,"connected_time":73000000000,"state":"active","ping":65},{"user_id":682,"name":"Nickjak","steam_id":76561198046972337,"connected_time":933000000000,"state":"active","ping":69},{"user_id":683,"name":"Mongoose","steam_id":76561199125198593,"connected_time":909000000000,"state":"active","ping":67},{"user_id":660,"name":"Blo","steam_id":76561198161651469,"connected_time":2127000000000,"state":"active","ping":50},{"user_id":696,"name":"Caro-Kann","steam_id":76561198065506317,"connected_time":89000000000,"state":"active","ping":57},{"user_id":648,"name":"Unemployedcamel","steam_id":76561198103908668,"connected_time":3107000000000,"state":"active","ping":82},{"user_id":684,"name":"Abaddon","steam_id":76561199205559813,"connected_time":898000000000,"state":"active","ping":49},{"user_id":698,"name":"Graf von Scyth","steam_id":76561198198497733,"connected_time":30000000000,"state":"spawning","ping":54},{"user_id":646,"name":"[Insert Oneshot refrence here]","steam_id":76561198951206047,"connected_time":3154000000000,"state":"active","ping":85},{"user_id":626,"name":"RedFog","steam_id":76561198284713081,"connected_time":4765000000000,"state":"active","ping":44},{"user_id":691,"name":"Leviopterix","steam_id":76561198172397734,"connected_time":276000000000,"state":"active","ping":59},{"user_id":688,"name":"Carbonated Goodness","steam_id":76561198073430137,"connected_time":661000000000,"state":"active","ping":63},{"user_id":694,"name":"Washburne","steam_id":76561198032810579,"connected_time":116000000000,"state":"active","ping":60},{"user_id":690,"name":"Gempooh","steam_id":76561198098463950,"connected_time":349000000000,"state":"active","ping":89},{"user_id":689,"name":"Elon Ma cs.deals","steam_id":76561199018053264,"connected_time":396000000000,"state":"active","ping":50},{"user_id":655,"name":"Trollface [·¥ô-Œº]","steam_id":76561198418538887,"connected_time":3022000000000,"state":"active","ping":95},{"user_id":699,"name":"ProfessorCrack","steam_id":76561199035475627,"connected_time":19000000000,"state":"active","ping":82},{"user_id":700,"name":"MrBanana","steam_id":76561198116021623,"connected_time":16000000000,"state":"active","ping":54},{"user_id":701,"name":"{dogs}·Éô·Éù·Éë·Éê77koba77[ASS]","steam_id":76561198154218182,"connected_time":16000000000,"state":"active","ping":49},{"user_id":687,"name":"Tyyppioksidi","steam_id":76561198365773408,"connected_time":803000000000,"state":"active","ping":83}]},{"server_id":308,"name":"Uncletopia | Frankfurt | 3 | All Maps","name_short":"frk-3","host":"frk-1.de.uncletopia.com","port":27035,"enabled":true,"region":"eu","cc":"de","latitude":50.110924,"longitude":8.682127,"reserved":0,"last_update":"0001-01-01T00:00:00Z","name_a2s":"Uncletopia | Frankfurt | 3 | All Maps","protocol":17,"map":"pl_frontier_final","folder":"tf","game":"Team Fortress","app_id":440,"player_count":24,"max_players":24,"Bots":0,"server_type":"Dedicated","server_os":"Linux","password":true,"vac":true,"version":"7742253","steam_id":85568392924504274,"keywords":["nocrits","nodmgspread","payload","uncletopia"],"game_id":440,"stv_port":27036,"stv_name":"Uncletopia | Frankfurt | 3 | All Maps | STV","players":[{"user_id":639,"name":"mordecai.nmc","steam_id":76561197997223851,"connected_time":851000000000,"state":"active","ping":56},{"user_id":633,"name":"shoras","steam_id":76561198019680159,"connected_time":1498000000000,"state":"active","ping":85},{"user_id":627,"name":"etc","steam_id":76561197998394797,"connected_time":2206000000000,"state":"active","ping":59},{"user_id":567,"name":"Megasecret","steam_id":76561198055378025,"connected_time":5089000000000,"state":"active","ping":81},{"user_id":622,"name":"‚úß Luigi Time ‚úß","steam_id":76561198026903673,"connected_time":2636000000000,"state":"active","ping":51},{"user_id":593,"name":"._.","steam_id":76561198854897667,"connected_time":3805000000000,"state":"active","ping":76},{"user_id":399,"name":"wads","steam_id":76561198175406562,"connected_time":17921000000000,"state":"active","ping":65},{"user_id":623,"name":"NFTs are the future!","steam_id":76561198128506921,"connected_time":2607000000000,"state":"active","ping":75},{"user_id":638,"name":"¬°!Ulexos!¬°","steam_id":76561198087502998,"connected_time":1069000000000,"state":"active","ping":59},{"user_id":635,"name":"Cheyaoshi","steam_id":76561198141121996,"connected_time":1483000000000,"state":"active","ping":53},{"user_id":603,"name":"makin' piss","steam_id":76561198052136478,"connected_time":3663000000000,"state":"active","ping":70},{"user_id":617,"name":"ambatukam","steam_id":76561198175433731,"connected_time":3148000000000,"state":"active","ping":72},{"user_id":640,"name":"Nummi","steam_id":76561198980901935,"connected_time":835000000000,"state":"active","ping":84},{"user_id":645,"name":"Pepegi","steam_id":76561198001230113,"connected_time":427000000000,"state":"active","ping":72},{"user_id":576,"name":"Grunf","steam_id":76561199006140585,"connected_time":4848000000000,"state":"active","ping":85},{"user_id":641,"name":"CaYeRok22","steam_id":76561198134173706,"connected_time":807000000000,"state":"active","ping":59},{"user_id":619,"name":"nachtraaf","steam_id":76561197960473205,"connected_time":3128000000000,"state":"active","ping":63},{"user_id":646,"name":"powej","steam_id":76561198056381418,"connected_time":219000000000,"state":"active","ping":58},{"user_id":613,"name":"triangle","steam_id":76561198046838168,"connected_time":3392000000000,"state":"active","ping":47},{"user_id":634,"name":"Cocoa","steam_id":76561198078438879,"connected_time":1490000000000,"state":"active","ping":64},{"user_id":625,"name":"wasto-/-‚Ñ¢","steam_id":76561198102888038,"connected_time":2307000000000,"state":"active","ping":56},{"user_id":605,"name":"Sakura","steam_id":76561198892631275,"connected_time":3651000000000,"state":"active","ping":47},{"user_id":630,"name":"Hey, I¬¥m Andy!","steam_id":76561198060337777,"connected_time":1548000000000,"state":"active","ping":64},{"user_id":636,"name":"Chambersite","steam_id":76561198197022399,"connected_time":1459000000000,"state":"active","ping":64}]},{"server_id":309,"name":"Uncletopia | Frankfurt | 4 | All Maps","name_short":"frk-4","host":"frk-1.de.uncletopia.com","port":27045,"enabled":true,"region":"eu","cc":"de","latitude":50.110924,"longitude":8.682127,"reserved":0,"last_update":"0001-01-01T00:00:00Z","name_a2s":"Uncletopia | Frankfurt | 4 | All Maps","protocol":17,"map":"pl_borneo","folder":"tf","game":"Team Fortress","app_id":440,"player_count":24,"max_players":24,"Bots":0,"server_type":"Dedicated","server_os":"Linux","password":true,"vac":true,"version":"7742253","steam_id":85568392924504275,"keywords":["nocrits","nodmgspread","payload","uncletopia"],"game_id":440,"stv_port":27046,"stv_name":"Uncletopia | Frankfurt | 4 | All Maps | STV","players":[{"user_id":327,"name":"joona","steam_id":76561198156305446,"connected_time":3085000000000,"state":"active","ping":112},{"user_id":330,"name":"Rez","steam_id":76561198410598772,"connected_time":2731000000000,"state":"active","ping":50},{"user_id":332,"name":"oser","steam_id":76561198153989118,"connected_time":2720000000000,"state":"active","ping":70},{"user_id":366,"name":"banyesz","steam_id":76561198152997658,"connected_time":828000000000,"state":"active","ping":76},{"user_id":380,"name":"Acanda","steam_id":76561198123246537,"connected_time":311000000000,"state":"active","ping":49},{"user_id":309,"name":"Mr.Schnittlauch","steam_id":76561198295868113,"connected_time":4222000000000,"state":"active","ping":54},{"user_id":350,"name":"jeqer","steam_id":76561198256573643,"connected_time":1771000000000,"state":"active","ping":66},{"user_id":363,"name":"ricorno","steam_id":76561199441603388,"connected_time":1287000000000,"state":"active","ping":73},{"user_id":343,"name":"ItachiBar","steam_id":76561198074188432,"connected_time":2313000000000,"state":"active","ping":75},{"user_id":379,"name":"Egap","steam_id":76561199070653454,"connected_time":324000000000,"state":"active","ping":84},{"user_id":344,"name":"kryhu","steam_id":76561198293327713,"connected_time":2308000000000,"state":"active","ping":74},{"user_id":364,"name":"SailingSeal","steam_id":76561198965637156,"connected_time":1282000000000,"state":"active","ping":79},{"user_id":322,"name":"_Yanushi_","steam_id":76561198431418662,"connected_time":3459000000000,"state":"active","ping":74},{"user_id":384,"name":"KFC Enjoyer","steam_id":76561198840259819,"connected_time":50000000000,"state":"active","ping":46},{"user_id":368,"name":"jaMie","steam_id":76561198170148783,"connected_time":810000000000,"state":"active","ping":57},{"user_id":369,"name":"yuh","steam_id":76561199005555839,"connected_time":808000000000,"state":"active","ping":62},{"user_id":362,"name":"Milosz52","steam_id":76561199060940204,"connected_time":1343000000000,"state":"active","ping":76},{"user_id":383,"name":"Videogamer","steam_id":76561198106012909,"connected_time":251000000000,"state":"active","ping":65},{"user_id":371,"name":"kieran","steam_id":76561198115357403,"connected_time":478000000000,"state":"active","ping":75},{"user_id":351,"name":"Ducc","steam_id":76561198030677425,"connected_time":1770000000000,"state":"active","ping":59},{"user_id":347,"name":"nobody","steam_id":76561198180637374,"connected_time":1933000000000,"state":"active","ping":80},{"user_id":382,"name":"klaus","steam_id":76561198150394201,"connected_time":274000000000,"state":"active","ping":90},{"user_id":374,"name":"rz-/Atomic Punch","steam_id":76561199195508541,"connected_time":399000000000,"state":"active","ping":87},{"user_id":376,"name":"SynthBox3","steam_id":76561199094075745,"connected_time":387000000000,"state":"active","ping":91}]},{"server_id":310,"name":"Uncletopia | Frankfurt | 5 | All Maps","name_short":"frk-5","host":"frk-1.de.uncletopia.com","port":27055,"enabled":true,"region":"eu","cc":"de","latitude":50.110924,"longitude":8.682127,"reserved":0,"last_update":"0001-01-01T00:00:00Z","name_a2s":"Uncletopia | Frankfurt | 5 | All Maps","protocol":17,"map":"cp_gravelpit","folder":"tf","game":"Team Fortress","app_id":440,"player_count":24,"max_players":24,"Bots":0,"server_type":"Dedicated","server_os":"Linux","password":true,"vac":true,"version":"7742253","steam_id":85568392924504277,"keywords":["cp","nocrits","nodmgspread","uncletopia"],"game_id":440,"stv_port":27056,"stv_name":"Uncletopia | Frankfurt | 5 | All Maps | STV","players":[{"user_id":289,"name":"Schlumi","steam_id":76561197985385129,"connected_time":303000000000,"state":"active","ping":61},{"user_id":265,"name":"spacesh4rk","steam_id":76561197998939137,"connected_time":2467000000000,"state":"active","ping":60},{"user_id":279,"name":"ddchdrn","steam_id":76561198024358566,"connected_time":865000000000,"state":"active","ping":60},{"user_id":280,"name":"Eliminaattori","steam_id":76561197996681411,"connected_time":848000000000,"state":"active","ping":70},{"user_id":281,"name":"Mery","steam_id":76561198060952754,"connected_time":817000000000,"state":"active","ping":78},{"user_id":277,"name":"Tzeentch","steam_id":76561198038862347,"connected_time":1030000000000,"state":"active","ping":61},{"user_id":260,"name":"Saihtama","steam_id":76561198067497192,"connected_time":2530000000000,"state":"active","ping":57},{"user_id":273,"name":"SneakySneaker","steam_id":76561198027302478,"connected_time":1283000000000,"state":"active","ping":62},{"user_id":290,"name":"silly gaming","steam_id":76561198145055526,"connected_time":295000000000,"state":"active","ping":120},{"user_id":283,"name":"Jaunedice","steam_id":76561198171063246,"connected_time":761000000000,"state":"active","ping":65},{"user_id":284,"name":"Prox","steam_id":76561198351490981,"connected_time":713000000000,"state":"active","ping":60},{"user_id":204,"name":"frost","steam_id":76561198167675482,"connected_time":6849000000000,"state":"active","ping":89},{"user_id":278,"name":"Francium","steam_id":76561198349106017,"connected_time":1001000000000,"state":"active","ping":59},{"user_id":251,"name":"VIN WEASEL","steam_id":76561198014387066,"connected_time":3447000000000,"state":"active","ping":46},{"user_id":285,"name":"Velarowo","steam_id":76561198349373445,"connected_time":706000000000,"state":"active","ping":59},{"user_id":257,"name":"Majami","steam_id":76561198054365738,"connected_time":2610000000000,"state":"active","ping":92},{"user_id":288,"name":"Nix","steam_id":76561198057037212,"connected_time":427000000000,"state":"active","ping":71},{"user_id":286,"name":"I.C. Wiener","steam_id":76561197999912254,"connected_time":687000000000,"state":"active","ping":85},{"user_id":266,"name":" á·¥âu…ê","steam_id":76561198044204428,"connected_time":2222000000000,"state":"active","ping":68},{"user_id":225,"name":"A Cat","steam_id":76561198221549132,"connected_time":5117000000000,"state":"active","ping":48},{"user_id":263,"name":"USA BURGER","steam_id":76561198875472890,"connected_time":2526000000000,"state":"active","ping":80},{"user_id":269,"name":"SANDmann","steam_id":76561199012566222,"connected_time":1855000000000,"state":"active","ping":57},{"user_id":287,"name":"mini","steam_id":76561198055391760,"connected_time":676000000000,"state":"active","ping":60},{"user_id":275,"name":"Abbers","steam_id":76561198120716607,"connected_time":1220000000000,"state":"active","ping":79}]},{"server_id":311,"name":"Uncletopia | Frankfurt | 6 | All Maps","name_short":"frk-6","host":"frk-1.de.uncletopia.com","port":27065,"enabled":true,"region":"eu","cc":"de","latitude":50.110924,"longitude":8.682127,"reserved":0,"last_update":"0001-01-01T00:00:00Z","name_a2s":"Uncletopia | Frankfurt | 6 | All Maps","protocol":17,"map":"pl_badwater","folder":"tf","game":"Team Fortress","app_id":440,"player_count":24,"max_players":24,"Bots":0,"server_type":"Dedicated","server_os":"Linux","password":true,"vac":true,"version":"7742253","steam_id":85568392924504278,"keywords":["nocrits","nodmgspread","payload","uncletopia"],"game_id":440,"stv_port":27066,"stv_name":"Uncletopia | Frankfurt | 6 | All Maps | STV","players":[{"user_id":645,"name":"outin","steam_id":76561198137734730,"connected_time":361000000000,"state":"active","ping":72},{"user_id":646,"name":"frEnCH dRuNK gUy","steam_id":76561198893686453,"connected_time":359000000000,"state":"active","ping":63},{"user_id":594,"name":"Screaming_Mole","steam_id":76561198356293585,"connected_time":3318000000000,"state":"active","ping":65},{"user_id":613,"name":"Jaffa_King7","steam_id":76561199061854803,"connected_time":2707000000000,"state":"active","ping":125},{"user_id":636,"name":"Arcader","steam_id":76561198109860110,"connected_time":981000000000,"state":"active","ping":55},{"user_id":641,"name":"Doctor__Mobius","steam_id":76561197971281806,"connected_time":572000000000,"state":"active","ping":53},{"user_id":653,"name":"djent","steam_id":76561198324934874,"connected_time":203000000000,"state":"active","ping":75},{"user_id":586,"name":"FiricelSolos123","steam_id":76561198901014065,"connected_time":4643000000000,"state":"active","ping":81},{"user_id":639,"name":"Der_Milchmann","steam_id":76561198001417748,"connected_time":644000000000,"state":"active","ping":45},{"user_id":623,"name":"Kuna ‚ò©","steam_id":76561199012155377,"connected_time":2180000000000,"state":"active","ping":47},{"user_id":640,"name":"Hanƒ±mSever23","steam_id":76561198142124751,"connected_time":641000000000,"state":"active","ping":112},{"user_id":512,"name":"nytronytronytro","steam_id":76561198080496833,"connected_time":8279000000000,"state":"active","ping":88},{"user_id":649,"name":"Motted","steam_id":76561198068370267,"connected_time":285000000000,"state":"active","ping":73},{"user_id":648,"name":"Croc","steam_id":76561198902479382,"connected_time":308000000000,"state":"active","ping":114},{"user_id":655,"name":"Tomfool","steam_id":76561197993256481,"connected_time":156000000000,"state":"active","ping":73},{"user_id":650,"name":"Swagger64","steam_id":76561198158347026,"connected_time":284000000000,"state":"active","ping":88},{"user_id":624,"name":"scantron","steam_id":76561199103959197,"connected_time":2048000000000,"state":"active","ping":92},{"user_id":638,"name":"yurkur","steam_id":76561198407108497,"connected_time":776000000000,"state":"active","ping":52},{"user_id":644,"name":"fas2roger","steam_id":76561198199226627,"connected_time":383000000000,"state":"active","ping":105},{"user_id":651,"name":"Mass","steam_id":76561198432195204,"connected_time":275000000000,"state":"active","ping":59},{"user_id":654,"name":"KLAMA  ‚ù§","steam_id":76561198351549661,"connected_time":183000000000,"state":"active","ping":74},{"user_id":603,"name":"Matse007","steam_id":76561198022663994,"connected_time":3227000000000,"state":"active","ping":65},{"user_id":622,"name":"Harpenden, Harpenden, Harpenden","steam_id":76561198118138546,"connected_time":2188000000000,"state":"active","ping":60},{"user_id":633,"name":"EEEEEH","steam_id":76561198126717413,"connected_time":1432000000000,"state":"active","ping":79}]},{"server_id":23,"name":"Uncletopia | Frankfurt | 7 | Stopwatch Beta","name_short":"frk-7","host":"frk-1.de.uncletopia.com","port":27075,"enabled":true,"region":"eu","cc":"de","latitude":50.110924,"longitude":8.682127,"reserved":0,"last_update":"0001-01-01T00:00:00Z","name_a2s":"Uncletopia | Frankfurt | 7 | Stopwatch Beta","protocol":17,"map":"workshop/pl_summercoast_rc8e.ugc1761528829","folder":"tf","game":"Team Fortress","app_id":440,"player_count":0,"max_players":24,"Bots":0,"server_type":"Dedicated","server_os":"Linux","password":true,"vac":true,"version":"7742253","steam_id":85568392924742827,"keywords":["nocrits","nodmgspread","payload","uncletopia"],"game_id":440,"stv_port":27076,"stv_name":"Uncletopia | Frankfurt | 7 | Stopwatch Beta | STV","players":null},{"server_id":24,"name":"Uncletopia | Frankfurt | 8 | Community","name_short":"frk-8","host":"frk-1.de.uncletopia.com","port":27085,"enabled":true,"region":"eu","cc":"de","latitude":50.110924,"longitude":8.682127,"reserved":0,"last_update":"0001-01-01T00:00:00Z","name_a2s":"Uncletopia | Frankfurt | 8 | Community","protocol":17,"map":"workshop/koth_ashville_final.ugc2130459942","folder":"tf","game":"Team Fortress","app_id":440,"player_count":14,"max_players":24,"Bots":0,"server_type":"Dedicated","server_os":"Linux","password":true,"vac":true,"version":"7742253","steam_id":85568392924742828,"keywords":["cp","nocrits","nodmgspread","uncletopia"],"game_id":440,"stv_port":27086,"stv_name":"Uncletopia | Frankfurt | 8 | Community | STV","players":[{"user_id":263,"name":"Lyla \u003c3","steam_id":76561198356692614,"connected_time":1806000000000,"state":"active","ping":77},{"user_id":223,"name":"TFS Jester","steam_id":76561198825919816,"connected_time":4071000000000,"state":"active","ping":64},{"user_id":264,"name":"SparklyCherries","steam_id":76561198102969924,"connected_time":1699000000000,"state":"active","ping":69},{"user_id":266,"name":"vgiamp10","steam_id":76561198396069529,"connected_time":1455000000000,"state":"active","ping":66},{"user_id":269,"name":"fried","steam_id":76561198307522022,"connected_time":742000000000,"state":"active","ping":54},{"user_id":270,"name":"SomeGuyEatingPie","steam_id":76561198086717023,"connected_time":644000000000,"state":"active","ping":63},{"user_id":271,"name":"Billy.jpg","steam_id":76561198260524005,"connected_time":639000000000,"state":"active","ping":69},{"user_id":265,"name":"DYLDWL","steam_id":76561198101086822,"connected_time":1696000000000,"state":"active","ping":113},{"user_id":272,"name":"JHWAFC22","steam_id":76561198130289993,"connected_time":611000000000,"state":"active","ping":65},{"user_id":273,"name":"isterkvarn","steam_id":76561198080064844,"connected_time":495000000000,"state":"active","ping":54},{"user_id":277,"name":"silicon based life form","steam_id":76561199127121346,"connected_time":47000000000,"state":"active","ping":63},{"user_id":249,"name":"–†–∞—Å–∫–æ–ª—å–Ω–∏–∫_–°–ê–í–ö–ê","steam_id":76561198056455006,"connected_time":2699000000000,"state":"active","ping":103},{"user_id":275,"name":"kotamine","steam_id":76561198068907991,"connected_time":194000000000,"state":"active","ping":68},{"user_id":276,"name":"Hellago","steam_id":76561198003736380,"connected_time":120000000000,"state":"active","ping":61}]},{"server_id":202,"name":"Uncletopia | Hong Kong | 1 | All Maps","name_short":"hgk-1","host":"hgk-1.hk.uncletopia.com","port":27015,"enabled":true,"region":"asia","cc":"hk","latitude":22.302711,"longitude":114.177216,"reserved":0,"last_update":"0001-01-01T00:00:00Z","name_a2s":"Uncletopia | Hong Kong | 1 | All Maps","protocol":17,"map":"cp_process_final","folder":"tf","game":"Team Fortress","app_id":440,"player_count":0,"max_players":24,"Bots":0,"server_type":"Dedicated","server_os":"Linux","password":true,"vac":true,"version":"7742253","steam_id":85568392924494504,"keywords":["cp","nocrits","nodmgspread","uncletopia"],"game_id":440,"stv_port":27016,"stv_name":"Uncletopia | Hong Kong | 1 | All Maps | STV","players":null},{"server_id":1,"name":"Uncletopia | Los Angeles | 1 | All Maps","name_short":"lax-1","host":"lax-1.us.uncletopia.com","port":27015,"enabled":true,"region":"us-west","cc":"us","latitude":33.94279,"longitude":-118.41004,"reserved":0,"last_update":"0001-01-01T00:00:00Z","name_a2s":"Uncletopia | Los Angeles | 1 | All Maps","protocol":17,"map":"cp_dustbowl","folder":"tf","game":"Team Fortress","app_id":440,"player_count":1,"max_players":24,"Bots":0,"server_type":"Dedicated","server_os":"Linux","password":true,"vac":true,"version":"7742253","steam_id":85568392924469991,"keywords":["cp","nocrits","nodmgspread","uncletopia"],"game_id":440,"stv_port":27016,"stv_name":"Uncletopia | Los Angeles | 1 | All Maps | STV","players":[{"user_id":3,"name":"Nibotshooter","steam_id":76561199284825579,"connected_time":62000000000,"state":"active","ping":65}]},{"server_id":112,"name":"Uncletopia | Los Angeles | 2 | All Maps","name_short":"lax-2","host":"lax-1.us.uncletopia.com","port":27025,"enabled":true,"region":"us-west","cc":"us","latitude":33.94279,"longitude":-118.41004,"reserved":0,"last_update":"0001-01-01T00:00:00Z","name_a2s":"Uncletopia | Los Angeles | 2 | All Maps","protocol":17,"map":"pl_frontier_final","folder":"tf","game":"Team Fortress","app_id":440,"player_count":0,"max_players":24,"Bots":0,"server_type":"Dedicated","server_os":"Linux","password":true,"vac":true,"version":"7742253","steam_id":85568392924469992,"keywords":["nocrits","nodmgspread","payload","uncletopia"],"game_id":440,"stv_port":27026,"stv_name":"Uncletopia | Los Angeles | 2 | All Maps | STV","players":null},{"server_id":324,"name":"Uncletopia | Los Angeles | 3 | All Maps","name_short":"lax-3","host":"lax-1.us.uncletopia.com","port":27035,"enabled":true,"region":"us-west","cc":"us","latitude":33.94279,"longitude":-118.41004,"reserved":0,"last_update":"0001-01-01T00:00:00Z","name_a2s":"Uncletopia | Los Angeles | 3 | All Maps","protocol":17,"map":"pl_pier","folder":"tf","game":"Team Fortress","app_id":440,"player_count":24,"max_players":24,"Bots":0,"server_type":"Dedicated","server_os":"Linux","password":true,"vac":true,"version":"7742253","steam_id":85568392924510198,"keywords":["nocrits","nodmgspread","payload","uncletopia"],"game_id":440,"stv_port":27036,"stv_name":"Uncletopia | Los Angeles | 3 | All Maps | STV","players":[{"user_id":114,"name":"sun sugar","steam_id":76561198385085005,"connected_time":984000000000,"state":"active","ping":49},{"user_id":115,"name":"rmbl","steam_id":76561198150137369,"connected_time":949000000000,"state":"active","ping":47},{"user_id":116,"name":"Nuggets","steam_id":76561198267826226,"connected_time":943000000000,"state":"active","ping":47},{"user_id":101,"name":"oopsboom24","steam_id":76561199105248648,"connected_time":2300000000000,"state":"active","ping":125},{"user_id":113,"name":"Dezzithediscoduck","steam_id":76561198037043489,"connected_time":1039000000000,"state":"active","ping":56},{"user_id":124,"name":"idiot normie","steam_id":76561198397662124,"connected_time":683000000000,"state":"active","ping":85},{"user_id":109,"name":"Whisper!","steam_id":76561198119609795,"connected_time":1738000000000,"state":"active","ping":53},{"user_id":129,"name":"HUIEI","steam_id":76561198073763735,"connected_time":61000000000,"state":"active","ping":59},{"user_id":93,"name":"Mr. Dick‚Ñ¢","steam_id":76561198047309044,"connected_time":2847000000000,"state":"active","ping":89},{"user_id":94,"name":"tod","steam_id":76561198010204565,"connected_time":2838000000000,"state":"active","ping":74},{"user_id":123,"name":"Kekyoin","steam_id":76561198925404891,"connected_time":759000000000,"state":"active","ping":65},{"user_id":117,"name":"Joe Banana","steam_id":76561198066224724,"connected_time":905000000000,"state":"active","ping":75},{"user_id":102,"name":"PepperNSalt","steam_id":76561198169000533,"connected_time":2282000000000,"state":"active","ping":77},{"user_id":118,"name":"Jog","steam_id":76561198025393439,"connected_time":897000000000,"state":"active","ping":78},{"user_id":86,"name":"Walshy Boy","steam_id":76561198067004449,"connected_time":3249000000000,"state":"active","ping":61},{"user_id":128,"name":"maximusbabaximus","steam_id":76561198419378913,"connected_time":430000000000,"state":"active","ping":65},{"user_id":79,"name":"0","steam_id":76561198062650363,"connected_time":3711000000000,"state":"active","ping":70},{"user_id":110,"name":"Yukihana","steam_id":76561198348354629,"connected_time":1385000000000,"state":"active","ping":40},{"user_id":119,"name":"Astrozombeez","steam_id":76561198113754079,"connected_time":868000000000,"state":"active","ping":126},{"user_id":105,"name":"Danny","steam_id":76561198089084860,"connected_time":2171000000000,"state":"active","ping":138},{"user_id":127,"name":"The Property Brothers On HGTV","steam_id":76561198034079853,"connected_time":504000000000,"state":"active","ping":79},{"user_id":121,"name":"tony","steam_id":76561198796523243,"connected_time":855000000000,"state":"active","ping":57},{"user_id":88,"name":"Lily Thorn","steam_id":76561198305488625,"connected_time":3153000000000,"state":"active","ping":80},{"user_id":96,"name":"Drakon","steam_id":76561198078210822,"connected_time":2778000000000,"state":"active","ping":58}]},{"server_id":25,"name":"Uncletopia | Los Angeles | 4 | Stopwatch Beta","name_short":"lax-4","host":"lax-1.us.uncletopia.com","port":27045,"enabled":true,"region":"us-west","cc":"us","latitude":33.94279,"longitude":-118.41004,"reserved":0,"last_update":"0001-01-01T00:00:00Z","name_a2s":"Uncletopia | Los Angeles | 4 | Stopwatch Beta","protocol":17,"map":"pl_swiftwater_final1","folder":"tf","game":"Team Fortress","app_id":440,"player_count":0,"max_players":24,"Bots":0,"server_type":"Dedicated","server_os":"Linux","password":true,"vac":true,"version":"7742253","steam_id":85568392924510199,"keywords":["nocrits","nodmgspread","payload","uncletopia"],"game_id":440,"stv_port":27046,"stv_name":"Uncletopia | Los Angeles | 4 | Stopwatch Beta | STV","players":null},{"server_id":11,"name":"Uncletopia | London | 1 | All Maps","name_short":"lon-1","host":"lon-1.uk.uncletopia.com","port":27015,"enabled":true,"region":"eu","cc":"gb","latitude":51.509865,"longitude":-0.118092,"reserved":0,"last_update":"0001-01-01T00:00:00Z","name_a2s":"Uncletopia | London | 1 | All Maps","protocol":17,"map":"pl_pier","folder":"tf","game":"Team Fortress","app_id":440,"player_count":24,"max_players":24,"Bots":0,"server_type":"Dedicated","server_os":"Linux","password":true,"vac":true,"version":"7742253","steam_id":85568392924367362,"keywords":["nocrits","nodmgspread","payload","uncletopia"],"game_id":440,"stv_port":27016,"stv_name":"Uncletopia | London | 1 | All Maps | STV","players":[{"user_id":701,"name":"|20BB)\u003eMach","steam_id":76561198952487564,"connected_time":1546000000000,"state":"active","ping":85},{"user_id":698,"name":"Volcyy","steam_id":76561198063979124,"connected_time":2435000000000,"state":"active","ping":57},{"user_id":713,"name":"Malphite","steam_id":76561198073313660,"connected_time":980000000000,"state":"active","ping":53},{"user_id":708,"name":"Spacerocket","steam_id":76561198081784800,"connected_time":1031000000000,"state":"active","ping":55},{"user_id":651,"name":"G6 sherlock","steam_id":76561198802967796,"connected_time":6230000000000,"state":"active","ping":119},{"user_id":658,"name":"Pestdoktor","steam_id":76561198058159271,"connected_time":5987000000000,"state":"active","ping":69},{"user_id":689,"name":"SteveyWonder","steam_id":76561198168234878,"connected_time":2523000000000,"state":"active","ping":46},{"user_id":691,"name":"EdSuedi","steam_id":76561199387956486,"connected_time":2519000000000,"state":"active","ping":60},{"user_id":716,"name":"SuperBob103","steam_id":76561199175360012,"connected_time":439000000000,"state":"active","ping":49},{"user_id":711,"name":"Asfreild","steam_id":76561198055901120,"connected_time":996000000000,"state":"active","ping":71},{"user_id":712,"name":"ALF","steam_id":76561198000232591,"connected_time":995000000000,"state":"active","ping":110},{"user_id":680,"name":"Asgaard","steam_id":76561198026516905,"connected_time":3775000000000,"state":"active","ping":115},{"user_id":668,"name":"Nexosert","steam_id":76561198941142018,"connected_time":4757000000000,"state":"active","ping":96},{"user_id":714,"name":"Jesus","steam_id":76561198119288049,"connected_time":975000000000,"state":"active","ping":62},{"user_id":673,"name":"YV","steam_id":76561198147868242,"connected_time":4293000000000,"state":"active","ping":56},{"user_id":679,"name":"ghost","steam_id":76561198189940229,"connected_time":3800000000000,"state":"active","ping":54},{"user_id":705,"name":"JewsForJesus","steam_id":76561198397024973,"connected_time":1065000000000,"state":"active","ping":44},{"user_id":695,"name":"Mr.B","steam_id":76561199204478925,"connected_time":2504000000000,"state":"active","ping":119},{"user_id":703,"name":"Mi Manchi","steam_id":76561198171573129,"connected_time":1242000000000,"state":"active","ping":67},{"user_id":660,"name":"Bones","steam_id":76561198065081225,"connected_time":5643000000000,"state":"active","ping":35},{"user_id":625,"name":"My balls itch","steam_id":76561199121794613,"connected_time":8555000000000,"state":"active","ping":82},{"user_id":704,"name":"sigma female","steam_id":76561198298576765,"connected_time":1241000000000,"state":"active","ping":68},{"user_id":661,"name":"LarsInABox","steam_id":76561198028329262,"connected_time":5643000000000,"state":"active","ping":75},{"user_id":646,"name":"saus","steam_id":76561198114729364,"connected_time":6844000000000,"state":"active","ping":61}]},{"server_id":114,"name":"Uncletopia | London | 2 | All Maps","name_short":"lon-2","host":"lon-1.uk.uncletopia.com","port":27025,"enabled":true,"region":"eu","cc":"gb","latitude":51.509865,"longitude":-0.118092,"reserved":0,"last_update":"0001-01-01T00:00:00Z","name_a2s":"Uncletopia | London | 2 | All Maps","protocol":17,"map":"pl_frontier_final","folder":"tf","game":"Team Fortress","app_id":440,"player_count":24,"max_players":24,"Bots":0,"server_type":"Dedicated","server_os":"Linux","password":true,"vac":true,"version":"7742253","steam_id":85568392924470941,"keywords":["nocrits","nodmgspread","payload","uncletopia"],"game_id":440,"stv_port":27026,"stv_name":"Uncletopia | London | 2 | All Maps | STV","players":[{"user_id":399,"name":"Raven","steam_id":76561198087296188,"connected_time":1466000000000,"state":"active","ping":58},{"user_id":409,"name":"Sneaky boi","steam_id":76561199195985387,"connected_time":1122000000000,"state":"active","ping":93},{"user_id":401,"name":"LoboPaciente","steam_id":76561198088870962,"connected_time":1391000000000,"state":"active","ping":63},{"user_id":410,"name":"Mommy","steam_id":76561198042593027,"connected_time":1119000000000,"state":"active","ping":88},{"user_id":411,"name":"Rollermine ‚ô•","steam_id":76561199370148924,"connected_time":1099000000000,"state":"active","ping":63},{"user_id":414,"name":"El Gato Volador","steam_id":76561198021296882,"connected_time":880000000000,"state":"active","ping":70},{"user_id":420,"name":"abigail","steam_id":76561198132932617,"connected_time":346000000000,"state":"active","ping":60},{"user_id":348,"name":"tactical783","steam_id":76561199051688560,"connected_time":5470000000000,"state":"active","ping":54},{"user_id":413,"name":"foo","steam_id":76561198042000263,"connected_time":1052000000000,"state":"active","ping":82},{"user_id":394,"name":"Him","steam_id":76561198317918317,"connected_time":1723000000000,"state":"active","ping":146},{"user_id":342,"name":"Neytan","steam_id":76561198027024747,"connected_time":5772000000000,"state":"active","ping":123},{"user_id":416,"name":"Wuffington","steam_id":76561198033762881,"connected_time":539000000000,"state":"active","ping":54},{"user_id":398,"name":"Fran","steam_id":76561199070516960,"connected_time":1555000000000,"state":"active","ping":75},{"user_id":415,"name":"Their Mother","steam_id":76561198102420849,"connected_time":641000000000,"state":"active","ping":67},{"user_id":383,"name":"skull","steam_id":76561198269491159,"connected_time":2080000000000,"state":"active","ping":59},{"user_id":405,"name":"My food is ready at 9","steam_id":76561198053961616,"connected_time":1158000000000,"state":"active","ping":57},{"user_id":316,"name":"Silvercoat's Stargazer","steam_id":76561198399525329,"connected_time":7702000000000,"state":"active","ping":125},{"user_id":407,"name":"Jack","steam_id":76561198325505238,"connected_time":1136000000000,"state":"active","ping":78},{"user_id":417,"name":"Crunchy","steam_id":76561198184973203,"connected_time":514000000000,"state":"active","ping":61},{"user_id":395,"name":"–µ–±–∞—Ç–µ–ª—å","steam_id":76561198220179531,"connected_time":1718000000000,"state":"active","ping":94},{"user_id":418,"name":"AL Jardinet","steam_id":76561198126723721,"connected_time":445000000000,"state":"active","ping":55},{"user_id":376,"name":"Anemia","steam_id":76561198071595988,"connected_time":2135000000000,"state":"active","ping":44},{"user_id":363,"name":"Joro_Kudo","steam_id":76561198954912403,"connected_time":3587000000000,"state":"active","ping":75},{"user_id":408,"name":"rummy","steam_id":76561197997573379,"connected_time":1136000000000,"state":"active","ping":40}]},{"server_id":320,"name":"Uncletopia | London | 3 | All Maps","name_short":"lon-3","host":"lon-1.uk.uncletopia.com","port":27035,"enabled":true,"region":"eu","cc":"gb","latitude":51.509865,"longitude":-0.118092,"reserved":0,"last_update":"0001-01-01T00:00:00Z","name_a2s":"Uncletopia | London | 3 | All Maps","protocol":17,"map":"pl_pier","folder":"tf","game":"Team Fortress","app_id":440,"player_count":24,"max_players":24,"Bots":0,"server_type":"Dedicated","server_os":"Linux","password":true,"vac":true,"version":"7742253","steam_id":85568392924510192,"keywords":["nocrits","nodmgspread","payload","uncletopia"],"game_id":440,"stv_port":27036,"stv_name":"Uncletopia | London | 3 | All Maps | STV","players":[{"user_id":547,"name":"tralalaOuiOui","steam_id":76561197963471507,"connected_time":1750000000000,"state":"active","ping":45},{"user_id":535,"name":"The Funny Cat-Heaby","steam_id":76561198439978112,"connected_time":2301000000000,"state":"active","ping":95},{"user_id":484,"name":"QuorglepleegJR","steam_id":76561198984658438,"connected_time":3525000000000,"state":"active","ping":45},{"user_id":548,"name":"big al","steam_id":76561198800662675,"connected_time":1720000000000,"state":"active","ping":88},{"user_id":555,"name":"Mr. Mundy","steam_id":76561198132008918,"connected_time":1337000000000,"state":"active","ping":85},{"user_id":538,"name":"Kili","steam_id":76561198138456346,"connected_time":2151000000000,"state":"active","ping":66},{"user_id":549,"name":"UmbreonGSC","steam_id":76561198041960967,"connected_time":1713000000000,"state":"active","ping":71},{"user_id":544,"name":"Hexagon","steam_id":76561198151205758,"connected_time":1858000000000,"state":"active","ping":59},{"user_id":545,"name":"Nick","steam_id":76561198036109469,"connected_time":1838000000000,"state":"active","ping":104},{"user_id":562,"name":"Yaire","steam_id":76561198017343510,"connected_time":292000000000,"state":"active","ping":58},{"user_id":498,"name":"Tavish","steam_id":76561197971486686,"connected_time":3326000000000,"state":"active","ping":49},{"user_id":550,"name":"Jack6490","steam_id":76561198798496149,"connected_time":1710000000000,"state":"active","ping":45},{"user_id":551,"name":"Sam","steam_id":76561198203070687,"connected_time":1707000000000,"state":"active","ping":56},{"user_id":563,"name":"el_ronia","steam_id":76561199203435546,"connected_time":286000000000,"state":"active","ping":73},{"user_id":471,"name":"‚ùÄsnorlax","steam_id":76561198051629288,"connected_time":4558000000000,"state":"active","ping":58},{"user_id":509,"name":"dairy","steam_id":76561198117033273,"connected_time":3033000000000,"state":"active","ping":64},{"user_id":558,"name":"pumpkin spice go.ggez.ro","steam_id":76561198449957490,"connected_time":775000000000,"state":"active","ping":98},{"user_id":431,"name":"night.s","steam_id":76561198326287823,"connected_time":7034000000000,"state":"active","ping":73},{"user_id":473,"name":"General Antifascista","steam_id":76561198194714570,"connected_time":4540000000000,"state":"active","ping":60},{"user_id":560,"name":"manKe","steam_id":76561198008564860,"connected_time":418000000000,"state":"active","ping":57},{"user_id":561,"name":"machdichfott","steam_id":76561198845948405,"connected_time":328000000000,"state":"active","ping":64},{"user_id":508,"name":"Nene Seal","steam_id":76561198139372671,"connected_time":3050000000000,"state":"active","ping":55},{"user_id":440,"name":"Mr.Fix","steam_id":76561199017362445,"connected_time":5712000000000,"state":"active","ping":111},{"user_id":331,"name":"goofy goober","steam_id":76561198013237629,"connected_time":12915000000000,"state":"active","ping":87}]},{"server_id":321,"name":"Uncletopia | London | 4 | All Maps","name_short":"lon-4","host":"lon-1.uk.uncletopia.com","port":27045,"enabled":true,"region":"eu","cc":"gb","latitude":51.509865,"longitude":-0.118092,"reserved":0,"last_update":"0001-01-01T00:00:00Z","name_a2s":"Uncletopia | London | 4 | All Maps","protocol":17,"map":"cp_snakewater_final1","folder":"tf","game":"Team Fortress","app_id":440,"player_count":24,"max_players":24,"Bots":0,"server_type":"Dedicated","server_os":"Linux","password":true,"vac":true,"version":"7742253","steam_id":85568392924510193,"keywords":["cp","nocrits","nodmgspread","uncletopia"],"game_id":440,"stv_port":27046,"stv_name":"Uncletopia | London | 4 | All Maps | STV","players":[{"user_id":305,"name":"86","steam_id":76561199084186097,"connected_time":264000000000,"state":"active","ping":70},{"user_id":296,"name":"sondi","steam_id":76561198045466209,"connected_time":1055000000000,"state":"active","ping":74},{"user_id":310,"name":"owl","steam_id":76561198229230864,"connected_time":146000000000,"state":"active","ping":92},{"user_id":275,"name":"mt","steam_id":76561197961319303,"connected_time":2181000000000,"state":"active","ping":57},{"user_id":274,"name":"Ôº≤ ÔºØ Ôº¢ Ôº¢ Ôº• Ôº≤ Ôº¥","steam_id":76561198134404830,"connected_time":2202000000000,"state":"active","ping":119},{"user_id":300,"name":"sharty in my head","steam_id":76561198106049954,"connected_time":725000000000,"state":"active","ping":75},{"user_id":311,"name":"Krabs","steam_id":76561198161679477,"connected_time":139000000000,"state":"active","ping":39},{"user_id":303,"name":"Snort Vaulter","steam_id":76561198151757381,"connected_time":289000000000,"state":"active","ping":56},{"user_id":308,"name":"Trans Gowron","steam_id":76561198072453479,"connected_time":166000000000,"state":"active","ping":46},{"user_id":261,"name":"when we shart on our enemyz","steam_id":76561198043601838,"connected_time":3500000000000,"state":"active","ping":75},{"user_id":302,"name":"willy","steam_id":76561198002519060,"connected_time":304000000000,"state":"active","ping":89},{"user_id":265,"name":"mr. bro","steam_id":76561198053394831,"connected_time":3026000000000,"state":"active","ping":65},{"user_id":309,"name":"reik","steam_id":76561198075239099,"connected_time":166000000000,"state":"active","ping":78},{"user_id":312,"name":"cementmixer","steam_id":76561198241660674,"connected_time":135000000000,"state":"active","ping":82},{"user_id":284,"name":"simplistic","steam_id":76561198231690748,"connected_time":1418000000000,"state":"active","ping":50},{"user_id":306,"name":"killer of noob!! Winner of game","steam_id":76561198190583242,"connected_time":260000000000,"state":"active","ping":84},{"user_id":289,"name":"Pronton","steam_id":76561198082502910,"connected_time":1409000000000,"state":"active","ping":66},{"user_id":313,"name":"PrivatePengu","steam_id":76561198100112667,"connected_time":118000000000,"state":"active","ping":51},{"user_id":314,"name":"//","steam_id":76561199177668753,"connected_time":103000000000,"state":"active","ping":43},{"user_id":315,"name":"„Éù„É™„Çπ„Éû„É≥ÔºèGALÁî∑ÂÆ£Ë®Ä","steam_id":76561198112012468,"connected_time":96000000000,"state":"active","ping":87},{"user_id":298,"name":"NotFionn","steam_id":76561198890525176,"connected_time":990000000000,"state":"active","ping":67},{"user_id":263,"name":"sharted on enemy","steam_id":76561198079277466,"connected_time":3420000000000,"state":"active","ping":61},{"user_id":262,"name":"glyph","steam_id":76561197980736364,"connected_time":3453000000000,"state":"active","ping":90},{"user_id":316,"name":"redlix","steam_id":76561198119413461,"connected_time":45000000000,"state":"active","ping":79}]},{"server_id":21,"name":"Uncletopia | London | 5 | All Maps","name_short":"lon-5","host":"lon-1.uk.uncletopia.com","port":27055,"enabled":true,"region":"eu","cc":"gb","latitude":51.509865,"longitude":-0.118092,"reserved":0,"last_update":"0001-01-01T00:00:00Z","name_a2s":"Uncletopia | London | 5 | All Maps","protocol":17,"map":"pl_pier","folder":"tf","game":"Team Fortress","app_id":440,"player_count":22,"max_players":24,"Bots":0,"server_type":"Dedicated","server_os":"Linux","password":true,"vac":true,"version":"7742253","steam_id":85568392924742829,"keywords":["nocrits","nodmgspread","payload","uncletopia"],"game_id":440,"stv_port":27056,"stv_name":"Uncletopia | London | 5 | All Maps | STV","players":[{"user_id":236,"name":"Methro","steam_id":76561198090358585,"connected_time":60000000000,"state":"active","ping":90},{"user_id":73,"name":"amy","steam_id":76561198960367693,"connected_time":9998000000000,"state":"active","ping":55},{"user_id":233,"name":"foolproof","steam_id":76561198115801132,"connected_time":609000000000,"state":"active","ping":57},{"user_id":227,"name":"Hell-0_World","steam_id":76561198109876007,"connected_time":1247000000000,"state":"active","ping":155},{"user_id":230,"name":"Symberzite #SaveTF2","steam_id":76561198028581774,"connected_time":998000000000,"state":"active","ping":88},{"user_id":237,"name":"ELON MUSK","steam_id":76561198132788284,"connected_time":16000000000,"state":"spawning","ping":93},{"user_id":232,"name":"___","steam_id":76561198189529773,"connected_time":669000000000,"state":"active","ping":49},{"user_id":224,"name":"the","steam_id":76561198059535856,"connected_time":1403000000000,"state":"active","ping":150},{"user_id":191,"name":"B√™teChien","steam_id":76561198405559437,"connected_time":2716000000000,"state":"active","ping":68},{"user_id":231,"name":"AneveX","steam_id":76561198111905804,"connected_time":920000000000,"state":"active","ping":58},{"user_id":219,"name":"Cat Lad","steam_id":76561198315009320,"connected_time":1476000000000,"state":"active","ping":52},{"user_id":228,"name":"PASTAMANIA!","steam_id":76561197967858558,"connected_time":1244000000000,"state":"active","ping":28},{"user_id":223,"name":".quickfast.","steam_id":76561199438900919,"connected_time":1416000000000,"state":"active","ping":46},{"user_id":235,"name":"BrownBreadMan","steam_id":76561199092834214,"connected_time":350000000000,"state":"active","ping":45},{"user_id":234,"name":"actualofficeman","steam_id":76561198364649987,"connected_time":522000000000,"state":"active","ping":45},{"user_id":204,"name":"Old Man Winter","steam_id":76561198007653168,"connected_time":2270000000000,"state":"active","ping":60},{"user_id":218,"name":"You slumber","steam_id":76561198344639692,"connected_time":1480000000000,"state":"active","ping":78},{"user_id":229,"name":"Spotmonkey","steam_id":76561198003994092,"connected_time":1178000000000,"state":"active","ping":50},{"user_id":226,"name":"Maxwell","steam_id":76561198796655710,"connected_time":1396000000000,"state":"active","ping":106},{"user_id":181,"name":"Paddyhammer","steam_id":76561198073195747,"connected_time":3075000000000,"state":"active","ping":48},{"user_id":177,"name":"SMhjatt","steam_id":76561198856879110,"connected_time":3560000000000,"state":"active","ping":67},{"user_id":205,"name":"tamz","steam_id":76561198146873972,"connected_time":2249000000000,"state":"active","ping":34}]},{"server_id":22,"name":"Uncletopia | London | 6 | All Maps","name_short":"lon-6","host":"lon-1.uk.uncletopia.com","port":27065,"enabled":true,"region":"eu","cc":"gb","latitude":51.509865,"longitude":-0.118092,"reserved":0,"last_update":"0001-01-01T00:00:00Z","name_a2s":"Uncletopia | London | 6 | All Maps","protocol":17,"map":"cp_gorge","folder":"tf","game":"Team Fortress","app_id":440,"player_count":24,"max_players":24,"Bots":0,"server_type":"Dedicated","server_os":"Linux","password":true,"vac":true,"version":"7742253","steam_id":85568392924742830,"keywords":["cp","nocrits","nodmgspread","uncletopia"],"game_id":440,"stv_port":27066,"stv_name":"Uncletopia | London | 6 | All Maps | STV","players":[{"user_id":430,"name":"Adam Sandler","steam_id":76561198310408309,"connected_time":313000000000,"state":"active","ping":45},{"user_id":422,"name":"Bepperman","steam_id":76561198397517828,"connected_time":477000000000,"state":"active","ping":52},{"user_id":431,"name":"Prison Mike","steam_id":76561198014221596,"connected_time":253000000000,"state":"active","ping":60},{"user_id":411,"name":"FPSindian","steam_id":76561199060414259,"connected_time":573000000000,"state":"active","ping":56},{"user_id":438,"name":"Dibusure","steam_id":76561199021028365,"connected_time":75000000000,"state":"active","ping":79},{"user_id":375,"name":"Morno","steam_id":76561198028519110,"connected_time":4577000000000,"state":"active","ping":46},{"user_id":425,"name":"Pain","steam_id":76561198106997949,"connected_time":406000000000,"state":"active","ping":79},{"user_id":413,"name":"Oak","steam_id":76561198067315672,"connected_time":544000000000,"state":"active","ping":43},{"user_id":440,"name":"Incomprehensible","steam_id":76561198305808645,"connected_time":8000000000,"state":"spawning","ping":45},{"user_id":428,"name":"„ÉÑ‚Åß‚ÅßAstora","steam_id":76561198081839576,"connected_time":376000000000,"state":"active","ping":55},{"user_id":414,"name":"Johnny Cockroach","steam_id":76561198049648277,"connected_time":539000000000,"state":"active","ping":101},{"user_id":415,"name":"RudiPrico4","steam_id":76561199014381495,"connected_time":539000000000,"state":"active","ping":62},{"user_id":435,"name":"Goroungo","steam_id":76561198962808454,"connected_time":203000000000,"state":"active","ping":46},{"user_id":417,"name":"Brother Jiffy","steam_id":76561198028739532,"connected_time":534000000000,"state":"active","ping":86},{"user_id":404,"name":"DeadlyFish","steam_id":76561198144617521,"connected_time":1480000000000,"state":"active","ping":71},{"user_id":420,"name":"Ankalagon","steam_id":76561198070327914,"connected_time":525000000000,"state":"active","ping":57},{"user_id":424,"name":"Wuzi Mugen","steam_id":76561199163831495,"connected_time":455000000000,"state":"active","ping":77},{"user_id":403,"name":"Swayer","steam_id":76561198056192460,"connected_time":1782000000000,"state":"active","ping":59},{"user_id":439,"name":"Ikal","steam_id":76561198344244939,"connected_time":67000000000,"state":"spawning","ping":115},{"user_id":370,"name":"blurst of times","steam_id":76561197972325640,"connected_time":5511000000000,"state":"active","ping":47},{"user_id":436,"name":"Echo of Abyss","steam_id":76561198981841782,"connected_time":203000000000,"state":"active","ping":82},{"user_id":426,"name":"Frazzles","steam_id":76561199228009586,"connected_time":396000000000,"state":"active","ping":53},{"user_id":427,"name":"A Succulent Chinese Meal","steam_id":76561198069472440,"connected_time":395000000000,"state":"active","ping":67},{"user_id":429,"name":"SPONGE","steam_id":76561198040933472,"connected_time":362000000000,"state":"active","ping":61}]},{"server_id":40,"name":"Uncletopia | London | 7 | No Payload","name_short":"lon-7","host":"lon-1.uk.uncletopia.com","port":27075,"enabled":true,"region":"eu","cc":"gb","latitude":51.509865,"longitude":-0.118092,"reserved":0,"last_update":"0001-01-01T00:00:00Z","name_a2s":"Uncletopia | London | 7 | No Payload","protocol":17,"map":"ctf_doublecross","folder":"tf","game":"Team Fortress","app_id":440,"player_count":0,"max_players":24,"Bots":0,"server_type":"Dedicated","server_os":"Linux","password":true,"vac":true,"version":"7742253","steam_id":85568392924964314,"keywords":["ctf","nocrits","nodmgspread","uncletopia"],"game_id":440,"stv_port":27076,"stv_name":"Uncletopia | London | 7 | No Payload | STV","players":null},{"server_id":41,"name":"Uncletopia | London | 8 | Community","name_short":"lon-8","host":"lon-1.uk.uncletopia.com","port":27085,"enabled":true,"region":"eu","cc":"gb","latitude":51.509865,"longitude":-0.118092,"reserved":0,"last_update":"0001-01-01T00:00:00Z","name_a2s":"Uncletopia | London | 8 | Community","protocol":17,"map":"workshop/koth_product_final.ugc454272353","folder":"tf","game":"Team Fortress","app_id":440,"player_count":3,"max_players":24,"Bots":0,"server_type":"Dedicated","server_os":"Linux","password":true,"vac":true,"version":"7742253","steam_id":85568392924964315,"keywords":["cp","nocrits","nodmgspread","uncletopia"],"game_id":440,"stv_port":27086,"stv_name":"Uncletopia | London | 8 | Community | STV","players":[{"user_id":13,"name":"Blahaj, Champion of Bottoms","steam_id":76561198195127518,"connected_time":1871000000000,"state":"active","ping":45},{"user_id":14,"name":"tj gaming","steam_id":76561198423977405,"connected_time":1814000000000,"state":"active","ping":44},{"user_id":17,"name":"The","steam_id":76561198216585551,"connected_time":1608000000000,"state":"active","ping":54}]},{"server_id":300,"name":"Uncletopia | Montr√©al | 1 | All Maps","name_short":"mtl-1","host":"mtl-1.ca.uncletopia.com","port":27015,"enabled":true,"region":"us-east","cc":"ca","latitude":45.50889,"longitude":-73.56167,"reserved":0,"last_update":"0001-01-01T00:00:00Z","name_a2s":"Uncletopia | Montr√©al | 1 | All Maps","protocol":17,"map":"cp_snakewater_final1","folder":"tf","game":"Team Fortress","app_id":440,"player_count":0,"max_players":24,"Bots":0,"server_type":"Dedicated","server_os":"Linux","password":true,"vac":true,"version":"7742253","steam_id":85568392924500087,"keywords":["cp","nocrits","nodmgspread","uncletopia"],"game_id":440,"stv_port":27016,"stv_name":"Uncletopia | Montr√©al | 1 | All Maps | STV","players":null},{"server_id":301,"name":"Uncletopia | Montr√©al | 2 | All Maps","name_short":"mtl-2","host":"mtl-1.ca.uncletopia.com","port":27025,"enabled":true,"region":"us-east","cc":"ca","latitude":45.50889,"longitude":-73.56167,"reserved":0,"last_update":"0001-01-01T00:00:00Z","name_a2s":"Uncletopia | Montr√©al | 2 | All Maps","protocol":17,"map":"koth_highpass","folder":"tf","game":"Team Fortress","app_id":440,"player_count":0,"max_players":24,"Bots":0,"server_type":"Dedicated","server_os":"Linux","password":true,"vac":true,"version":"7742253","steam_id":85568392924500088,"keywords":["cp","nocrits","nodmgspread","uncletopia"],"game_id":440,"stv_port":27026,"stv_name":"Uncletopia | Montr√©al | 2 | All Maps | STV","players":null},{"server_id":302,"name":"Uncletopia | Montr√©al | 3 | All Maps","name_short":"mtl-3","host":"mtl-1.ca.uncletopia.com","port":27035,"enabled":true,"region":"us-east","cc":"ca","latitude":45.50889,"longitude":-73.56167,"reserved":0,"last_update":"0001-01-01T00:00:00Z","name_a2s":"Uncletopia | Montr√©al | 3 | All Maps","protocol":17,"map":"cp_mountainlab","folder":"tf","game":"Team Fortress","app_id":440,"player_count":0,"max_players":24,"Bots":0,"server_type":"Dedicated","server_os":"Linux","password":true,"vac":true,"version":"7742253","steam_id":85568392924500089,"keywords":["cp","nocrits","nodmgspread","uncletopia"],"game_id":440,"stv_port":27036,"stv_name":"Uncletopia | Montr√©al | 3 | All Maps | STV","players":null},{"server_id":303,"name":"Uncletopia | Montr√©al | 4 | No Payload","name_short":"mtl-4","host":"mtl-1.ca.uncletopia.com","port":27045,"enabled":true,"region":"us-east","cc":"ca","latitude":45.50889,"longitude":-73.56167,"reserved":0,"last_update":"0001-01-01T00:00:00Z","name_a2s":"Uncletopia | Montr√©al | 4 | No Payload","protocol":17,"map":"koth_nucleus","folder":"tf","game":"Team Fortress","app_id":440,"player_count":0,"max_players":24,"Bots":0,"server_type":"Dedicated","server_os":"Linux","password":true,"vac":true,"version":"7742253","steam_id":85568392924500090,"keywords":["cp","nocrits","nodmgspread","uncletopia"],"game_id":440,"stv_port":27046,"stv_name":"Uncletopia | Montr√©al | 4 | No Payload | STV","players":null},{"server_id":13,"name":"Uncletopia | New York City | 1 | All Maps","name_short":"nyc-1","host":"nyc-1.us.uncletopia.com","port":27015,"enabled":true,"region":"us-east","cc":"us","latitude":40.73061,"longitude":-73.93524,"reserved":0,"last_update":"0001-01-01T00:00:00Z","name_a2s":"Uncletopia | New York City | 1 | All Maps","protocol":17,"map":"pl_frontier_final","folder":"tf","game":"Team Fortress","app_id":440,"player_count":0,"max_players":24,"Bots":0,"server_type":"Dedicated","server_os":"Linux","password":true,"vac":true,"version":"7742253","steam_id":85568392924469993,"keywords":["nocrits","nodmgspread","payload","uncletopia"],"game_id":440,"stv_port":27016,"stv_name":"Uncletopia | New York City | 1 | All Maps | STV","players":null},{"server_id":14,"name":"Uncletopia | New York City | 2 | All Maps","name_short":"nyc-2","host":"nyc-1.us.uncletopia.com","port":27025,"enabled":true,"region":"us-east","cc":"us","latitude":40.73061,"longitude":-73.93524,"reserved":0,"last_update":"0001-01-01T00:00:00Z","name_a2s":"Uncletopia | New York City | 2 | All Maps","protocol":17,"map":"cp_altitude","folder":"tf","game":"Team Fortress","app_id":440,"player_count":0,"max_players":24,"Bots":0,"server_type":"Dedicated","server_os":"Linux","password":true,"vac":true,"version":"7742253","steam_id":85568392924469994,"keywords":["cp","nocrits","nodmgspread","uncletopia"],"game_id":440,"stv_port":27026,"stv_name":"Uncletopia | New York City | 2 | All Maps | STV","players":null},{"server_id":15,"name":"Uncletopia | New York City | 3 | Stopwatch Beta","name_short":"nyc-3","host":"nyc-1.us.uncletopia.com","port":27035,"enabled":true,"region":"us-east","cc":"us","latitude":40.73061,"longitude":-73.93524,"reserved":0,"last_update":"0001-01-01T00:00:00Z","name_a2s":"Uncletopia | New York City | 3 | Stopwatch Beta","protocol":17,"map":"pl_pier","folder":"tf","game":"Team Fortress","app_id":440,"player_count":0,"max_players":24,"Bots":0,"server_type":"Dedicated","server_os":"Linux","password":true,"vac":true,"version":"7742253","steam_id":85568392924742820,"keywords":["nocrits","nodmgspread","payload","uncletopia"],"game_id":440,"stv_port":27036,"stv_name":"Uncletopia | New York City | 3 | Stopwatch Beta | STV","players":null},{"server_id":16,"name":"Uncletopia | New York City | 4 | Community","name_short":"nyc-4","host":"nyc-1.us.uncletopia.com","port":27045,"enabled":true,"region":"us-east","cc":"us","latitude":40.73061,"longitude":-73.93524,"reserved":0,"last_update":"0001-01-01T00:00:00Z","name_a2s":"Uncletopia | New York City | 4 | Community","protocol":17,"map":"workshop/cp_reckoner_rc6.ugc674719999","folder":"tf","game":"Team Fortress","app_id":440,"player_count":14,"max_players":24,"Bots":0,"server_type":"Dedicated","server_os":"Linux","password":true,"vac":true,"version":"7742253","steam_id":85568392924742821,"keywords":["cp","nocrits","nodmgspread","uncletopia"],"game_id":440,"stv_port":27046,"stv_name":"Uncletopia | New York City | 4 | Community | STV","players":[{"user_id":53,"name":"MagikarpEX","steam_id":76561198166172279,"connected_time":1897000000000,"state":"active","ping":100},{"user_id":79,"name":"Z4lTte","steam_id":76561198283258068,"connected_time":387000000000,"state":"active","ping":45},{"user_id":57,"name":"Sh3ba Spaniel","steam_id":76561198047412394,"connected_time":1847000000000,"state":"active","ping":68},{"user_id":26,"name":"eels in ur ass","steam_id":76561198110829436,"connected_time":3482000000000,"state":"active","ping":52},{"user_id":27,"name":"Pyrite","steam_id":76561198067072838,"connected_time":3469000000000,"state":"active","ping":72},{"user_id":29,"name":"Barry","steam_id":76561198371953939,"connected_time":3303000000000,"state":"active","ping":49},{"user_id":50,"name":"MINI CRIT!999","steam_id":76561198027649268,"connected_time":2537000000000,"state":"active","ping":86},{"user_id":75,"name":"Fumeshroom","steam_id":76561198096997155,"connected_time":545000000000,"state":"spawning","ping":337},{"user_id":78,"name":"Pablo Sanchez","steam_id":76561198031368462,"connected_time":494000000000,"state":"active","ping":62},{"user_id":77,"name":"Sunshroom","steam_id":76561198137310107,"connected_time":525000000000,"state":"active","ping":116},{"user_id":62,"name":"Arcana Frost (he/they)","steam_id":76561198042545967,"connected_time":1681000000000,"state":"active","ping":45},{"user_id":61,"name":"Kurwa Blyat","steam_id":76561199385233153,"connected_time":1760000000000,"state":"active","ping":42},{"user_id":72,"name":"Tom, I'm standing h-","steam_id":76561199074823622,"connected_time":577000000000,"state":"spawning","ping":319},{"user_id":44,"name":"winky","steam_id":76561199128617780,"connected_time":2854000000000,"state":"active","ping":130}]},{"server_id":142,"name":"Uncletopia | S√£o Paulo | 1 | All Maps","name_short":"sao-1","host":"sao-1.br.uncletopia.com","port":27015,"enabled":true,"region":"sa","cc":"br","latitude":-23.533773,"longitude":-46.62529,"reserved":0,"last_update":"0001-01-01T00:00:00Z","name_a2s":"Uncletopia | S√£o Paulo | 1 | All Maps","protocol":17,"map":"koth_viaduct","folder":"tf","game":"Team Fortress","app_id":440,"player_count":0,"max_players":24,"Bots":0,"server_type":"Dedicated","server_os":"Linux","password":true,"vac":true,"version":"7742253","steam_id":85568392924469996,"keywords":["cp","nocrits","nodmgspread","uncletopia"],"game_id":440,"stv_port":27016,"stv_name":"Uncletopia | S√£o Paulo | 1 | All Maps | STV","players":null},{"server_id":143,"name":"Uncletopia | S√£o Paulo | 2 | All Maps","name_short":"sao-2","host":"sao-2.br.uncletopia.com","port":27015,"enabled":true,"region":"sa","cc":"br","latitude":-23.533773,"longitude":-46.62529,"reserved":0,"last_update":"0001-01-01T00:00:00Z","name_a2s":"Uncletopia | S√£o Paulo | 2 | All Maps","protocol":17,"map":"koth_viaduct","folder":"tf","game":"Team Fortress","app_id":440,"player_count":0,"max_players":24,"Bots":0,"server_type":"Dedicated","server_os":"Linux","password":true,"vac":true,"version":"7742253","steam_id":85568392924485349,"keywords":["cp","nocrits","nodmgspread","uncletopia"],"game_id":440,"stv_port":27016,"stv_name":"Uncletopia | S√£o Paulo | 2 | All Maps | STV","players":null},{"server_id":7,"name":"Uncletopia | Seattle | 1 | All Maps","name_short":"sea-1","host":"sea-1.us.uncletopia.com","port":27015,"enabled":true,"region":"us-west","cc":"us","latitude":47.608013,"longitude":-122.33517,"reserved":0,"last_update":"0001-01-01T00:00:00Z","name_a2s":"Uncletopia | Seattle | 1 | All Maps","protocol":17,"map":"pl_badwater","folder":"tf","game":"Team Fortress","app_id":440,"player_count":24,"max_players":24,"Bots":0,"server_type":"Dedicated","server_os":"Linux","password":true,"vac":true,"version":"7742253","steam_id":85568392924469997,"keywords":["nocrits","nodmgspread","payload","uncletopia"],"game_id":440,"stv_port":27016,"stv_name":"Uncletopia | Seattle | 1 | All Maps | STV","players":[{"user_id":75,"name":"Quietsharp","steam_id":76561198277968438,"connected_time":425000000000,"state":"active","ping":80},{"user_id":50,"name":"KAO14","steam_id":76561199200143748,"connected_time":1431000000000,"state":"active","ping":75},{"user_id":48,"name":"Lonestar827","steam_id":76561198035533639,"connected_time":1579000000000,"state":"active","ping":48},{"user_id":72,"name":"cleb","steam_id":76561198372252845,"connected_time":873000000000,"state":"active","ping":76},{"user_id":33,"name":"pudl","steam_id":76561198043726592,"connected_time":2077000000000,"state":"active","ping":97},{"user_id":57,"name":"Protoshake","steam_id":76561198840276176,"connected_time":1257000000000,"state":"active","ping":92},{"user_id":35,"name":"Mr. Mystical Perfection","steam_id":76561198036444997,"connected_time":2027000000000,"state":"active","ping":45},{"user_id":36,"name":"Paul","steam_id":76561197996285195,"connected_time":2024000000000,"state":"active","ping":48},{"user_id":76,"name":"Dr. Karl, the AUS Science Guy","steam_id":76561198031278747,"connected_time":415000000000,"state":"active","ping":45},{"user_id":79,"name":"XxDrakeFan2012xX","steam_id":76561198145784505,"connected_time":175000000000,"state":"active","ping":75},{"user_id":73,"name":"help","steam_id":76561199056338917,"connected_time":858000000000,"state":"active","ping":145},{"user_id":44,"name":"weed lesbian","steam_id":76561198042263805,"connected_time":1646000000000,"state":"active","ping":47},{"user_id":45,"name":"KFC‚ò≠","steam_id":76561199206815320,"connected_time":1643000000000,"state":"active","ping":77},{"user_id":52,"name":"Entity","steam_id":76561198027377369,"connected_time":1371000000000,"state":"active","ping":112},{"user_id":49,"name":"That Sounds Serious","steam_id":76561198247719128,"connected_time":1446000000000,"state":"active","ping":72},{"user_id":51,"name":"Sea4","steam_id":76561198846451551,"connected_time":1390000000000,"state":"active","ping":115},{"user_id":58,"name":"pebbolmao","steam_id":76561198251251964,"connected_time":1166000000000,"state":"active","ping":90},{"user_id":54,"name":"Icummonyou","steam_id":76561199189754581,"connected_time":1326000000000,"state":"active","ping":92},{"user_id":80,"name":"choi","steam_id":76561198053669887,"connected_time":99000000000,"state":"active","ping":90},{"user_id":74,"name":"waterfowl","steam_id":76561198892086855,"connected_time":788000000000,"state":"active","ping":110},{"user_id":70,"name":"Ring A Ding","steam_id":76561199205871164,"connected_time":936000000000,"state":"active","ping":137},{"user_id":71,"name":"PopcornNinja101","steam_id":76561198330680181,"connected_time":921000000000,"state":"active","ping":47},{"user_id":65,"name":"Buwwet","steam_id":76561198929916937,"connected_time":1042000000000,"state":"active","ping":117},{"user_id":82,"name":"Julien","steam_id":76561199389584938,"connected_time":82000000000,"state":"active","ping":45}]},{"server_id":119,"name":"Uncletopia | Seattle | 2 | All Maps","name_short":"sea-2","host":"sea-1.us.uncletopia.com","port":27025,"enabled":true,"region":"us-west","cc":"us","latitude":47.608013,"longitude":-122.33517,"reserved":0,"last_update":"0001-01-01T00:00:00Z","name_a2s":"Uncletopia | Seattle | 2 | All Maps","protocol":17,"map":"pl_borneo","folder":"tf","game":"Team Fortress","app_id":440,"player_count":24,"max_players":24,"Bots":0,"server_type":"Dedicated","server_os":"Linux","password":true,"vac":true,"version":"7742253","steam_id":85568392924469998,"keywords":["nocrits","nodmgspread","payload","uncletopia"],"game_id":440,"stv_port":27026,"stv_name":"Uncletopia | Seattle | 2 | All Maps | STV","players":[{"user_id":312,"name":"Lolxdloldx","steam_id":76561198136887125,"connected_time":394000000000,"state":"active","ping":101},{"user_id":295,"name":"Jay","steam_id":76561198148464582,"connected_time":1805000000000,"state":"active","ping":90},{"user_id":308,"name":"Ducks","steam_id":76561198130038345,"connected_time":431000000000,"state":"active","ping":67},{"user_id":246,"name":"facecheck","steam_id":76561198115269587,"connected_time":5883000000000,"state":"active","ping":117},{"user_id":287,"name":"John Dungus (the real one)","steam_id":76561198049191027,"connected_time":3361000000000,"state":"active","ping":84},{"user_id":313,"name":"h u r t","steam_id":76561198046073848,"connected_time":381000000000,"state":"active","ping":46},{"user_id":315,"name":"GrantTheMedicYT","steam_id":76561199077176696,"connected_time":326000000000,"state":"active","ping":40},{"user_id":297,"name":"Porytal","steam_id":76561198306101889,"connected_time":1770000000000,"state":"active","ping":42},{"user_id":314,"name":"trapper wit som swag+i lurk too","steam_id":76561198885055475,"connected_time":363000000000,"state":"active","ping":69},{"user_id":316,"name":"diymo","steam_id":76561198017600790,"connected_time":267000000000,"state":"active","ping":33},{"user_id":317,"name":"Ecliptica","steam_id":76561198171951333,"connected_time":233000000000,"state":"active","ping":139},{"user_id":319,"name":"Sir Smarty Pants","steam_id":76561198856207803,"connected_time":177000000000,"state":"active","ping":124},{"user_id":301,"name":"girr","steam_id":76561198995114110,"connected_time":1743000000000,"state":"active","ping":60},{"user_id":272,"name":"DrStarBucksCoffee","steam_id":76561198037372470,"connected_time":4025000000000,"state":"active","ping":75},{"user_id":294,"name":"jungus","steam_id":76561198129862008,"connected_time":1910000000000,"state":"active","ping":77},{"user_id":309,"name":"blood bitch","steam_id":76561198325306660,"connected_time":429000000000,"state":"active","ping":55},{"user_id":276,"name":"Milano","steam_id":76561198051889174,"connected_time":3785000000000,"state":"active","ping":74},{"user_id":290,"name":"Mignyanne :3","steam_id":76561198048754056,"connected_time":2855000000000,"state":"active","ping":74},{"user_id":255,"name":"Sweatpants","steam_id":76561198097188001,"connected_time":4917000000000,"state":"active","ping":56},{"user_id":320,"name":"rat gets a little more baklava","steam_id":76561198031234032,"connected_time":146000000000,"state":"active","ping":102},{"user_id":321,"name":"hosewater","steam_id":76561198023383126,"connected_time":135000000000,"state":"active","ping":56},{"user_id":291,"name":"Furry Futon","steam_id":76561198097745857,"connected_time":2464000000000,"state":"active","ping":73},{"user_id":264,"name":"trackpad gaming | f2p","steam_id":76561198840414371,"connected_time":4452000000000,"state":"active","ping":83},{"user_id":311,"name":"shiadyne","steam_id":76561198271939793,"connected_time":424000000000,"state":"active","ping":50}]},{"server_id":406,"name":"Uncletopia | Seattle | 3 | Stopwatch Beta","name_short":"sea-3","host":"sea-1.us.uncletopia.com","port":27035,"enabled":true,"region":"us-west","cc":"us","latitude":47.608013,"longitude":-122.33517,"reserved":0,"last_update":"0001-01-01T00:00:00Z","name_a2s":"Uncletopia | Seattle | 3 | Stopwatch Beta","protocol":17,"map":"cp_altitude","folder":"tf","game":"Team Fortress","app_id":440,"player_count":0,"max_players":24,"Bots":0,"server_type":"Dedicated","server_os":"Linux","password":true,"vac":true,"version":"7742253","steam_id":85568392924515217,"keywords":["cp","nocrits","nodmgspread","uncletopia"],"game_id":440,"stv_port":27036,"stv_name":"Uncletopia | Seattle | 3 | Stopwatch Beta | STV","players":null},{"server_id":17,"name":"Uncletopia | San Francisco | 1 | All Maps","name_short":"sfo-1","host":"sfo-1.us.uncletopia.com","port":27015,"enabled":true,"region":"us-west","cc":"us","latitude":37.77397,"longitude":-122.4313,"reserved":0,"last_update":"0001-01-01T00:00:00Z","name_a2s":"Uncletopia | San Francisco | 1 | All Maps","protocol":17,"map":"pl_snowycoast","folder":"tf","game":"Team Fortress","app_id":440,"player_count":0,"max_players":24,"Bots":0,"server_type":"Dedicated","server_os":"Linux","password":true,"vac":true,"version":"7742253","steam_id":85568392924469999,"keywords":["nocrits","nodmgspread","payload","uncletopia"],"game_id":440,"stv_port":27016,"stv_name":"Uncletopia | San Francisco | 1 | All Maps | STV","players":null},{"server_id":18,"name":"Uncletopia | San Francisco | 2 | All Maps","name_short":"sfo-2","host":"sfo-1.us.uncletopia.com","port":27025,"enabled":true,"region":"us-west","cc":"us","latitude":37.77397,"longitude":-122.4313,"reserved":0,"last_update":"0001-01-01T00:00:00Z","name_a2s":"Uncletopia | San Francisco | 2 | All Maps","protocol":17,"map":"cp_altitude","folder":"tf","game":"Team Fortress","app_id":440,"player_count":0,"max_players":24,"Bots":0,"server_type":"Dedicated","server_os":"Linux","password":true,"vac":true,"version":"7742253","steam_id":85568392924470000,"keywords":["cp","nocrits","nodmgspread","uncletopia"],"game_id":440,"stv_port":27026,"stv_name":"Uncletopia | San Francisco | 2 | All Maps | STV","players":null},{"server_id":19,"name":"Uncletopia | San Francisco | 3 | Stopwatch Beta","name_short":"sfo-3","host":"sfo-1.us.uncletopia.com","port":27035,"enabled":true,"region":"us-west","cc":"us","latitude":37.77397,"longitude":-122.4313,"reserved":0,"last_update":"0001-01-01T00:00:00Z","name_a2s":"Uncletopia | San Francisco | 3 | Stopwatch Beta","protocol":17,"map":"cp_snakewater_final1","folder":"tf","game":"Team Fortress","app_id":440,"player_count":0,"max_players":24,"Bots":0,"server_type":"Dedicated","server_os":"Linux","password":true,"vac":true,"version":"7742253","steam_id":85568392924742824,"keywords":["cp","nocrits","nodmgspread","uncletopia"],"game_id":440,"stv_port":27036,"stv_name":"Uncletopia | San Francisco | 3 | Stopwatch Beta | STV","players":null},{"server_id":20,"name":"Uncletopia | San Francisco | 4 | Community","name_short":"sfo-4","host":"sfo-1.us.uncletopia.com","port":27045,"enabled":true,"region":"us-west","cc":"us","latitude":37.77397,"longitude":-122.4313,"reserved":0,"last_update":"0001-01-01T00:00:00Z","name_a2s":"Uncletopia | San Francisco | 4 | Community","protocol":17,"map":"cp_dustbowl","folder":"tf","game":"Team Fortress","app_id":440,"player_count":0,"max_players":24,"Bots":0,"server_type":"Dedicated","server_os":"Linux","password":true,"vac":true,"version":"7742253","steam_id":85568392924742826,"keywords":["cp","nocrits","nodmgspread","uncletopia"],"game_id":440,"stv_port":27046,"stv_name":"Uncletopia | San Francisco | 4 | Community | STV","players":null},{"server_id":141,"name":"Uncletopia | Sydney | 1 | All Maps","name_short":"syd-1","host":"syd-1.au.uncletopia.com","port":27015,"enabled":true,"region":"au","cc":"au","latitude":-33.865143,"longitude":151.2099,"reserved":0,"last_update":"0001-01-01T00:00:00Z","name_a2s":"Uncletopia | Sydney | 1 | All Maps","protocol":17,"map":"koth_lakeside_final","folder":"tf","game":"Team Fortress","app_id":440,"player_count":0,"max_players":24,"Bots":0,"server_type":"Dedicated","server_os":"Linux","password":true,"vac":true,"version":"7742253","steam_id":85568392924470001,"keywords":["cp","nocrits","nodmgspread","uncletopia"],"game_id":440,"stv_port":27016,"stv_name":"Uncletopia | Sydney | 1 | All Maps | STV","players":null},{"server_id":123,"name":"Uncletopia | Sydney | 2 | All Maps","name_short":"syd-2","host":"syd-1.au.uncletopia.com","port":27025,"enabled":true,"region":"au","cc":"au","latitude":-33.865143,"longitude":151.2099,"reserved":0,"last_update":"0001-01-01T00:00:00Z","name_a2s":"Uncletopia | Sydney | 2 | All Maps","protocol":17,"map":"pl_badwater","folder":"tf","game":"Team Fortress","app_id":440,"player_count":0,"max_players":24,"Bots":0,"server_type":"Dedicated","server_os":"Linux","password":true,"vac":true,"version":"7742253","steam_id":85568392924470002,"keywords":["nocrits","nodmgspread","payload","uncletopia"],"game_id":440,"stv_port":27026,"stv_name":"Uncletopia | Sydney | 2 | All Maps | STV","players":null},{"server_id":395,"name":"Uncletopia | Sydney | 3 | All Maps","name_short":"syd-3","host":"syd-1.au.uncletopia.com","port":27035,"enabled":true,"region":"au","cc":"au","latitude":-33.865143,"longitude":151.2099,"reserved":0,"last_update":"0001-01-01T00:00:00Z","name_a2s":"Uncletopia | Sydney | 3 | All Maps","protocol":17,"map":"koth_viaduct","folder":"tf","game":"Team Fortress","app_id":440,"player_count":0,"max_players":24,"Bots":0,"server_type":"Dedicated","server_os":"Linux","password":true,"vac":true,"version":"7742253","steam_id":85568392925194467,"keywords":["cp","nocrits","nodmgspread","uncletopia"],"game_id":440,"stv_port":27036,"stv_name":"Uncletopia | Sydney | 3 | All Maps | STV","players":null},{"server_id":396,"name":"Uncletopia | Sydney | 4 | All Maps","name_short":"syd-4","host":"syd-1.au.uncletopia.com","port":27045,"enabled":true,"region":"au","cc":"au","latitude":-33.865143,"longitude":151.2099,"reserved":0,"last_update":"0001-01-01T00:00:00Z","name_a2s":"Uncletopia | Sydney | 4 | All Maps","protocol":17,"map":"pl_frontier_final","folder":"tf","game":"Team Fortress","app_id":440,"player_count":0,"max_players":24,"Bots":0,"server_type":"Dedicated","server_os":"Linux","password":true,"vac":true,"version":"7742253","steam_id":85568392925397958,"keywords":["nocrits","nodmgspread","payload","uncletopia"],"game_id":440,"stv_port":27046,"stv_name":"Uncletopia | Sydney | 4 | All Maps | STV","players":null},{"server_id":58,"name":"Uncletopia | Sydney | 5 | Stopwatch Beta","name_short":"syd-5","host":"syd-1.au.uncletopia.com","port":27055,"enabled":true,"region":"au","cc":"au","latitude":-33.865143,"longitude":151.2099,"reserved":0,"last_update":"0001-01-01T00:00:00Z","name_a2s":"Uncletopia | Sydney | 5 | Stopwatch Beta","protocol":17,"map":"cp_sunshine","folder":"tf","game":"Team Fortress","app_id":440,"player_count":0,"max_players":24,"Bots":0,"server_type":"Dedicated","server_os":"Linux","password":true,"vac":true,"version":"7742253","steam_id":85568392925397959,"keywords":["cp","nocrits","nodmgspread","uncletopia"],"game_id":440,"stv_port":27056,"stv_name":"Uncletopia | Sydney | 5 | Stopwatch Beta | STV","players":null},{"server_id":59,"name":"Uncletopia | Sydney | 6 | Community","name_short":"syd-6","host":"syd-1.au.uncletopia.com","port":27065,"enabled":true,"region":"au","cc":"au","latitude":-33.865143,"longitude":151.2099,"reserved":0,"last_update":"0001-01-01T00:00:00Z","name_a2s":"Uncletopia | Sydney | 6 | Community","protocol":17,"map":"cp_dustbowl","folder":"tf","game":"Team Fortress","app_id":440,"player_count":0,"max_players":24,"Bots":0,"server_type":"Dedicated","server_os":"Linux","password":true,"vac":true,"version":"7742253","steam_id":85568392925397960,"keywords":["cp","nocrits","nodmgspread","uncletopia"],"game_id":440,"stv_port":27066,"stv_name":"Uncletopia | Sydney | 6 | Community | STV","players":null},{"server_id":49,"name":"Uncletopia | Warsaw | 1 | All Maps","name_short":"waw-1","host":"waw-1.pl.uncletopia.com","port":27015,"enabled":true,"region":"eu","cc":"pl","latitude":52.2297,"longitude":21.017532,"reserved":0,"last_update":"0001-01-01T00:00:00Z","name_a2s":"","protocol":0,"map":"","folder":"","game":"","app_id":0,"player_count":0,"max_players":0,"Bots":0,"server_type":"","server_os":"","password":false,"vac":false,"version":"","steam_id":0,"keywords":null,"game_id":0,"stv_port":0,"stv_name":"","players":null},{"server_id":50,"name":"Uncletopia | Warsaw | 2 | All Maps","name_short":"waw-2","host":"waw-1.pl.uncletopia.com","port":27025,"enabled":true,"region":"eu","cc":"pl","latitude":52.2297,"longitude":21.017532,"reserved":0,"last_update":"0001-01-01T00:00:00Z","name_a2s":"Uncletopia | Warsaw | 2 | All Maps","protocol":17,"map":"pl_barnblitz","folder":"tf","game":"Team Fortress","app_id":440,"player_count":0,"max_players":24,"Bots":0,"server_type":"Dedicated","server_os":"Linux","password":true,"vac":true,"version":"7742253","steam_id":85568392925397851,"keywords":["nocrits","nodmgspread","payload","uncletopia"],"game_id":440,"stv_port":27026,"stv_name":"Uncletopia | Warsaw | 2 | All Maps | STV","players":null},{"server_id":51,"name":"Uncletopia | Warsaw | 3 | All Maps","name_short":"waw-3","host":"waw-1.pl.uncletopia.com","port":27035,"enabled":true,"region":"eu","cc":"pl","latitude":52.2297,"longitude":21.017532,"reserved":0,"last_update":"0001-01-01T00:00:00Z","name_a2s":"Uncletopia | Warsaw | 3 | All Maps","protocol":17,"map":"koth_lakeside_final","folder":"tf","game":"Team Fortress","app_id":440,"player_count":0,"max_players":24,"Bots":0,"server_type":"Dedicated","server_os":"Linux","password":true,"vac":true,"version":"7742253","steam_id":85568392925397852,"keywords":["cp","nocrits","nodmgspread","uncletopia"],"game_id":440,"stv_port":27036,"stv_name":"Uncletopia | Warsaw | 3 | All Maps | STV","players":null},{"server_id":52,"name":"Uncletopia | Warsaw | 4 | All Maps","name_short":"waw-4","host":"waw-1.pl.uncletopia.com","port":27045,"enabled":true,"region":"eu","cc":"pl","latitude":52.2297,"longitude":21.017532,"reserved":0,"last_update":"0001-01-01T00:00:00Z","name_a2s":"Uncletopia | Warsaw | 4 | All Maps","protocol":17,"map":"pl_frontier_final","folder":"tf","game":"Team Fortress","app_id":440,"player_count":0,"max_players":24,"Bots":0,"server_type":"Dedicated","server_os":"Linux","password":true,"vac":true,"version":"7742253","steam_id":85568392925397853,"keywords":["nocrits","nodmgspread","payload","uncletopia"],"game_id":440,"stv_port":27046,"stv_name":"Uncletopia | Warsaw | 4 | All Maps | STV","players":null},{"server_id":53,"name":"Uncletopia | Warsaw | 5 | Stopwatch Beta","name_short":"waw-5","host":"waw-1.pl.uncletopia.com","port":27055,"enabled":true,"region":"eu","cc":"pl","latitude":52.2297,"longitude":21.017532,"reserved":0,"last_update":"0001-01-01T00:00:00Z","name_a2s":"Uncletopia | Warsaw | 5 | Stopwatch Beta","protocol":17,"map":"pl_swiftwater_final1","folder":"tf","game":"Team Fortress","app_id":440,"player_count":0,"max_players":24,"Bots":0,"server_type":"Dedicated","server_os":"Linux","password":true,"vac":true,"version":"7742253","steam_id":85568392925397854,"keywords":["nocrits","nodmgspread","payload","uncletopia"],"game_id":440,"stv_port":27056,"stv_name":"Uncletopia | Warsaw | 5 | Stopwatch Beta | STV","players":null},{"server_id":54,"name":"Uncletopia | Warsaw | 6 | Community","name_short":"waw-6","host":"waw-1.pl.uncletopia.com","port":27065,"enabled":true,"region":"eu","cc":"pl","latitude":52.2297,"longitude":21.017532,"reserved":0,"last_update":"0001-01-01T00:00:00Z","name_a2s":"Uncletopia | Warsaw | 6 | Community","protocol":17,"map":"workshop/pl_fifthcurve_rc1.ugc648227046","folder":"tf","game":"Team Fortress","app_id":440,"player_count":22,"max_players":24,"Bots":0,"server_type":"Dedicated","server_os":"Linux","password":true,"vac":true,"version":"7742253","steam_id":85568392925397856,"keywords":["nocrits","nodmgspread","payload","uncletopia"],"game_id":440,"stv_port":27066,"stv_name":"Uncletopia | Warsaw | 6 | Community | STV","players":[{"user_id":7,"name":"GezmeRR TF2","steam_id":76561198043814532,"connected_time":2911000000000,"state":"active","ping":76},{"user_id":8,"name":"Lord Commissar Drac","steam_id":76561198030371218,"connected_time":2900000000000,"state":"active","ping":77},{"user_id":9,"name":"Lord","steam_id":76561198065021271,"connected_time":2899000000000,"state":"active","ping":75},{"user_id":45,"name":"nyanezt","steam_id":76561198253734265,"connected_time":1900000000000,"state":"active","ping":108},{"user_id":62,"name":"MerlinMelon","steam_id":76561198131601158,"connected_time":867000000000,"state":"active","ping":92},{"user_id":12,"name":"DragonXneoN","steam_id":76561198005974781,"connected_time":2887000000000,"state":"active","ping":80},{"user_id":13,"name":"Danse","steam_id":76561198065545203,"connected_time":2851000000000,"state":"active","ping":88},{"user_id":14,"name":"Emo E-boy Twink","steam_id":76561198044624039,"connected_time":2843000000000,"state":"active","ping":82},{"user_id":63,"name":"Sca‚óá","steam_id":76561198172681269,"connected_time":769000000000,"state":"active","ping":54},{"user_id":18,"name":"KillerQueen (he/they/she)","steam_id":76561199019399725,"connected_time":2512000000000,"state":"active","ping":78},{"user_id":64,"name":"deepnotic","steam_id":76561199154324805,"connected_time":704000000000,"state":"active","ping":56},{"user_id":71,"name":"Chaos Soup","steam_id":76561198346417565,"connected_time":39000000000,"state":"active","ping":92},{"user_id":20,"name":"‚ñ†Sir SC‚ñ†","steam_id":76561198114638963,"connected_time":2496000000000,"state":"active","ping":84},{"user_id":54,"name":"MomoInTheBox","steam_id":76561197994150695,"connected_time":1289000000000,"state":"active","ping":46},{"user_id":72,"name":"E","steam_id":76561199467523633,"connected_time":37000000000,"state":"spawning","ping":207},{"user_id":23,"name":"J enjoyer","steam_id":76561198055561981,"connected_time":2438000000000,"state":"active","ping":77},{"user_id":61,"name":"Elisko246","steam_id":76561198070377333,"connected_time":1008000000000,"state":"active","ping":98},{"user_id":74,"name":"SeeMa","steam_id":76561198857053689,"connected_time":0,"state":"spawning","ping":0},{"user_id":42,"name":"Mideus","steam_id":76561198059820180,"connected_time":2071000000000,"state":"active","ping":57},{"user_id":29,"name":"Malsi","steam_id":76561199061284165,"connected_time":2315000000000,"state":"active","ping":93},{"user_id":46,"name":"LasagnaLarry22","steam_id":76561198089478290,"connected_time":1833000000000,"state":"active","ping":75},{"user_id":66,"name":"drippin jimmy","steam_id":76561198219243969,"connected_time":618000000000,"state":"spawning","ping":232}]}]}