{"status":true,"message":"","result":[{"server_id":9,"name":"Uncletopia | Atlanta | 1 | All Maps","name_short":"atl-1","host":"atl-1.us.uncletopia.com","port":27015,"enabled":true,"region":"us-east","cc":"us","latitude":33.753746,"longitude":-84.38633,"reserved":0,"last_update":"0001-01-01T00:00:00Z","name_a2s":"Uncletopia | Atlanta | 1 | All Maps","protocol":17,"map":"cp_badlands","folder":"tf","game":"Team Fortress","app_id":440,"player_count":24,"max_players":24,"Bots":0,"server_type":"Dedicated","server_os":"Linux","password":true,"vac":true,"version":"7757534","steam_id":85568392924469982,"keywords":["cp","nocrits","nodmgspread","uncletopia"],"game_id":440,"stv_port":27016,"stv_name":"Uncletopia | Atlanta | 1 | All Maps | STV","players":[{"user_id":170,"name":"PinkLemonade","steam_id":76561198799286228,"connected_time":4609000000000,"state":"active","ping":73},{"user_id":192,"name":"ATL1 | on my hunting trip","steam_id":76561198315341646,"connected_time":2790000000000,"state":"active","ping":73},{"user_id":177,"name":"i love machine girl","steam_id":76561199187747394,"connected_time":4016000000000,"state":"active","ping":69},{"user_id":227,"name":"HarryjusttHarry","steam_id":76561198982810452,"connected_time":1127000000000,"state":"active","ping":82},{"user_id":224,"name":"chubbbo","steam_id":76561198943598378,"connected_time":1216000000000,"state":"active","ping":38},{"user_id":228,"name":"Sous-Chef","steam_id":76561198075705827,"connected_time":1123000000000,"state":"active","ping":59},{"user_id":186,"name":"_normal","steam_id":76561198338505734,"connected_time":3273000000000,"state":"active","ping":38},{"user_id":175,"name":"Dr. drips","steam_id":76561198209380493,"connected_time":4029000000000,"state":"active","ping":62},{"user_id":154,"name":"VVB","steam_id":76561198056367220,"connected_time":5585000000000,"state":"active","ping":97},{"user_id":219,"name":"Shmurg","steam_id":76561199368485421,"connected_time":1765000000000,"state":"active","ping":60},{"user_id":188,"name":"deepmeta","steam_id":76561199053600691,"connected_time":2980000000000,"state":"active","ping":64},{"user_id":182,"name":"vitamin","steam_id":76561198277799227,"connected_time":3484000000000,"state":"active","ping":64},{"user_id":214,"name":"custodian","steam_id":76561198058793778,"connected_time":1867000000000,"state":"active","ping":72},{"user_id":209,"name":"caberknight tf2","steam_id":76561199273882768,"connected_time":1989000000000,"state":"active","ping":69},{"user_id":233,"name":"e0e0","steam_id":76561198293839750,"connected_time":1072000000000,"state":"active","ping":56},{"user_id":223,"name":"Junko","steam_id":76561198146089003,"connected_time":1294000000000,"state":"active","ping":60},{"user_id":232,"name":"TOXICO M 222","steam_id":76561198290734055,"connected_time":1091000000000,"state":"active","ping":104},{"user_id":234,"name":"sam","steam_id":76561198217362968,"connected_time":895000000000,"state":"active","ping":98},{"user_id":222,"name":"JaredTheCrow","steam_id":76561198918117347,"connected_time":1516000000000,"state":"active","ping":94},{"user_id":225,"name":"Ryalcon","steam_id":76561198049485534,"connected_time":1150000000000,"state":"active","ping":76},{"user_id":226,"name":"Unagiri","steam_id":76561198281675477,"connected_time":1146000000000,"state":"active","ping":75},{"user_id":230,"name":"Eins","steam_id":76561199030343810,"connected_time":1119000000000,"state":"active","ping":42},{"user_id":231,"name":"Electroid","steam_id":76561199092263960,"connected_time":1118000000000,"state":"active","ping":56},{"user_id":169,"name":"Brian","steam_id":76561198089908485,"connected_time":4757000000000,"state":"active","ping":62}]},{"server_id":104,"name":"Uncletopia | Atlanta | 2 | All Maps","name_short":"atl-2","host":"atl-1.us.uncletopia.com","port":27025,"enabled":true,"region":"us-east","cc":"us","latitude":33.753746,"longitude":-84.38633,"reserved":0,"last_update":"0001-01-01T00:00:00Z","name_a2s":"Uncletopia | Atlanta | 2 | All Maps","protocol":17,"map":"koth_cascade","folder":"tf","game":"Team Fortress","app_id":440,"player_count":2,"max_players":24,"Bots":0,"server_type":"Dedicated","server_os":"Linux","password":true,"vac":true,"version":"7757534","steam_id":85568392924469983,"keywords":["cp","nocrits","nodmgspread","uncletopia"],"game_id":440,"stv_port":27026,"stv_name":"Uncletopia | Atlanta | 2 | All Maps | STV","players":[{"user_id":9,"name":"roadrunner","steam_id":76561198237140468,"connected_time":954000000000,"state":"active","ping":75},{"user_id":10,"name":"izumi!!!","steam_id":76561198361768640,"connected_time":933000000000,"state":"active","ping":60}]},{"server_id":400,"name":"Uncletopia | Atlanta | 3 | Community","name_short":"atl-3","host":"atl-1.us.uncletopia.com","port":27035,"enabled":true,"region":"us-east","cc":"us","latitude":33.753746,"longitude":-84.38633,"reserved":0,"last_update":"0001-01-01T00:00:00Z","name_a2s":"Uncletopia | Atlanta | 3 | Community","protocol":17,"map":"workshop/cp_snowbase_b18.ugc2081770490","folder":"tf","game":"Team Fortress","app_id":440,"player_count":0,"max_players":24,"Bots":0,"server_type":"Dedicated","server_os":"Linux","password":true,"vac":true,"version":"7757534","steam_id":85568392924515187,"keywords":["cp","nocrits","nodmgspread","uncletopia"],"game_id":440,"stv_port":27036,"stv_name":"Uncletopia | Atlanta | 3 | Community | STV","players":null},{"server_id":401,"name":"Uncletopia | Atlanta | 4 | No Payload","name_short":"atl-4","host":"atl-1.us.uncletopia.com","port":27045,"enabled":true,"region":"us-east","cc":"us","latitude":33.753746,"longitude":-84.38633,"reserved":0,"last_update":"0001-01-01T00:00:00Z","name_a2s":"","protocol":0,"map":"","folder":"","game":"","app_id":0,"player_count":0,"max_players":0,"Bots":0,"server_type":"","server_os":"","password":false,"vac":false,"version":"","steam_id":0,"keywords":null,"game_id":0,"stv_port":0,"stv_name":"","players":null},{"server_id":2,"name":"Uncletopia | Chicago | 1 | All Maps","name_short":"chi-1","host":"chi-1.us.uncletopia.com","port":27015,"enabled":true,"region":"us-central","cc":"us","latitude":41.881832,"longitude":-87.62318,"reserved":0,"last_update":"0001-01-01T00:00:00Z","name_a2s":"Uncletopia | Chicago | 1 | All Maps","protocol":17,"map":"pl_pier","folder":"tf","game":"Team Fortress","app_id":440,"player_count":24,"max_players":24,"Bots":0,"server_type":"Dedicated","server_os":"Linux","password":true,"vac":true,"version":"7757534","steam_id":85568392924469984,"keywords":["nocrits","nodmgspread","payload","uncletopia"],"game_id":440,"stv_port":27016,"stv_name":"Uncletopia | Chicago | 1 | All Maps | STV","players":[{"user_id":360,"name":"Robodoodle110","steam_id":76561198398539832,"connected_time":1102000000000,"state":"active","ping":92},{"user_id":358,"name":"Soul_Intern","steam_id":76561198310238109,"connected_time":1164000000000,"state":"active","ping":101},{"user_id":359,"name":"alcoholic","steam_id":76561199217503417,"connected_time":1145000000000,"state":"active","ping":97},{"user_id":369,"name":"trobin120","steam_id":76561199122420273,"connected_time":15000000000,"state":"active","ping":65},{"user_id":61,"name":"HOODEDLAWYER285","steam_id":76561198156496197,"connected_time":24234000000000,"state":"active","ping":52},{"user_id":317,"name":"Tako","steam_id":76561199264073138,"connected_time":3559000000000,"state":"active","ping":87},{"user_id":347,"name":"Ringo x Seiran","steam_id":76561198357437908,"connected_time":1796000000000,"state":"active","ping":62},{"user_id":341,"name":"Brokayo","steam_id":76561198053802723,"connected_time":2364000000000,"state":"active","ping":88},{"user_id":361,"name":"Kidzbopsicle","steam_id":76561198047660691,"connected_time":1083000000000,"state":"active","ping":60},{"user_id":343,"name":"chaffy","steam_id":76561198021754567,"connected_time":2223000000000,"state":"active","ping":56},{"user_id":368,"name":"poiuytrewqwqwqwqwqwqwqwqwqwqwqw","steam_id":76561199105253001,"connected_time":283000000000,"state":"active","ping":72},{"user_id":348,"name":"Jona2180","steam_id":76561198807012900,"connected_time":1794000000000,"state":"active","ping":118},{"user_id":332,"name":"D(b) Hell","steam_id":76561198067869016,"connected_time":3000000000000,"state":"active","ping":44},{"user_id":352,"name":"T_T","steam_id":76561198047813960,"connected_time":1671000000000,"state":"active","ping":89},{"user_id":334,"name":"crack crisis","steam_id":76561198332519926,"connected_time":2957000000000,"state":"active","ping":86},{"user_id":306,"name":"Beast_727","steam_id":76561198390289197,"connected_time":4167000000000,"state":"active","ping":53},{"user_id":363,"name":"Chechens Spotted","steam_id":76561199028910893,"connected_time":1064000000000,"state":"active","ping":87},{"user_id":364,"name":"tinkercrab11","steam_id":76561198881792140,"connected_time":1063000000000,"state":"active","ping":86},{"user_id":350,"name":"super","steam_id":76561198800358844,"connected_time":1771000000000,"state":"active","ping":83},{"user_id":354,"name":"[UHS] K24A4 2.4","steam_id":76561199072970627,"connected_time":1589000000000,"state":"active","ping":46},{"user_id":353,"name":"conscripted monk","steam_id":76561199029246232,"connected_time":1662000000000,"state":"active","ping":70},{"user_id":365,"name":"dunbar","steam_id":76561198043873119,"connected_time":1061000000000,"state":"active","ping":59},{"user_id":366,"name":"Unwavering Flavor","steam_id":76561198053306065,"connected_time":1058000000000,"state":"active","ping":82},{"user_id":367,"name":"Ciaphas Cain","steam_id":76561198185598330,"connected_time":1057000000000,"state":"active","ping":84}]},{"server_id":106,"name":"Uncletopia | Chicago | 2 | All Maps","name_short":"chi-2","host":"chi-1.us.uncletopia.com","port":27025,"enabled":true,"region":"us-central","cc":"us","latitude":41.881832,"longitude":-87.62318,"reserved":0,"last_update":"0001-01-01T00:00:00Z","name_a2s":"Uncletopia | Chicago | 2 | All Maps","protocol":17,"map":"pl_frontier_final","folder":"tf","game":"Team Fortress","app_id":440,"player_count":24,"max_players":24,"Bots":0,"server_type":"Dedicated","server_os":"Linux","password":true,"vac":true,"version":"7757534","steam_id":85568392924469985,"keywords":["nocrits","nodmgspread","payload","uncletopia"],"game_id":440,"stv_port":27026,"stv_name":"Uncletopia | Chicago | 2 | All Maps | STV","players":[{"user_id":67,"name":"[-WA-]wolf2128","steam_id":76561198332156914,"connected_time":2928000000000,"state":"active","ping":136},{"user_id":56,"name":"finger","steam_id":76561198068558572,"connected_time":4371000000000,"state":"active","ping":82},{"user_id":86,"name":"fish","steam_id":76561198205475839,"connected_time":1652000000000,"state":"active","ping":195},{"user_id":87,"name":"BoxCutter","steam_id":76561198420199882,"connected_time":1578000000000,"state":"active","ping":63},{"user_id":65,"name":"Krom","steam_id":76561198107896376,"connected_time":2944000000000,"state":"active","ping":56},{"user_id":66,"name":"Risemonger","steam_id":76561198326896596,"connected_time":2938000000000,"state":"active","ping":133},{"user_id":89,"name":"Timon's high on crack cocaine!","steam_id":76561198180396430,"connected_time":1203000000000,"state":"active","ping":70},{"user_id":107,"name":"Gordon Ramsay","steam_id":76561198123893900,"connected_time":448000000000,"state":"active","ping":75},{"user_id":92,"name":"Hindmost","steam_id":76561199081837220,"connected_time":1055000000000,"state":"active","ping":84},{"user_id":109,"name":"fi_ji","steam_id":76561198126087725,"connected_time":107000000000,"state":"active","ping":68},{"user_id":70,"name":"Sprucelass","steam_id":76561197998391724,"connected_time":2868000000000,"state":"active","ping":45},{"user_id":104,"name":"Chimpish","steam_id":76561199263493270,"connected_time":518000000000,"state":"active","ping":96},{"user_id":94,"name":"Luis wid a mic","steam_id":76561198349570006,"connected_time":1037000000000,"state":"active","ping":55},{"user_id":91,"name":"Aeris","steam_id":76561198287271028,"connected_time":1072000000000,"state":"active","ping":57},{"user_id":95,"name":"Argo","steam_id":76561198353725622,"connected_time":1000000000000,"state":"active","ping":79},{"user_id":75,"name":"Cyrilthewonders","steam_id":76561198987020031,"connected_time":2833000000000,"state":"active","ping":70},{"user_id":108,"name":"beta central","steam_id":76561198301876831,"connected_time":216000000000,"state":"active","ping":61},{"user_id":99,"name":"Persona 5 Gaming","steam_id":76561198362884509,"connected_time":874000000000,"state":"active","ping":52},{"user_id":83,"name":"PeopleOrderOurPatties","steam_id":76561198323144922,"connected_time":2066000000000,"state":"active","ping":56},{"user_id":100,"name":"Quark","steam_id":76561198846915822,"connected_time":814000000000,"state":"active","ping":130},{"user_id":101,"name":"-Silke-","steam_id":76561198066481985,"connected_time":801000000000,"state":"active","ping":89},{"user_id":103,"name":"heimdall","steam_id":76561198069380992,"connected_time":604000000000,"state":"active","ping":95},{"user_id":51,"name":"Pennis the Menace","steam_id":76561198254878037,"connected_time":4684000000000,"state":"active","ping":70},{"user_id":52,"name":"andyiscolorless","steam_id":76561199239870921,"connected_time":4673000000000,"state":"active","ping":138}]},{"server_id":402,"name":"Uncletopia | Chicago | 3 | All Maps","name_short":"chi-3","host":"chi-1.us.uncletopia.com","port":27035,"enabled":true,"region":"us-central","cc":"us","latitude":41.881832,"longitude":-87.62318,"reserved":0,"last_update":"0001-01-01T00:00:00Z","name_a2s":"Uncletopia | Chicago | 3 | All Maps","protocol":17,"map":"cp_steel","folder":"tf","game":"Team Fortress","app_id":440,"player_count":24,"max_players":24,"Bots":0,"server_type":"Dedicated","server_os":"Linux","password":true,"vac":true,"version":"7757534","steam_id":85568392924515191,"keywords":["cp","nocrits","nodmgspread","uncletopia"],"game_id":440,"stv_port":27036,"stv_name":"Uncletopia | Chicago | 3 | All Maps | STV","players":[{"user_id":50,"name":"hack fraud","steam_id":76561198015036066,"connected_time":5715000000000,"state":"active","ping":91},{"user_id":102,"name":"coolfalcon168","steam_id":76561198948665710,"connected_time":708000000000,"state":"active","ping":78},{"user_id":107,"name":"The Chosen One","steam_id":76561199046984627,"connected_time":607000000000,"state":"active","ping":89},{"user_id":104,"name":"[_Dr.Scythe_]","steam_id":76561198845245858,"connected_time":676000000000,"state":"active","ping":86},{"user_id":105,"name":"Trolldier 76","steam_id":76561198036504161,"connected_time":675000000000,"state":"active","ping":111},{"user_id":121,"name":"CamelyKonas","steam_id":76561198097672992,"connected_time":116000000000,"state":"active","ping":61},{"user_id":99,"name":"jdt631","steam_id":76561198271999934,"connected_time":1170000000000,"state":"active","ping":90},{"user_id":75,"name":"Apple Crisp","steam_id":76561198129518886,"connected_time":3951000000000,"state":"active","ping":84},{"user_id":95,"name":"Scrux","steam_id":76561198129763115,"connected_time":1575000000000,"state":"active","ping":102},{"user_id":21,"name":"Midi","steam_id":76561199179087677,"connected_time":6971000000000,"state":"active","ping":57},{"user_id":22,"name":"NUT","steam_id":76561198014089542,"connected_time":6963000000000,"state":"active","ping":87},{"user_id":108,"name":"Gerald Jay Sussman","steam_id":76561198114515026,"connected_time":593000000000,"state":"active","ping":53},{"user_id":109,"name":"neet","steam_id":76561197968115168,"connected_time":590000000000,"state":"active","ping":59},{"user_id":92,"name":"Supr","steam_id":76561198093790672,"connected_time":1852000000000,"state":"active","ping":63},{"user_id":110,"name":"Tom","steam_id":76561198070630154,"connected_time":522000000000,"state":"active","ping":88},{"user_id":114,"name":"Bavi Ratto","steam_id":76561198333569494,"connected_time":454000000000,"state":"active","ping":77},{"user_id":118,"name":"radiohead enjoyer","steam_id":76561198397662124,"connected_time":262000000000,"state":"active","ping":86},{"user_id":122,"name":"ItsRoy","steam_id":76561198119525485,"connected_time":19000000000,"state":"spawning","ping":98},{"user_id":119,"name":"tr3@d0f4","steam_id":76561198000757362,"connected_time":238000000000,"state":"active","ping":60},{"user_id":62,"name":"Cousin Corn on the Cob","steam_id":76561198049837377,"connected_time":4942000000000,"state":"active","ping":49},{"user_id":97,"name":"Kasane","steam_id":76561198209006780,"connected_time":1502000000000,"state":"active","ping":87},{"user_id":49,"name":"Biosock Infiknit","steam_id":76561198072693794,"connected_time":5849000000000,"state":"active","ping":53},{"user_id":43,"name":"aiden","steam_id":76561198449527009,"connected_time":6325000000000,"state":"active","ping":73},{"user_id":120,"name":"TheCheeseWizard","steam_id":76561198058931315,"connected_time":235000000000,"state":"active","ping":60}]},{"server_id":403,"name":"Uncletopia | Chicago | 4 | All Maps","name_short":"chi-4","host":"chi-1.us.uncletopia.com","port":27045,"enabled":true,"region":"us-central","cc":"us","latitude":41.881832,"longitude":-87.62318,"reserved":0,"last_update":"0001-01-01T00:00:00Z","name_a2s":"Uncletopia | Chicago | 4 | All Maps","protocol":17,"map":"pl_pier","folder":"tf","game":"Team Fortress","app_id":440,"player_count":24,"max_players":24,"Bots":0,"server_type":"Dedicated","server_os":"Linux","password":true,"vac":true,"version":"7757534","steam_id":85568392924515193,"keywords":["nocrits","nodmgspread","payload","uncletopia"],"game_id":440,"stv_port":27046,"stv_name":"Uncletopia | Chicago | 4 | All Maps | STV","players":[{"user_id":224,"name":"Barlon","steam_id":76561198023717515,"connected_time":5257000000000,"state":"active","ping":77},{"user_id":280,"name":"El Bondin","steam_id":76561198820792434,"connected_time":631000000000,"state":"active","ping":98},{"user_id":286,"name":"I Forgot My Hat","steam_id":76561199065119525,"connected_time":156000000000,"state":"active","ping":80},{"user_id":261,"name":"Star","steam_id":76561198150115757,"connected_time":1856000000000,"state":"active","ping":112},{"user_id":258,"name":"Warkeidan","steam_id":76561198118805546,"connected_time":2033000000000,"state":"active","ping":67},{"user_id":265,"name":"sweppy","steam_id":76561198035457667,"connected_time":1478000000000,"state":"active","ping":65},{"user_id":284,"name":"BasicPeaches","steam_id":76561198190890150,"connected_time":207000000000,"state":"active","ping":87},{"user_id":278,"name":"Cat_Gaben","steam_id":76561198308094558,"connected_time":804000000000,"state":"active","ping":78},{"user_id":285,"name":"[BBW] Justario","steam_id":76561198016095410,"connected_time":207000000000,"state":"active","ping":70},{"user_id":240,"name":"RavenwolF","steam_id":76561197963374354,"connected_time":3416000000000,"state":"active","ping":115},{"user_id":291,"name":"Redrock442","steam_id":76561198178085142,"connected_time":70000000000,"state":"active","ping":104},{"user_id":288,"name":"eymane","steam_id":76561198028272797,"connected_time":151000000000,"state":"active","ping":71},{"user_id":289,"name":"Kamikazedoctor","steam_id":76561198157078818,"connected_time":151000000000,"state":"active","ping":64},{"user_id":274,"name":"The Best 8bit Fan","steam_id":76561199098464343,"connected_time":927000000000,"state":"active","ping":74},{"user_id":230,"name":"shanghai","steam_id":76561197997961542,"connected_time":5161000000000,"state":"active","ping":60},{"user_id":246,"name":"British Zoner","steam_id":76561198977330214,"connected_time":3329000000000,"state":"active","ping":96},{"user_id":282,"name":"Shrek Forever After","steam_id":76561198023152320,"connected_time":272000000000,"state":"active","ping":74},{"user_id":275,"name":"Highphin","steam_id":76561198986584680,"connected_time":926000000000,"state":"active","ping":67},{"user_id":276,"name":"Pure","steam_id":76561198382134521,"connected_time":917000000000,"state":"active","ping":75},{"user_id":290,"name":"The Power","steam_id":76561198060566884,"connected_time":120000000000,"state":"active","ping":150},{"user_id":256,"name":"viv","steam_id":76561198975527343,"connected_time":2208000000000,"state":"active","ping":45},{"user_id":263,"name":"schnedwob","steam_id":76561197999146588,"connected_time":1817000000000,"state":"active","ping":71},{"user_id":262,"name":"Queen Ishtar","steam_id":76561198035614233,"connected_time":1852000000000,"state":"active","ping":96},{"user_id":237,"name":"Clean Lines","steam_id":76561197960691518,"connected_time":3700000000000,"state":"active","ping":52}]},{"server_id":36,"name":"Uncletopia | Chicago | 5 | All Maps","name_short":"chi-5","host":"chi-2.us.uncletopia.com","port":27015,"enabled":true,"region":"us-central","cc":"us","latitude":41.881832,"longitude":-87.62318,"reserved":0,"last_update":"0001-01-01T00:00:00Z","name_a2s":"Uncletopia | Chicago | 5 | All Maps","protocol":17,"map":"koth_lakeside_final","folder":"tf","game":"Team Fortress","app_id":440,"player_count":0,"max_players":24,"Bots":0,"server_type":"Dedicated","server_os":"Linux","password":true,"vac":true,"version":"7757534","steam_id":85568392924866362,"keywords":["cp","nocrits","nodmgspread","uncletopia"],"game_id":440,"stv_port":27016,"stv_name":"Uncletopia | Chicago | 5 | All Maps | STV","players":null},{"server_id":37,"name":"Uncletopia | Chicago | 6 | All Maps","name_short":"chi-6","host":"chi-2.us.uncletopia.com","port":27025,"enabled":true,"region":"us-central","cc":"us","latitude":41.881832,"longitude":-87.62318,"reserved":0,"last_update":"0001-01-01T00:00:00Z","name_a2s":"Uncletopia | Chicago | 6 | All Maps","protocol":17,"map":"koth_lakeside_final","folder":"tf","game":"Team Fortress","app_id":440,"player_count":2,"max_players":24,"Bots":0,"server_type":"Dedicated","server_os":"Linux","password":true,"vac":true,"version":"7757534","steam_id":85568392924866363,"keywords":["cp","nocrits","nodmgspread","uncletopia"],"game_id":440,"stv_port":27026,"stv_name":"Uncletopia | Chicago | 6 | All Maps | STV","players":[{"user_id":9,"name":"aya fumo","steam_id":76561198061621275,"connected_time":498000000000,"state":"active","ping":73},{"user_id":10,"name":"momiji fumo","steam_id":76561198066698922,"connected_time":494000000000,"state":"active","ping":50}]},{"server_id":38,"name":"Uncletopia | Chicago | 7 | Stopwatch Beta","name_short":"chi-7","host":"chi-2.us.uncletopia.com","port":27035,"enabled":true,"region":"us-central","cc":"us","latitude":41.881832,"longitude":-87.62318,"reserved":0,"last_update":"0001-01-01T00:00:00Z","name_a2s":"Uncletopia | Chicago | 7 | Stopwatch Beta","protocol":17,"map":"koth_viaduct","folder":"tf","game":"Team Fortress","app_id":440,"player_count":0,"max_players":24,"Bots":0,"server_type":"Dedicated","server_os":"Linux","password":true,"vac":true,"version":"7757534","steam_id":85568392924866364,"keywords":["cp","nocrits","nodmgspread","uncletopia"],"game_id":440,"stv_port":27036,"stv_name":"Uncletopia | Chicago | 7 | Stopwatch Beta | STV","players":null},{"server_id":39,"name":"Uncletopia | Chicago | 8 | Community","name_short":"chi-8","host":"chi-2.us.uncletopia.com","port":27045,"enabled":true,"region":"us-central","cc":"us","latitude":41.881832,"longitude":-87.62318,"reserved":0,"last_update":"0001-01-01T00:00:00Z","name_a2s":"Uncletopia | Chicago | 8 | Community","protocol":17,"map":"koth_lakeside_final","folder":"tf","game":"Team Fortress","app_id":440,"player_count":0,"max_players":24,"Bots":0,"server_type":"Dedicated","server_os":"Linux","password":true,"vac":true,"version":"7757534","steam_id":85568392924866365,"keywords":["cp","nocrits","nodmgspread","uncletopia"],"game_id":440,"stv_port":27046,"stv_name":"Uncletopia | Chicago | 8 | Community | STV","players":null},{"server_id":8,"name":"Uncletopia | Dallas | 1 | All Maps","name_short":"dal-1","host":"dal-1.us.uncletopia.com","port":27015,"enabled":true,"region":"us-central","cc":"us","latitude":32.779167,"longitude":-96.80889,"reserved":0,"last_update":"0001-01-01T00:00:00Z","name_a2s":"Uncletopia | Dallas | 1 | All Maps","protocol":17,"map":"koth_highpass","folder":"tf","game":"Team Fortress","app_id":440,"player_count":0,"max_players":24,"Bots":0,"server_type":"Dedicated","server_os":"Linux","password":true,"vac":true,"version":"7757534","steam_id":85568392924469986,"keywords":["cp","nocrits","nodmgspread","uncletopia"],"game_id":440,"stv_port":27016,"stv_name":"Uncletopia | Dallas | 1 | All Maps | STV","players":null},{"server_id":108,"name":"Uncletopia | Dallas | 2 | All Maps","name_short":"dal-2","host":"dal-1.us.uncletopia.com","port":27025,"enabled":true,"region":"us-central","cc":"us","latitude":32.779167,"longitude":-96.80889,"reserved":0,"last_update":"0001-01-01T00:00:00Z","name_a2s":"Uncletopia | Dallas | 2 | All Maps","protocol":17,"map":"pl_pier","folder":"tf","game":"Team Fortress","app_id":440,"player_count":24,"max_players":24,"Bots":0,"server_type":"Dedicated","server_os":"Linux","password":true,"vac":true,"version":"7757534","steam_id":85568392924469988,"keywords":["nocrits","nodmgspread","payload","uncletopia"],"game_id":440,"stv_port":27026,"stv_name":"Uncletopia | Dallas | 2 | All Maps | STV","players":[{"user_id":289,"name":"Toad :)","steam_id":76561198163008022,"connected_time":6257000000000,"state":"active","ping":95},{"user_id":337,"name":"Doomagedden","steam_id":76561198272589475,"connected_time":1739000000000,"state":"active","ping":65},{"user_id":347,"name":"CroutonCriminal","steam_id":76561198252145166,"connected_time":1386000000000,"state":"active","ping":134},{"user_id":354,"name":"boombox","steam_id":76561198237013798,"connected_time":447000000000,"state":"active","ping":99},{"user_id":340,"name":"duane (stinks good)","steam_id":76561198149565822,"connected_time":1664000000000,"state":"active","ping":82},{"user_id":317,"name":"Cofi","steam_id":76561199026721822,"connected_time":4208000000000,"state":"active","ping":84},{"user_id":326,"name":"jturner1nm","steam_id":76561198344493652,"connected_time":2923000000000,"state":"active","ping":105},{"user_id":336,"name":"pylot","steam_id":76561198119460618,"connected_time":1761000000000,"state":"active","ping":66},{"user_id":325,"name":"Rooskie","steam_id":76561198157230500,"connected_time":3027000000000,"state":"active","ping":78},{"user_id":342,"name":"uzr","steam_id":76561198799343084,"connected_time":1579000000000,"state":"active","ping":85},{"user_id":333,"name":"Sir Jangle","steam_id":76561198038142389,"connected_time":2207000000000,"state":"active","ping":60},{"user_id":322,"name":"Stæming_Hot_Potato","steam_id":76561199041077201,"connected_time":3848000000000,"state":"active","ping":85},{"user_id":82,"name":"dmdr1969","steam_id":76561198080469611,"connected_time":21486000000000,"state":"active","ping":76},{"user_id":351,"name":"LX-24","steam_id":76561198016168993,"connected_time":1260000000000,"state":"active","ping":113},{"user_id":344,"name":"ELAMAT","steam_id":76561199102883421,"connected_time":1525000000000,"state":"active","ping":91},{"user_id":118,"name":"Joe Swanson","steam_id":76561199089907740,"connected_time":19221000000000,"state":"active","ping":88},{"user_id":345,"name":"GOLDIE","steam_id":76561199375258674,"connected_time":1503000000000,"state":"active","ping":89},{"user_id":346,"name":"mongoose deity","steam_id":76561198017539604,"connected_time":1457000000000,"state":"active","ping":78},{"user_id":327,"name":"Bombat","steam_id":76561198083096946,"connected_time":2892000000000,"state":"active","ping":84},{"user_id":348,"name":"Ricky Dicky Doo Dah Grimes","steam_id":76561198080430008,"connected_time":1382000000000,"state":"active","ping":46},{"user_id":312,"name":"AL SPUGNAR","steam_id":76561199020253203,"connected_time":4410000000000,"state":"active","ping":120},{"user_id":349,"name":"Waffle Wannabe","steam_id":76561198064510650,"connected_time":1369000000000,"state":"active","ping":66},{"user_id":331,"name":"Romanian Officer B Dingling","steam_id":76561198831997540,"connected_time":2847000000000,"state":"active","ping":66},{"user_id":350,"name":"Sullivate","steam_id":76561198247267324,"connected_time":1333000000000,"state":"active","ping":97}]},{"server_id":5,"name":"Uncletopia | Frankfurt | 1 | All Maps","name_short":"frk-1","host":"frk-1.de.uncletopia.com","port":27015,"enabled":true,"region":"eu","cc":"de","latitude":50.110924,"longitude":8.682127,"reserved":0,"last_update":"0001-01-01T00:00:00Z","name_a2s":"Uncletopia | Frankfurt | 1 | All Maps","protocol":17,"map":"cp_mountainlab","folder":"tf","game":"Team Fortress","app_id":440,"player_count":0,"max_players":24,"Bots":0,"server_type":"Dedicated","server_os":"Linux","password":true,"vac":true,"version":"7757534","steam_id":85568392924469989,"keywords":["cp","nocrits","nodmgspread","uncletopia"],"game_id":440,"stv_port":27016,"stv_name":"Uncletopia | Frankfurt | 1 | All Maps | STV","players":null},{"server_id":110,"name":"Uncletopia | Frankfurt | 2 | All Maps","name_short":"frk-2","host":"frk-1.de.uncletopia.com","port":27025,"enabled":true,"region":"eu","cc":"de","latitude":50.110924,"longitude":8.682127,"reserved":0,"last_update":"0001-01-01T00:00:00Z","name_a2s":"Uncletopia | Frankfurt | 2 | All Maps","protocol":17,"map":"pl_swiftwater_final1","folder":"tf","game":"Team Fortress","app_id":440,"player_count":23,"max_players":24,"Bots":0,"server_type":"Dedicated","server_os":"Linux","password":true,"vac":true,"version":"7757534","steam_id":85568392924469990,"keywords":["nocrits","nodmgspread","payload","uncletopia"],"game_id":440,"stv_port":27026,"stv_name":"Uncletopia | Frankfurt | 2 | All Maps | STV","players":[{"user_id":355,"name":"Elon Ma","steam_id":76561199018053264,"connected_time":1493000000000,"state":"active","ping":70},{"user_id":383,"name":"BarrackOmaha","steam_id":76561198027922724,"connected_time":412000000000,"state":"active","ping":82},{"user_id":381,"name":"Valentine","steam_id":76561198121343565,"connected_time":575000000000,"state":"active","ping":45},{"user_id":376,"name":"Frog","steam_id":76561198122821488,"connected_time":755000000000,"state":"active","ping":71},{"user_id":373,"name":"zdrdan","steam_id":76561198107905551,"connected_time":869000000000,"state":"active","ping":75},{"user_id":361,"name":"swagsam","steam_id":76561199023747241,"connected_time":1458000000000,"state":"active","ping":60},{"user_id":392,"name":"JackyLegs","steam_id":76561197998944560,"connected_time":79000000000,"state":"active","ping":85},{"user_id":349,"name":"Dorich","steam_id":76561198287126217,"connected_time":1563000000000,"state":"active","ping":57},{"user_id":375,"name":"mud","steam_id":76561198141497461,"connected_time":804000000000,"state":"active","ping":65},{"user_id":384,"name":"Quelaudio","steam_id":76561198164119602,"connected_time":370000000000,"state":"active","ping":112},{"user_id":353,"name":"Tomo -ƒ$-","steam_id":76561199015097595,"connected_time":1502000000000,"state":"active","ping":61},{"user_id":282,"name":"tired","steam_id":76561198046838168,"connected_time":5415000000000,"state":"active","ping":46},{"user_id":370,"name":"Luk3","steam_id":76561198340519063,"connected_time":1033000000000,"state":"active","ping":77},{"user_id":374,"name":"drogoz","steam_id":76561198078538472,"connected_time":865000000000,"state":"active","ping":60},{"user_id":344,"name":"ELON MUSK","steam_id":76561198132788284,"connected_time":1955000000000,"state":"active","ping":70},{"user_id":385,"name":"grmtwtr","steam_id":76561198263260743,"connected_time":331000000000,"state":"active","ping":105},{"user_id":368,"name":"GogsCrunchyNuts","steam_id":76561198150599213,"connected_time":1114000000000,"state":"active","ping":107},{"user_id":378,"name":"Dispenser","steam_id":76561198081051880,"connected_time":726000000000,"state":"active","ping":43},{"user_id":363,"name":"kreeekz","steam_id":76561198014431602,"connected_time":1447000000000,"state":"active","ping":66},{"user_id":386,"name":"Hu Yuu Hai Ding","steam_id":76561198254210743,"connected_time":274000000000,"state":"active","ping":66},{"user_id":387,"name":"inV pijacka","steam_id":76561198103899658,"connected_time":255000000000,"state":"active","ping":56},{"user_id":389,"name":"TidB","steam_id":76561198055342304,"connected_time":229000000000,"state":"active","ping":61},{"user_id":390,"name":"BSantos57","steam_id":76561198000597094,"connected_time":210000000000,"state":"active","ping":97}]},{"server_id":308,"name":"Uncletopia | Frankfurt | 3 | All Maps","name_short":"frk-3","host":"frk-1.de.uncletopia.com","port":27035,"enabled":true,"region":"eu","cc":"de","latitude":50.110924,"longitude":8.682127,"reserved":0,"last_update":"0001-01-01T00:00:00Z","name_a2s":"Uncletopia | Frankfurt | 3 | All Maps","protocol":17,"map":"koth_suijin","folder":"tf","game":"Team Fortress","app_id":440,"player_count":0,"max_players":24,"Bots":0,"server_type":"Dedicated","server_os":"Linux","password":true,"vac":true,"version":"7757534","steam_id":85568392924504274,"keywords":["cp","nocrits","nodmgspread","uncletopia"],"game_id":440,"stv_port":27036,"stv_name":"Uncletopia | Frankfurt | 3 | All Maps | STV","players":null},{"server_id":309,"name":"Uncletopia | Frankfurt | 4 | All Maps","name_short":"frk-4","host":"frk-1.de.uncletopia.com","port":27045,"enabled":true,"region":"eu","cc":"de","latitude":50.110924,"longitude":8.682127,"reserved":0,"last_update":"0001-01-01T00:00:00Z","name_a2s":"Uncletopia | Frankfurt | 4 | All Maps","protocol":17,"map":"pl_pier","folder":"tf","game":"Team Fortress","app_id":440,"player_count":22,"max_players":24,"Bots":0,"server_type":"Dedicated","server_os":"Linux","password":true,"vac":true,"version":"7757534","steam_id":85568392924504275,"keywords":["nocrits","nodmgspread","payload","uncletopia"],"game_id":440,"stv_port":27046,"stv_name":"Uncletopia | Frankfurt | 4 | All Maps | STV","players":[{"user_id":269,"name":"Hejnus","steam_id":76561197988395035,"connected_time":856000000000,"state":"active","ping":82},{"user_id":210,"name":"♥ Aura ♥","steam_id":76561198066258544,"connected_time":5007000000000,"state":"active","ping":67},{"user_id":246,"name":"If I top 3 my team sucks","steam_id":76561198147668373,"connected_time":2478000000000,"state":"active","ping":51},{"user_id":115,"name":"rz-/Atomic Punch","steam_id":76561199195508541,"connected_time":11634000000000,"state":"active","ping":78},{"user_id":103,"name":"Sigma Bale","steam_id":76561198365750503,"connected_time":12884000000000,"state":"active","ping":52},{"user_id":258,"name":"Anti_Dragon","steam_id":76561198969060607,"connected_time":1587000000000,"state":"active","ping":100},{"user_id":255,"name":"flange","steam_id":76561198040182692,"connected_time":1774000000000,"state":"active","ping":57},{"user_id":265,"name":"KorieOne ❣","steam_id":76561197982998663,"connected_time":1320000000000,"state":"active","ping":62},{"user_id":233,"name":"using splatoon controls","steam_id":76561199391139366,"connected_time":3366000000000,"state":"active","ping":67},{"user_id":264,"name":"makaronrycy","steam_id":76561198018208790,"connected_time":1335000000000,"state":"active","ping":63},{"user_id":266,"name":"Officer Big Mac","steam_id":76561197972008326,"connected_time":1320000000000,"state":"active","ping":75},{"user_id":271,"name":"Pixelo","steam_id":76561198947949422,"connected_time":750000000000,"state":"active","ping":56},{"user_id":251,"name":"☩ Knightz ☩","steam_id":76561198040936414,"connected_time":2122000000000,"state":"active","ping":116},{"user_id":226,"name":"Ansari","steam_id":76561198074982971,"connected_time":3557000000000,"state":"active","ping":56},{"user_id":272,"name":"strahphic","steam_id":76561199279295106,"connected_time":106000000000,"state":"active","ping":119},{"user_id":199,"name":"Carrotcracker","steam_id":76561198034862396,"connected_time":6541000000000,"state":"active","ping":72},{"user_id":263,"name":"Clandi","steam_id":76561198220569831,"connected_time":1351000000000,"state":"active","ping":95},{"user_id":232,"name":"Cosmetic brain","steam_id":76561198055936410,"connected_time":3468000000000,"state":"active","ping":76},{"user_id":257,"name":"Senator Armstrong","steam_id":76561198984346408,"connected_time":1740000000000,"state":"active","ping":69},{"user_id":270,"name":"Qwerty","steam_id":76561198023525894,"connected_time":846000000000,"state":"active","ping":96},{"user_id":254,"name":"Anonymous47007","steam_id":76561199005211417,"connected_time":1793000000000,"state":"active","ping":67},{"user_id":189,"name":"Redsy","steam_id":76561198360088412,"connected_time":6876000000000,"state":"active","ping":135}]},{"server_id":310,"name":"Uncletopia | Frankfurt | 5 | All Maps","name_short":"frk-5","host":"frk-1.de.uncletopia.com","port":27055,"enabled":true,"region":"eu","cc":"de","latitude":50.110924,"longitude":8.682127,"reserved":0,"last_update":"0001-01-01T00:00:00Z","name_a2s":"Uncletopia | Frankfurt | 5 | All Maps","protocol":17,"map":"pl_barnblitz","folder":"tf","game":"Team Fortress","app_id":440,"player_count":24,"max_players":24,"Bots":0,"server_type":"Dedicated","server_os":"Linux","password":true,"vac":true,"version":"7757534","steam_id":85568392924504277,"keywords":["nocrits","nodmgspread","payload","uncletopia"],"game_id":440,"stv_port":27056,"stv_name":"Uncletopia | Frankfurt | 5 | All Maps | STV","players":[{"user_id":411,"name":"Tyrone","steam_id":76561198005050459,"connected_time":1776000000000,"state":"active","ping":60},{"user_id":394,"name":"Maćko Z Bogdańca","steam_id":76561198114612861,"connected_time":2470000000000,"state":"active","ping":70},{"user_id":433,"name":"tone'","steam_id":76561198055552635,"connected_time":250000000000,"state":"active","ping":48},{"user_id":428,"name":"Gnarville","steam_id":76561198006373329,"connected_time":645000000000,"state":"active","ping":60},{"user_id":409,"name":"OhMyGodcat","steam_id":76561198054299459,"connected_time":1969000000000,"state":"active","ping":93},{"user_id":419,"name":"Djingis Khan","steam_id":76561197967864460,"connected_time":1139000000000,"state":"active","ping":39},{"user_id":368,"name":"fallingpencil","steam_id":76561199230233148,"connected_time":4668000000000,"state":"active","ping":53},{"user_id":359,"name":"finbar","steam_id":76561198056812396,"connected_time":5065000000000,"state":"active","ping":75},{"user_id":432,"name":"jail or the grave","steam_id":76561198274105878,"connected_time":283000000000,"state":"active","ping":86},{"user_id":420,"name":"Bill Carr","steam_id":76561198110033943,"connected_time":1133000000000,"state":"active","ping":50},{"user_id":406,"name":"fucking muscovites","steam_id":76561198065009070,"connected_time":2184000000000,"state":"active","ping":61},{"user_id":435,"name":"X45Y","steam_id":76561198112534025,"connected_time":130000000000,"state":"active","ping":48},{"user_id":377,"name":"hmmmmm","steam_id":76561198024619679,"connected_time":4309000000000,"state":"active","ping":73},{"user_id":398,"name":"Quororque The Defiler-Alchemist","steam_id":76561198070659234,"connected_time":2393000000000,"state":"active","ping":68},{"user_id":354,"name":"KRÁL PODSVĚTÍ","steam_id":76561198060698967,"connected_time":5261000000000,"state":"active","ping":57},{"user_id":430,"name":"Souper","steam_id":76561199004637304,"connected_time":339000000000,"state":"active","ping":152},{"user_id":388,"name":"THVG","steam_id":76561199156685368,"connected_time":3698000000000,"state":"active","ping":67},{"user_id":429,"name":"Mido","steam_id":76561198014315688,"connected_time":624000000000,"state":"active","ping":70},{"user_id":422,"name":"- rick.","steam_id":76561198026699226,"connected_time":1079000000000,"state":"active","ping":75},{"user_id":415,"name":"Vintage Violet","steam_id":76561199122876946,"connected_time":1454000000000,"state":"active","ping":167},{"user_id":424,"name":"Nyhde","steam_id":76561198012771416,"connected_time":1067000000000,"state":"active","ping":88},{"user_id":408,"name":"✪Kritz","steam_id":76561198110226775,"connected_time":2050000000000,"state":"active","ping":81},{"user_id":404,"name":"Ryancy","steam_id":76561198253172566,"connected_time":2264000000000,"state":"active","ping":62},{"user_id":392,"name":"Penis Contortionist","steam_id":76561198073663784,"connected_time":2801000000000,"state":"active","ping":53}]},{"server_id":311,"name":"Uncletopia | Frankfurt | 6 | All Maps","name_short":"frk-6","host":"frk-1.de.uncletopia.com","port":27065,"enabled":true,"region":"eu","cc":"de","latitude":50.110924,"longitude":8.682127,"reserved":0,"last_update":"0001-01-01T00:00:00Z","name_a2s":"Uncletopia | Frankfurt | 6 | All Maps","protocol":17,"map":"pl_pier","folder":"tf","game":"Team Fortress","app_id":440,"player_count":24,"max_players":24,"Bots":0,"server_type":"Dedicated","server_os":"Linux","password":true,"vac":true,"version":"7757534","steam_id":85568392924504278,"keywords":["nocrits","nodmgspread","payload","uncletopia"],"game_id":440,"stv_port":27066,"stv_name":"Uncletopia | Frankfurt | 6 | All Maps | STV","players":[{"user_id":379,"name":"jones","steam_id":76561198044434971,"connected_time":294000000000,"state":"active","ping":63},{"user_id":297,"name":"Piteras","steam_id":76561198858532207,"connected_time":3545000000000,"state":"active","ping":76},{"user_id":364,"name":"Dewotter","steam_id":76561198007653168,"connected_time":536000000000,"state":"active","ping":66},{"user_id":371,"name":"PixelHyde","steam_id":76561198040878617,"connected_time":474000000000,"state":"active","ping":75},{"user_id":380,"name":"LIGHTWEIGHT BABY","steam_id":76561198002761980,"connected_time":155000000000,"state":"active","ping":65},{"user_id":325,"name":"pizza time","steam_id":76561199015899793,"connected_time":1945000000000,"state":"active","ping":62},{"user_id":368,"name":"Woa","steam_id":76561198345683201,"connected_time":519000000000,"state":"active","ping":48},{"user_id":362,"name":"peso enjoyer","steam_id":76561198798177799,"connected_time":631000000000,"state":"active","ping":71},{"user_id":309,"name":"Frank","steam_id":76561198086672774,"connected_time":3066000000000,"state":"active","ping":63},{"user_id":317,"name":"√(-Wolf)","steam_id":76561198024769704,"connected_time":2406000000000,"state":"active","ping":89},{"user_id":333,"name":"hedon/","steam_id":76561198249832770,"connected_time":1664000000000,"state":"active","ping":56},{"user_id":381,"name":"BallinScout","steam_id":76561198152443697,"connected_time":84000000000,"state":"active","ping":77},{"user_id":301,"name":"BoPoe","steam_id":76561198093333882,"connected_time":3295000000000,"state":"active","ping":97},{"user_id":302,"name":"Rexu","steam_id":76561198246738850,"connected_time":3259000000000,"state":"active","ping":63},{"user_id":304,"name":"KatTheCookiCat","steam_id":76561199054643392,"connected_time":3219000000000,"state":"active","ping":51},{"user_id":369,"name":"Ptahotep","steam_id":76561198008708645,"connected_time":512000000000,"state":"active","ping":65},{"user_id":382,"name":"Dog ?","steam_id":76561198347020945,"connected_time":7000000000,"state":"spawning","ping":89},{"user_id":377,"name":"sork","steam_id":76561198082446459,"connected_time":364000000000,"state":"active","ping":69},{"user_id":307,"name":"oma","steam_id":76561198155132535,"connected_time":3199000000000,"state":"active","ping":96},{"user_id":308,"name":"PotatosAreReal_","steam_id":76561199007595770,"connected_time":3186000000000,"state":"active","ping":83},{"user_id":370,"name":"Mussolini","steam_id":76561198218384865,"connected_time":505000000000,"state":"active","ping":97},{"user_id":372,"name":"Guuse | Chuds.tf","steam_id":76561198030956814,"connected_time":473000000000,"state":"active","ping":90},{"user_id":378,"name":"kbbq","steam_id":76561198346638308,"connected_time":349000000000,"state":"active","ping":57},{"user_id":336,"name":"Magic","steam_id":76561198401602586,"connected_time":1522000000000,"state":"active","ping":82}]},{"server_id":23,"name":"Uncletopia | Frankfurt | 7 | Stopwatch Beta","name_short":"frk-7","host":"frk-1.de.uncletopia.com","port":27075,"enabled":true,"region":"eu","cc":"de","latitude":50.110924,"longitude":8.682127,"reserved":0,"last_update":"0001-01-01T00:00:00Z","name_a2s":"Uncletopia | Frankfurt | 7 | Stopwatch Beta","protocol":17,"map":"pl_borneo","folder":"tf","game":"Team Fortress","app_id":440,"player_count":0,"max_players":24,"Bots":0,"server_type":"Dedicated","server_os":"Linux","password":true,"vac":true,"version":"7757534","steam_id":85568392924742827,"keywords":["nocrits","nodmgspread","payload","uncletopia"],"game_id":440,"stv_port":27076,"stv_name":"Uncletopia | Frankfurt | 7 | Stopwatch Beta | STV","players":null},{"server_id":24,"name":"Uncletopia | Frankfurt | 8 | Community","name_short":"frk-8","host":"frk-1.de.uncletopia.com","port":27085,"enabled":true,"region":"eu","cc":"de","latitude":50.110924,"longitude":8.682127,"reserved":0,"last_update":"0001-01-01T00:00:00Z","name_a2s":"Uncletopia | Frankfurt | 8 | Community","protocol":17,"map":"koth_viaduct","folder":"tf","game":"Team Fortress","app_id":440,"player_count":0,"max_players":24,"Bots":0,"server_type":"Dedicated","server_os":"Linux","password":true,"vac":true,"version":"7757534","steam_id":85568392924742828,"keywords":["cp","nocrits","nodmgspread","uncletopia"],"game_id":440,"stv_port":27086,"stv_name":"Uncletopia | Frankfurt | 8 | Community | STV","players":null},{"server_id":202,"name":"Uncletopia | Hong Kong | 1 | All Maps","name_short":"hgk-1","host":"hgk-1.hk.uncletopia.com","port":27015,"enabled":true,"region":"asia","cc":"hk","latitude":22.302711,"longitude":114.177216,"reserved":0,"last_update":"0001-01-01T00:00:00Z","name_a2s":"Uncletopia | Hong Kong | 1 | All Maps","protocol":17,"map":"cp_sunshine","folder":"tf","game":"Team Fortress","app_id":440,"player_count":0,"max_players":24,"Bots":0,"server_type":"Dedicated","server_os":"Linux","password":true,"vac":true,"version":"7757534","steam_id":85568392924494504,"keywords":["cp","nocrits","nodmgspread","uncletopia"],"game_id":440,"stv_port":27016,"stv_name":"Uncletopia | Hong Kong | 1 | All Maps | STV","players":null},{"server_id":1,"name":"Uncletopia | Los Angeles | 1 | All Maps","name_short":"lax-1","host":"lax-1.us.uncletopia.com","port":27015,"enabled":true,"region":"us-west","cc":"us","latitude":33.94279,"longitude":-118.41004,"reserved":0,"last_update":"0001-01-01T00:00:00Z","name_a2s":"Uncletopia | Los Angeles | 1 | All Maps","protocol":17,"map":"koth_harvest_final","folder":"tf","game":"Team Fortress","app_id":440,"player_count":0,"max_players":24,"Bots":0,"server_type":"Dedicated","server_os":"Linux","password":true,"vac":true,"version":"7757534","steam_id":85568392924469991,"keywords":["cp","nocrits","nodmgspread","uncletopia"],"game_id":440,"stv_port":27016,"stv_name":"Uncletopia | Los Angeles | 1 | All Maps | STV","players":null},{"server_id":112,"name":"Uncletopia | Los Angeles | 2 | All Maps","name_short":"lax-2","host":"lax-1.us.uncletopia.com","port":27025,"enabled":true,"region":"us-west","cc":"us","latitude":33.94279,"longitude":-118.41004,"reserved":0,"last_update":"0001-01-01T00:00:00Z","name_a2s":"Uncletopia | Los Angeles | 2 | All Maps","protocol":17,"map":"koth_viaduct","folder":"tf","game":"Team Fortress","app_id":440,"player_count":0,"max_players":24,"Bots":0,"server_type":"Dedicated","server_os":"Linux","password":true,"vac":true,"version":"7757534","steam_id":85568392924469992,"keywords":["cp","nocrits","nodmgspread","uncletopia"],"game_id":440,"stv_port":27026,"stv_name":"Uncletopia | Los Angeles | 2 | All Maps | STV","players":null},{"server_id":324,"name":"Uncletopia | Los Angeles | 3 | All Maps","name_short":"lax-3","host":"lax-1.us.uncletopia.com","port":27035,"enabled":true,"region":"us-west","cc":"us","latitude":33.94279,"longitude":-118.41004,"reserved":0,"last_update":"0001-01-01T00:00:00Z","name_a2s":"Uncletopia | Los Angeles | 3 | All Maps","protocol":17,"map":"pl_borneo","folder":"tf","game":"Team Fortress","app_id":440,"player_count":0,"max_players":24,"Bots":0,"server_type":"Dedicated","server_os":"Linux","password":true,"vac":true,"version":"7757534","steam_id":85568392924510198,"keywords":["nocrits","nodmgspread","payload","uncletopia"],"game_id":440,"stv_port":27036,"stv_name":"Uncletopia | Los Angeles | 3 | All Maps | STV","players":null},{"server_id":25,"name":"Uncletopia | Los Angeles | 4 | Stopwatch Beta","name_short":"lax-4","host":"lax-1.us.uncletopia.com","port":27045,"enabled":true,"region":"us-west","cc":"us","latitude":33.94279,"longitude":-118.41004,"reserved":0,"last_update":"0001-01-01T00:00:00Z","name_a2s":"Uncletopia | Los Angeles | 4 | Stopwatch Beta","protocol":17,"map":"cp_dustbowl","folder":"tf","game":"Team Fortress","app_id":440,"player_count":0,"max_players":24,"Bots":0,"server_type":"Dedicated","server_os":"Linux","password":true,"vac":true,"version":"7757534","steam_id":85568392924510199,"keywords":["cp","nocrits","nodmgspread","uncletopia"],"game_id":440,"stv_port":27046,"stv_name":"Uncletopia | Los Angeles | 4 | Stopwatch Beta | STV","players":null},{"server_id":11,"name":"Uncletopia | London | 1 | All Maps","name_short":"lon-1","host":"lon-1.uk.uncletopia.com","port":27015,"enabled":true,"region":"eu","cc":"gb","latitude":51.509865,"longitude":-0.118092,"reserved":0,"last_update":"0001-01-01T00:00:00Z","name_a2s":"Uncletopia | London | 1 | All Maps","protocol":17,"map":"pl_upward","folder":"tf","game":"Team Fortress","app_id":440,"player_count":23,"max_players":24,"Bots":0,"server_type":"Dedicated","server_os":"Linux","password":true,"vac":true,"version":"7757534","steam_id":85568392924367362,"keywords":["nocrits","nodmgspread","payload","uncletopia"],"game_id":440,"stv_port":27016,"stv_name":"Uncletopia | London | 1 | All Maps | STV","players":[{"user_id":715,"name":"Vershal Smershal","steam_id":76561198116223995,"connected_time":3147000000000,"state":"active","ping":59},{"user_id":712,"name":"nedilya","steam_id":76561198039692077,"connected_time":3659000000000,"state":"active","ping":61},{"user_id":740,"name":"bachusa1657","steam_id":76561198202175911,"connected_time":1721000000000,"state":"active","ping":70},{"user_id":717,"name":"Charrky","steam_id":76561198054398642,"connected_time":3074000000000,"state":"active","ping":59},{"user_id":660,"name":"mmm delicious bullets","steam_id":76561198254664484,"connected_time":6889000000000,"state":"active","ping":64},{"user_id":741,"name":"Joseph Stalin","steam_id":76561198033199746,"connected_time":1460000000000,"state":"active","ping":49},{"user_id":708,"name":"s a i","steam_id":76561197970379754,"connected_time":4736000000000,"state":"active","ping":66},{"user_id":736,"name":"Sandshee","steam_id":76561198088574666,"connected_time":1767000000000,"state":"active","ping":43},{"user_id":573,"name":"Serton♝","steam_id":76561198011061126,"connected_time":10736000000000,"state":"active","ping":67},{"user_id":652,"name":"Bobirulez","steam_id":76561198009125458,"connected_time":7389000000000,"state":"active","ping":74},{"user_id":732,"name":"hide on bush","steam_id":76561198149967445,"connected_time":2808000000000,"state":"active","ping":32},{"user_id":705,"name":"ghost","steam_id":76561198189940229,"connected_time":4801000000000,"state":"active","ping":57},{"user_id":737,"name":"regimiro","steam_id":76561198120457008,"connected_time":1746000000000,"state":"active","ping":50},{"user_id":742,"name":"Katie","steam_id":76561198056193753,"connected_time":1046000000000,"state":"active","ping":47},{"user_id":678,"name":"Pestdoktor","steam_id":76561198058159271,"connected_time":6209000000000,"state":"active","ping":70},{"user_id":731,"name":"monky","steam_id":76561199380595946,"connected_time":2972000000000,"state":"active","ping":63},{"user_id":733,"name":"ciliorkun18","steam_id":76561198228942500,"connected_time":1991000000000,"state":"active","ping":91},{"user_id":735,"name":"lowdash","steam_id":76561198327827635,"connected_time":1781000000000,"state":"active","ping":61},{"user_id":643,"name":"Kvicha Kvaratskhelia","steam_id":76561198179339326,"connected_time":8431000000000,"state":"active","ping":77},{"user_id":709,"name":"BreadBubbles","steam_id":76561198174332826,"connected_time":4099000000000,"state":"active","ping":60},{"user_id":714,"name":"dec","steam_id":76561198009660168,"connected_time":3159000000000,"state":"active","ping":55},{"user_id":326,"name":"LarsInABox","steam_id":76561198028329262,"connected_time":22200000000000,"state":"active","ping":71},{"user_id":651,"name":"xavier","steam_id":76561198076494034,"connected_time":7435000000000,"state":"active","ping":48}]},{"server_id":114,"name":"Uncletopia | London | 2 | All Maps","name_short":"lon-2","host":"lon-1.uk.uncletopia.com","port":27025,"enabled":true,"region":"eu","cc":"gb","latitude":51.509865,"longitude":-0.118092,"reserved":0,"last_update":"0001-01-01T00:00:00Z","name_a2s":"Uncletopia | London | 2 | All Maps","protocol":17,"map":"pl_borneo","folder":"tf","game":"Team Fortress","app_id":440,"player_count":24,"max_players":24,"Bots":0,"server_type":"Dedicated","server_os":"Linux","password":true,"vac":true,"version":"7757534","steam_id":85568392924470941,"keywords":["nocrits","nodmgspread","payload","uncletopia"],"game_id":440,"stv_port":27026,"stv_name":"Uncletopia | London | 2 | All Maps | STV","players":[{"user_id":154,"name":"dochris.2","steam_id":76561198026478625,"connected_time":1714000000000,"state":"active","ping":57},{"user_id":158,"name":"Raulca25","steam_id":76561199068256964,"connected_time":1344000000000,"state":"active","ping":80},{"user_id":113,"name":"playing while wearing crocs.","steam_id":76561198139404261,"connected_time":4352000000000,"state":"active","ping":45},{"user_id":161,"name":"fshfkr","steam_id":76561198095979282,"connected_time":1163000000000,"state":"active","ping":32},{"user_id":176,"name":"Quill","steam_id":76561198348124998,"connected_time":526000000000,"state":"active","ping":66},{"user_id":159,"name":"Slav-matros","steam_id":76561198251977912,"connected_time":1314000000000,"state":"active","ping":61},{"user_id":182,"name":"Darby","steam_id":76561198032781819,"connected_time":341000000000,"state":"active","ping":44},{"user_id":155,"name":"ldshwt","steam_id":76561198090364357,"connected_time":1708000000000,"state":"active","ping":60},{"user_id":145,"name":"hmscole09","steam_id":76561198811362788,"connected_time":2358000000000,"state":"active","ping":50},{"user_id":177,"name":"Mumble","steam_id":76561198386885092,"connected_time":526000000000,"state":"active","ping":88},{"user_id":166,"name":"Delightful MadCat","steam_id":76561198086178426,"connected_time":791000000000,"state":"active","ping":167},{"user_id":180,"name":"Pronton","steam_id":76561198082502910,"connected_time":405000000000,"state":"active","ping":62},{"user_id":93,"name":"Voks_","steam_id":76561198159687785,"connected_time":5658000000000,"state":"active","ping":76},{"user_id":151,"name":"Barry Scott","steam_id":76561198109428728,"connected_time":2111000000000,"state":"active","ping":49},{"user_id":181,"name":"meriones","steam_id":76561198034234373,"connected_time":405000000000,"state":"active","ping":39},{"user_id":153,"name":"Fifourche","steam_id":76561198078209480,"connected_time":1938000000000,"state":"active","ping":59},{"user_id":163,"name":"fiyahstorm","steam_id":76561197992574261,"connected_time":854000000000,"state":"active","ping":41},{"user_id":156,"name":"sareena","steam_id":76561198810194062,"connected_time":1686000000000,"state":"active","ping":72},{"user_id":139,"name":"Marchew1200®","steam_id":76561198070145842,"connected_time":2624000000000,"state":"active","ping":89},{"user_id":122,"name":"TheBeardedM1G","steam_id":76561198040208946,"connected_time":3974000000000,"state":"active","ping":46},{"user_id":169,"name":"donal rump","steam_id":76561198136239861,"connected_time":681000000000,"state":"active","ping":47},{"user_id":175,"name":"Superiumentarius","steam_id":76561198081642249,"connected_time":570000000000,"state":"active","ping":60},{"user_id":147,"name":"[AlbsB] Tesco Meal Deal","steam_id":76561198014191808,"connected_time":2318000000000,"state":"active","ping":45},{"user_id":148,"name":"CumbustiblePunda","steam_id":76561197974274677,"connected_time":2273000000000,"state":"active","ping":60}]},{"server_id":320,"name":"Uncletopia | London | 3 | All Maps","name_short":"lon-3","host":"lon-1.uk.uncletopia.com","port":27035,"enabled":true,"region":"eu","cc":"gb","latitude":51.509865,"longitude":-0.118092,"reserved":0,"last_update":"0001-01-01T00:00:00Z","name_a2s":"Uncletopia | London | 3 | All Maps","protocol":17,"map":"koth_highpass","folder":"tf","game":"Team Fortress","app_id":440,"player_count":0,"max_players":24,"Bots":0,"server_type":"Dedicated","server_os":"Linux","password":true,"vac":true,"version":"7757534","steam_id":85568392924510192,"keywords":["cp","nocrits","nodmgspread","uncletopia"],"game_id":440,"stv_port":27036,"stv_name":"Uncletopia | London | 3 | All Maps | STV","players":null},{"server_id":321,"name":"Uncletopia | London | 4 | All Maps","name_short":"lon-4","host":"lon-1.uk.uncletopia.com","port":27045,"enabled":true,"region":"eu","cc":"gb","latitude":51.509865,"longitude":-0.118092,"reserved":0,"last_update":"0001-01-01T00:00:00Z","name_a2s":"Uncletopia | London | 4 | All Maps","protocol":17,"map":"cp_snakewater_final1","folder":"tf","game":"Team Fortress","app_id":440,"player_count":1,"max_players":24,"Bots":0,"server_type":"Dedicated","server_os":"Linux","password":true,"vac":true,"version":"7757534","steam_id":85568392924510193,"keywords":["cp","nocrits","nodmgspread","uncletopia"],"game_id":440,"stv_port":27046,"stv_name":"Uncletopia | London | 4 | All Maps | STV","players":[{"user_id":412,"name":"PyroManc3r","steam_id":76561198221533300,"connected_time":115000000000,"state":"active","ping":75}]},{"server_id":21,"name":"Uncletopia | London | 5 | All Maps","name_short":"lon-5","host":"lon-1.uk.uncletopia.com","port":27055,"enabled":true,"region":"eu","cc":"gb","latitude":51.509865,"longitude":-0.118092,"reserved":0,"last_update":"0001-01-01T00:00:00Z","name_a2s":"Uncletopia | London | 5 | All Maps","protocol":17,"map":"cp_mountainlab","folder":"tf","game":"Team Fortress","app_id":440,"player_count":10,"max_players":24,"Bots":0,"server_type":"Dedicated","server_os":"Linux","password":true,"vac":true,"version":"7757534","steam_id":85568392924742829,"keywords":["cp","nocrits","nodmgspread","uncletopia"],"game_id":440,"stv_port":27056,"stv_name":"Uncletopia | London | 5 | All Maps | STV","players":[{"user_id":678,"name":"doodgie","steam_id":76561198264934115,"connected_time":302000000000,"state":"active","ping":55},{"user_id":680,"name":"Slimmmnut","steam_id":76561198070390257,"connected_time":278000000000,"state":"active","ping":55},{"user_id":681,"name":"☆MiNTERRRRR☆","steam_id":76561198799866156,"connected_time":130000000000,"state":"active","ping":117},{"user_id":682,"name":"Freddy Fazbear Gaming","steam_id":76561198299179114,"connected_time":102000000000,"state":"active","ping":84},{"user_id":656,"name":"N.M.E","steam_id":76561198012351470,"connected_time":2240000000000,"state":"active","ping":45},{"user_id":664,"name":"arcSolver","steam_id":76561198212013944,"connected_time":2043000000000,"state":"active","ping":53},{"user_id":653,"name":"Teecho","steam_id":76561197995269610,"connected_time":3020000000000,"state":"active","ping":55},{"user_id":677,"name":"GreggsConsumer76254","steam_id":76561198180361759,"connected_time":311000000000,"state":"active","ping":41},{"user_id":650,"name":"Femboy Gaming","steam_id":76561198174108515,"connected_time":3163000000000,"state":"active","ping":53},{"user_id":645,"name":"Nickrome","steam_id":76561198055399721,"connected_time":3295000000000,"state":"active","ping":55}]},{"server_id":22,"name":"Uncletopia | London | 6 | All Maps","name_short":"lon-6","host":"lon-1.uk.uncletopia.com","port":27065,"enabled":true,"region":"eu","cc":"gb","latitude":51.509865,"longitude":-0.118092,"reserved":0,"last_update":"0001-01-01T00:00:00Z","name_a2s":"Uncletopia | London | 6 | All Maps","protocol":17,"map":"koth_highpass","folder":"tf","game":"Team Fortress","app_id":440,"player_count":0,"max_players":24,"Bots":0,"server_type":"Dedicated","server_os":"Linux","password":true,"vac":true,"version":"7757534","steam_id":85568392924742830,"keywords":["cp","nocrits","nodmgspread","uncletopia"],"game_id":440,"stv_port":27066,"stv_name":"Uncletopia | London | 6 | All Maps | STV","players":null},{"server_id":40,"name":"Uncletopia | London | 7 | No Payload","name_short":"lon-7","host":"lon-1.uk.uncletopia.com","port":27075,"enabled":true,"region":"eu","cc":"gb","latitude":51.509865,"longitude":-0.118092,"reserved":0,"last_update":"0001-01-01T00:00:00Z","name_a2s":"Uncletopia | London | 7 | No Payload","protocol":17,"map":"koth_harvest_final","folder":"tf","game":"Team Fortress","app_id":440,"player_count":0,"max_players":24,"Bots":0,"server_type":"Dedicated","server_os":"Linux","password":true,"vac":true,"version":"7757534","steam_id":85568392924964314,"keywords":["cp","nocrits","nodmgspread","uncletopia"],"game_id":440,"stv_port":27076,"stv_name":"Uncletopia | London | 7 | No Payload | STV","players":null},{"server_id":41,"name":"Uncletopia | London | 8 | Community","name_short":"lon-8","host":"lon-1.uk.uncletopia.com","port":27085,"enabled":true,"region":"eu","cc":"gb","latitude":51.509865,"longitude":-0.118092,"reserved":0,"last_update":"0001-01-01T00:00:00Z","name_a2s":"Uncletopia | London | 8 | Community","protocol":17,"map":"workshop/cp_bruhstbowl_b5.ugc2878604990","folder":"tf","game":"Team Fortress","app_id":440,"player_count":11,"max_players":24,"Bots":0,"server_type":"Dedicated","server_os":"Linux","password":true,"vac":true,"version":"7757534","steam_id":85568392924964315,"keywords":["cp","nocrits","nodmgspread","uncletopia"],"game_id":440,"stv_port":27086,"stv_name":"Uncletopia | London | 8 | Community | STV","players":[{"user_id":350,"name":"Swedde","steam_id":76561198297296440,"connected_time":287000000000,"state":"active","ping":73},{"user_id":353,"name":"Levitating Lasagne","steam_id":76561198006066574,"connected_time":118000000000,"state":"active","ping":55},{"user_id":352,"name":"Artur ☻","steam_id":76561198264297604,"connected_time":173000000000,"state":"active","ping":76},{"user_id":354,"name":"Dorfde","steam_id":76561199013373515,"connected_time":53000000000,"state":"spawning","ping":234},{"user_id":333,"name":"Mantis Toboggan, M.D","steam_id":76561197963562704,"connected_time":1357000000000,"state":"active","ping":86},{"user_id":249,"name":"Yachox","steam_id":76561198158259745,"connected_time":5094000000000,"state":"active","ping":74},{"user_id":335,"name":"。。。","steam_id":76561198101624996,"connected_time":1308000000000,"state":"active","ping":93},{"user_id":336,"name":"Ed","steam_id":76561198076095268,"connected_time":1294000000000,"state":"active","ping":53},{"user_id":345,"name":"Piquesque","steam_id":76561198286763046,"connected_time":673000000000,"state":"active","ping":101},{"user_id":349,"name":"Juiceydough","steam_id":76561197997323419,"connected_time":411000000000,"state":"active","ping":88},{"user_id":330,"name":"sloppy transgirl toppy","steam_id":76561198057092208,"connected_time":1523000000000,"state":"active","ping":74}]},{"server_id":300,"name":"Uncletopia | Montréal | 1 | All Maps","name_short":"mtl-1","host":"mtl-1.ca.uncletopia.com","port":27015,"enabled":true,"region":"us-east","cc":"ca","latitude":45.50889,"longitude":-73.56167,"reserved":0,"last_update":"0001-01-01T00:00:00Z","name_a2s":"Uncletopia | Montréal | 1 | All Maps","protocol":17,"map":"koth_cascade","folder":"tf","game":"Team Fortress","app_id":440,"player_count":0,"max_players":24,"Bots":0,"server_type":"Dedicated","server_os":"Linux","password":true,"vac":true,"version":"7757534","steam_id":85568392924500087,"keywords":["cp","nocrits","nodmgspread","uncletopia"],"game_id":440,"stv_port":27016,"stv_name":"Uncletopia | Montréal | 1 | All Maps | STV","players":null},{"server_id":301,"name":"Uncletopia | Montréal | 2 | All Maps","name_short":"mtl-2","host":"mtl-1.ca.uncletopia.com","port":27025,"enabled":true,"region":"us-east","cc":"ca","latitude":45.50889,"longitude":-73.56167,"reserved":0,"last_update":"0001-01-01T00:00:00Z","name_a2s":"Uncletopia | Montréal | 2 | All Maps","protocol":17,"map":"koth_viaduct","folder":"tf","game":"Team Fortress","app_id":440,"player_count":0,"max_players":24,"Bots":0,"server_type":"Dedicated","server_os":"Linux","password":true,"vac":true,"version":"7757534","steam_id":85568392924500088,"keywords":["cp","nocrits","nodmgspread","uncletopia"],"game_id":440,"stv_port":27026,"stv_name":"Uncletopia | Montréal | 2 | All Maps | STV","players":null},{"server_id":302,"name":"Uncletopia | Montréal | 3 | All Maps","name_short":"mtl-3","host":"mtl-1.ca.uncletopia.com","port":27035,"enabled":true,"region":"us-east","cc":"ca","latitude":45.50889,"longitude":-73.56167,"reserved":0,"last_update":"0001-01-01T00:00:00Z","name_a2s":"Uncletopia | Montréal | 3 | All Maps","protocol":17,"map":"pl_snowycoast","folder":"tf","game":"Team Fortress","app_id":440,"player_count":0,"max_players":24,"Bots":0,"server_type":"Dedicated","server_os":"Linux","password":true,"vac":true,"version":"7757534","steam_id":85568392924500089,"keywords":["nocrits","nodmgspread","payload","uncletopia"],"game_id":440,"stv_port":27036,"stv_name":"Uncletopia | Montréal | 3 | All Maps | STV","players":null},{"server_id":303,"name":"Uncletopia | Montréal | 4 | No Payload","name_short":"mtl-4","host":"mtl-1.ca.uncletopia.com","port":27045,"enabled":true,"region":"us-east","cc":"ca","latitude":45.50889,"longitude":-73.56167,"reserved":0,"last_update":"0001-01-01T00:00:00Z","name_a2s":"Uncletopia | Montréal | 4 | No Payload","protocol":17,"map":"pl_pier","folder":"tf","game":"Team Fortress","app_id":440,"player_count":0,"max_players":24,"Bots":0,"server_type":"Dedicated","server_os":"Linux","password":true,"vac":true,"version":"7757534","steam_id":85568392924500090,"keywords":["nocrits","nodmgspread","payload","uncletopia"],"game_id":440,"stv_port":27046,"stv_name":"Uncletopia | Montréal | 4 | No Payload | STV","players":null},{"server_id":13,"name":"Uncletopia | New York City | 1 | All Maps","name_short":"nyc-1","host":"nyc-1.us.uncletopia.com","port":27015,"enabled":true,"region":"us-east","cc":"us","latitude":40.73061,"longitude":-73.93524,"reserved":0,"last_update":"0001-01-01T00:00:00Z","name_a2s":"Uncletopia | New York City | 1 | All Maps","protocol":17,"map":"pl_upward","folder":"tf","game":"Team Fortress","app_id":440,"player_count":24,"max_players":24,"Bots":0,"server_type":"Dedicated","server_os":"Linux","password":true,"vac":true,"version":"7757534","steam_id":85568392924469993,"keywords":["nocrits","nodmgspread","payload","uncletopia"],"game_id":440,"stv_port":27016,"stv_name":"Uncletopia | New York City | 1 | All Maps | STV","players":[{"user_id":274,"name":"Cat in Your Backyard","steam_id":76561197979078330,"connected_time":1388000000000,"state":"active","ping":61},{"user_id":279,"name":"Brown_Dream","steam_id":76561198975766145,"connected_time":532000000000,"state":"active","ping":75},{"user_id":282,"name":"-W3E- grim10465","steam_id":76561198045698581,"connected_time":448000000000,"state":"active","ping":39},{"user_id":260,"name":"white ray","steam_id":76561198026664629,"connected_time":1855000000000,"state":"active","ping":49},{"user_id":277,"name":"rontu","steam_id":76561199072955534,"connected_time":1113000000000,"state":"active","ping":74},{"user_id":237,"name":"jungus","steam_id":76561198119655907,"connected_time":2547000000000,"state":"active","ping":68},{"user_id":276,"name":"jeveasy1007","steam_id":76561198099874358,"connected_time":1257000000000,"state":"active","ping":41},{"user_id":239,"name":"Anxious Bird Nerd","steam_id":76561198112178602,"connected_time":2535000000000,"state":"active","ping":119},{"user_id":281,"name":"The Worst Player in The World","steam_id":76561198850661159,"connected_time":478000000000,"state":"active","ping":38},{"user_id":238,"name":"Winkrill","steam_id":76561198108515561,"connected_time":2547000000000,"state":"active","ping":60},{"user_id":272,"name":"Jackleg Joel","steam_id":76561198271636476,"connected_time":1481000000000,"state":"active","ping":135},{"user_id":261,"name":"bushman","steam_id":76561197996548146,"connected_time":1852000000000,"state":"active","ping":78},{"user_id":283,"name":"BerthaEartha","steam_id":76561198799428743,"connected_time":430000000000,"state":"active","ping":54},{"user_id":288,"name":"Some Stupid Name","steam_id":76561198065575548,"connected_time":322000000000,"state":"active","ping":136},{"user_id":278,"name":"Okonell[HUN]","steam_id":76561198032216617,"connected_time":1007000000000,"state":"active","ping":145},{"user_id":290,"name":"Zenabie","steam_id":76561198088372680,"connected_time":260000000000,"state":"active","ping":76},{"user_id":285,"name":"Comfy Monkey","steam_id":76561197998434936,"connected_time":383000000000,"state":"active","ping":43},{"user_id":234,"name":"Coughdrop Addict [F2P]","steam_id":76561199254281550,"connected_time":2674000000000,"state":"active","ping":54},{"user_id":286,"name":"silentpieceofbacon","steam_id":76561198869323351,"connected_time":367000000000,"state":"active","ping":77},{"user_id":287,"name":"SuperFresh","steam_id":76561198200723198,"connected_time":362000000000,"state":"active","ping":50},{"user_id":289,"name":"Simply_Komeiji","steam_id":76561198354177703,"connected_time":307000000000,"state":"active","ping":89},{"user_id":280,"name":"CakeBlock","steam_id":76561198067238228,"connected_time":531000000000,"state":"active","ping":53},{"user_id":291,"name":"M4TT","steam_id":76561198118496274,"connected_time":223000000000,"state":"active","ping":55},{"user_id":275,"name":"hidithebob","steam_id":76561198095826955,"connected_time":1384000000000,"state":"active","ping":68}]},{"server_id":14,"name":"Uncletopia | New York City | 2 | All Maps","name_short":"nyc-2","host":"nyc-1.us.uncletopia.com","port":27025,"enabled":true,"region":"us-east","cc":"us","latitude":40.73061,"longitude":-73.93524,"reserved":0,"last_update":"0001-01-01T00:00:00Z","name_a2s":"Uncletopia | New York City | 2 | All Maps","protocol":17,"map":"koth_viaduct","folder":"tf","game":"Team Fortress","app_id":440,"player_count":24,"max_players":24,"Bots":0,"server_type":"Dedicated","server_os":"Linux","password":true,"vac":true,"version":"7757534","steam_id":85568392924469994,"keywords":["cp","nocrits","nodmgspread","uncletopia"],"game_id":440,"stv_port":27026,"stv_name":"Uncletopia | New York City | 2 | All Maps | STV","players":[{"user_id":327,"name":"Darth Bismarck","steam_id":76561198919324747,"connected_time":6900000000000,"state":"active","ping":101},{"user_id":375,"name":"MOB101","steam_id":76561198360491038,"connected_time":3598000000000,"state":"active","ping":83},{"user_id":427,"name":"Jeugh","steam_id":76561198073498865,"connected_time":119000000000,"state":"active","ping":94},{"user_id":416,"name":"turd ferguson","steam_id":76561198071620782,"connected_time":723000000000,"state":"active","ping":70},{"user_id":422,"name":"Mercury","steam_id":76561198072263852,"connected_time":404000000000,"state":"active","ping":54},{"user_id":410,"name":"Blitzy","steam_id":76561198149472890,"connected_time":1318000000000,"state":"active","ping":94},{"user_id":376,"name":"drdoofus123","steam_id":76561198016826181,"connected_time":3540000000000,"state":"active","ping":62},{"user_id":424,"name":"Lil' ButterHead","steam_id":76561198344264859,"connected_time":256000000000,"state":"active","ping":115},{"user_id":333,"name":"semaj (._. )/","steam_id":76561199072490942,"connected_time":5988000000000,"state":"active","ping":67},{"user_id":418,"name":"Shame","steam_id":76561198100490994,"connected_time":501000000000,"state":"active","ping":82},{"user_id":395,"name":"♦♣Quadric♥♠","steam_id":76561198061003853,"connected_time":2294000000000,"state":"active","ping":55},{"user_id":414,"name":"JuJu The Human","steam_id":76561198152895619,"connected_time":924000000000,"state":"active","ping":28},{"user_id":429,"name":"Ohwoah","steam_id":76561198062370413,"connected_time":81000000000,"state":"active","ping":71},{"user_id":419,"name":"Oddjob","steam_id":76561198976160793,"connected_time":477000000000,"state":"active","ping":63},{"user_id":423,"name":"many doors, yes?","steam_id":76561198328073211,"connected_time":392000000000,"state":"active","ping":83},{"user_id":426,"name":"mingus dingus the powerful fetu","steam_id":76561198115189870,"connected_time":170000000000,"state":"active","ping":88},{"user_id":409,"name":"El Laminator","steam_id":76561198170313697,"connected_time":1430000000000,"state":"active","ping":88},{"user_id":398,"name":"Heavy is Meme","steam_id":76561198451168478,"connected_time":2270000000000,"state":"active","ping":93},{"user_id":428,"name":"Buttons :)","steam_id":76561198139478534,"connected_time":111000000000,"state":"active","ping":117},{"user_id":412,"name":"🅜🅔🅔🅚🅢🅣🅔\ufffd\ufffd\ufffd","steam_id":76561197999748343,"connected_time":989000000000,"state":"active","ping":76},{"user_id":391,"name":"[AD THE ZEBRA!]","steam_id":76561198084121940,"connected_time":2792000000000,"state":"active","ping":99},{"user_id":389,"name":"Special","steam_id":76561198070380404,"connected_time":2868000000000,"state":"active","ping":47},{"user_id":415,"name":"SAUL GOODMAN","steam_id":76561198328356716,"connected_time":771000000000,"state":"active","ping":73},{"user_id":421,"name":"Egpta","steam_id":76561198237840238,"connected_time":436000000000,"state":"active","ping":54}]},{"server_id":15,"name":"Uncletopia | New York City | 3 | Stopwatch Beta","name_short":"nyc-3","host":"nyc-1.us.uncletopia.com","port":27035,"enabled":true,"region":"us-east","cc":"us","latitude":40.73061,"longitude":-73.93524,"reserved":0,"last_update":"0001-01-01T00:00:00Z","name_a2s":"Uncletopia | New York City | 3 | Stopwatch Beta","protocol":17,"map":"koth_cascade","folder":"tf","game":"Team Fortress","app_id":440,"player_count":0,"max_players":24,"Bots":0,"server_type":"Dedicated","server_os":"Linux","password":true,"vac":true,"version":"7757534","steam_id":85568392924742820,"keywords":["cp","nocrits","nodmgspread","uncletopia"],"game_id":440,"stv_port":27036,"stv_name":"Uncletopia | New York City | 3 | Stopwatch Beta | STV","players":null},{"server_id":16,"name":"Uncletopia | New York City | 4 | Community","name_short":"nyc-4","host":"nyc-1.us.uncletopia.com","port":27045,"enabled":true,"region":"us-east","cc":"us","latitude":40.73061,"longitude":-73.93524,"reserved":0,"last_update":"0001-01-01T00:00:00Z","name_a2s":"Uncletopia | New York City | 4 | Community","protocol":17,"map":"workshop/cp_indulge.ugc528106646","folder":"tf","game":"Team Fortress","app_id":440,"player_count":0,"max_players":24,"Bots":0,"server_type":"Dedicated","server_os":"Linux","password":true,"vac":true,"version":"7757534","steam_id":85568392924742821,"keywords":["cp","nocrits","nodmgspread","uncletopia"],"game_id":440,"stv_port":27046,"stv_name":"Uncletopia | New York City | 4 | Community | STV","players":null},{"server_id":142,"name":"Uncletopia | São Paulo | 1 | All Maps","name_short":"sao-1","host":"sao-1.br.uncletopia.com","port":27015,"enabled":true,"region":"sa","cc":"br","latitude":-23.533773,"longitude":-46.62529,"reserved":0,"last_update":"0001-01-01T00:00:00Z","name_a2s":"Uncletopia | São Paulo | 1 | All Maps","protocol":17,"map":"koth_lakeside_final","folder":"tf","game":"Team Fortress","app_id":440,"player_count":0,"max_players":24,"Bots":0,"server_type":"Dedicated","server_os":"Linux","password":true,"vac":true,"version":"7757534","steam_id":85568392924469996,"keywords":["cp","nocrits","nodmgspread","uncletopia"],"game_id":440,"stv_port":27016,"stv_name":"Uncletopia | São Paulo | 1 | All Maps | STV","players":null},{"server_id":143,"name":"Uncletopia | São Paulo | 2 | All Maps","name_short":"sao-2","host":"sao-2.br.uncletopia.com","port":27015,"enabled":true,"region":"sa","cc":"br","latitude":-23.533773,"longitude":-46.62529,"reserved":0,"last_update":"0001-01-01T00:00:00Z","name_a2s":"Uncletopia | São Paulo | 2 | All Maps","protocol":17,"map":"koth_viaduct","folder":"tf","game":"Team Fortress","app_id":440,"player_count":0,"max_players":24,"Bots":0,"server_type":"Dedicated","server_os":"Linux","password":true,"vac":true,"version":"7757534","steam_id":85568392924485349,"keywords":["cp","nocrits","nodmgspread","uncletopia"],"game_id":440,"stv_port":27016,"stv_name":"Uncletopia | São Paulo | 2 | All Maps | STV","players":null},{"server_id":7,"name":"Uncletopia | Seattle | 1 | All Maps","name_short":"sea-1","host":"sea-1.us.uncletopia.com","port":27015,"enabled":true,"region":"us-west","cc":"us","latitude":47.608013,"longitude":-122.33517,"reserved":0,"last_update":"0001-01-01T00:00:00Z","name_a2s":"Uncletopia | Seattle | 1 | All Maps","protocol":17,"map":"pl_swiftwater_final1","folder":"tf","game":"Team Fortress","app_id":440,"player_count":24,"max_players":24,"Bots":0,"server_type":"Dedicated","server_os":"Linux","password":true,"vac":true,"version":"7757534","steam_id":85568392924469997,"keywords":["nocrits","nodmgspread","payload","uncletopia"],"game_id":440,"stv_port":27016,"stv_name":"Uncletopia | Seattle | 1 | All Maps | STV","players":[{"user_id":148,"name":"tristan","steam_id":76561198188754881,"connected_time":2131000000000,"state":"active","ping":43},{"user_id":156,"name":"EEBIGAA","steam_id":76561198056535988,"connected_time":961000000000,"state":"active","ping":75},{"user_id":126,"name":"demony","steam_id":76561199019833587,"connected_time":3368000000000,"state":"active","ping":91},{"user_id":162,"name":"Cwafflezz","steam_id":76561199116635411,"connected_time":438000000000,"state":"active","ping":124},{"user_id":151,"name":"Cloud","steam_id":76561198272454184,"connected_time":1487000000000,"state":"active","ping":174},{"user_id":163,"name":"The Potato Romancer","steam_id":76561198204197648,"connected_time":402000000000,"state":"active","ping":90},{"user_id":147,"name":"JayJayMed320 (She/Her)","steam_id":76561198286568264,"connected_time":2168000000000,"state":"active","ping":54},{"user_id":164,"name":"Imrgrim","steam_id":76561198135866481,"connected_time":401000000000,"state":"active","ping":120},{"user_id":128,"name":"Fh","steam_id":76561198000903511,"connected_time":3162000000000,"state":"active","ping":72},{"user_id":131,"name":"punaise","steam_id":76561198095105411,"connected_time":2887000000000,"state":"active","ping":132},{"user_id":103,"name":"Keamy","steam_id":76561199471434875,"connected_time":4658000000000,"state":"active","ping":45},{"user_id":165,"name":"what is","steam_id":76561198329367716,"connected_time":351000000000,"state":"active","ping":86},{"user_id":97,"name":"lili","steam_id":76561199391478575,"connected_time":5422000000000,"state":"active","ping":79},{"user_id":132,"name":"Shadowy","steam_id":76561199021791121,"connected_time":2882000000000,"state":"active","ping":52},{"user_id":166,"name":"hakken","steam_id":76561199102391736,"connected_time":337000000000,"state":"active","ping":77},{"user_id":134,"name":"oaty","steam_id":76561198165011303,"connected_time":2866000000000,"state":"active","ping":79},{"user_id":160,"name":"Mackle","steam_id":76561199066567418,"connected_time":512000000000,"state":"active","ping":47},{"user_id":76,"name":"pontificate table","steam_id":76561198110152060,"connected_time":6862000000000,"state":"active","ping":45},{"user_id":159,"name":"toes","steam_id":76561198221151676,"connected_time":512000000000,"state":"active","ping":58},{"user_id":116,"name":"Luca","steam_id":76561198125087140,"connected_time":3885000000000,"state":"active","ping":47},{"user_id":141,"name":"jawnymac","steam_id":76561198179529599,"connected_time":2672000000000,"state":"active","ping":76},{"user_id":161,"name":"dust | she/it","steam_id":76561198045218909,"connected_time":512000000000,"state":"active","ping":41},{"user_id":155,"name":"oil","steam_id":76561198099980149,"connected_time":1102000000000,"state":"active","ping":103},{"user_id":145,"name":"doctor large","steam_id":76561199195836752,"connected_time":2489000000000,"state":"active","ping":116}]},{"server_id":119,"name":"Uncletopia | Seattle | 2 | All Maps","name_short":"sea-2","host":"sea-1.us.uncletopia.com","port":27025,"enabled":true,"region":"us-west","cc":"us","latitude":47.608013,"longitude":-122.33517,"reserved":0,"last_update":"0001-01-01T00:00:00Z","name_a2s":"Uncletopia | Seattle | 2 | All Maps","protocol":17,"map":"pl_snowycoast","folder":"tf","game":"Team Fortress","app_id":440,"player_count":17,"max_players":24,"Bots":0,"server_type":"Dedicated","server_os":"Linux","password":true,"vac":true,"version":"7757534","steam_id":85568392924469998,"keywords":["nocrits","nodmgspread","payload","uncletopia"],"game_id":440,"stv_port":27026,"stv_name":"Uncletopia | Seattle | 2 | All Maps | STV","players":[{"user_id":144,"name":"wibby","steam_id":76561198996484291,"connected_time":58000000000,"state":"spawning","ping":96},{"user_id":142,"name":"amagicowl","steam_id":76561199060487814,"connected_time":212000000000,"state":"active","ping":59},{"user_id":141,"name":"Watatsuki no Yorihime","steam_id":76561198063315650,"connected_time":324000000000,"state":"active","ping":79},{"user_id":137,"name":"DRACO$","steam_id":76561198389198223,"connected_time":704000000000,"state":"active","ping":57},{"user_id":120,"name":"golem","steam_id":76561198355040593,"connected_time":2263000000000,"state":"active","ping":126},{"user_id":119,"name":"Boyaredeen","steam_id":76561198880492636,"connected_time":2327000000000,"state":"active","ping":57},{"user_id":138,"name":"Training Arc","steam_id":76561198038832034,"connected_time":680000000000,"state":"active","ping":58},{"user_id":122,"name":"Mr.Pan","steam_id":76561198069030613,"connected_time":2213000000000,"state":"active","ping":82},{"user_id":123,"name":"yaldabaoth","steam_id":76561198084606869,"connected_time":2184000000000,"state":"active","ping":83},{"user_id":94,"name":"weegeebad","steam_id":76561198280841437,"connected_time":3321000000000,"state":"active","ping":119},{"user_id":53,"name":"Rat Kisser","steam_id":76561198129883955,"connected_time":6987000000000,"state":"active","ping":126},{"user_id":150,"name":"bearzy","steam_id":76561199180441047,"connected_time":19000000000,"state":"active","ping":45},{"user_id":124,"name":"BrightOrangeMango","steam_id":76561198023144607,"connected_time":2155000000000,"state":"active","ping":95},{"user_id":129,"name":"Roloman11","steam_id":76561198308927283,"connected_time":1594000000000,"state":"active","ping":114},{"user_id":149,"name":"sneaky snitch 🀥🀈🀛🀓","steam_id":76561198313088312,"connected_time":45000000000,"state":"active","ping":60},{"user_id":125,"name":"Risky","steam_id":76561198231029328,"connected_time":1752000000000,"state":"active","ping":56},{"user_id":131,"name":"The Horselords and Animal Gods","steam_id":76561197975094050,"connected_time":1576000000000,"state":"active","ping":84}]},{"server_id":406,"name":"Uncletopia | Seattle | 3 | Stopwatch Beta","name_short":"sea-3","host":"sea-1.us.uncletopia.com","port":27035,"enabled":true,"region":"us-west","cc":"us","latitude":47.608013,"longitude":-122.33517,"reserved":0,"last_update":"0001-01-01T00:00:00Z","name_a2s":"Uncletopia | Seattle | 3 | Stopwatch Beta","protocol":17,"map":"cp_process_final","folder":"tf","game":"Team Fortress","app_id":440,"player_count":0,"max_players":24,"Bots":0,"server_type":"Dedicated","server_os":"Linux","password":true,"vac":true,"version":"7757534","steam_id":85568392924515217,"keywords":["cp","nocrits","nodmgspread","uncletopia"],"game_id":440,"stv_port":27036,"stv_name":"Uncletopia | Seattle | 3 | Stopwatch Beta | STV","players":null},{"server_id":17,"name":"Uncletopia | San Francisco | 1 | All Maps","name_short":"sfo-1","host":"sfo-1.us.uncletopia.com","port":27015,"enabled":true,"region":"us-west","cc":"us","latitude":37.77397,"longitude":-122.4313,"reserved":0,"last_update":"0001-01-01T00:00:00Z","name_a2s":"Uncletopia | San Francisco | 1 | All Maps","protocol":17,"map":"koth_lakeside_final","folder":"tf","game":"Team Fortress","app_id":440,"player_count":0,"max_players":24,"Bots":0,"server_type":"Dedicated","server_os":"Linux","password":true,"vac":true,"version":"7757534","steam_id":85568392924469999,"keywords":["cp","nocrits","nodmgspread","uncletopia"],"game_id":440,"stv_port":27016,"stv_name":"Uncletopia | San Francisco | 1 | All Maps | STV","players":null},{"server_id":18,"name":"Uncletopia | San Francisco | 2 | All Maps","name_short":"sfo-2","host":"sfo-1.us.uncletopia.com","port":27025,"enabled":true,"region":"us-west","cc":"us","latitude":37.77397,"longitude":-122.4313,"reserved":0,"last_update":"0001-01-01T00:00:00Z","name_a2s":"Uncletopia | San Francisco | 2 | All Maps","protocol":17,"map":"pl_upward","folder":"tf","game":"Team Fortress","app_id":440,"player_count":24,"max_players":24,"Bots":0,"server_type":"Dedicated","server_os":"Linux","password":true,"vac":true,"version":"7757534","steam_id":85568392924470000,"keywords":["nocrits","nodmgspread","payload","uncletopia"],"game_id":440,"stv_port":27026,"stv_name":"Uncletopia | San Francisco | 2 | All Maps | STV","players":[{"user_id":101,"name":"hihohe","steam_id":76561197987823936,"connected_time":539000000000,"state":"active","ping":98},{"user_id":48,"name":"dark luigi","steam_id":76561198048007844,"connected_time":4629000000000,"state":"active","ping":59},{"user_id":58,"name":"wjnger","steam_id":76561198120498226,"connected_time":3780000000000,"state":"active","ping":99},{"user_id":100,"name":"pt","steam_id":76561198143023330,"connected_time":916000000000,"state":"active","ping":60},{"user_id":78,"name":"triph","steam_id":76561198067196509,"connected_time":2820000000000,"state":"active","ping":42},{"user_id":82,"name":"Zee","steam_id":76561199229870438,"connected_time":2463000000000,"state":"active","ping":124},{"user_id":76,"name":"California State Real ID","steam_id":76561198111293523,"connected_time":2912000000000,"state":"active","ping":70},{"user_id":110,"name":"robloxguy3","steam_id":76561198195114427,"connected_time":80000000000,"state":"active","ping":48},{"user_id":90,"name":"Minerkid2004","steam_id":76561198044262827,"connected_time":2221000000000,"state":"active","ping":50},{"user_id":103,"name":"The Crow God!","steam_id":76561199230006662,"connected_time":332000000000,"state":"active","ping":121},{"user_id":93,"name":"why","steam_id":76561198844433519,"connected_time":1929000000000,"state":"active","ping":117},{"user_id":104,"name":"Lolbits10","steam_id":76561199012865306,"connected_time":318000000000,"state":"active","ping":57},{"user_id":85,"name":"Atomic Waffles","steam_id":76561197970935570,"connected_time":2442000000000,"state":"active","ping":99},{"user_id":109,"name":"Nikocado Avocado","steam_id":76561198251142108,"connected_time":205000000000,"state":"active","ping":117},{"user_id":105,"name":"ScoutBox","steam_id":76561198111539895,"connected_time":312000000000,"state":"active","ping":56},{"user_id":106,"name":"Bradz","steam_id":76561198175090085,"connected_time":297000000000,"state":"active","ping":102},{"user_id":107,"name":"Scoliosis King","steam_id":76561199143329892,"connected_time":288000000000,"state":"active","ping":72},{"user_id":33,"name":"Dietrich","steam_id":76561198028163840,"connected_time":5579000000000,"state":"active","ping":60},{"user_id":34,"name":"Gambler Suits","steam_id":76561199227594351,"connected_time":5572000000000,"state":"active","ping":79},{"user_id":111,"name":"choi","steam_id":76561198053669887,"connected_time":63000000000,"state":"active","ping":61},{"user_id":112,"name":"Shrew","steam_id":76561198085421224,"connected_time":55000000000,"state":"active","ping":51},{"user_id":113,"name":"MatchMatch","steam_id":76561198048925904,"connected_time":41000000000,"state":"spawning","ping":70},{"user_id":89,"name":"Tmiracle","steam_id":76561198052375275,"connected_time":2336000000000,"state":"active","ping":49},{"user_id":114,"name":"Schmeple Tank Head","steam_id":76561199010857399,"connected_time":19000000000,"state":"active","ping":109}]},{"server_id":19,"name":"Uncletopia | San Francisco | 3 | Stopwatch Beta","name_short":"sfo-3","host":"sfo-1.us.uncletopia.com","port":27035,"enabled":true,"region":"us-west","cc":"us","latitude":37.77397,"longitude":-122.4313,"reserved":0,"last_update":"0001-01-01T00:00:00Z","name_a2s":"Uncletopia | San Francisco | 3 | Stopwatch Beta","protocol":17,"map":"workshop/pl_vigil_rc9.ugc1266210012","folder":"tf","game":"Team Fortress","app_id":440,"player_count":0,"max_players":24,"Bots":0,"server_type":"Dedicated","server_os":"Linux","password":true,"vac":true,"version":"7757534","steam_id":85568392924742824,"keywords":["nocrits","nodmgspread","payload","uncletopia"],"game_id":440,"stv_port":27036,"stv_name":"Uncletopia | San Francisco | 3 | Stopwatch Beta | STV","players":null},{"server_id":20,"name":"Uncletopia | San Francisco | 4 | Community","name_short":"sfo-4","host":"sfo-1.us.uncletopia.com","port":27045,"enabled":true,"region":"us-west","cc":"us","latitude":37.77397,"longitude":-122.4313,"reserved":0,"last_update":"0001-01-01T00:00:00Z","name_a2s":"Uncletopia | San Francisco | 4 | Community","protocol":17,"map":"workshop/pl_corrode_rc2.ugc546577989","folder":"tf","game":"Team Fortress","app_id":440,"player_count":0,"max_players":24,"Bots":0,"server_type":"Dedicated","server_os":"Linux","password":true,"vac":true,"version":"7757534","steam_id":85568392924742826,"keywords":["nocrits","nodmgspread","payload","uncletopia"],"game_id":440,"stv_port":27046,"stv_name":"Uncletopia | San Francisco | 4 | Community | STV","players":null},{"server_id":141,"name":"Uncletopia | Sydney | 1 | All Maps","name_short":"syd-1","host":"syd-1.au.uncletopia.com","port":27015,"enabled":true,"region":"au","cc":"au","latitude":-33.865143,"longitude":151.2099,"reserved":0,"last_update":"0001-01-01T00:00:00Z","name_a2s":"Uncletopia | Sydney | 1 | All Maps","protocol":17,"map":"pl_borneo","folder":"tf","game":"Team Fortress","app_id":440,"player_count":0,"max_players":24,"Bots":0,"server_type":"Dedicated","server_os":"Linux","password":true,"vac":true,"version":"7757534","steam_id":85568392924470001,"keywords":["nocrits","nodmgspread","payload","uncletopia"],"game_id":440,"stv_port":27016,"stv_name":"Uncletopia | Sydney | 1 | All Maps | STV","players":null},{"server_id":123,"name":"Uncletopia | Sydney | 2 | All Maps","name_short":"syd-2","host":"syd-1.au.uncletopia.com","port":27025,"enabled":true,"region":"au","cc":"au","latitude":-33.865143,"longitude":151.2099,"reserved":0,"last_update":"0001-01-01T00:00:00Z","name_a2s":"Uncletopia | Sydney | 2 | All Maps","protocol":17,"map":"koth_highpass","folder":"tf","game":"Team Fortress","app_id":440,"player_count":0,"max_players":24,"Bots":0,"server_type":"Dedicated","server_os":"Linux","password":true,"vac":true,"version":"7757534","steam_id":85568392924470002,"keywords":["cp","nocrits","nodmgspread","uncletopia"],"game_id":440,"stv_port":27026,"stv_name":"Uncletopia | Sydney | 2 | All Maps | STV","players":null},{"server_id":395,"name":"Uncletopia | Sydney | 3 | All Maps","name_short":"syd-3","host":"syd-1.au.uncletopia.com","port":27035,"enabled":true,"region":"au","cc":"au","latitude":-33.865143,"longitude":151.2099,"reserved":0,"last_update":"0001-01-01T00:00:00Z","name_a2s":"Uncletopia | Sydney | 3 | All Maps","protocol":17,"map":"pl_borneo","folder":"tf","game":"Team Fortress","app_id":440,"player_count":0,"max_players":24,"Bots":0,"server_type":"Dedicated","server_os":"Linux","password":true,"vac":true,"version":"7757534","steam_id":85568392925194467,"keywords":["nocrits","nodmgspread","payload","uncletopia"],"game_id":440,"stv_port":27036,"stv_name":"Uncletopia | Sydney | 3 | All Maps | STV","players":null},{"server_id":396,"name":"Uncletopia | Sydney | 4 | All Maps","name_short":"syd-4","host":"syd-1.au.uncletopia.com","port":27045,"enabled":true,"region":"au","cc":"au","latitude":-33.865143,"longitude":151.2099,"reserved":0,"last_update":"0001-01-01T00:00:00Z","name_a2s":"Uncletopia | Sydney | 4 | All Maps","protocol":17,"map":"cp_process_final","folder":"tf","game":"Team Fortress","app_id":440,"player_count":0,"max_players":24,"Bots":0,"server_type":"Dedicated","server_os":"Linux","password":true,"vac":true,"version":"7757534","steam_id":85568392925397958,"keywords":["cp","nocrits","nodmgspread","uncletopia"],"game_id":440,"stv_port":27046,"stv_name":"Uncletopia | Sydney | 4 | All Maps | STV","players":null},{"server_id":58,"name":"Uncletopia | Sydney | 5 | Stopwatch Beta","name_short":"syd-5","host":"syd-1.au.uncletopia.com","port":27055,"enabled":true,"region":"au","cc":"au","latitude":-33.865143,"longitude":151.2099,"reserved":0,"last_update":"0001-01-01T00:00:00Z","name_a2s":"Uncletopia | Sydney | 5 | Stopwatch Beta","protocol":17,"map":"koth_cascade","folder":"tf","game":"Team Fortress","app_id":440,"player_count":0,"max_players":24,"Bots":0,"server_type":"Dedicated","server_os":"Linux","password":true,"vac":true,"version":"7757534","steam_id":85568392925397959,"keywords":["cp","nocrits","nodmgspread","uncletopia"],"game_id":440,"stv_port":27056,"stv_name":"Uncletopia | Sydney | 5 | Stopwatch Beta | STV","players":null},{"server_id":59,"name":"Uncletopia | Sydney | 6 | Community","name_short":"syd-6","host":"syd-1.au.uncletopia.com","port":27065,"enabled":true,"region":"au","cc":"au","latitude":-33.865143,"longitude":151.2099,"reserved":0,"last_update":"0001-01-01T00:00:00Z","name_a2s":"Uncletopia | Sydney | 6 | Community","protocol":17,"map":"pl_badwater","folder":"tf","game":"Team Fortress","app_id":440,"player_count":0,"max_players":24,"Bots":0,"server_type":"Dedicated","server_os":"Linux","password":true,"vac":true,"version":"7757534","steam_id":85568392925397960,"keywords":["nocrits","nodmgspread","payload","uncletopia"],"game_id":440,"stv_port":27066,"stv_name":"Uncletopia | Sydney | 6 | Community | STV","players":null},{"server_id":49,"name":"Uncletopia | Warsaw | 1 | All Maps","name_short":"waw-1","host":"waw-1.pl.uncletopia.com","port":27015,"enabled":true,"region":"eu","cc":"pl","latitude":52.2297,"longitude":21.017532,"reserved":0,"last_update":"0001-01-01T00:00:00Z","name_a2s":"","protocol":0,"map":"","folder":"","game":"","app_id":0,"player_count":0,"max_players":0,"Bots":0,"server_type":"","server_os":"","password":false,"vac":false,"version":"","steam_id":0,"keywords":null,"game_id":0,"stv_port":0,"stv_name":"","players":null},{"server_id":50,"name":"Uncletopia | Warsaw | 2 | All Maps","name_short":"waw-2","host":"waw-1.pl.uncletopia.com","port":27025,"enabled":true,"region":"eu","cc":"pl","latitude":52.2297,"longitude":21.017532,"reserved":0,"last_update":"0001-01-01T00:00:00Z","name_a2s":"Uncletopia | Warsaw | 2 | All Maps","protocol":17,"map":"koth_cascade","folder":"tf","game":"Team Fortress","app_id":440,"player_count":0,"max_players":24,"Bots":0,"server_type":"Dedicated","server_os":"Linux","password":true,"vac":true,"version":"7757534","steam_id":85568392925397851,"keywords":["cp","nocrits","nodmgspread","uncletopia"],"game_id":440,"stv_port":27026,"stv_name":"Uncletopia | Warsaw | 2 | All Maps | STV","players":null},{"server_id":51,"name":"Uncletopia | Warsaw | 3 | All Maps","name_short":"waw-3","host":"waw-1.pl.uncletopia.com","port":27035,"enabled":true,"region":"eu","cc":"pl","latitude":52.2297,"longitude":21.017532,"reserved":0,"last_update":"0001-01-01T00:00:00Z","name_a2s":"Uncletopia | Warsaw | 3 | All Maps","protocol":17,"map":"koth_cascade","folder":"tf","game":"Team Fortress","app_id":440,"player_count":0,"max_players":24,"Bots":0,"server_type":"Dedicated","server_os":"Linux","password":true,"vac":true,"version":"7757534","steam_id":85568392925397852,"keywords":["cp","nocrits","nodmgspread","uncletopia"],"game_id":440,"stv_port":27036,"stv_name":"Uncletopia | Warsaw | 3 | All Maps | STV","players":null},{"server_id":52,"name":"Uncletopia | Warsaw | 4 | All Maps","name_short":"waw-4","host":"waw-1.pl.uncletopia.com","port":27045,"enabled":true,"region":"eu","cc":"pl","latitude":52.2297,"longitude":21.017532,"reserved":0,"last_update":"0001-01-01T00:00:00Z","name_a2s":"Uncletopia | Warsaw | 4 | All Maps","protocol":17,"map":"cp_altitude","folder":"tf","game":"Team Fortress","app_id":440,"player_count":0,"max_players":24,"Bots":0,"server_type":"Dedicated","server_os":"Linux","password":true,"vac":true,"version":"7757534","steam_id":85568392925397853,"keywords":["cp","nocrits","nodmgspread","uncletopia"],"game_id":440,"stv_port":27046,"stv_name":"Uncletopia | Warsaw | 4 | All Maps | STV","players":null},{"server_id":53,"name":"Uncletopia | Warsaw | 5 | Stopwatch Beta","name_short":"waw-5","host":"waw-1.pl.uncletopia.com","port":27055,"enabled":true,"region":"eu","cc":"pl","latitude":52.2297,"longitude":21.017532,"reserved":0,"last_update":"0001-01-01T00:00:00Z","name_a2s":"Uncletopia | Warsaw | 5 | Stopwatch Beta","protocol":17,"map":"pl_pier","folder":"tf","game":"Team Fortress","app_id":440,"player_count":0,"max_players":24,"Bots":0,"server_type":"Dedicated","server_os":"Linux","password":true,"vac":true,"version":"7757534","steam_id":85568392925397854,"keywords":["nocrits","nodmgspread","payload","uncletopia"],"game_id":440,"stv_port":27056,"stv_name":"Uncletopia | Warsaw | 5 | Stopwatch Beta | STV","players":null},{"server_id":54,"name":"Uncletopia | Warsaw | 6 | Community","name_short":"waw-6","host":"waw-1.pl.uncletopia.com","port":27065,"enabled":true,"region":"eu","cc":"pl","latitude":52.2297,"longitude":21.017532,"reserved":0,"last_update":"0001-01-01T00:00:00Z","name_a2s":"Uncletopia | Warsaw | 6 | Community","protocol":17,"map":"koth_highpass","folder":"tf","game":"Team Fortress","app_id":440,"player_count":0,"max_players":24,"Bots":0,"server_type":"Dedicated","server_os":"Linux","password":true,"vac":true,"version":"7757534","steam_id":85568392925397856,"keywords":["cp","nocrits","nodmgspread","uncletopia"],"game_id":440,"stv_port":27066,"stv_name":"Uncletopia | Warsaw | 6 | Community | STV","players":null}]}