{"status":true,"message":"","result":[{"server_id":9,"name":"Uncletopia | Atlanta | 1 | All Maps","name_short":"atl-1","host":"atl-1.us.uncletopia.com","port":27015,"enabled":true,"region":"us-east","cc":"us","latitude":33.753746,"longitude":-84.38633,"reserved":0,"last_update":"0001-01-01T00:00:00Z","name_a2s":"Uncletopia | Atlanta | 1 | All Maps","protocol":17,"map":"pl_badwater","folder":"tf","game":"Team Fortress","app_id":440,"player_count":24,"max_players":24,"Bots":0,"server_type":"Dedicated","server_os":"Linux","password":true,"vac":true,"version":"7882260","steam_id":85568392924469982,"keywords":["nocrits","nodmgspread","payload","uncletopia"],"game_id":440,"stv_port":27016,"stv_name":"Uncletopia | Atlanta | 1 | All Maps | STV","players":[{"user_id":163,"name":"DragonFalcon‚Ñ¢","steam_id":76561198044559930,"connected_time":3002000000000,"state":"active","ping":57},{"user_id":196,"name":"David De Bergerac","steam_id":76561198010306294,"connected_time":169000000000,"state":"active","ping":84},{"user_id":188,"name":"panik","steam_id":76561199130448253,"connected_time":1681000000000,"state":"active","ping":57},{"user_id":154,"name":"luxin","steam_id":76561198399383047,"connected_time":3796000000000,"state":"active","ping":49},{"user_id":161,"name":"Jango","steam_id":76561198084589742,"connected_time":3227000000000,"state":"active","ping":56},{"user_id":183,"name":"Rockhead","steam_id":76561197995196535,"connected_time":2204000000000,"state":"active","ping":72},{"user_id":186,"name":"BIG HOG","steam_id":76561198079923652,"connected_time":1692000000000,"state":"active","ping":60},{"user_id":189,"name":"Yoru","steam_id":76561198119698950,"connected_time":1671000000000,"state":"active","ping":117},{"user_id":187,"name":"sky walker","steam_id":76561198937717599,"connected_time":1689000000000,"state":"active","ping":47},{"user_id":195,"name":"lil hog","steam_id":76561199230929836,"connected_time":662000000000,"state":"active","ping":81},{"user_id":170,"name":"Br1 AV","steam_id":76561198802433117,"connected_time":2850000000000,"state":"active","ping":123},{"user_id":167,"name":"Roof Rat","steam_id":76561198136475073,"connected_time":2936000000000,"state":"active","ping":61},{"user_id":190,"name":"kingjeffry2012@hotmail.com","steam_id":76561198314104415,"connected_time":1663000000000,"state":"active","ping":53},{"user_id":198,"name":"Epifiny","steam_id":76561198027958086,"connected_time":26000000000,"state":"spawning","ping":77},{"user_id":197,"name":"bogginwater","steam_id":76561198155547142,"connected_time":56000000000,"state":"active","ping":66},{"user_id":141,"name":"emily","steam_id":76561198148132163,"connected_time":5657000000000,"state":"active","ping":87},{"user_id":191,"name":"COW","steam_id":76561198149003050,"connected_time":1638000000000,"state":"active","ping":83},{"user_id":192,"name":"Jabroni Kris","steam_id":76561198048736247,"connected_time":1611000000000,"state":"active","ping":120},{"user_id":194,"name":"Skinny Pete","steam_id":76561198801608576,"connected_time":1455000000000,"state":"active","ping":73},{"user_id":101,"name":"Bag","steam_id":76561198012395490,"connected_time":9345000000000,"state":"active","ping":57},{"user_id":172,"name":"SleepyT","steam_id":76561198042272576,"connected_time":2761000000000,"state":"active","ping":49},{"user_id":160,"name":"Muk__Tuk","steam_id":76561199122524457,"connected_time":3423000000000,"state":"active","ping":70},{"user_id":179,"name":"DiGiorno's Pizza","steam_id":76561198142244035,"connected_time":2459000000000,"state":"active","ping":67},{"user_id":162,"name":"basil smoking weed","steam_id":76561198119590214,"connected_time":3227000000000,"state":"active","ping":49}]},{"server_id":104,"name":"Uncletopia | Atlanta | 2 | All Maps","name_short":"atl-2","host":"atl-1.us.uncletopia.com","port":27025,"enabled":true,"region":"us-east","cc":"us","latitude":33.753746,"longitude":-84.38633,"reserved":0,"last_update":"0001-01-01T00:00:00Z","name_a2s":"Uncletopia | Atlanta | 2 | All Maps","protocol":17,"map":"pl_barnblitz","folder":"tf","game":"Team Fortress","app_id":440,"player_count":17,"max_players":24,"Bots":0,"server_type":"Dedicated","server_os":"Linux","password":true,"vac":true,"version":"7882260","steam_id":85568392924469983,"keywords":["nocrits","nodmgspread","payload","uncletopia"],"game_id":440,"stv_port":27026,"stv_name":"Uncletopia | Atlanta | 2 | All Maps | STV","players":[{"user_id":11,"name":"Sprinklze","steam_id":76561198163562681,"connected_time":5088000000000,"state":"active","ping":31},{"user_id":60,"name":"Penrose42","steam_id":76561198288577396,"connected_time":570000000000,"state":"active","ping":69},{"user_id":13,"name":"sal","steam_id":76561198814096380,"connected_time":3896000000000,"state":"active","ping":74},{"user_id":38,"name":"Milf n' Cookies","steam_id":76561198104805359,"connected_time":1965000000000,"state":"active","ping":79},{"user_id":27,"name":"BEES","steam_id":76561198811545874,"connected_time":2292000000000,"state":"active","ping":75},{"user_id":26,"name":"Triple-Edged","steam_id":76561198308472155,"connected_time":2302000000000,"state":"active","ping":68},{"user_id":58,"name":"Half-Alpha","steam_id":76561199274000697,"connected_time":805000000000,"state":"active","ping":67},{"user_id":29,"name":"Bad Rollout","steam_id":76561197971948876,"connected_time":2199000000000,"state":"active","ping":67},{"user_id":61,"name":"Maverick","steam_id":76561198322829814,"connected_time":77000000000,"state":"active","ping":74},{"user_id":57,"name":"Fargo","steam_id":76561198044703931,"connected_time":933000000000,"state":"active","ping":75},{"user_id":40,"name":"BARNACLE BOY","steam_id":76561199060575719,"connected_time":1910000000000,"state":"active","ping":74},{"user_id":41,"name":"Mega","steam_id":76561198121258379,"connected_time":1826000000000,"state":"active","ping":94},{"user_id":59,"name":"X-7","steam_id":76561198127217378,"connected_time":804000000000,"state":"active","ping":122},{"user_id":53,"name":"Resident Catboy","steam_id":76561198386404089,"connected_time":1565000000000,"state":"active","ping":86},{"user_id":56,"name":"Vorpas Jabwak","steam_id":76561198112186064,"connected_time":1150000000000,"state":"active","ping":79},{"user_id":49,"name":"PaD_Ding","steam_id":76561198831202965,"connected_time":1684000000000,"state":"active","ping":152},{"user_id":55,"name":"Herdez Hot Salsa","steam_id":76561197991740906,"connected_time":1539000000000,"state":"active","ping":80}]},{"server_id":400,"name":"Uncletopia | Atlanta | 3 | Community","name_short":"atl-3","host":"atl-1.us.uncletopia.com","port":27035,"enabled":true,"region":"us-east","cc":"us","latitude":33.753746,"longitude":-84.38633,"reserved":0,"last_update":"0001-01-01T00:00:00Z","name_a2s":"Uncletopia | Atlanta | 3 | Community","protocol":17,"map":"workshop/koth_ramjam_rc1.ugc459778887","folder":"tf","game":"Team Fortress","app_id":440,"player_count":0,"max_players":24,"Bots":0,"server_type":"Dedicated","server_os":"Linux","password":true,"vac":true,"version":"7882260","steam_id":85568392924515187,"keywords":["cp","nocrits","nodmgspread","uncletopia"],"game_id":440,"stv_port":27036,"stv_name":"Uncletopia | Atlanta | 3 | Community | STV","players":null},{"server_id":401,"name":"Uncletopia | Atlanta | 4 | No Payload","name_short":"atl-4","host":"atl-1.us.uncletopia.com","port":27045,"enabled":true,"region":"us-east","cc":"us","latitude":33.753746,"longitude":-84.38633,"reserved":0,"last_update":"0001-01-01T00:00:00Z","name_a2s":"","protocol":0,"map":"","folder":"","game":"","app_id":0,"player_count":0,"max_players":0,"Bots":0,"server_type":"","server_os":"","password":false,"vac":false,"version":"","steam_id":0,"keywords":null,"game_id":0,"stv_port":0,"stv_name":"","players":null},{"server_id":2,"name":"Uncletopia | Chicago | 1 | All Maps","name_short":"chi-1","host":"chi-1.us.uncletopia.com","port":27015,"enabled":true,"region":"us-central","cc":"us","latitude":41.881832,"longitude":-87.62318,"reserved":0,"last_update":"0001-01-01T00:00:00Z","name_a2s":"Uncletopia | Chicago | 1 | All Maps","protocol":17,"map":"koth_harvest_final","folder":"tf","game":"Team Fortress","app_id":440,"player_count":24,"max_players":24,"Bots":0,"server_type":"Dedicated","server_os":"Linux","password":true,"vac":true,"version":"7882260","steam_id":85568392924469984,"keywords":["cp","nocrits","nodmgspread","uncletopia"],"game_id":440,"stv_port":27016,"stv_name":"Uncletopia | Chicago | 1 | All Maps | STV","players":[{"user_id":356,"name":"Oberon","steam_id":76561199360964272,"connected_time":1536000000000,"state":"active","ping":55},{"user_id":368,"name":"Meowcenary","steam_id":76561197998566857,"connected_time":549000000000,"state":"active","ping":89},{"user_id":352,"name":"Cedric","steam_id":76561198072090580,"connected_time":2202000000000,"state":"active","ping":89},{"user_id":379,"name":"Merapsco","steam_id":76561198029898337,"connected_time":169000000000,"state":"active","ping":86},{"user_id":353,"name":"sevanial","steam_id":76561198071532126,"connected_time":1851000000000,"state":"active","ping":61},{"user_id":326,"name":"Dake","steam_id":76561199139182003,"connected_time":4666000000000,"state":"active","ping":62},{"user_id":357,"name":"Portal2Player","steam_id":76561198062870114,"connected_time":1515000000000,"state":"active","ping":85},{"user_id":354,"name":"Brian","steam_id":76561198077756206,"connected_time":1849000000000,"state":"active","ping":132},{"user_id":318,"name":"Dr.BiohunterPHD","steam_id":76561198047023365,"connected_time":5485000000000,"state":"active","ping":88},{"user_id":294,"name":"Lalo Salamanca","steam_id":76561198319726270,"connected_time":6837000000000,"state":"active","ping":95},{"user_id":374,"name":"Racoon.zip","steam_id":76561199023759321,"connected_time":372000000000,"state":"active","ping":97},{"user_id":377,"name":"BlueAnimated","steam_id":76561199227588613,"connected_time":224000000000,"state":"active","ping":104},{"user_id":375,"name":"lexi","steam_id":76561198176299759,"connected_time":293000000000,"state":"active","ping":95},{"user_id":371,"name":"EL Matador","steam_id":76561197971206879,"connected_time":403000000000,"state":"active","ping":73},{"user_id":369,"name":"zik","steam_id":76561198122186802,"connected_time":408000000000,"state":"active","ping":60},{"user_id":363,"name":"09robcraft2","steam_id":76561199073189184,"connected_time":1409000000000,"state":"active","ping":75},{"user_id":365,"name":"rivera","steam_id":76561198051058706,"connected_time":1203000000000,"state":"active","ping":60},{"user_id":364,"name":"Lord Tyrannus","steam_id":76561198289377706,"connected_time":1269000000000,"state":"active","ping":70},{"user_id":350,"name":"leboeufbn","steam_id":76561199228923100,"connected_time":2539000000000,"state":"active","ping":84},{"user_id":362,"name":"Facehurt","steam_id":76561198028504034,"connected_time":1483000000000,"state":"active","ping":76},{"user_id":376,"name":"Tortellini","steam_id":76561198211521176,"connected_time":287000000000,"state":"active","ping":67},{"user_id":340,"name":"PerliousFalcon","steam_id":76561198124801907,"connected_time":3007000000000,"state":"active","ping":103},{"user_id":378,"name":"aintnowaiyboi","steam_id":76561198301372369,"connected_time":215000000000,"state":"active","ping":54},{"user_id":380,"name":"gayest dog alive","steam_id":76561199034590477,"connected_time":113000000000,"state":"active","ping":79}]},{"server_id":106,"name":"Uncletopia | Chicago | 2 | All Maps","name_short":"chi-2","host":"chi-1.us.uncletopia.com","port":27025,"enabled":true,"region":"us-central","cc":"us","latitude":41.881832,"longitude":-87.62318,"reserved":0,"last_update":"0001-01-01T00:00:00Z","name_a2s":"Uncletopia | Chicago | 2 | All Maps","protocol":17,"map":"pl_upward","folder":"tf","game":"Team Fortress","app_id":440,"player_count":24,"max_players":24,"Bots":0,"server_type":"Dedicated","server_os":"Linux","password":true,"vac":true,"version":"7882260","steam_id":85568392924469985,"keywords":["nocrits","nodmgspread","payload","uncletopia"],"game_id":440,"stv_port":27026,"stv_name":"Uncletopia | Chicago | 2 | All Maps | STV","players":[{"user_id":407,"name":"Blade","steam_id":76561198153163098,"connected_time":1089000000000,"state":"active","ping":63},{"user_id":418,"name":"Chezaus","steam_id":76561198317397837,"connected_time":736000000000,"state":"active","ping":71},{"user_id":408,"name":"Influrrno","steam_id":76561198398893302,"connected_time":1066000000000,"state":"active","ping":72},{"user_id":427,"name":"meth ape","steam_id":76561199110579692,"connected_time":3000000000,"state":"spawning","ping":81},{"user_id":342,"name":"jstn","steam_id":76561198845283665,"connected_time":6176000000000,"state":"active","ping":72},{"user_id":406,"name":"DJ Chalice","steam_id":76561197974872458,"connected_time":1249000000000,"state":"active","ping":74},{"user_id":413,"name":"[GUT] RiDiK¬Æ","steam_id":76561197969756446,"connected_time":1029000000000,"state":"active","ping":55},{"user_id":391,"name":"Kobrakiddmeow","steam_id":76561198080696266,"connected_time":2587000000000,"state":"active","ping":100},{"user_id":379,"name":"Iggy6670","steam_id":76561198044994567,"connected_time":3172000000000,"state":"active","ping":60},{"user_id":395,"name":"gulch","steam_id":76561199227946025,"connected_time":2453000000000,"state":"active","ping":71},{"user_id":398,"name":"DrStarBucksCoffee","steam_id":76561198037372470,"connected_time":2090000000000,"state":"active","ping":76},{"user_id":383,"name":"Skipz","steam_id":76561198425244550,"connected_time":2989000000000,"state":"active","ping":76},{"user_id":425,"name":"[ G R * T T Y ]","steam_id":76561198048986218,"connected_time":195000000000,"state":"active","ping":117},{"user_id":375,"name":"crabapples","steam_id":76561198075818655,"connected_time":3301000000000,"state":"active","ping":60},{"user_id":411,"name":"Amyxts36","steam_id":76561198872232094,"connected_time":1033000000000,"state":"active","ping":95},{"user_id":416,"name":"Harold","steam_id":76561198057317770,"connected_time":922000000000,"state":"active","ping":84},{"user_id":409,"name":"pathulhu","steam_id":76561198323941614,"connected_time":1062000000000,"state":"active","ping":70},{"user_id":420,"name":"anonion","steam_id":76561198056477584,"connected_time":400000000000,"state":"active","ping":88},{"user_id":402,"name":"HollowMan","steam_id":76561198967266827,"connected_time":1768000000000,"state":"active","ping":79},{"user_id":426,"name":"BigBubble42","steam_id":76561198136286123,"connected_time":154000000000,"state":"active","ping":57},{"user_id":414,"name":"GatoSeiko","steam_id":76561198001001360,"connected_time":1015000000000,"state":"active","ping":183},{"user_id":405,"name":"cx","steam_id":76561198132364510,"connected_time":1442000000000,"state":"active","ping":104},{"user_id":384,"name":"üíõMercyüíõ","steam_id":76561198147095572,"connected_time":2989000000000,"state":"active","ping":61},{"user_id":415,"name":"DropSkizm","steam_id":76561198389116044,"connected_time":1015000000000,"state":"active","ping":79}]},{"server_id":402,"name":"Uncletopia | Chicago | 3 | All Maps","name_short":"chi-3","host":"chi-1.us.uncletopia.com","port":27035,"enabled":true,"region":"us-central","cc":"us","latitude":41.881832,"longitude":-87.62318,"reserved":0,"last_update":"0001-01-01T00:00:00Z","name_a2s":"Uncletopia | Chicago | 3 | All Maps","protocol":17,"map":"pl_frontier_final","folder":"tf","game":"Team Fortress","app_id":440,"player_count":24,"max_players":24,"Bots":0,"server_type":"Dedicated","server_os":"Linux","password":true,"vac":true,"version":"7882260","steam_id":85568392924515191,"keywords":["nocrits","nodmgspread","payload","uncletopia"],"game_id":440,"stv_port":27036,"stv_name":"Uncletopia | Chicago | 3 | All Maps | STV","players":[{"user_id":503,"name":"Toottoot","steam_id":76561197992404836,"connected_time":384000000000,"state":"active","ping":44},{"user_id":487,"name":"quint","steam_id":76561198046797995,"connected_time":2038000000000,"state":"active","ping":54},{"user_id":504,"name":"P.C. Baby","steam_id":76561198067011379,"connected_time":374000000000,"state":"active","ping":115},{"user_id":476,"name":"El Portel","steam_id":76561198076108055,"connected_time":2333000000000,"state":"active","ping":84},{"user_id":432,"name":"Hog Rider","steam_id":76561198270106555,"connected_time":5391000000000,"state":"active","ping":117},{"user_id":505,"name":"seems_fishy","steam_id":76561199028846656,"connected_time":324000000000,"state":"active","ping":67},{"user_id":502,"name":"jamalbob33","steam_id":76561198410281331,"connected_time":399000000000,"state":"active","ping":136},{"user_id":478,"name":"scrotal recall","steam_id":76561198135945598,"connected_time":2282000000000,"state":"active","ping":75},{"user_id":420,"name":"‚òÜNebula-Belt‚òÜ","steam_id":76561198151250806,"connected_time":6243000000000,"state":"active","ping":72},{"user_id":488,"name":"The local hobo","steam_id":76561198289650060,"connected_time":2026000000000,"state":"active","ping":82},{"user_id":498,"name":"Noob_Extreme","steam_id":76561198353507507,"connected_time":793000000000,"state":"active","ping":173},{"user_id":467,"name":"DaMultiversalist","steam_id":76561198239552412,"connected_time":2754000000000,"state":"active","ping":68},{"user_id":506,"name":"Lapisüíõ ","steam_id":76561198009198502,"connected_time":308000000000,"state":"active","ping":76},{"user_id":507,"name":"LemonZest","steam_id":76561199196369249,"connected_time":299000000000,"state":"active","ping":78},{"user_id":508,"name":"KittyToy","steam_id":76561198043990701,"connected_time":292000000000,"state":"active","ping":114},{"user_id":460,"name":"Butter Bunz","steam_id":76561198798567488,"connected_time":3174000000000,"state":"active","ping":74},{"user_id":512,"name":"RiverEgg","steam_id":76561198888913405,"connected_time":158000000000,"state":"active","ping":56},{"user_id":509,"name":"Wounded","steam_id":76561199440954924,"connected_time":230000000000,"state":"active","ping":125},{"user_id":409,"name":"M4 Sherman","steam_id":76561198126990820,"connected_time":7030000000000,"state":"active","ping":100},{"user_id":481,"name":"TehDuck","steam_id":76561198172129394,"connected_time":2230000000000,"state":"active","ping":68},{"user_id":513,"name":"Kaykara","steam_id":76561199080571083,"connected_time":124000000000,"state":"active","ping":90},{"user_id":510,"name":"Thai Cobra-Snake","steam_id":76561198128928443,"connected_time":217000000000,"state":"active","ping":74},{"user_id":511,"name":"Boomhauer","steam_id":76561198185347518,"connected_time":197000000000,"state":"active","ping":75},{"user_id":477,"name":"Green Icicle","steam_id":76561198069624529,"connected_time":2331000000000,"state":"active","ping":83}]},{"server_id":403,"name":"Uncletopia | Chicago | 4 | All Maps","name_short":"chi-4","host":"chi-1.us.uncletopia.com","port":27045,"enabled":true,"region":"us-central","cc":"us","latitude":41.881832,"longitude":-87.62318,"reserved":0,"last_update":"0001-01-01T00:00:00Z","name_a2s":"Uncletopia | Chicago | 4 | All Maps","protocol":17,"map":"cp_sunshine","folder":"tf","game":"Team Fortress","app_id":440,"player_count":24,"max_players":24,"Bots":0,"server_type":"Dedicated","server_os":"Linux","password":true,"vac":true,"version":"7882260","steam_id":85568392924515193,"keywords":["cp","nocrits","nodmgspread","uncletopia"],"game_id":440,"stv_port":27046,"stv_name":"Uncletopia | Chicago | 4 | All Maps | STV","players":[{"user_id":318,"name":"Nassu","steam_id":76561198147367577,"connected_time":6244000000000,"state":"active","ping":66},{"user_id":392,"name":"dr pepper strawberries n cream","steam_id":76561198127149121,"connected_time":238000000000,"state":"active","ping":80},{"user_id":393,"name":"bobo","steam_id":76561198020268561,"connected_time":224000000000,"state":"active","ping":87},{"user_id":394,"name":"Big Oil","steam_id":76561199238964574,"connected_time":210000000000,"state":"active","ping":69},{"user_id":395,"name":"TheUltimatePybro","steam_id":76561198119425604,"connected_time":188000000000,"state":"active","ping":75},{"user_id":359,"name":"heavyArmor","steam_id":76561198191056059,"connected_time":3449000000000,"state":"active","ping":72},{"user_id":396,"name":"feliser","steam_id":76561198084336096,"connected_time":164000000000,"state":"active","ping":46},{"user_id":399,"name":"Darkmaen","steam_id":76561198060543390,"connected_time":99000000000,"state":"active","ping":143},{"user_id":388,"name":"TheKromeDome","steam_id":76561198288951592,"connected_time":1305000000000,"state":"active","ping":179},{"user_id":398,"name":"thebestman982","steam_id":76561199001698710,"connected_time":138000000000,"state":"active","ping":86},{"user_id":373,"name":"Doubting Dave","steam_id":76561198066410749,"connected_time":2463000000000,"state":"active","ping":70},{"user_id":375,"name":"Trusty","steam_id":76561198123441319,"connected_time":2426000000000,"state":"active","ping":49},{"user_id":365,"name":"Mario","steam_id":76561198321794277,"connected_time":3385000000000,"state":"active","ping":54},{"user_id":381,"name":"El Bondin","steam_id":76561198820792434,"connected_time":2377000000000,"state":"active","ping":92},{"user_id":369,"name":"Roguefluff","steam_id":76561198169269105,"connected_time":2960000000000,"state":"active","ping":65},{"user_id":382,"name":"\"LET'S GO JUAN!\"","steam_id":76561198978797171,"connected_time":2368000000000,"state":"active","ping":79},{"user_id":390,"name":"Potato","steam_id":76561198115677693,"connected_time":640000000000,"state":"active","ping":58},{"user_id":385,"name":"ExtremeDucks","steam_id":76561198351756464,"connected_time":2138000000000,"state":"active","ping":75},{"user_id":391,"name":"pogo","steam_id":76561198148913461,"connected_time":271000000000,"state":"active","ping":64},{"user_id":351,"name":"Cheese4Everyone","steam_id":76561198022333985,"connected_time":3927000000000,"state":"active","ping":70},{"user_id":376,"name":"Yunky","steam_id":76561197966495749,"connected_time":2424000000000,"state":"active","ping":70},{"user_id":386,"name":"Raptortastic","steam_id":76561198105613110,"connected_time":2064000000000,"state":"active","ping":52},{"user_id":389,"name":"God's Goofiest Goober","steam_id":76561198132557605,"connected_time":902000000000,"state":"active","ping":103},{"user_id":400,"name":"LiftN","steam_id":76561198167974713,"connected_time":84000000000,"state":"active","ping":75}]},{"server_id":36,"name":"Uncletopia | Chicago | 5 | All Maps","name_short":"chi-5","host":"chi-2.us.uncletopia.com","port":27015,"enabled":true,"region":"us-central","cc":"us","latitude":41.881832,"longitude":-87.62318,"reserved":0,"last_update":"0001-01-01T00:00:00Z","name_a2s":"Uncletopia | Chicago | 5 | All Maps","protocol":17,"map":"pl_frontier_final","folder":"tf","game":"Team Fortress","app_id":440,"player_count":24,"max_players":24,"Bots":0,"server_type":"Dedicated","server_os":"Linux","password":true,"vac":true,"version":"7882260","steam_id":85568392924866362,"keywords":["nocrits","nodmgspread","payload","uncletopia"],"game_id":440,"stv_port":27016,"stv_name":"Uncletopia | Chicago | 5 | All Maps | STV","players":[{"user_id":259,"name":"RUNTHABANDS2007","steam_id":76561198111259720,"connected_time":1989000000000,"state":"active","ping":69},{"user_id":285,"name":"bonkers","steam_id":76561199206080182,"connected_time":198000000000,"state":"active","ping":75},{"user_id":249,"name":"twizted","steam_id":76561197960407274,"connected_time":2667000000000,"state":"active","ping":67},{"user_id":261,"name":"FRED.JOHNSHON2007","steam_id":76561198138221795,"connected_time":1941000000000,"state":"active","ping":73},{"user_id":257,"name":"Sjsparrow","steam_id":76561197995352435,"connected_time":2012000000000,"state":"active","ping":49},{"user_id":286,"name":"devmunk","steam_id":76561198090807130,"connected_time":186000000000,"state":"active","ping":82},{"user_id":287,"name":"Theodore Roosevelt","steam_id":76561197993295656,"connected_time":180000000000,"state":"active","ping":46},{"user_id":289,"name":"Deltaco","steam_id":76561198094572694,"connected_time":161000000000,"state":"active","ping":112},{"user_id":239,"name":"1-800-GHOST-DANCE","steam_id":76561198835430429,"connected_time":3356000000000,"state":"active","ping":82},{"user_id":262,"name":"Jitters","steam_id":76561198078898336,"connected_time":1933000000000,"state":"active","ping":45},{"user_id":281,"name":"momb","steam_id":76561198142234038,"connected_time":1028000000000,"state":"active","ping":96},{"user_id":290,"name":"JustSoMuchPain","steam_id":76561198309751350,"connected_time":134000000000,"state":"active","ping":93},{"user_id":284,"name":"MEATBALL","steam_id":76561198028499312,"connected_time":555000000000,"state":"active","ping":58},{"user_id":268,"name":"Madd Maxx","steam_id":76561198339584998,"connected_time":1780000000000,"state":"active","ping":86},{"user_id":283,"name":"WE LOVE CASTING SPELLSüíØüíØ\ufffd","steam_id":76561198056871257,"connected_time":674000000000,"state":"active","ping":60},{"user_id":291,"name":"mkl","steam_id":76561197986401685,"connected_time":118000000000,"state":"active","ping":76},{"user_id":292,"name":"Cassini","steam_id":76561198318526294,"connected_time":107000000000,"state":"active","ping":60},{"user_id":294,"name":"SHADOW (he/him)","steam_id":76561198207768148,"connected_time":72000000000,"state":"active","ping":100},{"user_id":272,"name":"Johnnysteele5^","steam_id":76561198000763426,"connected_time":1721000000000,"state":"active","ping":144},{"user_id":252,"name":"HOODOO_LOVER_2007","steam_id":76561199087691214,"connected_time":2345000000000,"state":"active","ping":94},{"user_id":280,"name":"Neacrock","steam_id":76561199178338856,"connected_time":1074000000000,"state":"active","ping":75},{"user_id":293,"name":"voidpuppy","steam_id":76561198799922000,"connected_time":102000000000,"state":"active","ping":111},{"user_id":276,"name":"LerN","steam_id":76561198083463877,"connected_time":1631000000000,"state":"active","ping":61},{"user_id":278,"name":"Engineer Gaming","steam_id":76561199386119444,"connected_time":1589000000000,"state":"active","ping":94}]},{"server_id":37,"name":"Uncletopia | Chicago | 6 | All Maps","name_short":"chi-6","host":"chi-2.us.uncletopia.com","port":27025,"enabled":true,"region":"us-central","cc":"us","latitude":41.881832,"longitude":-87.62318,"reserved":0,"last_update":"0001-01-01T00:00:00Z","name_a2s":"Uncletopia | Chicago | 6 | All Maps","protocol":17,"map":"koth_cascade","folder":"tf","game":"Team Fortress","app_id":440,"player_count":0,"max_players":24,"Bots":0,"server_type":"Dedicated","server_os":"Linux","password":true,"vac":true,"version":"7882260","steam_id":85568392924866363,"keywords":["cp","nocrits","nodmgspread","uncletopia"],"game_id":440,"stv_port":27026,"stv_name":"Uncletopia | Chicago | 6 | All Maps | STV","players":null},{"server_id":38,"name":"Uncletopia | Chicago | 7 | Stopwatch Beta","name_short":"chi-7","host":"chi-2.us.uncletopia.com","port":27035,"enabled":true,"region":"us-central","cc":"us","latitude":41.881832,"longitude":-87.62318,"reserved":0,"last_update":"0001-01-01T00:00:00Z","name_a2s":"Uncletopia | Chicago | 7 | Stopwatch Beta","protocol":17,"map":"pl_borneo","folder":"tf","game":"Team Fortress","app_id":440,"player_count":0,"max_players":24,"Bots":0,"server_type":"Dedicated","server_os":"Linux","password":true,"vac":true,"version":"7882260","steam_id":85568392924866364,"keywords":["nocrits","nodmgspread","payload","uncletopia"],"game_id":440,"stv_port":27036,"stv_name":"Uncletopia | Chicago | 7 | Stopwatch Beta | STV","players":null},{"server_id":39,"name":"Uncletopia | Chicago | 8 | Community","name_short":"chi-8","host":"chi-2.us.uncletopia.com","port":27045,"enabled":true,"region":"us-central","cc":"us","latitude":41.881832,"longitude":-87.62318,"reserved":0,"last_update":"0001-01-01T00:00:00Z","name_a2s":"Uncletopia | Chicago | 8 | Community","protocol":17,"map":"workshop/koth_synthetic_rc6a.ugc1549817316","folder":"tf","game":"Team Fortress","app_id":440,"player_count":23,"max_players":24,"Bots":0,"server_type":"Dedicated","server_os":"Linux","password":true,"vac":true,"version":"7882260","steam_id":85568392924866365,"keywords":["cp","nocrits","nodmgspread","uncletopia"],"game_id":440,"stv_port":27046,"stv_name":"Uncletopia | Chicago | 8 | Community | STV","players":[{"user_id":8,"name":"Cuttle's Fish","steam_id":76561198280483257,"connected_time":3981000000000,"state":"active","ping":55},{"user_id":36,"name":"Greg Spooky","steam_id":76561198143855968,"connected_time":970000000000,"state":"active","ping":110},{"user_id":35,"name":"bonk man","steam_id":76561198386542309,"connected_time":1005000000000,"state":"active","ping":99},{"user_id":53,"name":"Fresh Lychee","steam_id":76561198045399559,"connected_time":322000000000,"state":"active","ping":56},{"user_id":54,"name":"The World's Softest Sandwich","steam_id":76561198015577707,"connected_time":319000000000,"state":"active","ping":74},{"user_id":45,"name":"MamaLuigi","steam_id":76561199054368008,"connected_time":675000000000,"state":"active","ping":68},{"user_id":58,"name":"Architect","steam_id":76561198015242016,"connected_time":10000000000,"state":"spawning","ping":204},{"user_id":17,"name":"‚ù§ pavizi ‚ù§","steam_id":76561198064828655,"connected_time":2354000000000,"state":"active","ping":68},{"user_id":56,"name":"Sexual Butt","steam_id":76561198102241399,"connected_time":273000000000,"state":"active","ping":58},{"user_id":20,"name":"magickxanadu","steam_id":76561199117360103,"connected_time":1970000000000,"state":"active","ping":84},{"user_id":21,"name":"Happy 100 Gaming","steam_id":76561199066576538,"connected_time":1957000000000,"state":"active","ping":87},{"user_id":27,"name":"Stressmelo","steam_id":76561199204445185,"connected_time":1572000000000,"state":"active","ping":72},{"user_id":57,"name":"justNO11","steam_id":76561198915411375,"connected_time":66000000000,"state":"active","ping":69},{"user_id":47,"name":"your local forecast","steam_id":76561198042243083,"connected_time":574000000000,"state":"active","ping":65},{"user_id":38,"name":"SecondCarpet","steam_id":76561199008323078,"connected_time":934000000000,"state":"active","ping":84},{"user_id":32,"name":"RozzyMox","steam_id":76561198869319785,"connected_time":1207000000000,"state":"active","ping":101},{"user_id":33,"name":"uncle done","steam_id":76561199198633203,"connected_time":1196000000000,"state":"active","ping":86},{"user_id":50,"name":"Canaan K. MacColahan","steam_id":76561198329149858,"connected_time":472000000000,"state":"active","ping":71},{"user_id":40,"name":"frank","steam_id":76561198137777483,"connected_time":858000000000,"state":"active","ping":70},{"user_id":41,"name":"J21","steam_id":76561198066590783,"connected_time":803000000000,"state":"active","ping":67},{"user_id":42,"name":"bong water","steam_id":76561198880398499,"connected_time":795000000000,"state":"active","ping":53},{"user_id":48,"name":"jazaniac","steam_id":76561198059955588,"connected_time":566000000000,"state":"active","ping":92},{"user_id":49,"name":"Lionel Messi","steam_id":76561198226207032,"connected_time":546000000000,"state":"active","ping":58}]},{"server_id":8,"name":"Uncletopia | Dallas | 1 | All Maps","name_short":"dal-1","host":"dal-1.us.uncletopia.com","port":27015,"enabled":true,"region":"us-central","cc":"us","latitude":32.779167,"longitude":-96.80889,"reserved":0,"last_update":"0001-01-01T00:00:00Z","name_a2s":"Uncletopia | Dallas | 1 | All Maps","protocol":17,"map":"pl_swiftwater_final1","folder":"tf","game":"Team Fortress","app_id":440,"player_count":24,"max_players":24,"Bots":0,"server_type":"Dedicated","server_os":"Linux","password":true,"vac":true,"version":"7882260","steam_id":85568392924469986,"keywords":["nocrits","nodmgspread","payload","uncletopia"],"game_id":440,"stv_port":27016,"stv_name":"Uncletopia | Dallas | 1 | All Maps | STV","players":[{"user_id":163,"name":"Lezabel","steam_id":76561198970753261,"connected_time":830000000000,"state":"active","ping":67},{"user_id":157,"name":"a Salty Individual","steam_id":76561197979951077,"connected_time":1200000000000,"state":"active","ping":131},{"user_id":151,"name":"Burrbank","steam_id":76561198042888060,"connected_time":1543000000000,"state":"active","ping":104},{"user_id":121,"name":"errant","steam_id":76561197961758410,"connected_time":4981000000000,"state":"active","ping":37},{"user_id":167,"name":"Confodio","steam_id":76561198068367876,"connected_time":643000000000,"state":"active","ping":75},{"user_id":53,"name":"vastrobotmax","steam_id":76561198417110724,"connected_time":7682000000000,"state":"active","ping":101},{"user_id":175,"name":"‚Ä¢SoraNyaa‚Ä¢","steam_id":76561198308439576,"connected_time":108000000000,"state":"active","ping":104},{"user_id":145,"name":"hippo mode","steam_id":76561198073455521,"connected_time":2555000000000,"state":"active","ping":76},{"user_id":140,"name":"NOT Susie Deltarune (not real)","steam_id":76561199007365488,"connected_time":2744000000000,"state":"active","ping":66},{"user_id":127,"name":"Lolxdloldx","steam_id":76561198136887125,"connected_time":3801000000000,"state":"active","ping":101},{"user_id":105,"name":"dinky little beanie baby","steam_id":76561197999318398,"connected_time":5556000000000,"state":"active","ping":110},{"user_id":155,"name":"basilberry","steam_id":76561198145275937,"connected_time":1379000000000,"state":"active","ping":64},{"user_id":174,"name":"Rare_Igor","steam_id":76561198329611355,"connected_time":332000000000,"state":"active","ping":66},{"user_id":170,"name":"Phosu","steam_id":76561198180162801,"connected_time":569000000000,"state":"active","ping":68},{"user_id":162,"name":"Piggy","steam_id":76561198000399862,"connected_time":942000000000,"state":"active","ping":73},{"user_id":169,"name":"pt","steam_id":76561198143023330,"connected_time":624000000000,"state":"active","ping":79},{"user_id":152,"name":"BananaArm","steam_id":76561199087528350,"connected_time":1535000000000,"state":"active","ping":87},{"user_id":147,"name":"ShapedSilver","steam_id":76561199073305310,"connected_time":2413000000000,"state":"active","ping":80},{"user_id":150,"name":"TopCum || TipofTheDicks.org","steam_id":76561199136063332,"connected_time":1615000000000,"state":"active","ping":95},{"user_id":136,"name":"Icarus the legend","steam_id":76561199013250091,"connected_time":3271000000000,"state":"active","ping":57},{"user_id":80,"name":"Chunk Stuffer","steam_id":76561198856508573,"connected_time":6926000000000,"state":"active","ping":36},{"user_id":165,"name":"Dumb Kid","steam_id":76561198304180941,"connected_time":821000000000,"state":"active","ping":61},{"user_id":88,"name":"Sup m8","steam_id":76561198081659121,"connected_time":6853000000000,"state":"active","ping":44},{"user_id":173,"name":"TrueGuardian32.ttv","steam_id":76561198149985253,"connected_time":394000000000,"state":"active","ping":46}]},{"server_id":108,"name":"Uncletopia | Dallas | 2 | All Maps","name_short":"dal-2","host":"dal-1.us.uncletopia.com","port":27025,"enabled":true,"region":"us-central","cc":"us","latitude":32.779167,"longitude":-96.80889,"reserved":0,"last_update":"0001-01-01T00:00:00Z","name_a2s":"Uncletopia | Dallas | 2 | All Maps","protocol":17,"map":"koth_viaduct","folder":"tf","game":"Team Fortress","app_id":440,"player_count":1,"max_players":24,"Bots":0,"server_type":"Dedicated","server_os":"Linux","password":true,"vac":true,"version":"7882260","steam_id":85568392924469988,"keywords":["cp","nocrits","nodmgspread","uncletopia"],"game_id":440,"stv_port":27026,"stv_name":"Uncletopia | Dallas | 2 | All Maps | STV","players":[{"user_id":17,"name":"Nyplestheclown","steam_id":76561198028600291,"connected_time":31000000000,"state":"spawning","ping":44}]},{"server_id":5,"name":"Uncletopia | Frankfurt | 1 | All Maps","name_short":"frk-1","host":"frk-1.de.uncletopia.com","port":27015,"enabled":true,"region":"eu","cc":"de","latitude":50.110924,"longitude":8.682127,"reserved":0,"last_update":"0001-01-01T00:00:00Z","name_a2s":"Uncletopia | Frankfurt | 1 | All Maps","protocol":17,"map":"koth_viaduct","folder":"tf","game":"Team Fortress","app_id":440,"player_count":21,"max_players":24,"Bots":0,"server_type":"Dedicated","server_os":"Linux","password":true,"vac":true,"version":"7882260","steam_id":85568392924469989,"keywords":["cp","nocrits","nodmgspread","uncletopia"],"game_id":440,"stv_port":27016,"stv_name":"Uncletopia | Frankfurt | 1 | All Maps | STV","players":[{"user_id":333,"name":"Repa24","steam_id":76561198033016390,"connected_time":2884000000000,"state":"active","ping":69},{"user_id":368,"name":"BTD","steam_id":76561199046044993,"connected_time":653000000000,"state":"active","ping":58},{"user_id":375,"name":"Ignoramus Khan","steam_id":76561198111695218,"connected_time":326000000000,"state":"active","ping":90},{"user_id":338,"name":"IceDreamer","steam_id":76561197997569989,"connected_time":2135000000000,"state":"active","ping":59},{"user_id":292,"name":"Proud Jojo Fan #TF2SP","steam_id":76561198847327216,"connected_time":4723000000000,"state":"active","ping":68},{"user_id":369,"name":"smaller columbo","steam_id":76561198065516212,"connected_time":593000000000,"state":"active","ping":83},{"user_id":339,"name":"DeCypher \u003c3","steam_id":76561198171992619,"connected_time":2123000000000,"state":"active","ping":72},{"user_id":366,"name":"domek brexit geezerüá¨üáß","steam_id":76561198048447632,"connected_time":861000000000,"state":"active","ping":60},{"user_id":372,"name":"Artificial.Ignorance","steam_id":76561198453090180,"connected_time":426000000000,"state":"active","ping":154},{"user_id":378,"name":"Dr.Sees [F2P]","steam_id":76561199219233587,"connected_time":141000000000,"state":"active","ping":74},{"user_id":374,"name":"JC","steam_id":76561198029213352,"connected_time":376000000000,"state":"active","ping":51},{"user_id":376,"name":"pink sunset","steam_id":76561198089183373,"connected_time":225000000000,"state":"active","ping":58},{"user_id":287,"name":"quentu-","steam_id":76561198087457220,"connected_time":4945000000000,"state":"active","ping":67},{"user_id":324,"name":"Le bagutte","steam_id":76561198258504847,"connected_time":3325000000000,"state":"active","ping":83},{"user_id":348,"name":"roblan11","steam_id":76561198066839258,"connected_time":1728000000000,"state":"active","ping":50},{"user_id":349,"name":"disc0rd","steam_id":76561197985965776,"connected_time":1709000000000,"state":"active","ping":57},{"user_id":350,"name":"{BL}ACO","steam_id":76561198077672091,"connected_time":1697000000000,"state":"active","ping":111},{"user_id":377,"name":"Garlic","steam_id":76561199104017323,"connected_time":225000000000,"state":"active","ping":55},{"user_id":286,"name":"Goober","steam_id":76561198054795379,"connected_time":5330000000000,"state":"active","ping":57},{"user_id":380,"name":"skatie","steam_id":76561198169487380,"connected_time":36000000000,"state":"active","ping":86},{"user_id":381,"name":"IONYCH","steam_id":76561198378350040,"connected_time":0,"state":"spawning","ping":63}]},{"server_id":110,"name":"Uncletopia | Frankfurt | 2 | All Maps","name_short":"frk-2","host":"frk-1.de.uncletopia.com","port":27025,"enabled":true,"region":"eu","cc":"de","latitude":50.110924,"longitude":8.682127,"reserved":0,"last_update":"0001-01-01T00:00:00Z","name_a2s":"Uncletopia | Frankfurt | 2 | All Maps","protocol":17,"map":"pl_barnblitz","folder":"tf","game":"Team Fortress","app_id":440,"player_count":24,"max_players":24,"Bots":0,"server_type":"Dedicated","server_os":"Linux","password":true,"vac":true,"version":"7882260","steam_id":85568392924469990,"keywords":["nocrits","nodmgspread","payload","uncletopia"],"game_id":440,"stv_port":27026,"stv_name":"Uncletopia | Frankfurt | 2 | All Maps | STV","players":[{"user_id":303,"name":"kreeekz","steam_id":76561198014431602,"connected_time":414000000000,"state":"active","ping":60},{"user_id":275,"name":"YOU ARE SHITTING YOUR SELF","steam_id":76561198371719058,"connected_time":2022000000000,"state":"active","ping":68},{"user_id":250,"name":"Lord of Beans","steam_id":76561198283379801,"connected_time":3607000000000,"state":"active","ping":106},{"user_id":251,"name":"ereh","steam_id":76561198061239823,"connected_time":3524000000000,"state":"active","ping":68},{"user_id":305,"name":"Hanƒ±mSever23","steam_id":76561198142124751,"connected_time":158000000000,"state":"active","ping":118},{"user_id":259,"name":"\u003c blank \u003e","steam_id":76561198059375315,"connected_time":3169000000000,"state":"active","ping":66},{"user_id":264,"name":"Cinek","steam_id":76561198146494944,"connected_time":2700000000000,"state":"active","ping":75},{"user_id":247,"name":"bunglar","steam_id":76561198027374166,"connected_time":3950000000000,"state":"active","ping":45},{"user_id":291,"name":"Ph.D. Rehtard","steam_id":76561198002701344,"connected_time":1120000000000,"state":"active","ping":47},{"user_id":248,"name":"AwterSix","steam_id":76561198042561678,"connected_time":3845000000000,"state":"active","ping":57},{"user_id":292,"name":"Twitch.tv/FrostSnail","steam_id":76561197989859175,"connected_time":1110000000000,"state":"active","ping":67},{"user_id":294,"name":"giclure :;","steam_id":76561197986362828,"connected_time":1075000000000,"state":"active","ping":61},{"user_id":296,"name":"Veile","steam_id":76561199007201531,"connected_time":735000000000,"state":"active","ping":87},{"user_id":287,"name":"David \"Crash\" Murphy","steam_id":76561198292845505,"connected_time":1567000000000,"state":"active","ping":100},{"user_id":300,"name":"Clitorina","steam_id":76561198077570815,"connected_time":695000000000,"state":"active","ping":58},{"user_id":298,"name":"Rai","steam_id":76561199408923294,"connected_time":720000000000,"state":"active","ping":81},{"user_id":265,"name":"bossievossie","steam_id":76561198836337543,"connected_time":2597000000000,"state":"active","ping":74},{"user_id":301,"name":"la","steam_id":76561198258487465,"connected_time":688000000000,"state":"active","ping":102},{"user_id":295,"name":"big poo","steam_id":76561198129157178,"connected_time":946000000000,"state":"active","ping":95},{"user_id":268,"name":"RedFog","steam_id":76561198284713081,"connected_time":2464000000000,"state":"active","ping":43},{"user_id":284,"name":"Finn","steam_id":76561198179960193,"connected_time":1752000000000,"state":"active","ping":52},{"user_id":244,"name":"EMES","steam_id":76561198046639824,"connected_time":4237000000000,"state":"active","ping":86},{"user_id":285,"name":"sarii ‚òÜ","steam_id":76561199155102111,"connected_time":1746000000000,"state":"active","ping":83},{"user_id":290,"name":"smoshed90lolololol","steam_id":76561197968495775,"connected_time":1193000000000,"state":"active","ping":92}]},{"server_id":308,"name":"Uncletopia | Frankfurt | 3 | All Maps","name_short":"frk-3","host":"frk-1.de.uncletopia.com","port":27035,"enabled":true,"region":"eu","cc":"de","latitude":50.110924,"longitude":8.682127,"reserved":0,"last_update":"0001-01-01T00:00:00Z","name_a2s":"Uncletopia | Frankfurt | 3 | All Maps","protocol":17,"map":"ctf_turbine","folder":"tf","game":"Team Fortress","app_id":440,"player_count":19,"max_players":24,"Bots":0,"server_type":"Dedicated","server_os":"Linux","password":true,"vac":true,"version":"7882260","steam_id":85568392924504274,"keywords":["ctf","nocrits","nodmgspread","uncletopia"],"game_id":440,"stv_port":27036,"stv_name":"Uncletopia | Frankfurt | 3 | All Maps | STV","players":[{"user_id":190,"name":"AverageName","steam_id":76561199114333959,"connected_time":1444000000000,"state":"active","ping":47},{"user_id":111,"name":"Mr.O #deletesniper","steam_id":76561198039567498,"connected_time":5401000000000,"state":"active","ping":56},{"user_id":195,"name":"Like Ahayo LXIX","steam_id":76561198368508349,"connected_time":565000000000,"state":"active","ping":84},{"user_id":162,"name":"–ï–ú –î–ï–¢–ï–ô","steam_id":76561198132048681,"connected_time":2914000000000,"state":"active","ping":108},{"user_id":125,"name":"hlug2340","steam_id":76561198087970118,"connected_time":4744000000000,"state":"active","ping":60},{"user_id":198,"name":"full power heart attack","steam_id":76561199196568965,"connected_time":196000000000,"state":"active","ping":101},{"user_id":184,"name":"Orbit","steam_id":76561198242999878,"connected_time":2205000000000,"state":"active","ping":69},{"user_id":200,"name":"Frank","steam_id":76561198086672774,"connected_time":132000000000,"state":"active","ping":59},{"user_id":153,"name":"mun","steam_id":76561198256097786,"connected_time":3462000000000,"state":"active","ping":33},{"user_id":103,"name":"KeTlEr","steam_id":76561198100957443,"connected_time":5708000000000,"state":"active","ping":60},{"user_id":117,"name":"Akane","steam_id":76561197990407312,"connected_time":5155000000000,"state":"active","ping":65},{"user_id":202,"name":"Yahram Qiehpah","steam_id":76561198049533385,"connected_time":56000000000,"state":"active","ping":102},{"user_id":182,"name":"LarsInABox","steam_id":76561198028329262,"connected_time":2299000000000,"state":"active","ping":75},{"user_id":203,"name":"Bulczany","steam_id":76561198116469727,"connected_time":37000000000,"state":"active","ping":72},{"user_id":185,"name":"Mach","steam_id":76561198952487564,"connected_time":1972000000000,"state":"active","ping":173},{"user_id":194,"name":"Shrub","steam_id":76561198156423217,"connected_time":692000000000,"state":"active","ping":155},{"user_id":146,"name":"no","steam_id":76561199232582956,"connected_time":3892000000000,"state":"active","ping":103},{"user_id":192,"name":"Jeffrey Harpen","steam_id":76561199073314677,"connected_time":811000000000,"state":"active","ping":69},{"user_id":183,"name":"Engi-Nearing","steam_id":76561199221172552,"connected_time":2254000000000,"state":"active","ping":72}]},{"server_id":309,"name":"Uncletopia | Frankfurt | 4 | All Maps","name_short":"frk-4","host":"frk-1.de.uncletopia.com","port":27045,"enabled":true,"region":"eu","cc":"de","latitude":50.110924,"longitude":8.682127,"reserved":0,"last_update":"0001-01-01T00:00:00Z","name_a2s":"Uncletopia | Frankfurt | 4 | All Maps","protocol":17,"map":"koth_viaduct","folder":"tf","game":"Team Fortress","app_id":440,"player_count":21,"max_players":24,"Bots":0,"server_type":"Dedicated","server_os":"Linux","password":true,"vac":true,"version":"7882260","steam_id":85568392924504275,"keywords":["cp","nocrits","nodmgspread","uncletopia"],"game_id":440,"stv_port":27046,"stv_name":"Uncletopia | Frankfurt | 4 | All Maps | STV","players":[{"user_id":539,"name":"DBlackjack21","steam_id":76561198073241855,"connected_time":1270000000000,"state":"active","ping":65},{"user_id":561,"name":"max","steam_id":76561198027033926,"connected_time":26000000000,"state":"active","ping":66},{"user_id":529,"name":"godofredo62","steam_id":76561198142929710,"connected_time":2578000000000,"state":"active","ping":84},{"user_id":558,"name":"Malai","steam_id":76561198062537014,"connected_time":312000000000,"state":"active","ping":53},{"user_id":537,"name":"Rare bulldog owner","steam_id":76561199407941086,"connected_time":1596000000000,"state":"active","ping":63},{"user_id":551,"name":"Dark Wizart","steam_id":76561198377689439,"connected_time":806000000000,"state":"active","ping":68},{"user_id":459,"name":"Lana Ev√∏l √Öttog","steam_id":76561198066287297,"connected_time":6953000000000,"state":"active","ping":55},{"user_id":541,"name":"Dickkickem","steam_id":76561198425505206,"connected_time":1190000000000,"state":"active","ping":64},{"user_id":542,"name":"Mr. Master","steam_id":76561199198569317,"connected_time":1181000000000,"state":"active","ping":87},{"user_id":554,"name":"Captain Scrumpe","steam_id":76561198032206577,"connected_time":584000000000,"state":"active","ping":75},{"user_id":508,"name":"Friendly Neighbourhood Femboy","steam_id":76561198058531305,"connected_time":3562000000000,"state":"active","ping":45},{"user_id":552,"name":"le big mac","steam_id":76561199026378253,"connected_time":798000000000,"state":"active","ping":52},{"user_id":553,"name":"Levood","steam_id":76561198088461401,"connected_time":763000000000,"state":"active","ping":74},{"user_id":531,"name":"Nils","steam_id":76561198254882979,"connected_time":2524000000000,"state":"active","ping":66},{"user_id":547,"name":"[O\u0026O]YaboiDucki","steam_id":76561198195976589,"connected_time":1079000000000,"state":"active","ping":93},{"user_id":555,"name":"Dr.Dag","steam_id":76561198301430910,"connected_time":573000000000,"state":"active","ping":80},{"user_id":557,"name":"I Don't Know","steam_id":76561198841011430,"connected_time":495000000000,"state":"active","ping":61},{"user_id":512,"name":"Ott","steam_id":76561198276464481,"connected_time":3111000000000,"state":"active","ping":67},{"user_id":524,"name":"Ecton","steam_id":76561198025103720,"connected_time":2813000000000,"state":"active","ping":60},{"user_id":525,"name":"Suetolog","steam_id":76561199053090212,"connected_time":2783000000000,"state":"active","ping":52},{"user_id":560,"name":"Monsieur Monk√©","steam_id":76561198130288819,"connected_time":74000000000,"state":"active","ping":100}]},{"server_id":310,"name":"Uncletopia | Frankfurt | 5 | All Maps","name_short":"frk-5","host":"frk-1.de.uncletopia.com","port":27055,"enabled":true,"region":"eu","cc":"de","latitude":50.110924,"longitude":8.682127,"reserved":0,"last_update":"0001-01-01T00:00:00Z","name_a2s":"Uncletopia | Frankfurt | 5 | All Maps","protocol":17,"map":"pl_upward","folder":"tf","game":"Team Fortress","app_id":440,"player_count":20,"max_players":24,"Bots":0,"server_type":"Dedicated","server_os":"Linux","password":true,"vac":true,"version":"7882260","steam_id":85568392924504277,"keywords":["nocrits","nodmgspread","payload","uncletopia"],"game_id":440,"stv_port":27056,"stv_name":"Uncletopia | Frankfurt | 5 | All Maps | STV","players":[{"user_id":277,"name":"rets","steam_id":76561198061551392,"connected_time":1447000000000,"state":"active","ping":60},{"user_id":296,"name":"gort","steam_id":76561198060339391,"connected_time":157000000000,"state":"active","ping":45},{"user_id":279,"name":"froufrou","steam_id":76561198129110010,"connected_time":1431000000000,"state":"active","ping":84},{"user_id":271,"name":"√Ñ√§rik ‚ô£","steam_id":76561198131871737,"connected_time":2725000000000,"state":"active","ping":49},{"user_id":258,"name":"hello hi","steam_id":76561198148074472,"connected_time":3660000000000,"state":"active","ping":34},{"user_id":280,"name":"bad farter","steam_id":76561198261853441,"connected_time":1362000000000,"state":"active","ping":61},{"user_id":267,"name":"faze stock market hairline","steam_id":76561198256619964,"connected_time":3117000000000,"state":"active","ping":76},{"user_id":192,"name":"Vershal Smershal","steam_id":76561198116223995,"connected_time":9665000000000,"state":"active","ping":60},{"user_id":269,"name":"xavier","steam_id":76561198076494034,"connected_time":3050000000000,"state":"active","ping":52},{"user_id":226,"name":"wee woo","steam_id":76561198147277460,"connected_time":5850000000000,"state":"active","ping":56},{"user_id":273,"name":"Pilaarius","steam_id":76561198120273212,"connected_time":2064000000000,"state":"active","ping":89},{"user_id":281,"name":"ant753","steam_id":76561198103458889,"connected_time":1355000000000,"state":"active","ping":71},{"user_id":295,"name":"Mr. Enjoy da money","steam_id":76561198152681460,"connected_time":258000000000,"state":"active","ping":86},{"user_id":293,"name":"Spieller","steam_id":76561198057197847,"connected_time":370000000000,"state":"active","ping":75},{"user_id":297,"name":"normii","steam_id":76561198301332732,"connected_time":72000000000,"state":"active","ping":53},{"user_id":292,"name":"cazador","steam_id":76561198123096922,"connected_time":393000000000,"state":"active","ping":90},{"user_id":284,"name":"Pepegi","steam_id":76561198001230113,"connected_time":1332000000000,"state":"active","ping":78},{"user_id":287,"name":"Tin","steam_id":76561198022201818,"connected_time":1256000000000,"state":"active","ping":45},{"user_id":188,"name":"agent youppii","steam_id":76561198055264447,"connected_time":10103000000000,"state":"active","ping":70},{"user_id":290,"name":"Wubba","steam_id":76561198409725218,"connected_time":1173000000000,"state":"active","ping":56}]},{"server_id":311,"name":"Uncletopia | Frankfurt | 6 | All Maps","name_short":"frk-6","host":"frk-1.de.uncletopia.com","port":27065,"enabled":true,"region":"eu","cc":"de","latitude":50.110924,"longitude":8.682127,"reserved":0,"last_update":"0001-01-01T00:00:00Z","name_a2s":"Uncletopia | Frankfurt | 6 | All Maps","protocol":17,"map":"cp_mercenarypark","folder":"tf","game":"Team Fortress","app_id":440,"player_count":23,"max_players":24,"Bots":0,"server_type":"Dedicated","server_os":"Linux","password":true,"vac":true,"version":"7882260","steam_id":85568392924504278,"keywords":["cp","nocrits","nodmgspread","uncletopia"],"game_id":440,"stv_port":27066,"stv_name":"Uncletopia | Frankfurt | 6 | All Maps | STV","players":[{"user_id":404,"name":"üòà COCKDESTROYER üòà","steam_id":76561198042846999,"connected_time":3264000000000,"state":"active","ping":60},{"user_id":452,"name":"Krabs","steam_id":76561198161679477,"connected_time":414000000000,"state":"active","ping":56},{"user_id":451,"name":"Matrix108","steam_id":76561198180382327,"connected_time":507000000000,"state":"active","ping":62},{"user_id":428,"name":"etc","steam_id":76561197998394797,"connected_time":1992000000000,"state":"active","ping":57},{"user_id":459,"name":"Zero (Orbital Gear Mastermind)","steam_id":76561198017416816,"connected_time":34000000000,"state":"active","ping":60},{"user_id":410,"name":"Aleknat","steam_id":76561198055379857,"connected_time":2776000000000,"state":"active","ping":64},{"user_id":445,"name":"LIGHTWEIGHT BABY","steam_id":76561198002761980,"connected_time":837000000000,"state":"active","ping":59},{"user_id":446,"name":"mumbler","steam_id":76561197970641239,"connected_time":834000000000,"state":"active","ping":48},{"user_id":454,"name":"Jargo","steam_id":76561198064231790,"connected_time":303000000000,"state":"active","ping":78},{"user_id":441,"name":"Virx","steam_id":76561199384196253,"connected_time":918000000000,"state":"active","ping":111},{"user_id":430,"name":"Slippy Jimmin","steam_id":76561198243856250,"connected_time":1966000000000,"state":"active","ping":82},{"user_id":442,"name":"The‚òÜCops","steam_id":76561198146358073,"connected_time":916000000000,"state":"active","ping":96},{"user_id":438,"name":"Pipper","steam_id":76561197970326616,"connected_time":1378000000000,"state":"active","ping":68},{"user_id":444,"name":"Xariklhs Kolimpithras","steam_id":76561198165584544,"connected_time":877000000000,"state":"active","ping":101},{"user_id":447,"name":"Generic text","steam_id":76561198291962185,"connected_time":822000000000,"state":"active","ping":75},{"user_id":448,"name":"Ledze Shuns Dope","steam_id":76561198049945010,"connected_time":789000000000,"state":"active","ping":44},{"user_id":431,"name":"Bean","steam_id":76561198086252360,"connected_time":1945000000000,"state":"active","ping":66},{"user_id":419,"name":"Doctor Marijuana","steam_id":76561198288289879,"connected_time":2396000000000,"state":"active","ping":61},{"user_id":455,"name":"'Poli","steam_id":76561198058710244,"connected_time":279000000000,"state":"active","ping":87},{"user_id":449,"name":"Seri","steam_id":76561198017135441,"connected_time":758000000000,"state":"active","ping":66},{"user_id":456,"name":"'Hank","steam_id":76561198218083825,"connected_time":247000000000,"state":"active","ping":52},{"user_id":401,"name":"Eltriuqs","steam_id":76561198225771588,"connected_time":3502000000000,"state":"active","ping":111},{"user_id":384,"name":"Fuvuk","steam_id":76561198044458593,"connected_time":4330000000000,"state":"active","ping":90}]},{"server_id":23,"name":"Uncletopia | Frankfurt | 7 | Stopwatch Beta","name_short":"frk-7","host":"frk-1.de.uncletopia.com","port":27075,"enabled":true,"region":"eu","cc":"de","latitude":50.110924,"longitude":8.682127,"reserved":0,"last_update":"0001-01-01T00:00:00Z","name_a2s":"Uncletopia | Frankfurt | 7 | Stopwatch Beta","protocol":17,"map":"workshop/koth_clearcut_b15.ugc2107050255","folder":"tf","game":"Team Fortress","app_id":440,"player_count":0,"max_players":24,"Bots":0,"server_type":"Dedicated","server_os":"Linux","password":true,"vac":true,"version":"7882260","steam_id":85568392924742827,"keywords":["cp","nocrits","nodmgspread","uncletopia"],"game_id":440,"stv_port":27076,"stv_name":"Uncletopia | Frankfurt | 7 | Stopwatch Beta | STV","players":null},{"server_id":24,"name":"Uncletopia | Frankfurt | 8 | Community","name_short":"frk-8","host":"frk-1.de.uncletopia.com","port":27085,"enabled":true,"region":"eu","cc":"de","latitude":50.110924,"longitude":8.682127,"reserved":0,"last_update":"0001-01-01T00:00:00Z","name_a2s":"Uncletopia | Frankfurt | 8 | Community","protocol":17,"map":"workshop/cp_bruhstbowl_b5.ugc2878604990","folder":"tf","game":"Team Fortress","app_id":440,"player_count":7,"max_players":24,"Bots":0,"server_type":"Dedicated","server_os":"Linux","password":true,"vac":true,"version":"7882260","steam_id":85568392924742828,"keywords":["cp","nocrits","nodmgspread","uncletopia"],"game_id":440,"stv_port":27086,"stv_name":"Uncletopia | Frankfurt | 8 | Community | STV","players":[{"user_id":224,"name":"Leiv","steam_id":76561198087165610,"connected_time":624000000000,"state":"active","ping":94},{"user_id":226,"name":"SeeYouSpaceRobot","steam_id":76561198454018197,"connected_time":243000000000,"state":"active","ping":90},{"user_id":211,"name":"Scipionemiliano","steam_id":76561198027646559,"connected_time":1979000000000,"state":"active","ping":102},{"user_id":210,"name":"Santiago De Marinis","steam_id":76561198134307059,"connected_time":2109000000000,"state":"active","ping":65},{"user_id":125,"name":"Jonathan","steam_id":76561198087988880,"connected_time":7392000000000,"state":"active","ping":45},{"user_id":127,"name":"Fat Pigeon","steam_id":76561198817940142,"connected_time":7389000000000,"state":"active","ping":47},{"user_id":216,"name":"We are in a world of magic","steam_id":76561198104745492,"connected_time":1657000000000,"state":"active","ping":72}]},{"server_id":202,"name":"Uncletopia | Hong Kong | 1 | All Maps","name_short":"hgk-1","host":"hgk-1.hk.uncletopia.com","port":27015,"enabled":true,"region":"asia","cc":"hk","latitude":22.302711,"longitude":114.177216,"reserved":0,"last_update":"0001-01-01T00:00:00Z","name_a2s":"Uncletopia | Hong Kong | 1 | All Maps","protocol":17,"map":"pl_pier","folder":"tf","game":"Team Fortress","app_id":440,"player_count":0,"max_players":24,"Bots":0,"server_type":"Dedicated","server_os":"Linux","password":true,"vac":true,"version":"7882260","steam_id":85568392924494504,"keywords":["nocrits","nodmgspread","payload","uncletopia"],"game_id":440,"stv_port":27016,"stv_name":"Uncletopia | Hong Kong | 1 | All Maps | STV","players":null},{"server_id":1,"name":"Uncletopia | Los Angeles | 1 | All Maps","name_short":"lax-1","host":"lax-1.us.uncletopia.com","port":27015,"enabled":true,"region":"us-west","cc":"us","latitude":33.94279,"longitude":-118.41004,"reserved":0,"last_update":"0001-01-01T00:00:00Z","name_a2s":"Uncletopia | Los Angeles | 1 | All Maps","protocol":17,"map":"pl_borneo","folder":"tf","game":"Team Fortress","app_id":440,"player_count":24,"max_players":24,"Bots":0,"server_type":"Dedicated","server_os":"Linux","password":true,"vac":true,"version":"7882260","steam_id":85568392924469991,"keywords":["nocrits","nodmgspread","payload","uncletopia"],"game_id":440,"stv_port":27016,"stv_name":"Uncletopia | Los Angeles | 1 | All Maps | STV","players":[{"user_id":20,"name":"YouCantSpellNutritionW/OutNUT","steam_id":76561198060588059,"connected_time":4474000000000,"state":"active","ping":56},{"user_id":57,"name":"Cole Boye","steam_id":76561198282449106,"connected_time":2107000000000,"state":"active","ping":74},{"user_id":81,"name":"Fishsick lord","steam_id":76561198887904255,"connected_time":579000000000,"state":"active","ping":97},{"user_id":73,"name":"Pudsla","steam_id":76561198258974036,"connected_time":1264000000000,"state":"active","ping":58},{"user_id":77,"name":"SunNc","steam_id":76561198097711843,"connected_time":851000000000,"state":"active","ping":58},{"user_id":82,"name":"Gay Mushroom","steam_id":76561198151549658,"connected_time":553000000000,"state":"active","ping":140},{"user_id":80,"name":"Nerdycatgamer","steam_id":76561198235698272,"connected_time":661000000000,"state":"active","ping":147},{"user_id":86,"name":"box","steam_id":76561198985635309,"connected_time":478000000000,"state":"active","ping":122},{"user_id":84,"name":"ü§®","steam_id":76561199365672047,"connected_time":500000000000,"state":"active","ping":120},{"user_id":87,"name":"Shamrock Shake Oct.10.2020 @8pm","steam_id":76561198833313201,"connected_time":433000000000,"state":"active","ping":55},{"user_id":85,"name":"An 'Eepy Leaf","steam_id":76561198077721071,"connected_time":495000000000,"state":"active","ping":120},{"user_id":93,"name":"Mori","steam_id":76561198118205495,"connected_time":300000000000,"state":"active","ping":91},{"user_id":89,"name":"old_gus","steam_id":76561197964214993,"connected_time":408000000000,"state":"active","ping":45},{"user_id":34,"name":"FI LO","steam_id":76561198976530881,"connected_time":3049000000000,"state":"active","ping":30},{"user_id":46,"name":"Scott_The_Bot","steam_id":76561199474825993,"connected_time":2454000000000,"state":"active","ping":87},{"user_id":76,"name":"Ludography","steam_id":76561198046354069,"connected_time":1160000000000,"state":"active","ping":83},{"user_id":90,"name":"Nine Inch –òipples","steam_id":76561198149413947,"connected_time":399000000000,"state":"active","ping":69},{"user_id":91,"name":"Taylor Swift","steam_id":76561198078130694,"connected_time":392000000000,"state":"active","ping":112},{"user_id":61,"name":"Mom","steam_id":76561198207936000,"connected_time":2066000000000,"state":"active","ping":45},{"user_id":94,"name":"gumcuzzler","steam_id":76561198118644686,"connected_time":161000000000,"state":"active","ping":56},{"user_id":75,"name":"echelon","steam_id":76561198139172979,"connected_time":1226000000000,"state":"active","ping":55},{"user_id":92,"name":"Transfem with a gun","steam_id":76561199064861814,"connected_time":360000000000,"state":"active","ping":69},{"user_id":69,"name":"Big Richard","steam_id":76561199369569135,"connected_time":1735000000000,"state":"active","ping":63},{"user_id":63,"name":"MegaMott","steam_id":76561199172245274,"connected_time":2051000000000,"state":"active","ping":62}]},{"server_id":112,"name":"Uncletopia | Los Angeles | 2 | All Maps","name_short":"lax-2","host":"lax-1.us.uncletopia.com","port":27025,"enabled":true,"region":"us-west","cc":"us","latitude":33.94279,"longitude":-118.41004,"reserved":0,"last_update":"0001-01-01T00:00:00Z","name_a2s":"Uncletopia | Los Angeles | 2 | All Maps","protocol":17,"map":"koth_viaduct","folder":"tf","game":"Team Fortress","app_id":440,"player_count":0,"max_players":24,"Bots":0,"server_type":"Dedicated","server_os":"Linux","password":true,"vac":true,"version":"7882260","steam_id":85568392924469992,"keywords":["cp","nocrits","nodmgspread","uncletopia"],"game_id":440,"stv_port":27026,"stv_name":"Uncletopia | Los Angeles | 2 | All Maps | STV","players":null},{"server_id":324,"name":"Uncletopia | Los Angeles | 3 | All Maps","name_short":"lax-3","host":"lax-1.us.uncletopia.com","port":27035,"enabled":true,"region":"us-west","cc":"us","latitude":33.94279,"longitude":-118.41004,"reserved":0,"last_update":"0001-01-01T00:00:00Z","name_a2s":"Uncletopia | Los Angeles | 3 | All Maps","protocol":17,"map":"koth_cascade","folder":"tf","game":"Team Fortress","app_id":440,"player_count":0,"max_players":24,"Bots":0,"server_type":"Dedicated","server_os":"Linux","password":true,"vac":true,"version":"7882260","steam_id":85568392924510198,"keywords":["cp","nocrits","nodmgspread","uncletopia"],"game_id":440,"stv_port":27036,"stv_name":"Uncletopia | Los Angeles | 3 | All Maps | STV","players":null},{"server_id":25,"name":"Uncletopia | Los Angeles | 4 | Stopwatch Beta","name_short":"lax-4","host":"lax-1.us.uncletopia.com","port":27045,"enabled":true,"region":"us-west","cc":"us","latitude":33.94279,"longitude":-118.41004,"reserved":0,"last_update":"0001-01-01T00:00:00Z","name_a2s":"Uncletopia | Los Angeles | 4 | Stopwatch Beta","protocol":17,"map":"workshop/koth_ramjam_rc1.ugc459778887","folder":"tf","game":"Team Fortress","app_id":440,"player_count":0,"max_players":24,"Bots":0,"server_type":"Dedicated","server_os":"Linux","password":true,"vac":true,"version":"7882260","steam_id":85568392924510199,"keywords":["cp","nocrits","nodmgspread","uncletopia"],"game_id":440,"stv_port":27046,"stv_name":"Uncletopia | Los Angeles | 4 | Stopwatch Beta | STV","players":null},{"server_id":11,"name":"Uncletopia | London | 1 | All Maps","name_short":"lon-1","host":"lon-1.uk.uncletopia.com","port":27015,"enabled":true,"region":"eu","cc":"gb","latitude":51.509865,"longitude":-0.118092,"reserved":0,"last_update":"0001-01-01T00:00:00Z","name_a2s":"Uncletopia | London | 1 | All Maps","protocol":17,"map":"pl_snowycoast","folder":"tf","game":"Team Fortress","app_id":440,"player_count":24,"max_players":24,"Bots":0,"server_type":"Dedicated","server_os":"Linux","password":true,"vac":true,"version":"7882260","steam_id":85568392924367362,"keywords":["nocrits","nodmgspread","payload","uncletopia"],"game_id":440,"stv_port":27016,"stv_name":"Uncletopia | London | 1 | All Maps | STV","players":[{"user_id":658,"name":"Jugg","steam_id":76561198384417257,"connected_time":3163000000000,"state":"active","ping":58},{"user_id":694,"name":"Niggi","steam_id":76561198039866494,"connected_time":339000000000,"state":"active","ping":69},{"user_id":678,"name":"Son Goku","steam_id":76561199383437138,"connected_time":1020000000000,"state":"active","ping":124},{"user_id":689,"name":"Alexandre","steam_id":76561198121784446,"connected_time":622000000000,"state":"active","ping":44},{"user_id":673,"name":"KPhii","steam_id":76561198970587061,"connected_time":1814000000000,"state":"active","ping":62},{"user_id":675,"name":"astigmatic","steam_id":76561199103959197,"connected_time":1051000000000,"state":"active","ping":99},{"user_id":602,"name":"generic alias","steam_id":76561198271607226,"connected_time":6685000000000,"state":"active","ping":84},{"user_id":690,"name":"Aaron","steam_id":76561197990046953,"connected_time":423000000000,"state":"active","ping":55},{"user_id":691,"name":"El Nordiste #SAVETF2","steam_id":76561198321474957,"connected_time":404000000000,"state":"active","ping":53},{"user_id":659,"name":"Cars","steam_id":76561198173329977,"connected_time":3146000000000,"state":"active","ping":47},{"user_id":681,"name":"Snake-chan","steam_id":76561199044755854,"connected_time":974000000000,"state":"active","ping":78},{"user_id":686,"name":"Gubbly Bubbins","steam_id":76561198101451654,"connected_time":893000000000,"state":"active","ping":47},{"user_id":667,"name":"Kahvi","steam_id":76561198723244199,"connected_time":2439000000000,"state":"active","ping":77},{"user_id":669,"name":"Filleman","steam_id":76561198159386946,"connected_time":2182000000000,"state":"active","ping":73},{"user_id":683,"name":"Haha?","steam_id":76561198056882245,"connected_time":949000000000,"state":"active","ping":42},{"user_id":688,"name":"Steen","steam_id":76561198122992510,"connected_time":671000000000,"state":"active","ping":45},{"user_id":671,"name":"SOPHIIEE","steam_id":76561198443798981,"connected_time":1914000000000,"state":"active","ping":40},{"user_id":666,"name":"Zarden","steam_id":76561198080638451,"connected_time":2536000000000,"state":"active","ping":44},{"user_id":687,"name":"-_-Steve-_-","steam_id":76561198318786687,"connected_time":813000000000,"state":"active","ping":46},{"user_id":684,"name":"Real photograph of me","steam_id":76561198236015392,"connected_time":928000000000,"state":"active","ping":127},{"user_id":692,"name":"mkwii","steam_id":76561198062507768,"connected_time":403000000000,"state":"active","ping":60},{"user_id":693,"name":"SynthBox3","steam_id":76561199094075745,"connected_time":380000000000,"state":"active","ping":92},{"user_id":695,"name":"iamSamking","steam_id":76561199099398754,"connected_time":260000000000,"state":"active","ping":189}]},{"server_id":114,"name":"Uncletopia | London | 2 | All Maps","name_short":"lon-2","host":"lon-1.uk.uncletopia.com","port":27025,"enabled":true,"region":"eu","cc":"gb","latitude":51.509865,"longitude":-0.118092,"reserved":0,"last_update":"0001-01-01T00:00:00Z","name_a2s":"Uncletopia | London | 2 | All Maps","protocol":17,"map":"pl_upward","folder":"tf","game":"Team Fortress","app_id":440,"player_count":24,"max_players":24,"Bots":0,"server_type":"Dedicated","server_os":"Linux","password":true,"vac":true,"version":"7882260","steam_id":85568392924470941,"keywords":["nocrits","nodmgspread","payload","uncletopia"],"game_id":440,"stv_port":27026,"stv_name":"Uncletopia | London | 2 | All Maps | STV","players":[{"user_id":614,"name":"gamering","steam_id":76561198047359132,"connected_time":4823000000000,"state":"active","ping":71},{"user_id":649,"name":"DragonLord","steam_id":76561198074279225,"connected_time":1523000000000,"state":"active","ping":47},{"user_id":653,"name":"Badusernames","steam_id":76561198060698610,"connected_time":681000000000,"state":"active","ping":69},{"user_id":645,"name":"Adam/Sentry Gun tf2","steam_id":76561199103777436,"connected_time":1912000000000,"state":"active","ping":78},{"user_id":642,"name":"Cookies and Bakies","steam_id":76561198017442928,"connected_time":2131000000000,"state":"active","ping":65},{"user_id":620,"name":"Mrbluuub","steam_id":76561199273847084,"connected_time":3929000000000,"state":"active","ping":86},{"user_id":662,"name":"/ff deli69 (the carry)","steam_id":76561198124859583,"connected_time":18000000000,"state":"active","ping":45},{"user_id":647,"name":"Crafting book","steam_id":76561199103410870,"connected_time":1825000000000,"state":"active","ping":58},{"user_id":626,"name":"Iountzul","steam_id":76561198956308470,"connected_time":3529000000000,"state":"active","ping":87},{"user_id":638,"name":"Caramelion","steam_id":76561198097429047,"connected_time":2554000000000,"state":"active","ping":64},{"user_id":579,"name":"Acanda","steam_id":76561198123246537,"connected_time":6467000000000,"state":"active","ping":65},{"user_id":646,"name":"Realer Cuffep","steam_id":76561198165252930,"connected_time":1880000000000,"state":"active","ping":105},{"user_id":651,"name":"RARE ENDANGERED DEMOMAN CRAB","steam_id":76561199426727764,"connected_time":777000000000,"state":"active","ping":163},{"user_id":634,"name":"Foly","steam_id":76561198379383694,"connected_time":2825000000000,"state":"active","ping":62},{"user_id":630,"name":"alan","steam_id":76561198306947435,"connected_time":3010000000000,"state":"active","ping":82},{"user_id":594,"name":"walluu","steam_id":76561198121830870,"connected_time":6099000000000,"state":"active","ping":75},{"user_id":597,"name":"skullhead289","steam_id":76561199086481600,"connected_time":5980000000000,"state":"active","ping":44},{"user_id":658,"name":"Providence","steam_id":76561198003920270,"connected_time":550000000000,"state":"active","ping":73},{"user_id":655,"name":"gfjhsdf","steam_id":76561198136736426,"connected_time":669000000000,"state":"active","ping":64},{"user_id":604,"name":"XPullaHiiri","steam_id":76561198031652375,"connected_time":5423000000000,"state":"active","ping":97},{"user_id":661,"name":"congo","steam_id":76561198236836866,"connected_time":230000000000,"state":"active","ping":90},{"user_id":517,"name":"dash.","steam_id":76561198084796149,"connected_time":9945000000000,"state":"active","ping":45},{"user_id":549,"name":"AmssoBador Spacelot","steam_id":76561197993444617,"connected_time":9092000000000,"state":"active","ping":75},{"user_id":641,"name":"Pomson 6000","steam_id":76561198344588858,"connected_time":2540000000000,"state":"active","ping":58}]},{"server_id":320,"name":"Uncletopia | London | 3 | All Maps","name_short":"lon-3","host":"lon-1.uk.uncletopia.com","port":27035,"enabled":true,"region":"eu","cc":"gb","latitude":51.509865,"longitude":-0.118092,"reserved":0,"last_update":"0001-01-01T00:00:00Z","name_a2s":"Uncletopia | London | 3 | All Maps","protocol":17,"map":"pl_snowycoast","folder":"tf","game":"Team Fortress","app_id":440,"player_count":21,"max_players":24,"Bots":0,"server_type":"Dedicated","server_os":"Linux","password":true,"vac":true,"version":"7882260","steam_id":85568392924510192,"keywords":["nocrits","nodmgspread","payload","uncletopia"],"game_id":440,"stv_port":27036,"stv_name":"Uncletopia | London | 3 | All Maps | STV","players":[{"user_id":544,"name":"Mr_Pulse_","steam_id":76561198095001602,"connected_time":3547000000000,"state":"active","ping":111},{"user_id":582,"name":"superskinniyslim","steam_id":76561199142721155,"connected_time":454000000000,"state":"active","ping":80},{"user_id":564,"name":"H-say","steam_id":76561198177400362,"connected_time":1186000000000,"state":"active","ping":102},{"user_id":567,"name":"Rizziologist","steam_id":76561198089003514,"connected_time":900000000000,"state":"active","ping":45},{"user_id":532,"name":"20BB Raxor","steam_id":76561198239927434,"connected_time":4102000000000,"state":"active","ping":86},{"user_id":589,"name":"MAGik","steam_id":76561198085793729,"connected_time":79000000000,"state":"active","ping":90},{"user_id":568,"name":"Miiukade","steam_id":76561198089157860,"connected_time":897000000000,"state":"active","ping":118},{"user_id":565,"name":"ArmedWithWings","steam_id":76561198154615474,"connected_time":917000000000,"state":"active","ping":96},{"user_id":570,"name":"ZerCroix","steam_id":76561198199523226,"connected_time":888000000000,"state":"active","ping":64},{"user_id":551,"name":"eva.","steam_id":76561198054474684,"connected_time":2373000000000,"state":"active","ping":87},{"user_id":572,"name":"weetile | Arch Linux","steam_id":76561198121352176,"connected_time":860000000000,"state":"active","ping":44},{"user_id":573,"name":"Zina Tv","steam_id":76561198116530769,"connected_time":842000000000,"state":"active","ping":93},{"user_id":545,"name":"Sir Cauterize","steam_id":76561198047079422,"connected_time":3249000000000,"state":"active","ping":52},{"user_id":577,"name":"tone","steam_id":76561197975301462,"connected_time":721000000000,"state":"active","ping":74},{"user_id":498,"name":"Townsend And Sons","steam_id":76561199072698153,"connected_time":6203000000000,"state":"active","ping":68},{"user_id":587,"name":"Charles Darwin","steam_id":76561197973496139,"connected_time":363000000000,"state":"active","ping":72},{"user_id":583,"name":"lulu","steam_id":76561199147764133,"connected_time":410000000000,"state":"active","ping":72},{"user_id":584,"name":"Liza–Ødl–ß","steam_id":76561198176750238,"connected_time":408000000000,"state":"active","ping":72},{"user_id":585,"name":"ramirez","steam_id":76561198117060048,"connected_time":394000000000,"state":"active","ping":62},{"user_id":586,"name":"FilipeLuk","steam_id":76561198150675438,"connected_time":393000000000,"state":"active","ping":71},{"user_id":495,"name":"tha virgin suicides","steam_id":76561198011155232,"connected_time":6420000000000,"state":"active","ping":70}]},{"server_id":321,"name":"Uncletopia | London | 4 | All Maps","name_short":"lon-4","host":"lon-1.uk.uncletopia.com","port":27045,"enabled":true,"region":"eu","cc":"gb","latitude":51.509865,"longitude":-0.118092,"reserved":0,"last_update":"0001-01-01T00:00:00Z","name_a2s":"Uncletopia | London | 4 | All Maps","protocol":17,"map":"pl_snowycoast","folder":"tf","game":"Team Fortress","app_id":440,"player_count":23,"max_players":24,"Bots":0,"server_type":"Dedicated","server_os":"Linux","password":true,"vac":true,"version":"7882260","steam_id":85568392924510193,"keywords":["nocrits","nodmgspread","payload","uncletopia"],"game_id":440,"stv_port":27046,"stv_name":"Uncletopia | London | 4 | All Maps | STV","players":[{"user_id":676,"name":"driz","steam_id":76561198069462235,"connected_time":4411000000000,"state":"active","ping":43},{"user_id":726,"name":"skilltissues","steam_id":76561198025828664,"connected_time":505000000000,"state":"active","ping":56},{"user_id":704,"name":"Sammy096","steam_id":76561198128167541,"connected_time":2033000000000,"state":"active","ping":68},{"user_id":721,"name":"Penis Contortionist","steam_id":76561198073663784,"connected_time":938000000000,"state":"active","ping":37},{"user_id":736,"name":"Astolfo","steam_id":76561198354584982,"connected_time":59000000000,"state":"active","ping":68},{"user_id":727,"name":"vurtun","steam_id":76561198857395274,"connected_time":468000000000,"state":"active","ping":61},{"user_id":682,"name":"CryshireWithAK","steam_id":76561198857908089,"connected_time":4332000000000,"state":"active","ping":145},{"user_id":734,"name":"hayley","steam_id":76561198215714252,"connected_time":134000000000,"state":"active","ping":45},{"user_id":719,"name":"SKFBoge","steam_id":76561198269038278,"connected_time":1291000000000,"state":"active","ping":75},{"user_id":707,"name":"Farmercy","steam_id":76561198000038039,"connected_time":1952000000000,"state":"active","ping":59},{"user_id":718,"name":"Tanza -","steam_id":76561197961335217,"connected_time":1380000000000,"state":"active","ping":47},{"user_id":696,"name":"8 Ball","steam_id":76561197960988736,"connected_time":3075000000000,"state":"active","ping":47},{"user_id":701,"name":"eeeeee","steam_id":76561198017786875,"connected_time":2148000000000,"state":"active","ping":61},{"user_id":728,"name":"flange","steam_id":76561198040182692,"connected_time":459000000000,"state":"active","ping":31},{"user_id":706,"name":"Carrotcracker","steam_id":76561198034862396,"connected_time":1996000000000,"state":"active","ping":81},{"user_id":729,"name":"Toopy","steam_id":76561198041708820,"connected_time":446000000000,"state":"active","ping":58},{"user_id":735,"name":"doe","steam_id":76561198032858979,"connected_time":110000000000,"state":"active","ping":64},{"user_id":722,"name":"holykyckling","steam_id":76561198040661615,"connected_time":884000000000,"state":"active","ping":75},{"user_id":717,"name":"fshfkr","steam_id":76561198095979282,"connected_time":1508000000000,"state":"active","ping":44},{"user_id":671,"name":"L4gman","steam_id":76561198048227040,"connected_time":4783000000000,"state":"active","ping":90},{"user_id":686,"name":"COTHuK","steam_id":76561198330633932,"connected_time":4178000000000,"state":"active","ping":88},{"user_id":737,"name":"Martin Freeman","steam_id":76561198021333922,"connected_time":54000000000,"state":"active","ping":59},{"user_id":723,"name":"Dreyfus","steam_id":76561198366687805,"connected_time":881000000000,"state":"active","ping":68}]},{"server_id":21,"name":"Uncletopia | London | 5 | All Maps","name_short":"lon-5","host":"lon-1.uk.uncletopia.com","port":27055,"enabled":true,"region":"eu","cc":"gb","latitude":51.509865,"longitude":-0.118092,"reserved":0,"last_update":"0001-01-01T00:00:00Z","name_a2s":"Uncletopia | London | 5 | All Maps","protocol":17,"map":"pl_pier","folder":"tf","game":"Team Fortress","app_id":440,"player_count":22,"max_players":24,"Bots":0,"server_type":"Dedicated","server_os":"Linux","password":true,"vac":true,"version":"7882260","steam_id":85568392924742829,"keywords":["nocrits","nodmgspread","payload","uncletopia"],"game_id":440,"stv_port":27056,"stv_name":"Uncletopia | London | 5 | All Maps | STV","players":[{"user_id":407,"name":"Space Rimmer","steam_id":76561198069243201,"connected_time":1290000000000,"state":"active","ping":45},{"user_id":416,"name":" Ä…™·¥ã·¥è·¥ò‚ìΩ","steam_id":76561198101822510,"connected_time":595000000000,"state":"active","ping":85},{"user_id":397,"name":"kaelan","steam_id":76561198001425310,"connected_time":1754000000000,"state":"active","ping":75},{"user_id":422,"name":"–î–µ–Ω–∏—Å –ë–∞–∑—É–∫–∞","steam_id":76561198835849082,"connected_time":345000000000,"state":"active","ping":88},{"user_id":398,"name":"Jesse Fatcoc","steam_id":76561199004942770,"connected_time":1745000000000,"state":"active","ping":72},{"user_id":406,"name":"b r o o g ?","steam_id":76561198280834819,"connected_time":1300000000000,"state":"active","ping":66},{"user_id":413,"name":"Dr Ludwig","steam_id":76561198426522902,"connected_time":907000000000,"state":"active","ping":53},{"user_id":409,"name":"Max Andrew","steam_id":76561198158955194,"connected_time":1198000000000,"state":"active","ping":54},{"user_id":424,"name":"axalotly-gaming","steam_id":76561199131971501,"connected_time":315000000000,"state":"active","ping":102},{"user_id":399,"name":"biohazard.pt","steam_id":76561198088367808,"connected_time":1722000000000,"state":"active","ping":71},{"user_id":385,"name":"Ketich","steam_id":76561198021772703,"connected_time":2583000000000,"state":"active","ping":82},{"user_id":425,"name":"r06u3","steam_id":76561198254099253,"connected_time":301000000000,"state":"active","ping":181},{"user_id":430,"name":"John Noob","steam_id":76561197999170026,"connected_time":129000000000,"state":"active","ping":85},{"user_id":428,"name":"Dr Sex","steam_id":76561198029044617,"connected_time":238000000000,"state":"active","ping":47},{"user_id":417,"name":"FŒªrlOw","steam_id":76561198002785623,"connected_time":572000000000,"state":"active","ping":56},{"user_id":429,"name":"SlonkyDonky","steam_id":76561198425787528,"connected_time":176000000000,"state":"active","ping":58},{"user_id":379,"name":"Minimi","steam_id":76561198873850443,"connected_time":2931000000000,"state":"active","ping":42},{"user_id":380,"name":"Pinkchup","steam_id":76561198106802803,"connected_time":2928000000000,"state":"active","ping":74},{"user_id":418,"name":"Crumble104","steam_id":76561198829535411,"connected_time":545000000000,"state":"active","ping":56},{"user_id":419,"name":"BonesJohnson","steam_id":76561198799169951,"connected_time":491000000000,"state":"active","ping":107},{"user_id":358,"name":"xX_DogWater-Gaming69_Xx","steam_id":76561198335486000,"connected_time":4445000000000,"state":"active","ping":69},{"user_id":420,"name":"Kolanciasty ‚ô•","steam_id":76561198020042179,"connected_time":486000000000,"state":"active","ping":89}]},{"server_id":22,"name":"Uncletopia | London | 6 | All Maps","name_short":"lon-6","host":"lon-1.uk.uncletopia.com","port":27065,"enabled":true,"region":"eu","cc":"gb","latitude":51.509865,"longitude":-0.118092,"reserved":0,"last_update":"0001-01-01T00:00:00Z","name_a2s":"Uncletopia | London | 6 | All Maps","protocol":17,"map":"pl_pier","folder":"tf","game":"Team Fortress","app_id":440,"player_count":24,"max_players":24,"Bots":0,"server_type":"Dedicated","server_os":"Linux","password":true,"vac":true,"version":"7882260","steam_id":85568392924742830,"keywords":["nocrits","nodmgspread","payload","uncletopia"],"game_id":440,"stv_port":27066,"stv_name":"Uncletopia | London | 6 | All Maps | STV","players":[{"user_id":144,"name":"mt","steam_id":76561197961319303,"connected_time":2217000000000,"state":"active","ping":60},{"user_id":132,"name":"FATTY","steam_id":76561198087962709,"connected_time":2905000000000,"state":"active","ping":80},{"user_id":117,"name":"Miss Bari","steam_id":76561198365286092,"connected_time":3673000000000,"state":"active","ping":39},{"user_id":120,"name":"ThatSiegeKid","steam_id":76561198368037656,"connected_time":3478000000000,"state":"active","ping":33},{"user_id":119,"name":"Doctor_BalderdashTTV","steam_id":76561198171109398,"connected_time":3517000000000,"state":"active","ping":54},{"user_id":154,"name":"‚ò≠ybercat","steam_id":76561198014070417,"connected_time":204000000000,"state":"active","ping":60},{"user_id":146,"name":"Udinese Dion","steam_id":76561198067931573,"connected_time":1196000000000,"state":"active","ping":54},{"user_id":145,"name":"≈†≈´da≈°almis","steam_id":76561198052802448,"connected_time":1208000000000,"state":"active","ping":61},{"user_id":143,"name":"Emma","steam_id":76561198076724979,"connected_time":2296000000000,"state":"active","ping":66},{"user_id":155,"name":"–ö—Ä–æ–∫–æ–¥–∏–ª –ì–µ–Ω–∞","steam_id":76561198139765643,"connected_time":189000000000,"state":"active","ping":93},{"user_id":156,"name":"skaaNe","steam_id":76561198096543219,"connected_time":173000000000,"state":"active","ping":98},{"user_id":157,"name":"Spectre","steam_id":76561198163819482,"connected_time":149000000000,"state":"active","ping":67},{"user_id":158,"name":"Banatical Bean","steam_id":76561198122356617,"connected_time":133000000000,"state":"active","ping":63},{"user_id":69,"name":"medick","steam_id":76561199380849468,"connected_time":6451000000000,"state":"active","ping":62},{"user_id":75,"name":"hipster_doofus","steam_id":76561197970902697,"connected_time":5855000000000,"state":"active","ping":54},{"user_id":147,"name":"cream gravy","steam_id":76561198973069177,"connected_time":1112000000000,"state":"active","ping":57},{"user_id":138,"name":"FoOzTV","steam_id":76561197998636728,"connected_time":2803000000000,"state":"active","ping":69},{"user_id":159,"name":"Kheprii","steam_id":76561198095899274,"connected_time":131000000000,"state":"active","ping":142},{"user_id":61,"name":"frosty","steam_id":76561198094560834,"connected_time":6909000000000,"state":"active","ping":50},{"user_id":160,"name":"Kurage","steam_id":76561198021221288,"connected_time":130000000000,"state":"active","ping":67},{"user_id":136,"name":"vadr","steam_id":76561198334528186,"connected_time":2871000000000,"state":"active","ping":45},{"user_id":70,"name":"Spurt","steam_id":76561198078523852,"connected_time":6141000000000,"state":"active","ping":48},{"user_id":151,"name":"Pootis","steam_id":76561198823265247,"connected_time":914000000000,"state":"active","ping":88},{"user_id":162,"name":"Raine","steam_id":76561198098860903,"connected_time":111000000000,"state":"active","ping":69}]},{"server_id":40,"name":"Uncletopia | London | 7 | No Payload","name_short":"lon-7","host":"lon-1.uk.uncletopia.com","port":27075,"enabled":true,"region":"eu","cc":"gb","latitude":51.509865,"longitude":-0.118092,"reserved":0,"last_update":"0001-01-01T00:00:00Z","name_a2s":"Uncletopia | London | 7 | No Payload","protocol":17,"map":"cp_sunshine","folder":"tf","game":"Team Fortress","app_id":440,"player_count":22,"max_players":24,"Bots":0,"server_type":"Dedicated","server_os":"Linux","password":true,"vac":true,"version":"7882260","steam_id":85568392924964314,"keywords":["cp","nocrits","nodmgspread","uncletopia"],"game_id":440,"stv_port":27076,"stv_name":"Uncletopia | London | 7 | No Payload | STV","players":[{"user_id":77,"name":"dog","steam_id":76561198063919822,"connected_time":451000000000,"state":"active","ping":45},{"user_id":74,"name":"big piss","steam_id":76561198041295143,"connected_time":766000000000,"state":"active","ping":47},{"user_id":78,"name":"tralalaOuiOui","steam_id":76561197963471507,"connected_time":446000000000,"state":"active","ping":51},{"user_id":75,"name":"KHEY","steam_id":76561198035380064,"connected_time":725000000000,"state":"active","ping":46},{"user_id":40,"name":"Quack","steam_id":76561198048712219,"connected_time":2755000000000,"state":"active","ping":68},{"user_id":53,"name":"Clark","steam_id":76561198120498831,"connected_time":2195000000000,"state":"active","ping":45},{"user_id":55,"name":"Fish 'n' Chips","steam_id":76561198033476886,"connected_time":2109000000000,"state":"active","ping":49},{"user_id":56,"name":"Just Sed","steam_id":76561198066216346,"connected_time":2053000000000,"state":"active","ping":74},{"user_id":43,"name":"quickfast","steam_id":76561199438900919,"connected_time":2662000000000,"state":"active","ping":44},{"user_id":72,"name":"sHIFTINGvORTEX","steam_id":76561198231648332,"connected_time":866000000000,"state":"active","ping":60},{"user_id":58,"name":"Ash","steam_id":76561198148738525,"connected_time":1767000000000,"state":"active","ping":116},{"user_id":71,"name":"ran is running","steam_id":76561199443185667,"connected_time":1157000000000,"state":"active","ping":134},{"user_id":54,"name":"Falling Apples","steam_id":76561198122762346,"connected_time":2158000000000,"state":"active","ping":47},{"user_id":57,"name":"kornetov.vitalya","steam_id":76561199286034833,"connected_time":1901000000000,"state":"active","ping":101},{"user_id":59,"name":"gentlefard","steam_id":76561199098960193,"connected_time":1728000000000,"state":"active","ping":76},{"user_id":60,"name":"Cagnus Marlsen","steam_id":76561198077859721,"connected_time":1628000000000,"state":"active","ping":72},{"user_id":61,"name":"Ummdustry","steam_id":76561198063470477,"connected_time":1536000000000,"state":"active","ping":57},{"user_id":62,"name":"Prostate stealer","steam_id":76561198866972538,"connected_time":1525000000000,"state":"active","ping":86},{"user_id":76,"name":"Anon","steam_id":76561198161044725,"connected_time":693000000000,"state":"active","ping":58},{"user_id":73,"name":"Nithle","steam_id":76561198025372740,"connected_time":851000000000,"state":"active","ping":30},{"user_id":79,"name":"Trentin","steam_id":76561198328665196,"connected_time":405000000000,"state":"active","ping":57},{"user_id":80,"name":"reatardhole","steam_id":76561198141217941,"connected_time":399000000000,"state":"active","ping":114}]},{"server_id":41,"name":"Uncletopia | London | 8 | Community","name_short":"lon-8","host":"lon-1.uk.uncletopia.com","port":27085,"enabled":true,"region":"eu","cc":"gb","latitude":51.509865,"longitude":-0.118092,"reserved":0,"last_update":"0001-01-01T00:00:00Z","name_a2s":"Uncletopia | London | 8 | Community","protocol":17,"map":"workshop/koth_synthetic_rc6a.ugc1549817316","folder":"tf","game":"Team Fortress","app_id":440,"player_count":0,"max_players":24,"Bots":0,"server_type":"Dedicated","server_os":"Linux","password":true,"vac":true,"version":"7882260","steam_id":85568392924964315,"keywords":["cp","nocrits","nodmgspread","uncletopia"],"game_id":440,"stv_port":27086,"stv_name":"Uncletopia | London | 8 | Community | STV","players":null},{"server_id":300,"name":"Uncletopia | Montr√©al | 1 | All Maps","name_short":"mtl-1","host":"mtl-1.ca.uncletopia.com","port":27015,"enabled":true,"region":"us-east","cc":"ca","latitude":45.50889,"longitude":-73.56167,"reserved":0,"last_update":"0001-01-01T00:00:00Z","name_a2s":"Uncletopia | Montr√©al | 1 | All Maps","protocol":17,"map":"cp_process_final","folder":"tf","game":"Team Fortress","app_id":440,"player_count":0,"max_players":24,"Bots":0,"server_type":"Dedicated","server_os":"Linux","password":true,"vac":true,"version":"7882260","steam_id":85568392924500087,"keywords":["cp","nocrits","nodmgspread","uncletopia"],"game_id":440,"stv_port":27016,"stv_name":"Uncletopia | Montr√©al | 1 | All Maps | STV","players":null},{"server_id":301,"name":"Uncletopia | Montr√©al | 2 | All Maps","name_short":"mtl-2","host":"mtl-1.ca.uncletopia.com","port":27025,"enabled":true,"region":"us-east","cc":"ca","latitude":45.50889,"longitude":-73.56167,"reserved":0,"last_update":"0001-01-01T00:00:00Z","name_a2s":"Uncletopia | Montr√©al | 2 | All Maps","protocol":17,"map":"pl_swiftwater_final1","folder":"tf","game":"Team Fortress","app_id":440,"player_count":0,"max_players":24,"Bots":0,"server_type":"Dedicated","server_os":"Linux","password":true,"vac":true,"version":"7882260","steam_id":85568392924500088,"keywords":["nocrits","nodmgspread","payload","uncletopia"],"game_id":440,"stv_port":27026,"stv_name":"Uncletopia | Montr√©al | 2 | All Maps | STV","players":null},{"server_id":302,"name":"Uncletopia | Montr√©al | 3 | All Maps","name_short":"mtl-3","host":"mtl-1.ca.uncletopia.com","port":27035,"enabled":true,"region":"us-east","cc":"ca","latitude":45.50889,"longitude":-73.56167,"reserved":0,"last_update":"0001-01-01T00:00:00Z","name_a2s":"Uncletopia | Montr√©al | 3 | All Maps","protocol":17,"map":"pl_borneo","folder":"tf","game":"Team Fortress","app_id":440,"player_count":0,"max_players":24,"Bots":0,"server_type":"Dedicated","server_os":"Linux","password":true,"vac":true,"version":"7882260","steam_id":85568392924500089,"keywords":["nocrits","nodmgspread","payload","uncletopia"],"game_id":440,"stv_port":27036,"stv_name":"Uncletopia | Montr√©al | 3 | All Maps | STV","players":null},{"server_id":303,"name":"Uncletopia | Montr√©al | 4 | No Payload","name_short":"mtl-4","host":"mtl-1.ca.uncletopia.com","port":27045,"enabled":true,"region":"us-east","cc":"ca","latitude":45.50889,"longitude":-73.56167,"reserved":0,"last_update":"0001-01-01T00:00:00Z","name_a2s":"Uncletopia | Montr√©al | 4 | No Payload","protocol":17,"map":"cp_altitude","folder":"tf","game":"Team Fortress","app_id":440,"player_count":0,"max_players":24,"Bots":0,"server_type":"Dedicated","server_os":"Linux","password":true,"vac":true,"version":"7882260","steam_id":85568392924500090,"keywords":["cp","nocrits","nodmgspread","uncletopia"],"game_id":440,"stv_port":27046,"stv_name":"Uncletopia | Montr√©al | 4 | No Payload | STV","players":null},{"server_id":13,"name":"Uncletopia | New York City | 1 | All Maps","name_short":"nyc-1","host":"nyc-1.us.uncletopia.com","port":27015,"enabled":true,"region":"us-east","cc":"us","latitude":40.73061,"longitude":-73.93524,"reserved":0,"last_update":"0001-01-01T00:00:00Z","name_a2s":"Uncletopia | New York City | 1 | All Maps","protocol":17,"map":"cp_process_final","folder":"tf","game":"Team Fortress","app_id":440,"player_count":24,"max_players":24,"Bots":0,"server_type":"Dedicated","server_os":"Linux","password":true,"vac":true,"version":"7882260","steam_id":85568392924469993,"keywords":["cp","nocrits","nodmgspread","uncletopia"],"game_id":440,"stv_port":27016,"stv_name":"Uncletopia | New York City | 1 | All Maps | STV","players":[{"user_id":234,"name":"cool safe name","steam_id":76561198237827742,"connected_time":9096000000000,"state":"active","ping":49},{"user_id":331,"name":"SentientKitKatBar(F2P)","steam_id":76561198842149924,"connected_time":1345000000000,"state":"active","ping":186},{"user_id":333,"name":"ryvn","steam_id":76561198355645915,"connected_time":594000000000,"state":"active","ping":54},{"user_id":306,"name":"marge","steam_id":76561198064823861,"connected_time":2638000000000,"state":"active","ping":53},{"user_id":334,"name":"WhazhisfacePC","steam_id":76561198321796408,"connected_time":587000000000,"state":"active","ping":48},{"user_id":314,"name":"Junkfish","steam_id":76561199168630846,"connected_time":2049000000000,"state":"active","ping":66},{"user_id":335,"name":"Alexthegreat","steam_id":76561197996796222,"connected_time":576000000000,"state":"active","ping":45},{"user_id":336,"name":"$lime k‚úîng WHYYYTEb0y^-^","steam_id":76561198283687382,"connected_time":509000000000,"state":"active","ping":85},{"user_id":338,"name":"Lain","steam_id":76561198252784944,"connected_time":452000000000,"state":"active","ping":105},{"user_id":347,"name":"rraymondddh","steam_id":76561198006216337,"connected_time":201000000000,"state":"active","ping":69},{"user_id":339,"name":"ItsTanleyCrunch","steam_id":76561198037915942,"connected_time":433000000000,"state":"active","ping":81},{"user_id":340,"name":"pigswill","steam_id":76561197999081865,"connected_time":426000000000,"state":"active","ping":70},{"user_id":318,"name":"OMGimAnoobLOLOL","steam_id":76561198879677475,"connected_time":1986000000000,"state":"active","ping":91},{"user_id":341,"name":"Trash","steam_id":76561198358471281,"connected_time":419000000000,"state":"active","ping":44},{"user_id":299,"name":"the_willy12","steam_id":76561199145029672,"connected_time":2978000000000,"state":"active","ping":73},{"user_id":342,"name":"C-Moon","steam_id":76561198093688740,"connected_time":393000000000,"state":"active","ping":78},{"user_id":343,"name":"yoklaty","steam_id":76561199020932212,"connected_time":391000000000,"state":"active","ping":151},{"user_id":344,"name":"Revenant","steam_id":76561198074139416,"connected_time":388000000000,"state":"active","ping":106},{"user_id":345,"name":"GrapeGoodra","steam_id":76561198042141579,"connected_time":375000000000,"state":"active","ping":79},{"user_id":346,"name":"Nonok","steam_id":76561199480685498,"connected_time":357000000000,"state":"active","ping":138},{"user_id":301,"name":"Nerrrd_","steam_id":76561198870129960,"connected_time":2964000000000,"state":"active","ping":45},{"user_id":308,"name":"Brunch","steam_id":76561198045933938,"connected_time":2271000000000,"state":"active","ping":45},{"user_id":323,"name":"Failtastic","steam_id":76561198994009973,"connected_time":1713000000000,"state":"active","ping":65},{"user_id":332,"name":"Viokik","steam_id":76561198408846602,"connected_time":668000000000,"state":"active","ping":50}]},{"server_id":14,"name":"Uncletopia | New York City | 2 | All Maps","name_short":"nyc-2","host":"nyc-1.us.uncletopia.com","port":27025,"enabled":true,"region":"us-east","cc":"us","latitude":40.73061,"longitude":-73.93524,"reserved":0,"last_update":"0001-01-01T00:00:00Z","name_a2s":"Uncletopia | New York City | 2 | All Maps","protocol":17,"map":"koth_nucleus","folder":"tf","game":"Team Fortress","app_id":440,"player_count":24,"max_players":24,"Bots":0,"server_type":"Dedicated","server_os":"Linux","password":true,"vac":true,"version":"7882260","steam_id":85568392924469994,"keywords":["cp","nocrits","nodmgspread","uncletopia"],"game_id":440,"stv_port":27026,"stv_name":"Uncletopia | New York City | 2 | All Maps | STV","players":[{"user_id":133,"name":"Jukebox","steam_id":76561198044541359,"connected_time":1144000000000,"state":"active","ping":100},{"user_id":57,"name":"xxa","steam_id":76561197984735021,"connected_time":2974000000000,"state":"active","ping":90},{"user_id":50,"name":"Suez","steam_id":76561198034642980,"connected_time":3558000000000,"state":"active","ping":90},{"user_id":15,"name":"Mr.noob","steam_id":76561199200442395,"connected_time":5204000000000,"state":"active","ping":156},{"user_id":119,"name":"·πΩ‚ßâ cookie","steam_id":76561197998884823,"connected_time":2016000000000,"state":"active","ping":63},{"user_id":28,"name":"Metapod","steam_id":76561198008725465,"connected_time":4268000000000,"state":"active","ping":65},{"user_id":139,"name":"saib","steam_id":76561198966980576,"connected_time":661000000000,"state":"active","ping":37},{"user_id":19,"name":"Spectre","steam_id":76561198025652246,"connected_time":4637000000000,"state":"active","ping":49},{"user_id":20,"name":"KCritical","steam_id":76561198036988728,"connected_time":4477000000000,"state":"active","ping":58},{"user_id":141,"name":"FliturbiousRex","steam_id":76561199217583334,"connected_time":344000000000,"state":"active","ping":57},{"user_id":22,"name":"Oni","steam_id":76561198112066584,"connected_time":4406000000000,"state":"active","ping":73},{"user_id":120,"name":"water bottle","steam_id":76561198096860013,"connected_time":2004000000000,"state":"active","ping":45},{"user_id":135,"name":"Jeffenthropus","steam_id":76561198134204248,"connected_time":1071000000000,"state":"active","ping":60},{"user_id":53,"name":"Horrizan","steam_id":76561197965028480,"connected_time":3118000000000,"state":"active","ping":88},{"user_id":126,"name":"Baron von Whoopsie","steam_id":76561197996691013,"connected_time":1549000000000,"state":"active","ping":56},{"user_id":140,"name":"The Poopshitter","steam_id":76561198870068763,"connected_time":505000000000,"state":"active","ping":88},{"user_id":130,"name":"Gus Fring","steam_id":76561198053303170,"connected_time":1210000000000,"state":"active","ping":118},{"user_id":125,"name":"Plenty to do in the Bathroom","steam_id":76561198087708042,"connected_time":1580000000000,"state":"active","ping":70},{"user_id":142,"name":"Gilgamesh","steam_id":76561198317113179,"connected_time":123000000000,"state":"active","ping":79},{"user_id":137,"name":"Cheesi","steam_id":76561199417190840,"connected_time":954000000000,"state":"active","ping":83},{"user_id":52,"name":"frizzle fried","steam_id":76561198062991744,"connected_time":3523000000000,"state":"active","ping":50},{"user_id":143,"name":"PieTheMan","steam_id":76561198027825469,"connected_time":66000000000,"state":"active","ping":92},{"user_id":138,"name":"Engiqueer","steam_id":76561198214080773,"connected_time":797000000000,"state":"active","ping":68},{"user_id":46,"name":"Chilidestroy","steam_id":76561199101551797,"connected_time":3735000000000,"state":"active","ping":81}]},{"server_id":15,"name":"Uncletopia | New York City | 3 | Stopwatch Beta","name_short":"nyc-3","host":"nyc-1.us.uncletopia.com","port":27035,"enabled":true,"region":"us-east","cc":"us","latitude":40.73061,"longitude":-73.93524,"reserved":0,"last_update":"0001-01-01T00:00:00Z","name_a2s":"Uncletopia | New York City | 3 | Stopwatch Beta","protocol":17,"map":"pl_borneo","folder":"tf","game":"Team Fortress","app_id":440,"player_count":0,"max_players":24,"Bots":0,"server_type":"Dedicated","server_os":"Linux","password":true,"vac":true,"version":"7882260","steam_id":85568392924742820,"keywords":["nocrits","nodmgspread","payload","uncletopia"],"game_id":440,"stv_port":27036,"stv_name":"Uncletopia | New York City | 3 | Stopwatch Beta | STV","players":null},{"server_id":16,"name":"Uncletopia | New York City | 4 | Community","name_short":"nyc-4","host":"nyc-1.us.uncletopia.com","port":27045,"enabled":true,"region":"us-east","cc":"us","latitude":40.73061,"longitude":-73.93524,"reserved":0,"last_update":"0001-01-01T00:00:00Z","name_a2s":"Uncletopia | New York City | 4 | Community","protocol":17,"map":"pl_badwater","folder":"tf","game":"Team Fortress","app_id":440,"player_count":0,"max_players":24,"Bots":0,"server_type":"Dedicated","server_os":"Linux","password":true,"vac":true,"version":"7882260","steam_id":85568392924742821,"keywords":["nocrits","nodmgspread","payload","uncletopia"],"game_id":440,"stv_port":27046,"stv_name":"Uncletopia | New York City | 4 | Community | STV","players":null},{"server_id":142,"name":"Uncletopia | S√£o Paulo | 1 | All Maps","name_short":"sao-1","host":"sao-1.br.uncletopia.com","port":27015,"enabled":true,"region":"sa","cc":"br","latitude":-23.533773,"longitude":-46.62529,"reserved":0,"last_update":"0001-01-01T00:00:00Z","name_a2s":"Uncletopia | S√£o Paulo | 1 | All Maps","protocol":17,"map":"cp_dustbowl","folder":"tf","game":"Team Fortress","app_id":440,"player_count":0,"max_players":24,"Bots":0,"server_type":"Dedicated","server_os":"Linux","password":true,"vac":true,"version":"7882260","steam_id":85568392924469996,"keywords":["cp","nocrits","nodmgspread","uncletopia"],"game_id":440,"stv_port":27016,"stv_name":"Uncletopia | S√£o Paulo | 1 | All Maps | STV","players":null},{"server_id":143,"name":"Uncletopia | S√£o Paulo | 2 | All Maps","name_short":"sao-2","host":"sao-2.br.uncletopia.com","port":27015,"enabled":true,"region":"sa","cc":"br","latitude":-23.533773,"longitude":-46.62529,"reserved":0,"last_update":"0001-01-01T00:00:00Z","name_a2s":"Uncletopia | S√£o Paulo | 2 | All Maps","protocol":17,"map":"koth_lakeside_final","folder":"tf","game":"Team Fortress","app_id":440,"player_count":5,"max_players":24,"Bots":0,"server_type":"Dedicated","server_os":"Linux","password":true,"vac":true,"version":"7882260","steam_id":85568392924485349,"keywords":["cp","nocrits","nodmgspread","uncletopia"],"game_id":440,"stv_port":27016,"stv_name":"Uncletopia | S√£o Paulo | 2 | All Maps | STV","players":[{"user_id":78,"name":"stuwpid pyo maim","steam_id":76561199246901712,"connected_time":1457000000000,"state":"active","ping":45},{"user_id":83,"name":"Doctor","steam_id":76561198830196340,"connected_time":138000000000,"state":"active","ping":33},{"user_id":80,"name":"Anthy-chan","steam_id":76561198381380154,"connected_time":867000000000,"state":"active","ping":60},{"user_id":84,"name":"Mikael_01","steam_id":76561199080253129,"connected_time":81000000000,"state":"active","ping":50},{"user_id":82,"name":"ZemannKiller","steam_id":76561199455618597,"connected_time":535000000000,"state":"active","ping":236}]},{"server_id":7,"name":"Uncletopia | Seattle | 1 | All Maps","name_short":"sea-1","host":"sea-1.us.uncletopia.com","port":27015,"enabled":true,"region":"us-west","cc":"us","latitude":47.608013,"longitude":-122.33517,"reserved":0,"last_update":"0001-01-01T00:00:00Z","name_a2s":"Uncletopia | Seattle | 1 | All Maps","protocol":17,"map":"pl_pier","folder":"tf","game":"Team Fortress","app_id":440,"player_count":24,"max_players":24,"Bots":0,"server_type":"Dedicated","server_os":"Linux","password":true,"vac":true,"version":"7882260","steam_id":85568392924469997,"keywords":["nocrits","nodmgspread","payload","uncletopia"],"game_id":440,"stv_port":27016,"stv_name":"Uncletopia | Seattle | 1 | All Maps | STV","players":[{"user_id":341,"name":"Prince Sword","steam_id":76561198054656093,"connected_time":1670000000000,"state":"active","ping":68},{"user_id":321,"name":"FreehandBlock51","steam_id":76561198993505645,"connected_time":2879000000000,"state":"active","ping":57},{"user_id":356,"name":"crouton.net","steam_id":76561198068374646,"connected_time":790000000000,"state":"active","ping":67},{"user_id":346,"name":"CrazyKermitRubes","steam_id":76561198009065204,"connected_time":1195000000000,"state":"active","ping":132},{"user_id":286,"name":"Fh","steam_id":76561198000903511,"connected_time":6126000000000,"state":"active","ping":60},{"user_id":288,"name":"Pneumo.","steam_id":76561197987911883,"connected_time":5803000000000,"state":"active","ping":69},{"user_id":347,"name":"PyroManiac","steam_id":76561198005988491,"connected_time":1190000000000,"state":"active","ping":89},{"user_id":345,"name":"Thewaffleman141","steam_id":76561198083068694,"connected_time":1475000000000,"state":"active","ping":110},{"user_id":359,"name":"Pubk","steam_id":76561198095939571,"connected_time":348000000000,"state":"active","ping":44},{"user_id":348,"name":"Peepster","steam_id":76561198297854733,"connected_time":1189000000000,"state":"active","ping":114},{"user_id":343,"name":"Grilled Jizo","steam_id":76561199250875340,"connected_time":1512000000000,"state":"active","ping":62},{"user_id":349,"name":"reverie","steam_id":76561198168158637,"connected_time":1179000000000,"state":"active","ping":78},{"user_id":353,"name":"iaPK","steam_id":76561198056618642,"connected_time":1051000000000,"state":"active","ping":80},{"user_id":332,"name":"ira","steam_id":76561198120360801,"connected_time":2512000000000,"state":"active","ping":72},{"user_id":334,"name":"Apollo","steam_id":76561198162364702,"connected_time":2236000000000,"state":"active","ping":54},{"user_id":351,"name":"payload","steam_id":76561198063475894,"connected_time":1145000000000,"state":"active","ping":114},{"user_id":316,"name":"Little Linguine","steam_id":76561198816986370,"connected_time":3135000000000,"state":"active","ping":58},{"user_id":305,"name":"Manchurian Bandit","steam_id":76561198072410042,"connected_time":4215000000000,"state":"active","ping":80},{"user_id":352,"name":"Keamy","steam_id":76561199471434875,"connected_time":1104000000000,"state":"active","ping":42},{"user_id":283,"name":"spiderland","steam_id":76561198335992132,"connected_time":6634000000000,"state":"active","ping":55},{"user_id":292,"name":"Jolly","steam_id":76561198116357972,"connected_time":5592000000000,"state":"active","ping":71},{"user_id":301,"name":"ursa","steam_id":76561198025394298,"connected_time":4431000000000,"state":"active","ping":106},{"user_id":355,"name":"Lot 105","steam_id":76561198972835565,"connected_time":977000000000,"state":"active","ping":41},{"user_id":308,"name":"Quarter Cheese","steam_id":76561198115814588,"connected_time":3724000000000,"state":"active","ping":46}]},{"server_id":119,"name":"Uncletopia | Seattle | 2 | All Maps","name_short":"sea-2","host":"sea-1.us.uncletopia.com","port":27025,"enabled":true,"region":"us-west","cc":"us","latitude":47.608013,"longitude":-122.33517,"reserved":0,"last_update":"0001-01-01T00:00:00Z","name_a2s":"Uncletopia | Seattle | 2 | All Maps","protocol":17,"map":"pl_thundermountain","folder":"tf","game":"Team Fortress","app_id":440,"player_count":24,"max_players":24,"Bots":0,"server_type":"Dedicated","server_os":"Linux","password":true,"vac":true,"version":"7882260","steam_id":85568392924469998,"keywords":["nocrits","nodmgspread","payload","uncletopia"],"game_id":440,"stv_port":27026,"stv_name":"Uncletopia | Seattle | 2 | All Maps | STV","players":[{"user_id":184,"name":"Jacob Hornberger 2016","steam_id":76561198204549723,"connected_time":2142000000000,"state":"active","ping":106},{"user_id":203,"name":"Tibrochief","steam_id":76561198311897153,"connected_time":1091000000000,"state":"active","ping":84},{"user_id":207,"name":"Xyk","steam_id":76561198023268899,"connected_time":862000000000,"state":"active","ping":121},{"user_id":189,"name":"IndigoWendigo","steam_id":76561199084247684,"connected_time":1802000000000,"state":"active","ping":100},{"user_id":215,"name":"Greskrendtregk","steam_id":76561197969553142,"connected_time":104000000000,"state":"active","ping":56},{"user_id":214,"name":"Skeletor","steam_id":76561199037244725,"connected_time":162000000000,"state":"active","ping":103},{"user_id":172,"name":"ilikeballs","steam_id":76561198249980016,"connected_time":3531000000000,"state":"active","ping":92},{"user_id":216,"name":"LordMorphesus","steam_id":76561198026995104,"connected_time":98000000000,"state":"active","ping":46},{"user_id":191,"name":"professional twelve year old","steam_id":76561198858796870,"connected_time":1702000000000,"state":"active","ping":44},{"user_id":169,"name":"I throw a lot","steam_id":76561198209650964,"connected_time":3785000000000,"state":"active","ping":84},{"user_id":193,"name":"BlazedBunny","steam_id":76561198243610560,"connected_time":1654000000000,"state":"active","ping":71},{"user_id":209,"name":"A UsedNom","steam_id":76561198402832756,"connected_time":791000000000,"state":"active","ping":63},{"user_id":217,"name":"Mcfighter2","steam_id":76561198168073956,"connected_time":76000000000,"state":"spawning","ping":90},{"user_id":218,"name":"MoldyCoffee936","steam_id":76561198099061153,"connected_time":75000000000,"state":"active","ping":75},{"user_id":205,"name":"Deputy Dog","steam_id":76561197960441667,"connected_time":921000000000,"state":"active","ping":114},{"user_id":200,"name":"Underscore Paul","steam_id":76561198070300902,"connected_time":1395000000000,"state":"active","ping":69},{"user_id":201,"name":"INDUSTRY","steam_id":76561198216635401,"connected_time":1251000000000,"state":"active","ping":120},{"user_id":211,"name":"Vincent Van Bro","steam_id":76561197966919802,"connected_time":645000000000,"state":"active","ping":58},{"user_id":168,"name":"float","steam_id":76561198363371528,"connected_time":3917000000000,"state":"active","ping":56},{"user_id":210,"name":"Coup de Grass","steam_id":76561198011643226,"connected_time":790000000000,"state":"active","ping":121},{"user_id":219,"name":"choppa Âá∏(‚ñ∫Àõ‚óÑ'!)","steam_id":76561198123236186,"connected_time":58000000000,"state":"active","ping":98},{"user_id":196,"name":"JoeJoeJoeBob","steam_id":76561198067236683,"connected_time":1528000000000,"state":"active","ping":57},{"user_id":213,"name":"h","steam_id":76561198868164815,"connected_time":233000000000,"state":"active","ping":50},{"user_id":198,"name":"mrbutter","steam_id":76561198313426539,"connected_time":1469000000000,"state":"active","ping":87}]},{"server_id":406,"name":"Uncletopia | Seattle | 3 | Stopwatch Beta","name_short":"sea-3","host":"sea-1.us.uncletopia.com","port":27035,"enabled":true,"region":"us-west","cc":"us","latitude":47.608013,"longitude":-122.33517,"reserved":0,"last_update":"0001-01-01T00:00:00Z","name_a2s":"Uncletopia | Seattle | 3 | Stopwatch Beta","protocol":17,"map":"pl_swiftwater_final1","folder":"tf","game":"Team Fortress","app_id":440,"player_count":0,"max_players":24,"Bots":0,"server_type":"Dedicated","server_os":"Linux","password":true,"vac":true,"version":"7882260","steam_id":85568392924515217,"keywords":["nocrits","nodmgspread","payload","uncletopia"],"game_id":440,"stv_port":27036,"stv_name":"Uncletopia | Seattle | 3 | Stopwatch Beta | STV","players":null},{"server_id":17,"name":"Uncletopia | San Francisco | 1 | All Maps","name_short":"sfo-1","host":"sfo-1.us.uncletopia.com","port":27015,"enabled":true,"region":"us-west","cc":"us","latitude":37.77397,"longitude":-122.4313,"reserved":0,"last_update":"0001-01-01T00:00:00Z","name_a2s":"Uncletopia | San Francisco | 1 | All Maps","protocol":17,"map":"cp_process_final","folder":"tf","game":"Team Fortress","app_id":440,"player_count":0,"max_players":24,"Bots":0,"server_type":"Dedicated","server_os":"Linux","password":true,"vac":true,"version":"7757534","steam_id":85568392924469999,"keywords":["cp","nocrits","nodmgspread","uncletopia"],"game_id":440,"stv_port":27016,"stv_name":"Uncletopia | San Francisco | 1 | All Maps | STV","players":null},{"server_id":18,"name":"Uncletopia | San Francisco | 2 | All Maps","name_short":"sfo-2","host":"sfo-1.us.uncletopia.com","port":27025,"enabled":true,"region":"us-west","cc":"us","latitude":37.77397,"longitude":-122.4313,"reserved":0,"last_update":"0001-01-01T00:00:00Z","name_a2s":"Uncletopia | San Francisco | 2 | All Maps","protocol":17,"map":"koth_highpass","folder":"tf","game":"Team Fortress","app_id":440,"player_count":0,"max_players":24,"Bots":0,"server_type":"Dedicated","server_os":"Linux","password":true,"vac":true,"version":"7757534","steam_id":85568392924470000,"keywords":["cp","nocrits","nodmgspread","uncletopia"],"game_id":440,"stv_port":27026,"stv_name":"Uncletopia | San Francisco | 2 | All Maps | STV","players":null},{"server_id":19,"name":"Uncletopia | San Francisco | 3 | Stopwatch Beta","name_short":"sfo-3","host":"sfo-1.us.uncletopia.com","port":27035,"enabled":true,"region":"us-west","cc":"us","latitude":37.77397,"longitude":-122.4313,"reserved":0,"last_update":"0001-01-01T00:00:00Z","name_a2s":"Uncletopia | San Francisco | 3 | Stopwatch Beta","protocol":17,"map":"koth_lakeside_final","folder":"tf","game":"Team Fortress","app_id":440,"player_count":0,"max_players":24,"Bots":0,"server_type":"Dedicated","server_os":"Linux","password":true,"vac":true,"version":"7757534","steam_id":85568392924742824,"keywords":["cp","nocrits","nodmgspread","uncletopia"],"game_id":440,"stv_port":27036,"stv_name":"Uncletopia | San Francisco | 3 | Stopwatch Beta | STV","players":null},{"server_id":20,"name":"Uncletopia | San Francisco | 4 | Community","name_short":"sfo-4","host":"sfo-1.us.uncletopia.com","port":27045,"enabled":true,"region":"us-west","cc":"us","latitude":37.77397,"longitude":-122.4313,"reserved":0,"last_update":"0001-01-01T00:00:00Z","name_a2s":"Uncletopia | San Francisco | 4 | Community","protocol":17,"map":"cp_altitude","folder":"tf","game":"Team Fortress","app_id":440,"player_count":0,"max_players":24,"Bots":0,"server_type":"Dedicated","server_os":"Linux","password":true,"vac":true,"version":"7757534","steam_id":85568392924742826,"keywords":["cp","nocrits","nodmgspread","uncletopia"],"game_id":440,"stv_port":27046,"stv_name":"Uncletopia | San Francisco | 4 | Community | STV","players":null},{"server_id":141,"name":"Uncletopia | Sydney | 1 | All Maps","name_short":"syd-1","host":"syd-1.au.uncletopia.com","port":27015,"enabled":true,"region":"au","cc":"au","latitude":-33.865143,"longitude":151.2099,"reserved":0,"last_update":"0001-01-01T00:00:00Z","name_a2s":"Uncletopia | Sydney | 1 | All Maps","protocol":17,"map":"pl_badwater","folder":"tf","game":"Team Fortress","app_id":440,"player_count":0,"max_players":24,"Bots":0,"server_type":"Dedicated","server_os":"Linux","password":true,"vac":true,"version":"7882260","steam_id":85568392924470001,"keywords":["nocrits","nodmgspread","payload","uncletopia"],"game_id":440,"stv_port":27016,"stv_name":"Uncletopia | Sydney | 1 | All Maps | STV","players":null},{"server_id":123,"name":"Uncletopia | Sydney | 2 | All Maps","name_short":"syd-2","host":"syd-1.au.uncletopia.com","port":27025,"enabled":true,"region":"au","cc":"au","latitude":-33.865143,"longitude":151.2099,"reserved":0,"last_update":"0001-01-01T00:00:00Z","name_a2s":"Uncletopia | Sydney | 2 | All Maps","protocol":17,"map":"pl_upward","folder":"tf","game":"Team Fortress","app_id":440,"player_count":17,"max_players":24,"Bots":0,"server_type":"Dedicated","server_os":"Linux","password":true,"vac":true,"version":"7882260","steam_id":85568392924470002,"keywords":["nocrits","nodmgspread","payload","uncletopia"],"game_id":440,"stv_port":27026,"stv_name":"Uncletopia | Sydney | 2 | All Maps | STV","players":[{"user_id":6,"name":"¬Ø\\_(„ÉÑ)_/¬Ø","steam_id":76561199206182584,"connected_time":3447000000000,"state":"active","ping":53},{"user_id":146,"name":"some Pyro player","steam_id":76561199177655299,"connected_time":27000000000,"state":"active","ping":357},{"user_id":72,"name":"Snipan Milat","steam_id":76561198001544539,"connected_time":1467000000000,"state":"active","ping":53},{"user_id":19,"name":"Sgetty","steam_id":76561198308484080,"connected_time":3120000000000,"state":"active","ping":49},{"user_id":11,"name":"ae","steam_id":76561198030431368,"connected_time":3371000000000,"state":"active","ping":84},{"user_id":43,"name":"FiendHalo205","steam_id":76561198828041485,"connected_time":2091000000000,"state":"active","ping":84},{"user_id":13,"name":"BruceWillis235","steam_id":76561198884324029,"connected_time":3351000000000,"state":"active","ping":85},{"user_id":55,"name":"table","steam_id":76561199218095319,"connected_time":1782000000000,"state":"active","ping":49},{"user_id":124,"name":"IPadProRetina","steam_id":76561198117973965,"connected_time":644000000000,"state":"active","ping":60},{"user_id":116,"name":"Verbally Disabled (F2P)","steam_id":76561199417923156,"connected_time":810000000000,"state":"active","ping":45},{"user_id":22,"name":"Minimindd","steam_id":76561199006274892,"connected_time":2963000000000,"state":"active","ping":33},{"user_id":143,"name":"Showtime","steam_id":76561199181793955,"connected_time":210000000000,"state":"active","ping":393},{"user_id":24,"name":"Jontohil2","steam_id":76561198114091810,"connected_time":2937000000000,"state":"active","ping":98},{"user_id":28,"name":"Mr. Game \u0026 Watch","steam_id":76561198985044367,"connected_time":2527000000000,"state":"active","ping":68},{"user_id":130,"name":"Chief Apothecary Rein","steam_id":76561198116056552,"connected_time":489000000000,"state":"active","ping":81},{"user_id":134,"name":"Sulphyr0","steam_id":76561199430044801,"connected_time":421000000000,"state":"active","ping":307},{"user_id":66,"name":"Mughus","steam_id":76561199000886977,"connected_time":1551000000000,"state":"active","ping":50}]},{"server_id":395,"name":"Uncletopia | Sydney | 3 | All Maps","name_short":"syd-3","host":"syd-1.au.uncletopia.com","port":27035,"enabled":true,"region":"au","cc":"au","latitude":-33.865143,"longitude":151.2099,"reserved":0,"last_update":"0001-01-01T00:00:00Z","name_a2s":"Uncletopia | Sydney | 3 | All Maps","protocol":17,"map":"pl_badwater","folder":"tf","game":"Team Fortress","app_id":440,"player_count":0,"max_players":24,"Bots":0,"server_type":"Dedicated","server_os":"Linux","password":true,"vac":true,"version":"7882260","steam_id":85568392925194467,"keywords":["nocrits","nodmgspread","payload","uncletopia"],"game_id":440,"stv_port":27036,"stv_name":"Uncletopia | Sydney | 3 | All Maps | STV","players":null},{"server_id":396,"name":"Uncletopia | Sydney | 4 | All Maps","name_short":"syd-4","host":"syd-1.au.uncletopia.com","port":27045,"enabled":true,"region":"au","cc":"au","latitude":-33.865143,"longitude":151.2099,"reserved":0,"last_update":"0001-01-01T00:00:00Z","name_a2s":"Uncletopia | Sydney | 4 | All Maps","protocol":17,"map":"cp_dustbowl","folder":"tf","game":"Team Fortress","app_id":440,"player_count":0,"max_players":24,"Bots":0,"server_type":"Dedicated","server_os":"Linux","password":true,"vac":true,"version":"7882260","steam_id":85568392925397958,"keywords":["cp","nocrits","nodmgspread","uncletopia"],"game_id":440,"stv_port":27046,"stv_name":"Uncletopia | Sydney | 4 | All Maps | STV","players":null},{"server_id":58,"name":"Uncletopia | Sydney | 5 | Stopwatch Beta","name_short":"syd-5","host":"syd-1.au.uncletopia.com","port":27055,"enabled":true,"region":"au","cc":"au","latitude":-33.865143,"longitude":151.2099,"reserved":0,"last_update":"0001-01-01T00:00:00Z","name_a2s":"Uncletopia | Sydney | 5 | Stopwatch Beta","protocol":17,"map":"cp_snakewater_final1","folder":"tf","game":"Team Fortress","app_id":440,"player_count":0,"max_players":24,"Bots":0,"server_type":"Dedicated","server_os":"Linux","password":true,"vac":true,"version":"7882260","steam_id":85568392925397959,"keywords":["cp","nocrits","nodmgspread","uncletopia"],"game_id":440,"stv_port":27056,"stv_name":"Uncletopia | Sydney | 5 | Stopwatch Beta | STV","players":null},{"server_id":59,"name":"Uncletopia | Sydney | 6 | Community","name_short":"syd-6","host":"syd-1.au.uncletopia.com","port":27065,"enabled":true,"region":"au","cc":"au","latitude":-33.865143,"longitude":151.2099,"reserved":0,"last_update":"0001-01-01T00:00:00Z","name_a2s":"Uncletopia | Sydney | 6 | Community","protocol":17,"map":"pl_snowycoast","folder":"tf","game":"Team Fortress","app_id":440,"player_count":0,"max_players":24,"Bots":0,"server_type":"Dedicated","server_os":"Linux","password":true,"vac":true,"version":"7882260","steam_id":85568392925397960,"keywords":["nocrits","nodmgspread","payload","uncletopia"],"game_id":440,"stv_port":27066,"stv_name":"Uncletopia | Sydney | 6 | Community | STV","players":null},{"server_id":49,"name":"Uncletopia | Warsaw | 1 | All Maps","name_short":"waw-1","host":"waw-1.pl.uncletopia.com","port":27015,"enabled":true,"region":"eu","cc":"pl","latitude":52.2297,"longitude":21.017532,"reserved":0,"last_update":"0001-01-01T00:00:00Z","name_a2s":"","protocol":0,"map":"","folder":"","game":"","app_id":0,"player_count":0,"max_players":0,"Bots":0,"server_type":"","server_os":"","password":false,"vac":false,"version":"","steam_id":0,"keywords":null,"game_id":0,"stv_port":0,"stv_name":"","players":null},{"server_id":50,"name":"Uncletopia | Warsaw | 2 | All Maps","name_short":"waw-2","host":"waw-1.pl.uncletopia.com","port":27025,"enabled":true,"region":"eu","cc":"pl","latitude":52.2297,"longitude":21.017532,"reserved":0,"last_update":"0001-01-01T00:00:00Z","name_a2s":"Uncletopia | Warsaw | 2 | All Maps","protocol":17,"map":"pl_snowycoast","folder":"tf","game":"Team Fortress","app_id":440,"player_count":0,"max_players":24,"Bots":0,"server_type":"Dedicated","server_os":"Linux","password":true,"vac":true,"version":"7882260","steam_id":85568392925397851,"keywords":["nocrits","nodmgspread","payload","uncletopia"],"game_id":440,"stv_port":27026,"stv_name":"Uncletopia | Warsaw | 2 | All Maps | STV","players":null},{"server_id":51,"name":"Uncletopia | Warsaw | 3 | All Maps","name_short":"waw-3","host":"waw-1.pl.uncletopia.com","port":27035,"enabled":true,"region":"eu","cc":"pl","latitude":52.2297,"longitude":21.017532,"reserved":0,"last_update":"0001-01-01T00:00:00Z","name_a2s":"Uncletopia | Warsaw | 3 | All Maps","protocol":17,"map":"cp_altitude","folder":"tf","game":"Team Fortress","app_id":440,"player_count":0,"max_players":24,"Bots":0,"server_type":"Dedicated","server_os":"Linux","password":true,"vac":true,"version":"7882260","steam_id":85568392925397852,"keywords":["cp","nocrits","nodmgspread","uncletopia"],"game_id":440,"stv_port":27036,"stv_name":"Uncletopia | Warsaw | 3 | All Maps | STV","players":null},{"server_id":52,"name":"Uncletopia | Warsaw | 4 | All Maps","name_short":"waw-4","host":"waw-1.pl.uncletopia.com","port":27045,"enabled":true,"region":"eu","cc":"pl","latitude":52.2297,"longitude":21.017532,"reserved":0,"last_update":"0001-01-01T00:00:00Z","name_a2s":"Uncletopia | Warsaw | 4 | All Maps","protocol":17,"map":"cp_sunshine","folder":"tf","game":"Team Fortress","app_id":440,"player_count":0,"max_players":24,"Bots":0,"server_type":"Dedicated","server_os":"Linux","password":true,"vac":true,"version":"7882260","steam_id":85568392925397853,"keywords":["cp","nocrits","nodmgspread","uncletopia"],"game_id":440,"stv_port":27046,"stv_name":"Uncletopia | Warsaw | 4 | All Maps | STV","players":null},{"server_id":53,"name":"Uncletopia | Warsaw | 5 | Stopwatch Beta","name_short":"waw-5","host":"waw-1.pl.uncletopia.com","port":27055,"enabled":true,"region":"eu","cc":"pl","latitude":52.2297,"longitude":21.017532,"reserved":0,"last_update":"0001-01-01T00:00:00Z","name_a2s":"Uncletopia | Warsaw | 5 | Stopwatch Beta","protocol":17,"map":"cp_mountainlab","folder":"tf","game":"Team Fortress","app_id":440,"player_count":0,"max_players":24,"Bots":0,"server_type":"Dedicated","server_os":"Linux","password":true,"vac":true,"version":"7882260","steam_id":85568392925397854,"keywords":["cp","nocrits","nodmgspread","uncletopia"],"game_id":440,"stv_port":27056,"stv_name":"Uncletopia | Warsaw | 5 | Stopwatch Beta | STV","players":null},{"server_id":54,"name":"Uncletopia | Warsaw | 6 | Community","name_short":"waw-6","host":"waw-1.pl.uncletopia.com","port":27065,"enabled":true,"region":"eu","cc":"pl","latitude":52.2297,"longitude":21.017532,"reserved":0,"last_update":"0001-01-01T00:00:00Z","name_a2s":"Uncletopia | Warsaw | 6 | Community","protocol":17,"map":"workshop/pl_cactuscanyon_redux_final2.ugc2579644293","folder":"tf","game":"Team Fortress","app_id":440,"player_count":0,"max_players":24,"Bots":0,"server_type":"Dedicated","server_os":"Linux","password":true,"vac":true,"version":"7882260","steam_id":85568392925397856,"keywords":["nocrits","nodmgspread","payload","uncletopia"],"game_id":440,"stv_port":27066,"stv_name":"Uncletopia | Warsaw | 6 | Community | STV","players":null}]}