{"status":true,"message":"","result":[{"server_id":9,"name":"Uncletopia | Atlanta | 1 | All Maps","name_short":"atl-1","host":"atl-1.us.uncletopia.com","port":27015,"enabled":true,"region":"us-east","cc":"us","latitude":33.753746,"longitude":-84.38633,"reserved":0,"last_update":"0001-01-01T00:00:00Z","name_a2s":"Uncletopia | Atlanta | 1 | All Maps","protocol":17,"map":"pl_badwater","folder":"tf","game":"Team Fortress","app_id":440,"player_count":24,"max_players":24,"Bots":0,"server_type":"Dedicated","server_os":"Linux","password":true,"vac":true,"version":"7742253","steam_id":85568392924469982,"keywords":["nocrits","nodmgspread","payload","uncletopia"],"game_id":440,"stv_port":27016,"stv_name":"Uncletopia | Atlanta | 1 | All Maps | STV","players":[{"user_id":543,"name":"Intro Bonito","steam_id":76561198119478838,"connected_time":917000000000,"state":"active","ping":58},{"user_id":471,"name":"ATL1 | ash","steam_id":76561198127890645,"connected_time":5721000000000,"state":"active","ping":68},{"user_id":546,"name":"pencilneck","steam_id":76561198865971290,"connected_time":377000000000,"state":"active","ping":89},{"user_id":501,"name":"-W3E- grim10465","steam_id":76561198045698581,"connected_time":3763000000000,"state":"active","ping":49},{"user_id":536,"name":"r","steam_id":76561198048882285,"connected_time":968000000000,"state":"active","ping":60},{"user_id":503,"name":"Limbo_Darkness","steam_id":76561198127411819,"connected_time":3730000000000,"state":"active","ping":63},{"user_id":523,"name":"Chimpish","steam_id":76561199263493270,"connected_time":2176000000000,"state":"active","ping":72},{"user_id":513,"name":"Chef","steam_id":76561198086523798,"connected_time":2472000000000,"state":"active","ping":65},{"user_id":487,"name":"Alt","steam_id":76561197992591984,"connected_time":4890000000000,"state":"active","ping":90},{"user_id":476,"name":"Zakareya Alatoli","steam_id":76561199082561774,"connected_time":5563000000000,"state":"active","ping":63},{"user_id":505,"name":"Luucyf3r","steam_id":76561198141820085,"connected_time":3688000000000,"state":"active","ping":60},{"user_id":535,"name":"Mr. Dies to Headshot","steam_id":76561198102278729,"connected_time":1209000000000,"state":"active","ping":59},{"user_id":517,"name":"Doug Dimmadamndimmadimmadougdim","steam_id":76561198136169355,"connected_time":2322000000000,"state":"active","ping":68},{"user_id":524,"name":"Bobbn","steam_id":76561198876124683,"connected_time":2152000000000,"state":"active","ping":79},{"user_id":549,"name":"Sad Sapling","steam_id":76561198075612150,"connected_time":248000000000,"state":"active","ping":110},{"user_id":544,"name":"Shame","steam_id":76561198100490994,"connected_time":917000000000,"state":"active","ping":72},{"user_id":541,"name":"newyears.jimmy.2014","steam_id":76561199177672325,"connected_time":948000000000,"state":"active","ping":44},{"user_id":534,"name":"ericgaming2013","steam_id":76561198422891994,"connected_time":1426000000000,"state":"active","ping":87},{"user_id":521,"name":"ATL1 | to4st","steam_id":76561198981009008,"connected_time":2241000000000,"state":"active","ping":75},{"user_id":522,"name":"Sonic the Hedgehog","steam_id":76561198061661797,"connected_time":2229000000000,"state":"active","ping":80},{"user_id":512,"name":"ATL1 | Psionic Box","steam_id":76561198151019322,"connected_time":2476000000000,"state":"active","ping":74},{"user_id":539,"name":"ATL1 | eish","steam_id":76561198089463603,"connected_time":953000000000,"state":"active","ping":120},{"user_id":325,"name":"shaderoses","steam_id":76561198070800500,"connected_time":13377000000000,"state":"active","ping":67},{"user_id":540,"name":"ATL1 | J O V A","steam_id":76561198090333536,"connected_time":953000000000,"state":"active","ping":73}]},{"server_id":400,"name":"Uncletopia | Atlanta | 3 | Stopwatch Beta","name_short":"atl-3","host":"atl-1.us.uncletopia.com","port":27035,"enabled":true,"region":"us-east","cc":"us","latitude":33.753746,"longitude":-84.38633,"reserved":0,"last_update":"0001-01-01T00:00:00Z","name_a2s":"Uncletopia | Atlanta | 3 | Stopwatch Beta","protocol":17,"map":"pl_upward","folder":"tf","game":"Team Fortress","app_id":440,"player_count":0,"max_players":24,"Bots":0,"server_type":"Dedicated","server_os":"Linux","password":true,"vac":true,"version":"7742253","steam_id":85568392924515187,"keywords":["nocrits","nodmgspread","payload","uncletopia"],"game_id":440,"stv_port":27036,"stv_name":"Uncletopia | Atlanta | 3 | Stopwatch Beta | STV","players":null},{"server_id":401,"name":"Uncletopia | Atlanta | 4 | No Payload","name_short":"atl-4","host":"atl-1.us.uncletopia.com","port":27045,"enabled":true,"region":"us-east","cc":"us","latitude":33.753746,"longitude":-84.38633,"reserved":0,"last_update":"0001-01-01T00:00:00Z","name_a2s":"Uncletopia | Atlanta | 4 | No Payload","protocol":17,"map":"pl_pier","folder":"tf","game":"Team Fortress","app_id":440,"player_count":0,"max_players":24,"Bots":0,"server_type":"Dedicated","server_os":"Linux","password":true,"vac":true,"version":"7723704","steam_id":85568392924515188,"keywords":["nocrits","nodmgspread","payload","uncletopia"],"game_id":440,"stv_port":27046,"stv_name":"Uncletopia | Atlanta | 4 | No Payload | STV","players":null},{"server_id":2,"name":"Uncletopia | Chicago | 1 | All Maps","name_short":"chi-1","host":"chi-1.us.uncletopia.com","port":27015,"enabled":true,"region":"us-central","cc":"us","latitude":41.881832,"longitude":-87.62318,"reserved":0,"last_update":"0001-01-01T00:00:00Z","name_a2s":"Uncletopia | Chicago | 1 | All Maps","protocol":17,"map":"pl_borneo","folder":"tf","game":"Team Fortress","app_id":440,"player_count":25,"max_players":24,"Bots":0,"server_type":"Dedicated","server_os":"Linux","password":true,"vac":true,"version":"7742253","steam_id":85568392924469984,"keywords":["nocrits","nodmgspread","payload","uncletopia"],"game_id":440,"stv_port":27016,"stv_name":"Uncletopia | Chicago | 1 | All Maps | STV","players":[{"user_id":419,"name":"Wengatang","steam_id":76561198021747059,"connected_time":1883000000000,"state":"active","ping":54},{"user_id":330,"name":"Vaultin' Veluza!","steam_id":76561198155872356,"connected_time":7082000000000,"state":"active","ping":57},{"user_id":432,"name":"Rex","steam_id":76561198138365053,"connected_time":1125000000000,"state":"active","ping":131},{"user_id":401,"name":"Daksuki","steam_id":76561198084127751,"connected_time":2575000000000,"state":"active","ping":75},{"user_id":427,"name":"Coach McFish","steam_id":76561198210456405,"connected_time":1676000000000,"state":"active","ping":74},{"user_id":409,"name":"carrion goat","steam_id":76561198262064871,"connected_time":2074000000000,"state":"active","ping":67},{"user_id":441,"name":"Sad Man","steam_id":76561197960857993,"connected_time":5000000000,"state":"spawning","ping":44},{"user_id":439,"name":"tranquil monk arc","steam_id":76561198185980055,"connected_time":390000000000,"state":"active","ping":66},{"user_id":396,"name":"Nnyllazxz","steam_id":76561198247797436,"connected_time":2838000000000,"state":"active","ping":68},{"user_id":428,"name":"ConsumedRat1455","steam_id":76561198800349530,"connected_time":1505000000000,"state":"active","ping":60},{"user_id":389,"name":"KingCrawful","steam_id":76561198104291657,"connected_time":3311000000000,"state":"active","ping":58},{"user_id":416,"name":"Fish_U.S.","steam_id":76561199245543997,"connected_time":1933000000000,"state":"active","ping":124},{"user_id":426,"name":"Razz","steam_id":76561198158027533,"connected_time":1709000000000,"state":"active","ping":50},{"user_id":430,"name":"Piyono","steam_id":76561197962188504,"connected_time":1378000000000,"state":"active","ping":78},{"user_id":434,"name":"ScoutWantsBobux69","steam_id":76561199316368867,"connected_time":887000000000,"state":"active","ping":76},{"user_id":424,"name":"Wilhelmktx","steam_id":76561198158102295,"connected_time":1839000000000,"state":"active","ping":62},{"user_id":390,"name":"Scromch","steam_id":76561198045211728,"connected_time":3008000000000,"state":"active","ping":98},{"user_id":392,"name":"Artic_Ryuu","steam_id":76561198182194918,"connected_time":3002000000000,"state":"active","ping":94},{"user_id":433,"name":"Fraglin","steam_id":76561198124964000,"connected_time":1113000000000,"state":"active","ping":67},{"user_id":437,"name":"The One True Pineapple #SaveTF2","steam_id":76561198083157236,"connected_time":517000000000,"state":"active","ping":72},{"user_id":357,"name":"6Dnine","steam_id":76561198955884070,"connected_time":5901000000000,"state":"active","ping":97},{"user_id":435,"name":"bear","steam_id":76561198313696546,"connected_time":856000000000,"state":"active","ping":81},{"user_id":425,"name":"Architect","steam_id":76561198015242016,"connected_time":1836000000000,"state":"active","ping":53},{"user_id":436,"name":"IGotTheLettuce","steam_id":76561198062473897,"connected_time":669000000000,"state":"active","ping":81},{"user_id":442,"name":"Quartermistress","steam_id":76561198140199123,"connected_time":2000000000,"state":"spawning","ping":128}]},{"server_id":106,"name":"Uncletopia | Chicago | 2 | All Maps","name_short":"chi-2","host":"chi-1.us.uncletopia.com","port":27025,"enabled":true,"region":"us-central","cc":"us","latitude":41.881832,"longitude":-87.62318,"reserved":0,"last_update":"0001-01-01T00:00:00Z","name_a2s":"Uncletopia | Chicago | 2 | All Maps","protocol":17,"map":"pl_wutville_event","folder":"tf","game":"Team Fortress","app_id":440,"player_count":21,"max_players":24,"Bots":0,"server_type":"Dedicated","server_os":"Linux","password":true,"vac":true,"version":"7742253","steam_id":85568392924469985,"keywords":["nocrits","nodmgspread","payload","uncletopia"],"game_id":440,"stv_port":27026,"stv_name":"Uncletopia | Chicago | 2 | All Maps | STV","players":[{"user_id":516,"name":"‚òÖUNKNOWN‚òÖ","steam_id":76561198963074953,"connected_time":1961000000000,"state":"active","ping":90},{"user_id":536,"name":"Hero8171","steam_id":76561199239824271,"connected_time":80000000000,"state":"active","ping":60},{"user_id":493,"name":"DeckofDragons","steam_id":76561198057398213,"connected_time":3405000000000,"state":"active","ping":69},{"user_id":494,"name":"Tienne","steam_id":76561198359050265,"connected_time":3396000000000,"state":"active","ping":45},{"user_id":512,"name":"‚ô•Gothie‚ô•","steam_id":76561198166814648,"connected_time":2057000000000,"state":"active","ping":111},{"user_id":450,"name":"Samsiel","steam_id":76561198094134951,"connected_time":7786000000000,"state":"active","ping":91},{"user_id":529,"name":"09robcraft2","steam_id":76561199073189184,"connected_time":202000000000,"state":"active","ping":81},{"user_id":506,"name":"cory in the house","steam_id":76561198296933059,"connected_time":2748000000000,"state":"active","ping":88},{"user_id":530,"name":"the real Santa (real)","steam_id":76561199139182003,"connected_time":201000000000,"state":"active","ping":54},{"user_id":537,"name":"Fabydoi","steam_id":76561199146674144,"connected_time":70000000000,"state":"active","ping":70},{"user_id":515,"name":"‚ù§Ryabuh or Ryabuh‚ù§","steam_id":76561198323374795,"connected_time":1971000000000,"state":"active","ping":70},{"user_id":508,"name":"-flagellum","steam_id":76561198006297974,"connected_time":2612000000000,"state":"active","ping":52},{"user_id":538,"name":"Post nut clarity","steam_id":76561198060246831,"connected_time":48000000000,"state":"active","ping":86},{"user_id":534,"name":"MR.meeseeks","steam_id":76561198294943420,"connected_time":160000000000,"state":"active","ping":65},{"user_id":531,"name":"tank","steam_id":76561199146161006,"connected_time":194000000000,"state":"active","ping":66},{"user_id":532,"name":"BIGIS OF BLACKIS","steam_id":76561198862802962,"connected_time":192000000000,"state":"active","ping":63},{"user_id":533,"name":"Thebarefoot133","steam_id":76561198883468152,"connected_time":181000000000,"state":"active","ping":75},{"user_id":535,"name":"Poacher","steam_id":76561198867626964,"connected_time":115000000000,"state":"active","ping":94},{"user_id":507,"name":"BingBingAZ","steam_id":76561198353065343,"connected_time":2657000000000,"state":"active","ping":94},{"user_id":539,"name":"BORN IN GOOP RAISED IN POOP","steam_id":76561198095909397,"connected_time":30000000000,"state":"active","ping":87},{"user_id":520,"name":"CryoCrab12","steam_id":76561198398818373,"connected_time":1918000000000,"state":"active","ping":84}]},{"server_id":402,"name":"Uncletopia | Chicago | 3 | All Maps","name_short":"chi-3","host":"chi-1.us.uncletopia.com","port":27035,"enabled":true,"region":"us-central","cc":"us","latitude":41.881832,"longitude":-87.62318,"reserved":0,"last_update":"0001-01-01T00:00:00Z","name_a2s":"Uncletopia | Chicago | 3 | All Maps","protocol":17,"map":"pl_barnblitz","folder":"tf","game":"Team Fortress","app_id":440,"player_count":24,"max_players":24,"Bots":0,"server_type":"Dedicated","server_os":"Linux","password":true,"vac":true,"version":"7742253","steam_id":85568392924515191,"keywords":["nocrits","nodmgspread","payload","uncletopia"],"game_id":440,"stv_port":27036,"stv_name":"Uncletopia | Chicago | 3 | All Maps | STV","players":[{"user_id":233,"name":"evnobev","steam_id":76561198038966462,"connected_time":1468000000000,"state":"active","ping":65},{"user_id":208,"name":"Confu510n‚ô•","steam_id":76561198007711315,"connected_time":3782000000000,"state":"active","ping":100},{"user_id":249,"name":"SuperSnappy123","steam_id":76561198128202529,"connected_time":281000000000,"state":"active","ping":146},{"user_id":238,"name":"[DATS‚û°] Sugar Meowth","steam_id":76561197995251793,"connected_time":1224000000000,"state":"active","ping":89},{"user_id":250,"name":"Likely Scripting|Bitch Im Geeke","steam_id":76561199173343569,"connected_time":271000000000,"state":"active","ping":98},{"user_id":204,"name":"t.tv/ibbKitty ‚àë:3","steam_id":76561198110858518,"connected_time":3924000000000,"state":"active","ping":46},{"user_id":251,"name":"BreadGod","steam_id":76561198050665205,"connected_time":265000000000,"state":"active","ping":95},{"user_id":186,"name":"CreeperCatBengal","steam_id":76561198213193221,"connected_time":4884000000000,"state":"active","ping":72},{"user_id":235,"name":"hello","steam_id":76561198063595962,"connected_time":1323000000000,"state":"active","ping":165},{"user_id":220,"name":"Scorpie Doodle","steam_id":76561198021845763,"connected_time":3175000000000,"state":"active","ping":50},{"user_id":234,"name":"North Central Positronics Rep","steam_id":76561198133718360,"connected_time":1393000000000,"state":"active","ping":70},{"user_id":207,"name":"Skaab","steam_id":76561198002854414,"connected_time":3830000000000,"state":"active","ping":83},{"user_id":246,"name":"FlameJamez","steam_id":76561198144826722,"connected_time":683000000000,"state":"active","ping":79},{"user_id":252,"name":"God of bread","steam_id":76561198373688035,"connected_time":256000000000,"state":"active","ping":61},{"user_id":232,"name":"[slug]","steam_id":76561197989592178,"connected_time":1519000000000,"state":"active","ping":62},{"user_id":222,"name":"ZekeThePlumber","steam_id":76561197995016724,"connected_time":2621000000000,"state":"active","ping":69},{"user_id":253,"name":"George Washington","steam_id":76561197993295656,"connected_time":243000000000,"state":"active","ping":46},{"user_id":211,"name":"peepeeroni","steam_id":76561198382877812,"connected_time":3729000000000,"state":"active","ping":66},{"user_id":254,"name":"hazel","steam_id":76561198447244031,"connected_time":242000000000,"state":"active","ping":76},{"user_id":213,"name":"Lucas Rafael","steam_id":76561198189233230,"connected_time":3721000000000,"state":"active","ping":176},{"user_id":215,"name":"ploperdoo","steam_id":76561198359149032,"connected_time":3689000000000,"state":"active","ping":147},{"user_id":231,"name":"Deenoüåπ","steam_id":76561198059044325,"connected_time":1524000000000,"state":"active","ping":62},{"user_id":243,"name":"Gheeotine","steam_id":76561198010181698,"connected_time":760000000000,"state":"active","ping":86},{"user_id":255,"name":"Rhutebeer","steam_id":76561198018302761,"connected_time":239000000000,"state":"active","ping":96}]},{"server_id":403,"name":"Uncletopia | Chicago | 4 | All Maps","name_short":"chi-4","host":"chi-1.us.uncletopia.com","port":27045,"enabled":true,"region":"us-central","cc":"us","latitude":41.881832,"longitude":-87.62318,"reserved":0,"last_update":"0001-01-01T00:00:00Z","name_a2s":"Uncletopia | Chicago | 4 | All Maps","protocol":17,"map":"pl_wutville_event","folder":"tf","game":"Team Fortress","app_id":440,"player_count":19,"max_players":24,"Bots":0,"server_type":"Dedicated","server_os":"Linux","password":true,"vac":true,"version":"7742253","steam_id":85568392924515193,"keywords":["nocrits","nodmgspread","payload","uncletopia"],"game_id":440,"stv_port":27046,"stv_name":"Uncletopia | Chicago | 4 | All Maps | STV","players":[{"user_id":430,"name":"Nuen","steam_id":76561198936096111,"connected_time":5592000000000,"state":"active","ping":50},{"user_id":458,"name":"HavocGDI","steam_id":76561199388371914,"connected_time":4132000000000,"state":"active","ping":115},{"user_id":499,"name":"C0SMIC PLAGU3","steam_id":76561198051958643,"connected_time":645000000000,"state":"active","ping":78},{"user_id":515,"name":"Zeeze","steam_id":76561197998153057,"connected_time":30000000000,"state":"active","ping":52},{"user_id":507,"name":"iso","steam_id":76561198384009390,"connected_time":532000000000,"state":"active","ping":71},{"user_id":492,"name":"brian eno","steam_id":76561198109901138,"connected_time":897000000000,"state":"active","ping":73},{"user_id":470,"name":"Dino Dude","steam_id":76561198799270016,"connected_time":3485000000000,"state":"active","ping":41},{"user_id":510,"name":"Epha","steam_id":76561198079379951,"connected_time":416000000000,"state":"active","ping":63},{"user_id":473,"name":"ChernobylFriend","steam_id":76561198244676730,"connected_time":3188000000000,"state":"active","ping":85},{"user_id":508,"name":"Nexo Fighter","steam_id":76561199187418090,"connected_time":510000000000,"state":"active","ping":122},{"user_id":495,"name":"daniella ^w^","steam_id":76561198368663825,"connected_time":720000000000,"state":"active","ping":76},{"user_id":466,"name":"D7NAMM0","steam_id":76561198356245658,"connected_time":3800000000000,"state":"active","ping":52},{"user_id":475,"name":"no","steam_id":76561198248853140,"connected_time":2652000000000,"state":"active","ping":49},{"user_id":420,"name":"WhoIsFrosty","steam_id":76561198880588117,"connected_time":7186000000000,"state":"active","ping":58},{"user_id":477,"name":"Lumpy","steam_id":76561198058840585,"connected_time":2599000000000,"state":"active","ping":76},{"user_id":512,"name":"exotic.luke","steam_id":76561198126466112,"connected_time":370000000000,"state":"active","ping":46},{"user_id":484,"name":"jan kili","steam_id":76561198289894834,"connected_time":2427000000000,"state":"active","ping":63},{"user_id":489,"name":"Dumbus Denny","steam_id":76561198052328616,"connected_time":1353000000000,"state":"active","ping":54},{"user_id":488,"name":"YASAI JUICE","steam_id":76561198131971992,"connected_time":1460000000000,"state":"active","ping":35}]},{"server_id":36,"name":"Uncletopia | Chicago | 5 | All Maps","name_short":"chi-5","host":"chi-2.us.uncletopia.com","port":27015,"enabled":true,"region":"us-central","cc":"us","latitude":41.881832,"longitude":-87.62318,"reserved":0,"last_update":"0001-01-01T00:00:00Z","name_a2s":"Uncletopia | Chicago | 5 | All Maps","protocol":17,"map":"pl_hoodoo_final","folder":"tf","game":"Team Fortress","app_id":440,"player_count":21,"max_players":24,"Bots":0,"server_type":"Dedicated","server_os":"Linux","password":true,"vac":true,"version":"7742253","steam_id":85568392924866362,"keywords":["nocrits","nodmgspread","payload","uncletopia"],"game_id":440,"stv_port":27016,"stv_name":"Uncletopia | Chicago | 5 | All Maps | STV","players":[{"user_id":737,"name":"the brown shit on the banana","steam_id":76561198807719872,"connected_time":405000000000,"state":"active","ping":87},{"user_id":742,"name":"Dealyo","steam_id":76561198282395338,"connected_time":224000000000,"state":"active","ping":76},{"user_id":741,"name":"ZyberTheTrilogy","steam_id":76561199224319852,"connected_time":278000000000,"state":"active","ping":123},{"user_id":712,"name":"Dirtbike rider","steam_id":76561198030457066,"connected_time":1682000000000,"state":"active","ping":88},{"user_id":733,"name":"ev0wade123","steam_id":76561199121968812,"connected_time":1287000000000,"state":"active","ping":82},{"user_id":714,"name":"Festive Ahoodin","steam_id":76561198110081710,"connected_time":1658000000000,"state":"active","ping":75},{"user_id":720,"name":"Jones","steam_id":76561198109500066,"connected_time":1629000000000,"state":"active","ping":60},{"user_id":702,"name":"Notorious_Pat","steam_id":76561198092348214,"connected_time":2509000000000,"state":"active","ping":50},{"user_id":736,"name":"neet","steam_id":76561197968115168,"connected_time":544000000000,"state":"active","ping":59},{"user_id":739,"name":"Min wage Scout working holidays","steam_id":76561198041046882,"connected_time":351000000000,"state":"active","ping":47},{"user_id":718,"name":"lloydc99","steam_id":76561198024999815,"connected_time":1640000000000,"state":"active","ping":64},{"user_id":707,"name":"three three","steam_id":76561198177354155,"connected_time":1776000000000,"state":"active","ping":54},{"user_id":730,"name":"Finn","steam_id":76561198179960193,"connected_time":1375000000000,"state":"active","ping":133},{"user_id":647,"name":"Heartgold","steam_id":76561199062592062,"connected_time":5688000000000,"state":"active","ping":96},{"user_id":708,"name":"StatTrak‚Ñ¢ Apple (Factory New)","steam_id":76561199062601243,"connected_time":1771000000000,"state":"active","ping":58},{"user_id":719,"name":"UNIT 220","steam_id":76561198042243497,"connected_time":1638000000000,"state":"active","ping":79},{"user_id":740,"name":"Nick_Cage_Jesus","steam_id":76561198055957674,"connected_time":321000000000,"state":"active","ping":46},{"user_id":725,"name":"Fribas","steam_id":76561198138502813,"connected_time":1520000000000,"state":"active","ping":80},{"user_id":731,"name":"Hash-Smokin Smasha","steam_id":76561198167583291,"connected_time":1369000000000,"state":"active","ping":123},{"user_id":722,"name":"Nik√≥laos","steam_id":76561198183653142,"connected_time":1617000000000,"state":"active","ping":91},{"user_id":700,"name":"Gaming on a 13 year old Mac","steam_id":76561198019476636,"connected_time":2588000000000,"state":"active","ping":74}]},{"server_id":37,"name":"Uncletopia | Chicago | 6 | All Maps","name_short":"chi-6","host":"chi-2.us.uncletopia.com","port":27025,"enabled":true,"region":"us-central","cc":"us","latitude":41.881832,"longitude":-87.62318,"reserved":0,"last_update":"0001-01-01T00:00:00Z","name_a2s":"Uncletopia | Chicago | 6 | All Maps","protocol":17,"map":"pl_upward","folder":"tf","game":"Team Fortress","app_id":440,"player_count":24,"max_players":24,"Bots":0,"server_type":"Dedicated","server_os":"Linux","password":true,"vac":true,"version":"7742253","steam_id":85568392924866363,"keywords":["nocrits","nodmgspread","payload","uncletopia"],"game_id":440,"stv_port":27026,"stv_name":"Uncletopia | Chicago | 6 | All Maps | STV","players":[{"user_id":72,"name":"Boot","steam_id":76561198423162555,"connected_time":4805000000000,"state":"active","ping":70},{"user_id":103,"name":"bug insect","steam_id":76561198049223356,"connected_time":2568000000000,"state":"active","ping":65},{"user_id":126,"name":"BOR XOR","steam_id":76561198063294776,"connected_time":750000000000,"state":"active","ping":86},{"user_id":132,"name":"tim-","steam_id":76561199119101315,"connected_time":313000000000,"state":"active","ping":76},{"user_id":116,"name":"Banana Jim","steam_id":76561198124049947,"connected_time":2184000000000,"state":"active","ping":79},{"user_id":125,"name":"goobins","steam_id":76561198834355366,"connected_time":906000000000,"state":"active","ping":91},{"user_id":130,"name":"Splinto","steam_id":76561198111260488,"connected_time":449000000000,"state":"active","ping":50},{"user_id":120,"name":"leg so hot u fry an egg","steam_id":76561198048730519,"connected_time":1070000000000,"state":"active","ping":85},{"user_id":127,"name":"-=Bits=-Dinkleberg","steam_id":76561198080367616,"connected_time":687000000000,"state":"active","ping":87},{"user_id":133,"name":"Eggs","steam_id":76561198414356455,"connected_time":249000000000,"state":"active","ping":72},{"user_id":121,"name":"ayr","steam_id":76561198083640961,"connected_time":1066000000000,"state":"active","ping":69},{"user_id":105,"name":"Super Noob","steam_id":76561199179611350,"connected_time":2537000000000,"state":"active","ping":63},{"user_id":106,"name":"sweglord227","steam_id":76561198415510262,"connected_time":2532000000000,"state":"active","ping":55},{"user_id":131,"name":"Banana","steam_id":76561198321485249,"connected_time":449000000000,"state":"active","ping":42},{"user_id":118,"name":"slowdance","steam_id":76561198097427947,"connected_time":2173000000000,"state":"active","ping":149},{"user_id":107,"name":"aimboat","steam_id":76561198218131923,"connected_time":2520000000000,"state":"active","ping":68},{"user_id":128,"name":"indust","steam_id":76561198007456119,"connected_time":496000000000,"state":"active","ping":51},{"user_id":134,"name":"‚ù§ Ashley ‚ù§","steam_id":76561198056428303,"connected_time":222000000000,"state":"active","ping":104},{"user_id":122,"name":"Pugzilla","steam_id":76561198108088960,"connected_time":1058000000000,"state":"active","ping":69},{"user_id":101,"name":"Chimp of the year","steam_id":76561198114676855,"connected_time":2633000000000,"state":"active","ping":67},{"user_id":110,"name":"dr peppah chug!","steam_id":76561198068835693,"connected_time":2465000000000,"state":"active","ping":89},{"user_id":112,"name":"Twan","steam_id":76561197991064908,"connected_time":2357000000000,"state":"active","ping":68},{"user_id":123,"name":"Rendoas","steam_id":76561198002105259,"connected_time":1047000000000,"state":"active","ping":76},{"user_id":94,"name":"kawakami_fan_225","steam_id":76561198799336176,"connected_time":3670000000000,"state":"active","ping":94}]},{"server_id":38,"name":"Uncletopia | Chicago | 7 | Stopwatch Beta","name_short":"chi-7","host":"chi-2.us.uncletopia.com","port":27035,"enabled":true,"region":"us-central","cc":"us","latitude":41.881832,"longitude":-87.62318,"reserved":0,"last_update":"0001-01-01T00:00:00Z","name_a2s":"Uncletopia | Chicago | 7 | Stopwatch Beta","protocol":17,"map":"pl_swiftwater_final1","folder":"tf","game":"Team Fortress","app_id":440,"player_count":0,"max_players":24,"Bots":0,"server_type":"Dedicated","server_os":"Linux","password":true,"vac":true,"version":"7742253","steam_id":85568392924866364,"keywords":["nocrits","nodmgspread","payload","uncletopia"],"game_id":440,"stv_port":27036,"stv_name":"Uncletopia | Chicago | 7 | Stopwatch Beta | STV","players":null},{"server_id":39,"name":"Uncletopia | Chicago | 8 | Community","name_short":"chi-8","host":"chi-2.us.uncletopia.com","port":27045,"enabled":true,"region":"us-central","cc":"us","latitude":41.881832,"longitude":-87.62318,"reserved":0,"last_update":"0001-01-01T00:00:00Z","name_a2s":"Uncletopia | Chicago | 8 | Community","protocol":17,"map":"workshop/koth_ramjam_rc1.ugc459778887","folder":"tf","game":"Team Fortress","app_id":440,"player_count":9,"max_players":24,"Bots":0,"server_type":"Dedicated","server_os":"Linux","password":true,"vac":true,"version":"7742253","steam_id":85568392924866365,"keywords":["cp","nocrits","nodmgspread","uncletopia"],"game_id":440,"stv_port":27046,"stv_name":"Uncletopia | Chicago | 8 | Community | STV","players":[{"user_id":16,"name":"Do not [REDACTED] the Fox","steam_id":76561198081971317,"connected_time":719000000000,"state":"active","ping":55},{"user_id":17,"name":"Discount","steam_id":76561198228825336,"connected_time":713000000000,"state":"active","ping":92},{"user_id":18,"name":"adil","steam_id":76561198197047443,"connected_time":712000000000,"state":"active","ping":59},{"user_id":19,"name":"CURB YOUR ENTHUSIASM","steam_id":76561198177893343,"connected_time":710000000000,"state":"active","ping":71},{"user_id":20,"name":"erik","steam_id":76561198080486123,"connected_time":703000000000,"state":"active","ping":98},{"user_id":21,"name":"vandeer","steam_id":76561198120124007,"connected_time":699000000000,"state":"active","ping":104},{"user_id":22,"name":"Giant Dad","steam_id":76561198042088837,"connected_time":565000000000,"state":"active","ping":81},{"user_id":24,"name":"eryn üó∫","steam_id":76561198004433070,"connected_time":377000000000,"state":"active","ping":79},{"user_id":29,"name":"Luigiminer8","steam_id":76561198803438732,"connected_time":247000000000,"state":"active","ping":101}]},{"server_id":8,"name":"Uncletopia | Dallas | 1 | All Maps","name_short":"dal-1","host":"dal-1.us.uncletopia.com","port":27015,"enabled":true,"region":"us-central","cc":"us","latitude":32.779167,"longitude":-96.80889,"reserved":0,"last_update":"0001-01-01T00:00:00Z","name_a2s":"Uncletopia | Dallas | 1 | All Maps","protocol":17,"map":"pl_pier","folder":"tf","game":"Team Fortress","app_id":440,"player_count":23,"max_players":24,"Bots":0,"server_type":"Dedicated","server_os":"Linux","password":true,"vac":true,"version":"7742253","steam_id":85568392924469986,"keywords":["nocrits","nodmgspread","payload","uncletopia"],"game_id":440,"stv_port":27016,"stv_name":"Uncletopia | Dallas | 1 | All Maps | STV","players":[{"user_id":370,"name":"Die-Sas","steam_id":76561198987794008,"connected_time":3253000000000,"state":"active","ping":61},{"user_id":406,"name":"......","steam_id":76561198067612741,"connected_time":2126000000000,"state":"active","ping":90},{"user_id":433,"name":"Ballista","steam_id":76561197983182562,"connected_time":154000000000,"state":"active","ping":57},{"user_id":383,"name":"indian fart porn","steam_id":76561197996132951,"connected_time":2862000000000,"state":"active","ping":58},{"user_id":422,"name":"Vladikr1","steam_id":76561198401495362,"connected_time":1212000000000,"state":"active","ping":82},{"user_id":423,"name":"n00bz4h1re","steam_id":76561199232578514,"connected_time":1211000000000,"state":"active","ping":86},{"user_id":394,"name":"Zim","steam_id":76561198971354161,"connected_time":2698000000000,"state":"active","ping":78},{"user_id":402,"name":"Len","steam_id":76561199141913673,"connected_time":2231000000000,"state":"active","ping":63},{"user_id":408,"name":"CapnKris22","steam_id":76561198049010994,"connected_time":2081000000000,"state":"active","ping":88},{"user_id":410,"name":"he he he yup","steam_id":76561198070214668,"connected_time":2075000000000,"state":"active","ping":61},{"user_id":432,"name":"lana_del_rey.com","steam_id":76561198172447621,"connected_time":300000000000,"state":"active","ping":71},{"user_id":379,"name":"Chrisscar","steam_id":76561198086298130,"connected_time":2923000000000,"state":"active","ping":77},{"user_id":434,"name":"J3SUS","steam_id":76561198368965383,"connected_time":69000000000,"state":"active","ping":90},{"user_id":435,"name":"G. Howard Dee","steam_id":76561198058382812,"connected_time":28000000000,"state":"active","ping":105},{"user_id":413,"name":"Mr Sir Logan","steam_id":76561198088803891,"connected_time":2060000000000,"state":"active","ping":91},{"user_id":387,"name":"Mellon","steam_id":76561198092509893,"connected_time":2837000000000,"state":"active","ping":54},{"user_id":431,"name":"FUSION","steam_id":76561197972659738,"connected_time":649000000000,"state":"active","ping":80},{"user_id":389,"name":"--_Cook_--","steam_id":76561198080855748,"connected_time":2767000000000,"state":"active","ping":77},{"user_id":416,"name":"TrashVortex","steam_id":76561199229200288,"connected_time":1562000000000,"state":"active","ping":63},{"user_id":426,"name":"osha noncompliant rocketlaunche","steam_id":76561198273484725,"connected_time":1194000000000,"state":"active","ping":83},{"user_id":430,"name":"selvhat","steam_id":76561198114225509,"connected_time":721000000000,"state":"active","ping":82},{"user_id":396,"name":"Whoa","steam_id":76561197970353496,"connected_time":2694000000000,"state":"active","ping":81},{"user_id":428,"name":"Braixen","steam_id":76561198354314389,"connected_time":1172000000000,"state":"active","ping":83}]},{"server_id":108,"name":"Uncletopia | Dallas | 2 | All Maps","name_short":"dal-2","host":"dal-1.us.uncletopia.com","port":27025,"enabled":true,"region":"us-central","cc":"us","latitude":32.779167,"longitude":-96.80889,"reserved":0,"last_update":"0001-01-01T00:00:00Z","name_a2s":"Uncletopia | Dallas | 2 | All Maps","protocol":17,"map":"pl_upward","folder":"tf","game":"Team Fortress","app_id":440,"player_count":24,"max_players":24,"Bots":0,"server_type":"Dedicated","server_os":"Linux","password":true,"vac":true,"version":"7742253","steam_id":85568392924469988,"keywords":["nocrits","nodmgspread","payload","uncletopia"],"game_id":440,"stv_port":27026,"stv_name":"Uncletopia | Dallas | 2 | All Maps | STV","players":[{"user_id":418,"name":"plink","steam_id":76561198057829889,"connected_time":5695000000000,"state":"active","ping":87},{"user_id":508,"name":"SKIN IS WHERE THE FLAVOR IS","steam_id":76561198115842661,"connected_time":160000000000,"state":"active","ping":86},{"user_id":468,"name":"survivalist keeda","steam_id":76561198277979851,"connected_time":2834000000000,"state":"active","ping":91},{"user_id":504,"name":"boiker.","steam_id":76561198387977506,"connected_time":921000000000,"state":"connecting","ping":386},{"user_id":506,"name":"Lady Duckland","steam_id":76561198077092840,"connected_time":583000000000,"state":"active","ping":84},{"user_id":509,"name":"Jolly Old Asshat","steam_id":76561198004584315,"connected_time":159000000000,"state":"active","ping":83},{"user_id":510,"name":"Pim","steam_id":76561198046050375,"connected_time":128000000000,"state":"active","ping":112},{"user_id":511,"name":"bbboomer37","steam_id":76561199126411204,"connected_time":119000000000,"state":"active","ping":43},{"user_id":446,"name":"FG7","steam_id":76561198381197197,"connected_time":4779000000000,"state":"active","ping":106},{"user_id":422,"name":"survivalist bubbie","steam_id":76561198860460013,"connected_time":5589000000000,"state":"active","ping":70},{"user_id":507,"name":"xZackAttack27x","steam_id":76561198035446639,"connected_time":193000000000,"state":"active","ping":39},{"user_id":488,"name":"Garduuk","steam_id":76561198010745965,"connected_time":2102000000000,"state":"active","ping":78},{"user_id":495,"name":"Spirosity","steam_id":76561198013485753,"connected_time":1537000000000,"state":"active","ping":90},{"user_id":502,"name":"hola","steam_id":76561198873043242,"connected_time":1205000000000,"state":"active","ping":131},{"user_id":359,"name":"willow","steam_id":76561198068266114,"connected_time":10225000000000,"state":"active","ping":90},{"user_id":455,"name":"spill","steam_id":76561198082337619,"connected_time":3528000000000,"state":"active","ping":87},{"user_id":499,"name":"LazerPencilBox","steam_id":76561198355108566,"connected_time":1312000000000,"state":"active","ping":81},{"user_id":490,"name":"Brass beast heavy","steam_id":76561198274197623,"connected_time":2090000000000,"state":"active","ping":162},{"user_id":500,"name":"Ferguson","steam_id":76561198121349387,"connected_time":1266000000000,"state":"active","ping":49},{"user_id":513,"name":"Sanic_Bum","steam_id":76561198094179822,"connected_time":49000000000,"state":"active","ping":75},{"user_id":472,"name":"ThtGyVrThr","steam_id":76561198805852870,"connected_time":2781000000000,"state":"active","ping":62},{"user_id":514,"name":"Rightwardsky","steam_id":76561198025536022,"connected_time":11000000000,"state":"spawning","ping":117},{"user_id":476,"name":"HeroOfTime","steam_id":76561199096218001,"connected_time":2530000000000,"state":"active","ping":86},{"user_id":474,"name":"Vestuvian","steam_id":76561199007823355,"connected_time":2618000000000,"state":"active","ping":69}]},{"server_id":5,"name":"Uncletopia | Frankfurt | 1 | All Maps","name_short":"frk-1","host":"frk-1.de.uncletopia.com","port":27015,"enabled":true,"region":"eu","cc":"de","latitude":50.110924,"longitude":8.682127,"reserved":0,"last_update":"0001-01-01T00:00:00Z","name_a2s":"Uncletopia | Frankfurt | 1 | All Maps","protocol":17,"map":"koth_cascade","folder":"tf","game":"Team Fortress","app_id":440,"player_count":0,"max_players":24,"Bots":0,"server_type":"Dedicated","server_os":"Linux","password":true,"vac":true,"version":"7742253","steam_id":85568392924469989,"keywords":["cp","nocrits","nodmgspread","uncletopia"],"game_id":440,"stv_port":27016,"stv_name":"Uncletopia | Frankfurt | 1 | All Maps | STV","players":null},{"server_id":110,"name":"Uncletopia | Frankfurt | 2 | All Maps","name_short":"frk-2","host":"frk-1.de.uncletopia.com","port":27025,"enabled":true,"region":"eu","cc":"de","latitude":50.110924,"longitude":8.682127,"reserved":0,"last_update":"0001-01-01T00:00:00Z","name_a2s":"Uncletopia | Frankfurt | 2 | All Maps","protocol":17,"map":"pl_borneo","folder":"tf","game":"Team Fortress","app_id":440,"player_count":0,"max_players":24,"Bots":0,"server_type":"Dedicated","server_os":"Linux","password":true,"vac":true,"version":"7742253","steam_id":85568392924469990,"keywords":["nocrits","nodmgspread","payload","uncletopia"],"game_id":440,"stv_port":27026,"stv_name":"Uncletopia | Frankfurt | 2 | All Maps | STV","players":null},{"server_id":308,"name":"Uncletopia | Frankfurt | 3 | All Maps","name_short":"frk-3","host":"frk-1.de.uncletopia.com","port":27035,"enabled":true,"region":"eu","cc":"de","latitude":50.110924,"longitude":8.682127,"reserved":0,"last_update":"0001-01-01T00:00:00Z","name_a2s":"Uncletopia | Frankfurt | 3 | All Maps","protocol":17,"map":"pl_borneo","folder":"tf","game":"Team Fortress","app_id":440,"player_count":4,"max_players":24,"Bots":0,"server_type":"Dedicated","server_os":"Linux","password":true,"vac":true,"version":"7742253","steam_id":85568392924504274,"keywords":["nocrits","nodmgspread","payload","uncletopia"],"game_id":440,"stv_port":27036,"stv_name":"Uncletopia | Frankfurt | 3 | All Maps | STV","players":[{"user_id":424,"name":"Titanium Tony","steam_id":76561198079275761,"connected_time":135000000000,"state":"active","ping":65},{"user_id":408,"name":"TheWisePenny","steam_id":76561198196492146,"connected_time":2212000000000,"state":"active","ping":53},{"user_id":423,"name":"DingDong","steam_id":76561198065508930,"connected_time":284000000000,"state":"active","ping":60},{"user_id":413,"name":"K1nG","steam_id":76561198130134788,"connected_time":1610000000000,"state":"active","ping":49}]},{"server_id":309,"name":"Uncletopia | Frankfurt | 4 | All Maps","name_short":"frk-4","host":"frk-1.de.uncletopia.com","port":27045,"enabled":true,"region":"eu","cc":"de","latitude":50.110924,"longitude":8.682127,"reserved":0,"last_update":"0001-01-01T00:00:00Z","name_a2s":"Uncletopia | Frankfurt | 4 | All Maps","protocol":17,"map":"pl_thundermountain","folder":"tf","game":"Team Fortress","app_id":440,"player_count":0,"max_players":24,"Bots":0,"server_type":"Dedicated","server_os":"Linux","password":true,"vac":true,"version":"7742253","steam_id":85568392924504275,"keywords":["nocrits","nodmgspread","payload","uncletopia"],"game_id":440,"stv_port":27046,"stv_name":"Uncletopia | Frankfurt | 4 | All Maps | STV","players":null},{"server_id":310,"name":"Uncletopia | Frankfurt | 5 | All Maps","name_short":"frk-5","host":"frk-1.de.uncletopia.com","port":27055,"enabled":true,"region":"eu","cc":"de","latitude":50.110924,"longitude":8.682127,"reserved":0,"last_update":"0001-01-01T00:00:00Z","name_a2s":"Uncletopia | Frankfurt | 5 | All Maps","protocol":17,"map":"pl_borneo","folder":"tf","game":"Team Fortress","app_id":440,"player_count":24,"max_players":24,"Bots":0,"server_type":"Dedicated","server_os":"Linux","password":true,"vac":true,"version":"7742253","steam_id":85568392924504277,"keywords":["nocrits","nodmgspread","payload","uncletopia"],"game_id":440,"stv_port":27056,"stv_name":"Uncletopia | Frankfurt | 5 | All Maps | STV","players":[{"user_id":606,"name":"TheRowdyGamer_","steam_id":76561198829553046,"connected_time":3801000000000,"state":"active","ping":67},{"user_id":612,"name":"Lazulura","steam_id":76561198103569919,"connected_time":2854000000000,"state":"active","ping":95},{"user_id":588,"name":"cinny","steam_id":76561198832112629,"connected_time":6282000000000,"state":"active","ping":88},{"user_id":613,"name":"simn","steam_id":76561198159182269,"connected_time":2854000000000,"state":"active","ping":46},{"user_id":605,"name":"I Don't Know","steam_id":76561198841011430,"connected_time":4035000000000,"state":"active","ping":64},{"user_id":641,"name":"CactusFarms","steam_id":76561199009131802,"connected_time":41000000000,"state":"active","ping":62},{"user_id":526,"name":"Borat","steam_id":76561198122226417,"connected_time":10816000000000,"state":"active","ping":54},{"user_id":635,"name":"Homicidal Tendencies","steam_id":76561198828681043,"connected_time":1051000000000,"state":"active","ping":56},{"user_id":638,"name":"Natha","steam_id":76561198022248546,"connected_time":744000000000,"state":"active","ping":51},{"user_id":625,"name":"Kameleon","steam_id":76561198041394657,"connected_time":2433000000000,"state":"active","ping":61},{"user_id":620,"name":"Talent","steam_id":76561198153880354,"connected_time":2731000000000,"state":"active","ping":67},{"user_id":636,"name":"Tomaash","steam_id":76561198115542042,"connected_time":1025000000000,"state":"active","ping":56},{"user_id":594,"name":"Johnny","steam_id":76561198880265246,"connected_time":4854000000000,"state":"active","ping":85},{"user_id":553,"name":"waffle toaster","steam_id":76561198799089628,"connected_time":9395000000000,"state":"active","ping":61},{"user_id":622,"name":"Room","steam_id":76561199174579733,"connected_time":2648000000000,"state":"active","ping":140},{"user_id":639,"name":"SoupER","steam_id":76561198063056668,"connected_time":245000000000,"state":"active","ping":54},{"user_id":597,"name":"Dee","steam_id":76561198257836694,"connected_time":4648000000000,"state":"active","ping":57},{"user_id":637,"name":"thomas :-)","steam_id":76561198355097756,"connected_time":913000000000,"state":"active","ping":60},{"user_id":609,"name":"torn","steam_id":76561198223003236,"connected_time":3046000000000,"state":"active","ping":70},{"user_id":626,"name":"Soubureizu","steam_id":76561198048250715,"connected_time":2357000000000,"state":"active","ping":48},{"user_id":601,"name":"gambling addicted retard","steam_id":76561199039713160,"connected_time":4579000000000,"state":"active","ping":61},{"user_id":628,"name":"Miss Bari","steam_id":76561198365286092,"connected_time":2312000000000,"state":"active","ping":51},{"user_id":600,"name":"subway vergil","steam_id":76561199110064166,"connected_time":4615000000000,"state":"active","ping":69},{"user_id":630,"name":"Boycie","steam_id":76561198179116027,"connected_time":1960000000000,"state":"active","ping":65}]},{"server_id":311,"name":"Uncletopia | Frankfurt | 6 | All Maps","name_short":"frk-6","host":"frk-1.de.uncletopia.com","port":27065,"enabled":true,"region":"eu","cc":"de","latitude":50.110924,"longitude":8.682127,"reserved":0,"last_update":"0001-01-01T00:00:00Z","name_a2s":"Uncletopia | Frankfurt | 6 | All Maps","protocol":17,"map":"cp_altitude","folder":"tf","game":"Team Fortress","app_id":440,"player_count":0,"max_players":24,"Bots":0,"server_type":"Dedicated","server_os":"Linux","password":true,"vac":true,"version":"7742253","steam_id":85568392924504278,"keywords":["cp","nocrits","nodmgspread","uncletopia"],"game_id":440,"stv_port":27066,"stv_name":"Uncletopia | Frankfurt | 6 | All Maps | STV","players":null},{"server_id":23,"name":"Uncletopia | Frankfurt | 7 | Stopwatch Beta","name_short":"frk-7","host":"frk-1.de.uncletopia.com","port":27075,"enabled":true,"region":"eu","cc":"de","latitude":50.110924,"longitude":8.682127,"reserved":0,"last_update":"0001-01-01T00:00:00Z","name_a2s":"Uncletopia | Frankfurt | 7 | Stopwatch Beta","protocol":17,"map":"pl_badwater","folder":"tf","game":"Team Fortress","app_id":440,"player_count":0,"max_players":24,"Bots":0,"server_type":"Dedicated","server_os":"Linux","password":true,"vac":true,"version":"7742253","steam_id":85568392924742827,"keywords":["nocrits","nodmgspread","payload","uncletopia"],"game_id":440,"stv_port":27076,"stv_name":"Uncletopia | Frankfurt | 7 | Stopwatch Beta | STV","players":null},{"server_id":24,"name":"Uncletopia | Frankfurt | 8 | Community","name_short":"frk-8","host":"frk-1.de.uncletopia.com","port":27085,"enabled":true,"region":"eu","cc":"de","latitude":50.110924,"longitude":8.682127,"reserved":0,"last_update":"0001-01-01T00:00:00Z","name_a2s":"Uncletopia | Frankfurt | 8 | Community","protocol":17,"map":"workshop/pl_vigil_rc9.ugc1266210012","folder":"tf","game":"Team Fortress","app_id":440,"player_count":0,"max_players":24,"Bots":0,"server_type":"Dedicated","server_os":"Linux","password":true,"vac":true,"version":"7742253","steam_id":85568392924742828,"keywords":["nocrits","nodmgspread","payload","uncletopia"],"game_id":440,"stv_port":27086,"stv_name":"Uncletopia | Frankfurt | 8 | Community | STV","players":null},{"server_id":202,"name":"Uncletopia | Hong Kong | 1 | All Maps","name_short":"hgk-1","host":"hgk-1.hk.uncletopia.com","port":27015,"enabled":true,"region":"asia","cc":"hk","latitude":22.302711,"longitude":114.177216,"reserved":0,"last_update":"0001-01-01T00:00:00Z","name_a2s":"Uncletopia | Hong Kong | 1 | All Maps","protocol":17,"map":"pl_frontier_final","folder":"tf","game":"Team Fortress","app_id":440,"player_count":0,"max_players":24,"Bots":0,"server_type":"Dedicated","server_os":"Linux","password":true,"vac":true,"version":"7742253","steam_id":85568392924494504,"keywords":["nocrits","nodmgspread","payload","uncletopia"],"game_id":440,"stv_port":27016,"stv_name":"Uncletopia | Hong Kong | 1 | All Maps | STV","players":null},{"server_id":1,"name":"Uncletopia | Los Angeles | 1 | All Maps","name_short":"lax-1","host":"lax-1.us.uncletopia.com","port":27015,"enabled":true,"region":"us-west","cc":"us","latitude":33.94279,"longitude":-118.41004,"reserved":0,"last_update":"0001-01-01T00:00:00Z","name_a2s":"Uncletopia | Los Angeles | 1 | All Maps","protocol":17,"map":"koth_nucleus","folder":"tf","game":"Team Fortress","app_id":440,"player_count":23,"max_players":24,"Bots":0,"server_type":"Dedicated","server_os":"Linux","password":true,"vac":true,"version":"7742253","steam_id":85568392924469991,"keywords":["cp","nocrits","nodmgspread","uncletopia"],"game_id":440,"stv_port":27016,"stv_name":"Uncletopia | Los Angeles | 1 | All Maps | STV","players":[{"user_id":396,"name":"Sasuri","steam_id":76561198404769732,"connected_time":133000000000,"state":"active","ping":52},{"user_id":371,"name":"doobiebob","steam_id":76561198071963742,"connected_time":2076000000000,"state":"active","ping":60},{"user_id":389,"name":"minecalos","steam_id":76561198161582889,"connected_time":828000000000,"state":"active","ping":109},{"user_id":390,"name":"Lettuce Dog","steam_id":76561198083606792,"connected_time":825000000000,"state":"active","ping":53},{"user_id":397,"name":"o2","steam_id":76561199262570913,"connected_time":128000000000,"state":"active","ping":175},{"user_id":339,"name":"nosieman","steam_id":76561198068307876,"connected_time":4327000000000,"state":"active","ping":65},{"user_id":362,"name":"GulfGiggle","steam_id":76561198317506335,"connected_time":2556000000000,"state":"active","ping":70},{"user_id":381,"name":"BurningPride","steam_id":76561198080592800,"connected_time":978000000000,"state":"active","ping":54},{"user_id":398,"name":"Squatter1","steam_id":76561198078987734,"connected_time":46000000000,"state":"active","ping":75},{"user_id":399,"name":"c49aa4","steam_id":76561199099537250,"connected_time":22000000000,"state":"active","ping":47},{"user_id":379,"name":"Maid 'n' China","steam_id":76561198423392976,"connected_time":1026000000000,"state":"active","ping":54},{"user_id":375,"name":"shmeushmeu ttv","steam_id":76561198168064595,"connected_time":1557000000000,"state":"active","ping":54},{"user_id":400,"name":"Germey82738","steam_id":76561199163949199,"connected_time":10000000000,"state":"active","ping":141},{"user_id":376,"name":"chinosdjjeej","steam_id":76561199159561914,"connected_time":1512000000000,"state":"active","ping":74},{"user_id":383,"name":"Dim Strike","steam_id":76561199087298816,"connected_time":976000000000,"state":"active","ping":45},{"user_id":367,"name":"Discovery","steam_id":76561198841844093,"connected_time":2454000000000,"state":"active","ping":46},{"user_id":393,"name":"PAC-MATH","steam_id":76561198327729748,"connected_time":560000000000,"state":"active","ping":112},{"user_id":391,"name":"Rx Auntie","steam_id":76561198051618393,"connected_time":817000000000,"state":"active","ping":55},{"user_id":345,"name":"WeAreTheSpirits","steam_id":76561198191555728,"connected_time":4073000000000,"state":"active","ping":53},{"user_id":368,"name":"SparklePawz ‚ô•","steam_id":76561198093703065,"connected_time":2370000000000,"state":"active","ping":174},{"user_id":341,"name":"3.dlc","steam_id":76561198234377776,"connected_time":4223000000000,"state":"active","ping":51},{"user_id":387,"name":"AureateAura","steam_id":76561198046902265,"connected_time":917000000000,"state":"active","ping":107},{"user_id":378,"name":"pt","steam_id":76561198143023330,"connected_time":1246000000000,"state":"active","ping":58}]},{"server_id":112,"name":"Uncletopia | Los Angeles | 2 | All Maps","name_short":"lax-2","host":"lax-1.us.uncletopia.com","port":27025,"enabled":true,"region":"us-west","cc":"us","latitude":33.94279,"longitude":-118.41004,"reserved":0,"last_update":"0001-01-01T00:00:00Z","name_a2s":"Uncletopia | Los Angeles | 2 | All Maps","protocol":17,"map":"koth_highpass","folder":"tf","game":"Team Fortress","app_id":440,"player_count":0,"max_players":24,"Bots":0,"server_type":"Dedicated","server_os":"Linux","password":true,"vac":true,"version":"7742253","steam_id":85568392924469992,"keywords":["cp","nocrits","nodmgspread","uncletopia"],"game_id":440,"stv_port":27026,"stv_name":"Uncletopia | Los Angeles | 2 | All Maps | STV","players":null},{"server_id":324,"name":"Uncletopia | Los Angeles | 3 | All Maps","name_short":"lax-3","host":"lax-1.us.uncletopia.com","port":27035,"enabled":true,"region":"us-west","cc":"us","latitude":33.94279,"longitude":-118.41004,"reserved":0,"last_update":"0001-01-01T00:00:00Z","name_a2s":"Uncletopia | Los Angeles | 3 | All Maps","protocol":17,"map":"koth_lakeside_final","folder":"tf","game":"Team Fortress","app_id":440,"player_count":0,"max_players":24,"Bots":0,"server_type":"Dedicated","server_os":"Linux","password":true,"vac":true,"version":"7742253","steam_id":85568392924510198,"keywords":["cp","nocrits","nodmgspread","uncletopia"],"game_id":440,"stv_port":27036,"stv_name":"Uncletopia | Los Angeles | 3 | All Maps | STV","players":null},{"server_id":25,"name":"Uncletopia | Los Angeles | 4 | Stopwatch Beta","name_short":"lax-4","host":"lax-1.us.uncletopia.com","port":27045,"enabled":true,"region":"us-west","cc":"us","latitude":33.94279,"longitude":-118.41004,"reserved":0,"last_update":"0001-01-01T00:00:00Z","name_a2s":"Uncletopia | Los Angeles | 4 | Stopwatch Beta","protocol":17,"map":"pl_upward","folder":"tf","game":"Team Fortress","app_id":440,"player_count":0,"max_players":24,"Bots":0,"server_type":"Dedicated","server_os":"Linux","password":true,"vac":true,"version":"7742253","steam_id":85568392924510199,"keywords":["nocrits","nodmgspread","payload","uncletopia"],"game_id":440,"stv_port":27046,"stv_name":"Uncletopia | Los Angeles | 4 | Stopwatch Beta | STV","players":null},{"server_id":11,"name":"Uncletopia | London | 1 | All Maps","name_short":"lon-1","host":"lon-1.uk.uncletopia.com","port":27015,"enabled":true,"region":"eu","cc":"gb","latitude":51.509865,"longitude":-0.118092,"reserved":0,"last_update":"0001-01-01T00:00:00Z","name_a2s":"Uncletopia | London | 1 | All Maps","protocol":17,"map":"pl_borneo","folder":"tf","game":"Team Fortress","app_id":440,"player_count":24,"max_players":24,"Bots":0,"server_type":"Dedicated","server_os":"Linux","password":true,"vac":true,"version":"7742253","steam_id":85568392924367362,"keywords":["nocrits","nodmgspread","payload","uncletopia"],"game_id":440,"stv_port":27016,"stv_name":"Uncletopia | London | 1 | All Maps | STV","players":[{"user_id":650,"name":"Tsuruko","steam_id":76561198063618114,"connected_time":4783000000000,"state":"active","ping":75},{"user_id":601,"name":"Joseph Stalin LFT","steam_id":76561198033199746,"connected_time":12230000000000,"state":"active","ping":45},{"user_id":540,"name":"jones","steam_id":76561198073975078,"connected_time":15749000000000,"state":"active","ping":47},{"user_id":653,"name":"Mafour","steam_id":76561197994581337,"connected_time":4639000000000,"state":"active","ping":91},{"user_id":600,"name":"chrissy","steam_id":76561198096547662,"connected_time":12817000000000,"state":"active","ping":51},{"user_id":671,"name":"Foxyz","steam_id":76561198040642992,"connected_time":2980000000000,"state":"active","ping":97},{"user_id":683,"name":"Benameme","steam_id":76561198074097655,"connected_time":2182000000000,"state":"active","ping":49},{"user_id":687,"name":"Lasertron","steam_id":76561198209983288,"connected_time":689000000000,"state":"active","ping":71},{"user_id":670,"name":"Vel0city","steam_id":76561198049687798,"connected_time":3591000000000,"state":"active","ping":47},{"user_id":673,"name":"Nooblington","steam_id":76561198053695699,"connected_time":2948000000000,"state":"active","ping":50},{"user_id":638,"name":"sigma female","steam_id":76561198298576765,"connected_time":6126000000000,"state":"active","ping":68},{"user_id":658,"name":"Peat","steam_id":76561197992168067,"connected_time":4349000000000,"state":"active","ping":69},{"user_id":691,"name":"Jar","steam_id":76561198156384007,"connected_time":366000000000,"state":"active","ping":48},{"user_id":688,"name":"nine inch whales","steam_id":76561198071176058,"connected_time":683000000000,"state":"active","ping":46},{"user_id":690,"name":"Fusilli_","steam_id":76561198066475370,"connected_time":586000000000,"state":"active","ping":80},{"user_id":692,"name":"Ulti","steam_id":76561199182760121,"connected_time":365000000000,"state":"active","ping":139},{"user_id":675,"name":"Pingu","steam_id":76561198074477219,"connected_time":2898000000000,"state":"active","ping":53},{"user_id":699,"name":"Infantile Pillock","steam_id":76561198283851362,"connected_time":116000000000,"state":"active","ping":67},{"user_id":649,"name":"Alpha Engineer","steam_id":76561198289206630,"connected_time":4903000000000,"state":"active","ping":47},{"user_id":695,"name":"kay","steam_id":76561198845973327,"connected_time":217000000000,"state":"active","ping":48},{"user_id":604,"name":"‚ú™ J","steam_id":76561198094911581,"connected_time":11553000000000,"state":"active","ping":51},{"user_id":666,"name":"vi","steam_id":76561198303147966,"connected_time":4208000000000,"state":"active","ping":35},{"user_id":697,"name":"Change profile name to","steam_id":76561198351227560,"connected_time":136000000000,"state":"active","ping":42},{"user_id":698,"name":"DocTwoEight","steam_id":76561198153488940,"connected_time":124000000000,"state":"active","ping":75}]},{"server_id":114,"name":"Uncletopia | London | 2 | All Maps","name_short":"lon-2","host":"lon-1.uk.uncletopia.com","port":27025,"enabled":true,"region":"eu","cc":"gb","latitude":51.509865,"longitude":-0.118092,"reserved":0,"last_update":"0001-01-01T00:00:00Z","name_a2s":"Uncletopia | London | 2 | All Maps","protocol":17,"map":"pl_swiftwater_final1","folder":"tf","game":"Team Fortress","app_id":440,"player_count":0,"max_players":24,"Bots":0,"server_type":"Dedicated","server_os":"Linux","password":true,"vac":true,"version":"7742253","steam_id":85568392924470941,"keywords":["nocrits","nodmgspread","payload","uncletopia"],"game_id":440,"stv_port":27026,"stv_name":"Uncletopia | London | 2 | All Maps | STV","players":null},{"server_id":320,"name":"Uncletopia | London | 3 | All Maps","name_short":"lon-3","host":"lon-1.uk.uncletopia.com","port":27035,"enabled":true,"region":"eu","cc":"gb","latitude":51.509865,"longitude":-0.118092,"reserved":0,"last_update":"0001-01-01T00:00:00Z","name_a2s":"Uncletopia | London | 3 | All Maps","protocol":17,"map":"koth_cascade","folder":"tf","game":"Team Fortress","app_id":440,"player_count":0,"max_players":24,"Bots":0,"server_type":"Dedicated","server_os":"Linux","password":true,"vac":true,"version":"7742253","steam_id":85568392924510192,"keywords":["cp","nocrits","nodmgspread","uncletopia"],"game_id":440,"stv_port":27036,"stv_name":"Uncletopia | London | 3 | All Maps | STV","players":null},{"server_id":321,"name":"Uncletopia | London | 4 | All Maps","name_short":"lon-4","host":"lon-1.uk.uncletopia.com","port":27045,"enabled":true,"region":"eu","cc":"gb","latitude":51.509865,"longitude":-0.118092,"reserved":0,"last_update":"0001-01-01T00:00:00Z","name_a2s":"Uncletopia | London | 4 | All Maps","protocol":17,"map":"pl_borneo","folder":"tf","game":"Team Fortress","app_id":440,"player_count":0,"max_players":24,"Bots":0,"server_type":"Dedicated","server_os":"Linux","password":true,"vac":true,"version":"7742253","steam_id":85568392924510193,"keywords":["nocrits","nodmgspread","payload","uncletopia"],"game_id":440,"stv_port":27046,"stv_name":"Uncletopia | London | 4 | All Maps | STV","players":null},{"server_id":21,"name":"Uncletopia | London | 5 | All Maps","name_short":"lon-5","host":"lon-1.uk.uncletopia.com","port":27055,"enabled":true,"region":"eu","cc":"gb","latitude":51.509865,"longitude":-0.118092,"reserved":0,"last_update":"0001-01-01T00:00:00Z","name_a2s":"Uncletopia | London | 5 | All Maps","protocol":17,"map":"koth_cascade","folder":"tf","game":"Team Fortress","app_id":440,"player_count":0,"max_players":24,"Bots":0,"server_type":"Dedicated","server_os":"Linux","password":true,"vac":true,"version":"7742253","steam_id":85568392924742829,"keywords":["cp","nocrits","nodmgspread","uncletopia"],"game_id":440,"stv_port":27056,"stv_name":"Uncletopia | London | 5 | All Maps | STV","players":null},{"server_id":22,"name":"Uncletopia | London | 6 | All Maps","name_short":"lon-6","host":"lon-1.uk.uncletopia.com","port":27065,"enabled":true,"region":"eu","cc":"gb","latitude":51.509865,"longitude":-0.118092,"reserved":0,"last_update":"0001-01-01T00:00:00Z","name_a2s":"Uncletopia | London | 6 | All Maps","protocol":17,"map":"koth_lakeside_final","folder":"tf","game":"Team Fortress","app_id":440,"player_count":0,"max_players":24,"Bots":0,"server_type":"Dedicated","server_os":"Linux","password":true,"vac":true,"version":"7742253","steam_id":85568392924742830,"keywords":["cp","nocrits","nodmgspread","uncletopia"],"game_id":440,"stv_port":27066,"stv_name":"Uncletopia | London | 6 | All Maps | STV","players":null},{"server_id":40,"name":"Uncletopia | London | 7 | No Payload","name_short":"lon-7","host":"lon-1.uk.uncletopia.com","port":27075,"enabled":true,"region":"eu","cc":"gb","latitude":51.509865,"longitude":-0.118092,"reserved":0,"last_update":"0001-01-01T00:00:00Z","name_a2s":"Uncletopia | London | 7 | No Payload","protocol":17,"map":"plr_bananabay","folder":"tf","game":"Team Fortress","app_id":440,"player_count":0,"max_players":24,"Bots":0,"server_type":"Dedicated","server_os":"Linux","password":true,"vac":true,"version":"7742253","steam_id":85568392924964314,"keywords":["nocrits","nodmgspread","payload","uncletopia"],"game_id":440,"stv_port":27076,"stv_name":"Uncletopia | London | 7 | No Payload | STV","players":null},{"server_id":41,"name":"Uncletopia | London | 8 | Community","name_short":"lon-8","host":"lon-1.uk.uncletopia.com","port":27085,"enabled":true,"region":"eu","cc":"gb","latitude":51.509865,"longitude":-0.118092,"reserved":0,"last_update":"0001-01-01T00:00:00Z","name_a2s":"Uncletopia | London | 8 | Community","protocol":17,"map":"workshop/koth_ramjam_rc1.ugc459778887","folder":"tf","game":"Team Fortress","app_id":440,"player_count":0,"max_players":24,"Bots":0,"server_type":"Dedicated","server_os":"Linux","password":true,"vac":true,"version":"7742253","steam_id":85568392924964315,"keywords":["cp","nocrits","nodmgspread","uncletopia"],"game_id":440,"stv_port":27086,"stv_name":"Uncletopia | London | 8 | Community | STV","players":null},{"server_id":300,"name":"Uncletopia | Montr√©al | 1 | All Maps","name_short":"mtl-1","host":"mtl-1.ca.uncletopia.com","port":27015,"enabled":true,"region":"us-east","cc":"ca","latitude":45.50889,"longitude":-73.56167,"reserved":0,"last_update":"0001-01-01T00:00:00Z","name_a2s":"Uncletopia | Montr√©al | 1 | All Maps","protocol":17,"map":"koth_viaduct","folder":"tf","game":"Team Fortress","app_id":440,"player_count":0,"max_players":24,"Bots":0,"server_type":"Dedicated","server_os":"Linux","password":true,"vac":true,"version":"7742253","steam_id":85568392924500087,"keywords":["cp","nocrits","nodmgspread","uncletopia"],"game_id":440,"stv_port":27016,"stv_name":"Uncletopia | Montr√©al | 1 | All Maps | STV","players":null},{"server_id":301,"name":"Uncletopia | Montr√©al | 2 | All Maps","name_short":"mtl-2","host":"mtl-1.ca.uncletopia.com","port":27025,"enabled":true,"region":"us-east","cc":"ca","latitude":45.50889,"longitude":-73.56167,"reserved":0,"last_update":"0001-01-01T00:00:00Z","name_a2s":"Uncletopia | Montr√©al | 2 | All Maps","protocol":17,"map":"pl_barnblitz","folder":"tf","game":"Team Fortress","app_id":440,"player_count":0,"max_players":24,"Bots":0,"server_type":"Dedicated","server_os":"Linux","password":true,"vac":true,"version":"7742253","steam_id":85568392924500088,"keywords":["nocrits","nodmgspread","payload","uncletopia"],"game_id":440,"stv_port":27026,"stv_name":"Uncletopia | Montr√©al | 2 | All Maps | STV","players":null},{"server_id":302,"name":"Uncletopia | Montr√©al | 3 | All Maps","name_short":"mtl-3","host":"mtl-1.ca.uncletopia.com","port":27035,"enabled":true,"region":"us-east","cc":"ca","latitude":45.50889,"longitude":-73.56167,"reserved":0,"last_update":"0001-01-01T00:00:00Z","name_a2s":"Uncletopia | Montr√©al | 3 | All Maps","protocol":17,"map":"pl_borneo","folder":"tf","game":"Team Fortress","app_id":440,"player_count":0,"max_players":24,"Bots":0,"server_type":"Dedicated","server_os":"Linux","password":true,"vac":true,"version":"7742253","steam_id":85568392924500089,"keywords":["nocrits","nodmgspread","payload","uncletopia"],"game_id":440,"stv_port":27036,"stv_name":"Uncletopia | Montr√©al | 3 | All Maps | STV","players":null},{"server_id":303,"name":"Uncletopia | Montr√©al | 4 | No Payload","name_short":"mtl-4","host":"mtl-1.ca.uncletopia.com","port":27045,"enabled":true,"region":"us-east","cc":"ca","latitude":45.50889,"longitude":-73.56167,"reserved":0,"last_update":"0001-01-01T00:00:00Z","name_a2s":"Uncletopia | Montr√©al | 4 | No Payload","protocol":17,"map":"ctf_landfall","folder":"tf","game":"Team Fortress","app_id":440,"player_count":0,"max_players":24,"Bots":0,"server_type":"Dedicated","server_os":"Linux","password":true,"vac":true,"version":"7742253","steam_id":85568392924500090,"keywords":["ctf","nocrits","nodmgspread","uncletopia"],"game_id":440,"stv_port":27046,"stv_name":"Uncletopia | Montr√©al | 4 | No Payload | STV","players":null},{"server_id":13,"name":"Uncletopia | New York City | 1 | All Maps","name_short":"nyc-1","host":"nyc-1.us.uncletopia.com","port":27015,"enabled":true,"region":"us-east","cc":"us","latitude":40.73061,"longitude":-73.93524,"reserved":0,"last_update":"0001-01-01T00:00:00Z","name_a2s":"Uncletopia | New York City | 1 | All Maps","protocol":17,"map":"cp_dustbowl","folder":"tf","game":"Team Fortress","app_id":440,"player_count":24,"max_players":24,"Bots":0,"server_type":"Dedicated","server_os":"Linux","password":true,"vac":true,"version":"7742253","steam_id":85568392924469993,"keywords":["cp","nocrits","nodmgspread","uncletopia"],"game_id":440,"stv_port":27016,"stv_name":"Uncletopia | New York City | 1 | All Maps | STV","players":[{"user_id":401,"name":"uhooter","steam_id":76561198007829078,"connected_time":12092000000000,"state":"active","ping":58},{"user_id":554,"name":"dan","steam_id":76561198061589465,"connected_time":561000000000,"state":"active","ping":119},{"user_id":549,"name":"DA SPEE TF2","steam_id":76561199002083049,"connected_time":641000000000,"state":"active","ping":46},{"user_id":494,"name":"Faker","steam_id":76561198849783081,"connected_time":5530000000000,"state":"active","ping":42},{"user_id":531,"name":"Japanese Rabbit Enthusiast","steam_id":76561199134895220,"connected_time":2454000000000,"state":"active","ping":54},{"user_id":507,"name":"shadysessions","steam_id":76561198032464781,"connected_time":4094000000000,"state":"active","ping":60},{"user_id":534,"name":"matchstick","steam_id":76561198190100027,"connected_time":1888000000000,"state":"active","ping":38},{"user_id":548,"name":"The Collective","steam_id":76561198170423483,"connected_time":1069000000000,"state":"active","ping":68},{"user_id":521,"name":"FranckyFox2468","steam_id":76561198037679126,"connected_time":3401000000000,"state":"active","ping":59},{"user_id":528,"name":"SalamenceFury","steam_id":76561198054585848,"connected_time":2829000000000,"state":"active","ping":140},{"user_id":556,"name":"Zero","steam_id":76561199383267408,"connected_time":365000000000,"state":"active","ping":78},{"user_id":562,"name":"CorvusCrome","steam_id":76561198241986368,"connected_time":71000000000,"state":"active","ping":49},{"user_id":563,"name":"waddle dork","steam_id":76561198297349985,"connected_time":63000000000,"state":"active","ping":139},{"user_id":557,"name":"SaucyAlfredo","steam_id":76561198814854234,"connected_time":332000000000,"state":"active","ping":55},{"user_id":489,"name":"SorcererCat","steam_id":76561199219316179,"connected_time":5834000000000,"state":"active","ping":143},{"user_id":551,"name":"Andred","steam_id":76561199002717499,"connected_time":632000000000,"state":"active","ping":52},{"user_id":555,"name":"Jackie (She/They)","steam_id":76561199096964288,"connected_time":494000000000,"state":"active","ping":60},{"user_id":558,"name":"Nightfall","steam_id":76561198169718867,"connected_time":304000000000,"state":"active","ping":115},{"user_id":550,"name":"GreenApples","steam_id":76561198120559543,"connected_time":634000000000,"state":"active","ping":119},{"user_id":561,"name":"Liam","steam_id":76561198071451803,"connected_time":170000000000,"state":"active","ping":68},{"user_id":552,"name":"Mattron1","steam_id":76561198012270524,"connected_time":623000000000,"state":"active","ping":63},{"user_id":559,"name":"F0rest","steam_id":76561199112458876,"connected_time":284000000000,"state":"active","ping":41},{"user_id":560,"name":"MantisTobboggan","steam_id":76561197969447887,"connected_time":249000000000,"state":"active","ping":158},{"user_id":527,"name":"not shouleil","steam_id":76561198970370243,"connected_time":2831000000000,"state":"active","ping":35}]},{"server_id":14,"name":"Uncletopia | New York City | 2 | All Maps","name_short":"nyc-2","host":"nyc-1.us.uncletopia.com","port":27025,"enabled":true,"region":"us-east","cc":"us","latitude":40.73061,"longitude":-73.93524,"reserved":0,"last_update":"0001-01-01T00:00:00Z","name_a2s":"Uncletopia | New York City | 2 | All Maps","protocol":17,"map":"pl_frontier_final","folder":"tf","game":"Team Fortress","app_id":440,"player_count":22,"max_players":24,"Bots":0,"server_type":"Dedicated","server_os":"Linux","password":true,"vac":true,"version":"7742253","steam_id":85568392924469994,"keywords":["nocrits","nodmgspread","payload","uncletopia"],"game_id":440,"stv_port":27026,"stv_name":"Uncletopia | New York City | 2 | All Maps | STV","players":[{"user_id":33,"name":"wowisthatleo","steam_id":76561199020860911,"connected_time":2248000000000,"state":"active","ping":175},{"user_id":59,"name":"the real Santa (real)","steam_id":76561199139182003,"connected_time":270000000000,"state":"connecting","ping":0},{"user_id":53,"name":"Jhon Ultrakill","steam_id":76561198207877387,"connected_time":558000000000,"state":"active","ping":82},{"user_id":37,"name":"Squid","steam_id":76561198142873471,"connected_time":1303000000000,"state":"active","ping":109},{"user_id":49,"name":"Joy #savetf2","steam_id":76561198073690173,"connected_time":655000000000,"state":"active","ping":47},{"user_id":39,"name":"average bling bling boy fan","steam_id":76561198198904457,"connected_time":1247000000000,"state":"active","ping":66},{"user_id":40,"name":"Clive Handforth","steam_id":76561198154022811,"connected_time":1239000000000,"state":"active","ping":45},{"user_id":41,"name":"Prepnoodles","steam_id":76561198254033291,"connected_time":1237000000000,"state":"active","ping":68},{"user_id":47,"name":"aversa","steam_id":76561198840460101,"connected_time":681000000000,"state":"active","ping":55},{"user_id":51,"name":"FightyPNW","steam_id":76561198981808810,"connected_time":591000000000,"state":"active","ping":110},{"user_id":52,"name":"CrowbarCat","steam_id":76561198197755101,"connected_time":564000000000,"state":"active","ping":93},{"user_id":54,"name":"GrantTheMedicYT","steam_id":76561199077176696,"connected_time":533000000000,"state":"active","ping":111},{"user_id":56,"name":"Eugene","steam_id":76561199081399039,"connected_time":417000000000,"state":"active","ping":88},{"user_id":57,"name":"nerd_man","steam_id":76561198345757865,"connected_time":410000000000,"state":"active","ping":84},{"user_id":62,"name":"Yac","steam_id":76561198133483070,"connected_time":226000000000,"state":"active","ping":77},{"user_id":65,"name":"Assitins","steam_id":76561198041572892,"connected_time":125000000000,"state":"active","ping":56},{"user_id":61,"name":"LAMMY FROM UM JAMMER LAMMY","steam_id":76561199013140117,"connected_time":254000000000,"state":"active","ping":105},{"user_id":63,"name":"dingus","steam_id":76561198966767200,"connected_time":224000000000,"state":"active","ping":71},{"user_id":64,"name":"Monsterjessy","steam_id":76561198035630985,"connected_time":210000000000,"state":"active","ping":67},{"user_id":66,"name":"The Real Jetpack Jackson","steam_id":76561199009471455,"connected_time":115000000000,"state":"active","ping":122},{"user_id":67,"name":"Thurricane","steam_id":76561198410724666,"connected_time":105000000000,"state":"active","ping":52},{"user_id":68,"name":"steakfarmasian","steam_id":76561198212754036,"connected_time":36000000000,"state":"active","ping":50}]},{"server_id":15,"name":"Uncletopia | New York City | 3 | Stopwatch Beta","name_short":"nyc-3","host":"nyc-1.us.uncletopia.com","port":27035,"enabled":true,"region":"us-east","cc":"us","latitude":40.73061,"longitude":-73.93524,"reserved":0,"last_update":"0001-01-01T00:00:00Z","name_a2s":"Uncletopia | New York City | 3 | Stopwatch Beta","protocol":17,"map":"pl_pier","folder":"tf","game":"Team Fortress","app_id":440,"player_count":0,"max_players":24,"Bots":0,"server_type":"Dedicated","server_os":"Linux","password":true,"vac":true,"version":"7742253","steam_id":85568392924742820,"keywords":["nocrits","nodmgspread","payload","uncletopia"],"game_id":440,"stv_port":27036,"stv_name":"Uncletopia | New York City | 3 | Stopwatch Beta | STV","players":null},{"server_id":16,"name":"Uncletopia | New York City | 4 | Community","name_short":"nyc-4","host":"nyc-1.us.uncletopia.com","port":27045,"enabled":true,"region":"us-east","cc":"us","latitude":40.73061,"longitude":-73.93524,"reserved":0,"last_update":"0001-01-01T00:00:00Z","name_a2s":"Uncletopia | New York City | 4 | Community","protocol":17,"map":"workshop/rd_asteroid_redux_rc9.ugc2154902912","folder":"tf","game":"Team Fortress","app_id":440,"player_count":1,"max_players":24,"Bots":0,"server_type":"Dedicated","server_os":"Linux","password":true,"vac":true,"version":"7742253","steam_id":85568392924742821,"keywords":["beta","nocrits","nodmgspread","rd","uncletopia"],"game_id":440,"stv_port":27046,"stv_name":"Uncletopia | New York City | 4 | Community | STV","players":[{"user_id":26,"name":"Jitters","steam_id":76561198078898336,"connected_time":266000000000,"state":"active","ping":60}]},{"server_id":142,"name":"Uncletopia | S√£o Paulo | 1 | All Maps","name_short":"sao-1","host":"sao-1.br.uncletopia.com","port":27015,"enabled":true,"region":"sa","cc":"br","latitude":-23.533773,"longitude":-46.62529,"reserved":0,"last_update":"0001-01-01T00:00:00Z","name_a2s":"Uncletopia | S√£o Paulo | 1 | All Maps","protocol":17,"map":"koth_viaduct","folder":"tf","game":"Team Fortress","app_id":440,"player_count":9,"max_players":24,"Bots":0,"server_type":"Dedicated","server_os":"Linux","password":true,"vac":true,"version":"7742253","steam_id":85568392924469996,"keywords":["cp","nocrits","nodmgspread","uncletopia"],"game_id":440,"stv_port":27016,"stv_name":"Uncletopia | S√£o Paulo | 1 | All Maps | STV","players":[{"user_id":54,"name":"mu","steam_id":76561199139534001,"connected_time":809000000000,"state":"active","ping":89},{"user_id":55,"name":"Luchoo","steam_id":76561199153190984,"connected_time":758000000000,"state":"active","ping":76},{"user_id":56,"name":"A4E8","steam_id":76561198845246817,"connected_time":728000000000,"state":"active","ping":84},{"user_id":57,"name":"kate ‚ô°","steam_id":76561198805567120,"connected_time":667000000000,"state":"active","ping":68},{"user_id":58,"name":"Scaloni","steam_id":76561199009300481,"connected_time":605000000000,"state":"active","ping":83},{"user_id":60,"name":"Abex, o cretino","steam_id":76561198099402345,"connected_time":495000000000,"state":"active","ping":31},{"user_id":61,"name":"Anti-√âdipo Esquizoide","steam_id":76561198042555517,"connected_time":454000000000,"state":"active","ping":46},{"user_id":62,"name":"Gabriel„ÇÑ„Çã„Åç","steam_id":76561198332577325,"connected_time":309000000000,"state":"active","ping":44},{"user_id":63,"name":"CoolBrazilianGuy","steam_id":76561198843338251,"connected_time":80000000000,"state":"active","ping":76}]},{"server_id":143,"name":"Uncletopia | S√£o Paulo | 2 | All Maps","name_short":"sao-2","host":"sao-2.br.uncletopia.com","port":27015,"enabled":true,"region":"sa","cc":"br","latitude":-23.533773,"longitude":-46.62529,"reserved":0,"last_update":"0001-01-01T00:00:00Z","name_a2s":"Uncletopia | S√£o Paulo | 2 | All Maps","protocol":17,"map":"koth_cascade","folder":"tf","game":"Team Fortress","app_id":440,"player_count":0,"max_players":24,"Bots":0,"server_type":"Dedicated","server_os":"Linux","password":true,"vac":true,"version":"7742253","steam_id":85568392924485349,"keywords":["cp","nocrits","nodmgspread","uncletopia"],"game_id":440,"stv_port":27016,"stv_name":"Uncletopia | S√£o Paulo | 2 | All Maps | STV","players":null},{"server_id":7,"name":"Uncletopia | Seattle | 1 | All Maps","name_short":"sea-1","host":"sea-1.us.uncletopia.com","port":27015,"enabled":true,"region":"us-west","cc":"us","latitude":47.608013,"longitude":-122.33517,"reserved":0,"last_update":"0001-01-01T00:00:00Z","name_a2s":"Uncletopia | Seattle | 1 | All Maps","protocol":17,"map":"cp_gorge","folder":"tf","game":"Team Fortress","app_id":440,"player_count":24,"max_players":24,"Bots":0,"server_type":"Dedicated","server_os":"Linux","password":true,"vac":true,"version":"7742253","steam_id":85568392924469997,"keywords":["cp","nocrits","nodmgspread","uncletopia"],"game_id":440,"stv_port":27016,"stv_name":"Uncletopia | Seattle | 1 | All Maps | STV","players":[{"user_id":655,"name":"ed","steam_id":76561198080475712,"connected_time":2250000000000,"state":"active","ping":58},{"user_id":530,"name":"Tom H.A.N.X","steam_id":76561198061064737,"connected_time":8436000000000,"state":"active","ping":50},{"user_id":666,"name":"Aardappel","steam_id":76561198030894676,"connected_time":1831000000000,"state":"active","ping":73},{"user_id":669,"name":"ZRMicrowave","steam_id":76561198288574525,"connected_time":1299000000000,"state":"active","ping":100},{"user_id":675,"name":"Robert E.T.","steam_id":76561197986439371,"connected_time":250000000000,"state":"active","ping":42},{"user_id":660,"name":"Underscore","steam_id":76561198374209415,"connected_time":2212000000000,"state":"active","ping":112},{"user_id":671,"name":"resting neutral face","steam_id":76561197999259502,"connected_time":701000000000,"state":"active","ping":58},{"user_id":652,"name":"Mom","steam_id":76561198207936000,"connected_time":2725000000000,"state":"active","ping":76},{"user_id":676,"name":"Liquid Gold","steam_id":76561198347510093,"connected_time":240000000000,"state":"active","ping":50},{"user_id":677,"name":"Delta","steam_id":76561198158985472,"connected_time":238000000000,"state":"active","ping":169},{"user_id":665,"name":"GamerGuy88","steam_id":76561199059733640,"connected_time":2008000000000,"state":"active","ping":82},{"user_id":667,"name":"wubber","steam_id":76561198286627157,"connected_time":1785000000000,"state":"active","ping":76},{"user_id":599,"name":"p9 Doctor‚Ñ¢","steam_id":76561198134309750,"connected_time":5228000000000,"state":"active","ping":105},{"user_id":597,"name":"Korey","steam_id":76561198210734407,"connected_time":5532000000000,"state":"active","ping":119},{"user_id":668,"name":"The Super Mario Bros. Movie","steam_id":76561198871692156,"connected_time":1619000000000,"state":"active","ping":48},{"user_id":657,"name":"Mr.Thirteen","steam_id":76561198047468836,"connected_time":2235000000000,"state":"active","ping":69},{"user_id":678,"name":"Koyota","steam_id":76561198069878114,"connected_time":216000000000,"state":"active","ping":68},{"user_id":602,"name":"A Can of Arizona Green Tea","steam_id":76561198062481133,"connected_time":4914000000000,"state":"active","ping":79},{"user_id":656,"name":"alaska thunderfuck","steam_id":76561198017030029,"connected_time":2247000000000,"state":"active","ping":70},{"user_id":654,"name":"Sniff","steam_id":76561198010270922,"connected_time":2251000000000,"state":"active","ping":45},{"user_id":535,"name":"thunderous prophet","steam_id":76561198131166135,"connected_time":8407000000000,"state":"active","ping":44},{"user_id":605,"name":"swaggdood","steam_id":76561198076173018,"connected_time":4693000000000,"state":"active","ping":71},{"user_id":673,"name":"panningcake","steam_id":76561198800370633,"connected_time":386000000000,"state":"active","ping":69},{"user_id":539,"name":"lavender","steam_id":76561199069518286,"connected_time":8336000000000,"state":"active","ping":73}]},{"server_id":119,"name":"Uncletopia | Seattle | 2 | All Maps","name_short":"sea-2","host":"sea-1.us.uncletopia.com","port":27025,"enabled":true,"region":"us-west","cc":"us","latitude":47.608013,"longitude":-122.33517,"reserved":0,"last_update":"0001-01-01T00:00:00Z","name_a2s":"Uncletopia | Seattle | 2 | All Maps","protocol":17,"map":"pl_enclosure_final","folder":"tf","game":"Team Fortress","app_id":440,"player_count":23,"max_players":24,"Bots":0,"server_type":"Dedicated","server_os":"Linux","password":true,"vac":true,"version":"7742253","steam_id":85568392924469998,"keywords":["nocrits","nodmgspread","payload","uncletopia"],"game_id":440,"stv_port":27026,"stv_name":"Uncletopia | Seattle | 2 | All Maps | STV","players":[{"user_id":378,"name":"„ÉΩ(¬∞œâ¬∞ )Ôæâ","steam_id":76561198010855541,"connected_time":1223000000000,"state":"active","ping":51},{"user_id":388,"name":"mean penguin","steam_id":76561198174751517,"connected_time":205000000000,"state":"active","ping":87},{"user_id":373,"name":"DIYspaceship17","steam_id":76561199042640810,"connected_time":1601000000000,"state":"active","ping":153},{"user_id":325,"name":"Sinn","steam_id":76561199013434543,"connected_time":4786000000000,"state":"active","ping":72},{"user_id":392,"name":"Dr Frasier Crane","steam_id":76561198071790583,"connected_time":4000000000,"state":"spawning","ping":129},{"user_id":389,"name":"Yucho","steam_id":76561198148751724,"connected_time":149000000000,"state":"active","ping":80},{"user_id":385,"name":"God im so badas.............","steam_id":76561199037497493,"connected_time":632000000000,"state":"active","ping":105},{"user_id":356,"name":"SesataPomang","steam_id":76561198145133059,"connected_time":2648000000000,"state":"active","ping":94},{"user_id":380,"name":"Crake","steam_id":76561198001959071,"connected_time":1119000000000,"state":"active","ping":50},{"user_id":366,"name":"THUD","steam_id":76561198009630323,"connected_time":2224000000000,"state":"active","ping":52},{"user_id":319,"name":"Open Mailbox","steam_id":76561198051933580,"connected_time":5040000000000,"state":"active","ping":137},{"user_id":375,"name":"Pickle Chips","steam_id":76561198271951504,"connected_time":1488000000000,"state":"active","ping":122},{"user_id":362,"name":"HypnoLyzard","steam_id":76561198442114199,"connected_time":2562000000000,"state":"active","ping":79},{"user_id":390,"name":"dominosgangster","steam_id":76561199095680478,"connected_time":136000000000,"state":"active","ping":93},{"user_id":382,"name":"Michael Jordan","steam_id":76561198306393090,"connected_time":860000000000,"state":"active","ping":89},{"user_id":371,"name":"chunkysquare","steam_id":76561199076468383,"connected_time":1761000000000,"state":"active","ping":81},{"user_id":336,"name":"Rizzed Up Spy","steam_id":76561198851536991,"connected_time":4308000000000,"state":"active","ping":96},{"user_id":367,"name":"dogboy irl","steam_id":76561198210322871,"connected_time":2016000000000,"state":"active","ping":70},{"user_id":391,"name":"Tree","steam_id":76561198346382060,"connected_time":99000000000,"state":"active","ping":64},{"user_id":361,"name":"Anhkrehg","steam_id":76561197963201684,"connected_time":2616000000000,"state":"active","ping":130},{"user_id":365,"name":"Rude Dog","steam_id":76561197980385816,"connected_time":2255000000000,"state":"active","ping":47},{"user_id":377,"name":"Ignignokt","steam_id":76561198162207470,"connected_time":1326000000000,"state":"active","ping":66},{"user_id":349,"name":"Sky","steam_id":76561198838397667,"connected_time":3664000000000,"state":"active","ping":151}]},{"server_id":406,"name":"Uncletopia | Seattle | 3 | Stopwatch Beta","name_short":"sea-3","host":"sea-1.us.uncletopia.com","port":27035,"enabled":true,"region":"us-west","cc":"us","latitude":47.608013,"longitude":-122.33517,"reserved":0,"last_update":"0001-01-01T00:00:00Z","name_a2s":"Uncletopia | Seattle | 3 | Stopwatch Beta","protocol":17,"map":"workshop/koth_bagel_rc5.ugc2514036946","folder":"tf","game":"Team Fortress","app_id":440,"player_count":0,"max_players":24,"Bots":0,"server_type":"Dedicated","server_os":"Linux","password":true,"vac":true,"version":"7742253","steam_id":85568392924515217,"keywords":["cp","nocrits","nodmgspread","uncletopia"],"game_id":440,"stv_port":27036,"stv_name":"Uncletopia | Seattle | 3 | Stopwatch Beta | STV","players":null},{"server_id":17,"name":"Uncletopia | San Francisco | 1 | All Maps","name_short":"sfo-1","host":"sfo-1.us.uncletopia.com","port":27015,"enabled":true,"region":"us-west","cc":"us","latitude":37.77397,"longitude":-122.4313,"reserved":0,"last_update":"0001-01-01T00:00:00Z","name_a2s":"Uncletopia | San Francisco | 1 | All Maps","protocol":17,"map":"koth_viaduct","folder":"tf","game":"Team Fortress","app_id":440,"player_count":1,"max_players":24,"Bots":0,"server_type":"Dedicated","server_os":"Linux","password":true,"vac":true,"version":"7742253","steam_id":85568392924469999,"keywords":["cp","nocrits","nodmgspread","uncletopia"],"game_id":440,"stv_port":27016,"stv_name":"Uncletopia | San Francisco | 1 | All Maps | STV","players":[{"user_id":19,"name":"raymond.boyd0831","steam_id":76561199261496394,"connected_time":15000000000,"state":"active","ping":57}]},{"server_id":18,"name":"Uncletopia | San Francisco | 2 | All Maps","name_short":"sfo-2","host":"sfo-1.us.uncletopia.com","port":27025,"enabled":true,"region":"us-west","cc":"us","latitude":37.77397,"longitude":-122.4313,"reserved":0,"last_update":"0001-01-01T00:00:00Z","name_a2s":"Uncletopia | San Francisco | 2 | All Maps","protocol":17,"map":"koth_viaduct","folder":"tf","game":"Team Fortress","app_id":440,"player_count":0,"max_players":24,"Bots":0,"server_type":"Dedicated","server_os":"Linux","password":true,"vac":true,"version":"7742253","steam_id":85568392924470000,"keywords":["cp","nocrits","nodmgspread","uncletopia"],"game_id":440,"stv_port":27026,"stv_name":"Uncletopia | San Francisco | 2 | All Maps | STV","players":null},{"server_id":19,"name":"Uncletopia | San Francisco | 3 | Stopwatch Beta","name_short":"sfo-3","host":"sfo-1.us.uncletopia.com","port":27035,"enabled":true,"region":"us-west","cc":"us","latitude":37.77397,"longitude":-122.4313,"reserved":0,"last_update":"0001-01-01T00:00:00Z","name_a2s":"Uncletopia | San Francisco | 3 | Stopwatch Beta","protocol":17,"map":"koth_highpass","folder":"tf","game":"Team Fortress","app_id":440,"player_count":1,"max_players":24,"Bots":0,"server_type":"Dedicated","server_os":"Linux","password":true,"vac":true,"version":"7742253","steam_id":85568392924742824,"keywords":["cp","nocrits","nodmgspread","uncletopia"],"game_id":440,"stv_port":27036,"stv_name":"Uncletopia | San Francisco | 3 | Stopwatch Beta | STV","players":[{"user_id":8,"name":"themadlad67","steam_id":76561199309554436,"connected_time":56000000000,"state":"active","ping":64}]},{"server_id":20,"name":"Uncletopia | San Francisco | 4 | Community","name_short":"sfo-4","host":"sfo-1.us.uncletopia.com","port":27045,"enabled":true,"region":"us-west","cc":"us","latitude":37.77397,"longitude":-122.4313,"reserved":0,"last_update":"0001-01-01T00:00:00Z","name_a2s":"Uncletopia | San Francisco | 4 | Community","protocol":17,"map":"workshop/rd_asteroid_redux_rc9.ugc2154902912","folder":"tf","game":"Team Fortress","app_id":440,"player_count":0,"max_players":24,"Bots":0,"server_type":"Dedicated","server_os":"Linux","password":true,"vac":true,"version":"7742253","steam_id":85568392924742826,"keywords":["beta","nocrits","nodmgspread","rd","uncletopia"],"game_id":440,"stv_port":27046,"stv_name":"Uncletopia | San Francisco | 4 | Community | STV","players":null},{"server_id":141,"name":"Uncletopia | Sydney | 1 | All Maps","name_short":"syd-1","host":"syd-1.au.uncletopia.com","port":27015,"enabled":true,"region":"au","cc":"au","latitude":-33.865143,"longitude":151.2099,"reserved":0,"last_update":"0001-01-01T00:00:00Z","name_a2s":"Uncletopia | Sydney | 1 | All Maps","protocol":17,"map":"koth_lakeside_final","folder":"tf","game":"Team Fortress","app_id":440,"player_count":0,"max_players":24,"Bots":0,"server_type":"Dedicated","server_os":"Linux","password":true,"vac":true,"version":"7742253","steam_id":85568392924470001,"keywords":["cp","nocrits","nodmgspread","uncletopia"],"game_id":440,"stv_port":27016,"stv_name":"Uncletopia | Sydney | 1 | All Maps | STV","players":null},{"server_id":123,"name":"Uncletopia | Sydney | 2 | All Maps","name_short":"syd-2","host":"syd-1.au.uncletopia.com","port":27025,"enabled":true,"region":"au","cc":"au","latitude":-33.865143,"longitude":151.2099,"reserved":0,"last_update":"0001-01-01T00:00:00Z","name_a2s":"Uncletopia | Sydney | 2 | All Maps","protocol":17,"map":"pl_pier","folder":"tf","game":"Team Fortress","app_id":440,"player_count":21,"max_players":24,"Bots":0,"server_type":"Dedicated","server_os":"Linux","password":true,"vac":true,"version":"7742253","steam_id":85568392924470002,"keywords":["nocrits","nodmgspread","payload","uncletopia"],"game_id":440,"stv_port":27026,"stv_name":"Uncletopia | Sydney | 2 | All Maps | STV","players":[{"user_id":174,"name":"hobo","steam_id":76561199046481213,"connected_time":3814000000000,"state":"active","ping":66},{"user_id":216,"name":"boldur","steam_id":76561199069760276,"connected_time":412000000000,"state":"active","ping":45},{"user_id":202,"name":"Slippo","steam_id":76561198079649290,"connected_time":1709000000000,"state":"active","ping":42},{"user_id":134,"name":"The Foreskin Tearer","steam_id":76561198841855657,"connected_time":6107000000000,"state":"active","ping":56},{"user_id":214,"name":"Denton","steam_id":76561198061940295,"connected_time":657000000000,"state":"active","ping":64},{"user_id":218,"name":"Awan‚Ñ¢","steam_id":76561198035057991,"connected_time":334000000000,"state":"active","ping":134},{"user_id":138,"name":"obfusc","steam_id":76561199388029472,"connected_time":5859000000000,"state":"active","ping":60},{"user_id":193,"name":"Tomatolaxatives","steam_id":76561198165184407,"connected_time":2444000000000,"state":"active","ping":46},{"user_id":212,"name":"Thyme","steam_id":76561198086751156,"connected_time":837000000000,"state":"active","ping":56},{"user_id":213,"name":"ziah","steam_id":76561198159375596,"connected_time":832000000000,"state":"active","ping":54},{"user_id":220,"name":"Ve√∞rf√∂lnir","steam_id":76561198105113720,"connected_time":327000000000,"state":"active","ping":86},{"user_id":148,"name":"lofty","steam_id":76561198380588357,"connected_time":5418000000000,"state":"active","ping":68},{"user_id":146,"name":"Zort","steam_id":76561198056414289,"connected_time":5692000000000,"state":"active","ping":61},{"user_id":191,"name":"Pegan","steam_id":76561198134466451,"connected_time":2498000000000,"state":"active","ping":31},{"user_id":184,"name":"Spicy Baguette","steam_id":76561198238030210,"connected_time":2724000000000,"state":"active","ping":47},{"user_id":192,"name":"SWAG DRAGON","steam_id":76561197960279341,"connected_time":2492000000000,"state":"active","ping":58},{"user_id":194,"name":"Jizfellow","steam_id":76561198067993108,"connected_time":2441000000000,"state":"active","ping":45},{"user_id":221,"name":"|CUM| Commander Cupcake","steam_id":76561198022145998,"connected_time":322000000000,"state":"active","ping":66},{"user_id":226,"name":"Some Asshole with a Bat","steam_id":76561198413132575,"connected_time":151000000000,"state":"active","ping":59},{"user_id":223,"name":"Jimsehy","steam_id":76561198061059871,"connected_time":311000000000,"state":"active","ping":63},{"user_id":207,"name":"Big Boss","steam_id":76561198023962878,"connected_time":1340000000000,"state":"active","ping":47}]},{"server_id":395,"name":"Uncletopia | Sydney | 3 | All Maps","name_short":"syd-3","host":"syd-1.au.uncletopia.com","port":27035,"enabled":true,"region":"au","cc":"au","latitude":-33.865143,"longitude":151.2099,"reserved":0,"last_update":"0001-01-01T00:00:00Z","name_a2s":"Uncletopia | Sydney | 3 | All Maps","protocol":17,"map":"koth_viaduct","folder":"tf","game":"Team Fortress","app_id":440,"player_count":0,"max_players":24,"Bots":0,"server_type":"Dedicated","server_os":"Linux","password":true,"vac":true,"version":"7742253","steam_id":85568392925194467,"keywords":["cp","nocrits","nodmgspread","uncletopia"],"game_id":440,"stv_port":27036,"stv_name":"Uncletopia | Sydney | 3 | All Maps | STV","players":null},{"server_id":396,"name":"Uncletopia | Sydney | 4 | All Maps","name_short":"syd-4","host":"syd-1.au.uncletopia.com","port":27045,"enabled":true,"region":"au","cc":"au","latitude":-33.865143,"longitude":151.2099,"reserved":0,"last_update":"0001-01-01T00:00:00Z","name_a2s":"Uncletopia | Sydney | 4 | All Maps","protocol":17,"map":"pl_frontier_final","folder":"tf","game":"Team Fortress","app_id":440,"player_count":0,"max_players":24,"Bots":0,"server_type":"Dedicated","server_os":"Linux","password":true,"vac":true,"version":"7742253","steam_id":85568392925397958,"keywords":["nocrits","nodmgspread","payload","uncletopia"],"game_id":440,"stv_port":27046,"stv_name":"Uncletopia | Sydney | 4 | All Maps | STV","players":null},{"server_id":58,"name":"Uncletopia | Sydney | 5 | Stopwatch Beta","name_short":"syd-5","host":"syd-1.au.uncletopia.com","port":27055,"enabled":true,"region":"au","cc":"au","latitude":-33.865143,"longitude":151.2099,"reserved":0,"last_update":"0001-01-01T00:00:00Z","name_a2s":"Uncletopia | Sydney | 5 | Stopwatch Beta","protocol":17,"map":"cp_sunshine","folder":"tf","game":"Team Fortress","app_id":440,"player_count":0,"max_players":24,"Bots":0,"server_type":"Dedicated","server_os":"Linux","password":true,"vac":true,"version":"7742253","steam_id":85568392925397959,"keywords":["cp","nocrits","nodmgspread","uncletopia"],"game_id":440,"stv_port":27056,"stv_name":"Uncletopia | Sydney | 5 | Stopwatch Beta | STV","players":null},{"server_id":59,"name":"Uncletopia | Sydney | 6 | Community","name_short":"syd-6","host":"syd-1.au.uncletopia.com","port":27065,"enabled":true,"region":"au","cc":"au","latitude":-33.865143,"longitude":151.2099,"reserved":0,"last_update":"0001-01-01T00:00:00Z","name_a2s":"Uncletopia | Sydney | 6 | Community","protocol":17,"map":"cp_dustbowl","folder":"tf","game":"Team Fortress","app_id":440,"player_count":0,"max_players":24,"Bots":0,"server_type":"Dedicated","server_os":"Linux","password":true,"vac":true,"version":"7742253","steam_id":85568392925397960,"keywords":["cp","nocrits","nodmgspread","uncletopia"],"game_id":440,"stv_port":27066,"stv_name":"Uncletopia | Sydney | 6 | Community | STV","players":null},{"server_id":49,"name":"Uncletopia | Warsaw | 1 | All Maps","name_short":"waw-1","host":"waw-1.pl.uncletopia.com","port":27015,"enabled":true,"region":"eu","cc":"pl","latitude":52.2297,"longitude":21.017532,"reserved":0,"last_update":"0001-01-01T00:00:00Z","name_a2s":"","protocol":0,"map":"","folder":"","game":"","app_id":0,"player_count":0,"max_players":0,"Bots":0,"server_type":"","server_os":"","password":false,"vac":false,"version":"","steam_id":0,"keywords":null,"game_id":0,"stv_port":0,"stv_name":"","players":null},{"server_id":50,"name":"Uncletopia | Warsaw | 2 | All Maps","name_short":"waw-2","host":"waw-1.pl.uncletopia.com","port":27025,"enabled":true,"region":"eu","cc":"pl","latitude":52.2297,"longitude":21.017532,"reserved":0,"last_update":"0001-01-01T00:00:00Z","name_a2s":"Uncletopia | Warsaw | 2 | All Maps","protocol":17,"map":"koth_lakeside_final","folder":"tf","game":"Team Fortress","app_id":440,"player_count":0,"max_players":24,"Bots":0,"server_type":"Dedicated","server_os":"Linux","password":true,"vac":true,"version":"7742253","steam_id":85568392925397851,"keywords":["cp","nocrits","nodmgspread","uncletopia"],"game_id":440,"stv_port":27026,"stv_name":"Uncletopia | Warsaw | 2 | All Maps | STV","players":null},{"server_id":51,"name":"Uncletopia | Warsaw | 3 | All Maps","name_short":"waw-3","host":"waw-1.pl.uncletopia.com","port":27035,"enabled":true,"region":"eu","cc":"pl","latitude":52.2297,"longitude":21.017532,"reserved":0,"last_update":"0001-01-01T00:00:00Z","name_a2s":"Uncletopia | Warsaw | 3 | All Maps","protocol":17,"map":"koth_lakeside_final","folder":"tf","game":"Team Fortress","app_id":440,"player_count":0,"max_players":24,"Bots":0,"server_type":"Dedicated","server_os":"Linux","password":true,"vac":true,"version":"7742253","steam_id":85568392925397852,"keywords":["cp","nocrits","nodmgspread","uncletopia"],"game_id":440,"stv_port":27036,"stv_name":"Uncletopia | Warsaw | 3 | All Maps | STV","players":null},{"server_id":52,"name":"Uncletopia | Warsaw | 4 | All Maps","name_short":"waw-4","host":"waw-1.pl.uncletopia.com","port":27045,"enabled":true,"region":"eu","cc":"pl","latitude":52.2297,"longitude":21.017532,"reserved":0,"last_update":"0001-01-01T00:00:00Z","name_a2s":"Uncletopia | Warsaw | 4 | All Maps","protocol":17,"map":"koth_cascade","folder":"tf","game":"Team Fortress","app_id":440,"player_count":0,"max_players":24,"Bots":0,"server_type":"Dedicated","server_os":"Linux","password":true,"vac":true,"version":"7742253","steam_id":85568392925397853,"keywords":["cp","nocrits","nodmgspread","uncletopia"],"game_id":440,"stv_port":27046,"stv_name":"Uncletopia | Warsaw | 4 | All Maps | STV","players":null},{"server_id":53,"name":"Uncletopia | Warsaw | 5 | Stopwatch Beta","name_short":"waw-5","host":"waw-1.pl.uncletopia.com","port":27055,"enabled":true,"region":"eu","cc":"pl","latitude":52.2297,"longitude":21.017532,"reserved":0,"last_update":"0001-01-01T00:00:00Z","name_a2s":"Uncletopia | Warsaw | 5 | Stopwatch Beta","protocol":17,"map":"pl_swiftwater_final1","folder":"tf","game":"Team Fortress","app_id":440,"player_count":0,"max_players":24,"Bots":0,"server_type":"Dedicated","server_os":"Linux","password":true,"vac":true,"version":"7742253","steam_id":85568392925397854,"keywords":["nocrits","nodmgspread","payload","uncletopia"],"game_id":440,"stv_port":27056,"stv_name":"Uncletopia | Warsaw | 5 | Stopwatch Beta | STV","players":null},{"server_id":54,"name":"Uncletopia | Warsaw | 6 | Community","name_short":"waw-6","host":"waw-1.pl.uncletopia.com","port":27065,"enabled":true,"region":"eu","cc":"pl","latitude":52.2297,"longitude":21.017532,"reserved":0,"last_update":"0001-01-01T00:00:00Z","name_a2s":"Uncletopia | Warsaw | 6 | Community","protocol":17,"map":"koth_highpass","folder":"tf","game":"Team Fortress","app_id":440,"player_count":0,"max_players":24,"Bots":0,"server_type":"Dedicated","server_os":"Linux","password":true,"vac":true,"version":"7742253","steam_id":85568392925397856,"keywords":["cp","nocrits","nodmgspread","uncletopia"],"game_id":440,"stv_port":27066,"stv_name":"Uncletopia | Warsaw | 6 | Community | STV","players":null}]}