{"status":true,"message":"","result":[{"server_id":9,"name":"Uncletopia | Atlanta | 1 | All Maps","name_short":"atl-1","host":"atl-1.us.uncletopia.com","port":27015,"enabled":true,"region":"us-east","cc":"us","latitude":33.753746,"longitude":-84.38633,"reserved":0,"last_update":"0001-01-01T00:00:00Z","name_a2s":"Uncletopia | Atlanta | 1 | All Maps","protocol":17,"map":"cp_dustbowl","folder":"tf","game":"Team Fortress","app_id":440,"player_count":24,"max_players":24,"Bots":0,"server_type":"Dedicated","server_os":"Linux","password":true,"vac":true,"version":"7757534","steam_id":85568392924469982,"keywords":["cp","nocrits","nodmgspread","uncletopia"],"game_id":440,"stv_port":27016,"stv_name":"Uncletopia | Atlanta | 1 | All Maps | STV","players":[{"user_id":636,"name":"â‡Œ | ÏŸtriKer |  â‡‹","steam_id":76561199389089862,"connected_time":390000000000,"state":"active","ping":133},{"user_id":637,"name":"Bird of Paradise","steam_id":76561198891152046,"connected_time":383000000000,"state":"active","ping":75},{"user_id":611,"name":"G_Bob","steam_id":76561198098133233,"connected_time":2376000000000,"state":"active","ping":55},{"user_id":638,"name":"JelloMotion","steam_id":76561198045892038,"connected_time":372000000000,"state":"active","ping":58},{"user_id":639,"name":"HAT-WEARINGâ„¢ Maggot Gamer Cat","steam_id":76561197973992705,"connected_time":297000000000,"state":"active","ping":119},{"user_id":649,"name":"Remy the rat","steam_id":76561198080519558,"connected_time":4000000000,"state":"spawning","ping":87},{"user_id":573,"name":"Local Talent","steam_id":76561199053290637,"connected_time":4626000000000,"state":"active","ping":60},{"user_id":641,"name":"hatchetax","steam_id":76561199013337543,"connected_time":278000000000,"state":"active","ping":45},{"user_id":642,"name":"BurR","steam_id":76561198055431367,"connected_time":251000000000,"state":"active","ping":76},{"user_id":643,"name":"ButterNutz","steam_id":76561198122404516,"connected_time":249000000000,"state":"active","ping":107},{"user_id":529,"name":"cola","steam_id":76561198374390458,"connected_time":9889000000000,"state":"active","ping":47},{"user_id":627,"name":"[txc] garf","steam_id":76561198083078030,"connected_time":1254000000000,"state":"active","ping":47},{"user_id":644,"name":"Rodrick Duterte","steam_id":76561198180551331,"connected_time":240000000000,"state":"active","ping":129},{"user_id":646,"name":"choochman","steam_id":76561198085045405,"connected_time":122000000000,"state":"active","ping":70},{"user_id":621,"name":"Quaker Oats","steam_id":76561197992800293,"connected_time":1626000000000,"state":"active","ping":63},{"user_id":626,"name":"[txc] milk","steam_id":76561198127457787,"connected_time":1289000000000,"state":"active","ping":76},{"user_id":571,"name":"OrangeCrab","steam_id":76561198982248872,"connected_time":4843000000000,"state":"active","ping":66},{"user_id":510,"name":"ATL 1 | Save your wifi","steam_id":76561198286147372,"connected_time":12092000000000,"state":"active","ping":60},{"user_id":645,"name":"[PINGUâ„¢] Tiny Tuna","steam_id":76561198193611579,"connected_time":230000000000,"state":"active","ping":76},{"user_id":577,"name":"Average Engineer Main","steam_id":76561197999657118,"connected_time":4610000000000,"state":"active","ping":94},{"user_id":624,"name":"heimdall","steam_id":76561198069380992,"connected_time":1521000000000,"state":"active","ping":79},{"user_id":625,"name":"Jerry Seinfeld","steam_id":76561199205226507,"connected_time":1492000000000,"state":"active","ping":86},{"user_id":647,"name":"Ricky Owens","steam_id":76561198038868087,"connected_time":120000000000,"state":"active","ping":106},{"user_id":648,"name":"ItsDifficultttt","steam_id":76561199402730529,"connected_time":102000000000,"state":"active","ping":96}]},{"server_id":400,"name":"Uncletopia | Atlanta | 3 | Community","name_short":"atl-3","host":"atl-1.us.uncletopia.com","port":27035,"enabled":true,"region":"us-east","cc":"us","latitude":33.753746,"longitude":-84.38633,"reserved":0,"last_update":"0001-01-01T00:00:00Z","name_a2s":"Uncletopia | Atlanta | 3 | Community","protocol":17,"map":"workshop/pl_emerge_rc2.ugc888027758","folder":"tf","game":"Team Fortress","app_id":440,"player_count":24,"max_players":24,"Bots":0,"server_type":"Dedicated","server_os":"Linux","password":true,"vac":true,"version":"7757534","steam_id":85568392924515187,"keywords":["nocrits","nodmgspread","payload","uncletopia"],"game_id":440,"stv_port":27036,"stv_name":"Uncletopia | Atlanta | 3 | Community | STV","players":[{"user_id":550,"name":"95 mustang, with the hot dawg","steam_id":76561198012030780,"connected_time":189000000000,"state":"active","ping":90},{"user_id":540,"name":"Phyzisist","steam_id":76561197983915993,"connected_time":541000000000,"state":"active","ping":62},{"user_id":537,"name":"boner weed","steam_id":76561198154419887,"connected_time":683000000000,"state":"active","ping":55},{"user_id":541,"name":"Karma's Camera","steam_id":76561198059385185,"connected_time":505000000000,"state":"active","ping":60},{"user_id":524,"name":"Darth Phrogg","steam_id":76561198150844229,"connected_time":1227000000000,"state":"active","ping":81},{"user_id":525,"name":"Brazengul","steam_id":76561198077250355,"connected_time":1222000000000,"state":"active","ping":77},{"user_id":538,"name":"Antwan","steam_id":76561198246200638,"connected_time":673000000000,"state":"active","ping":61},{"user_id":488,"name":"Ozzyrockin","steam_id":76561198094899868,"connected_time":3841000000000,"state":"active","ping":65},{"user_id":510,"name":"Captain","steam_id":76561198090792553,"connected_time":2796000000000,"state":"active","ping":59},{"user_id":542,"name":"Quantum Fisticist","steam_id":76561198093640165,"connected_time":486000000000,"state":"active","ping":59},{"user_id":526,"name":"931 GB","steam_id":76561198021133284,"connected_time":1211000000000,"state":"active","ping":54},{"user_id":547,"name":"GiraffeMan","steam_id":76561198042104084,"connected_time":275000000000,"state":"active","ping":75},{"user_id":457,"name":"CFGU || RAWRWAFL","steam_id":76561198032118386,"connected_time":5599000000000,"state":"active","ping":79},{"user_id":485,"name":"WOB WOB WOB WUOUOUOUOUOOUB","steam_id":76561198822069026,"connected_time":3917000000000,"state":"active","ping":91},{"user_id":520,"name":"Meeper (f2p)","steam_id":76561199057437071,"connected_time":1362000000000,"state":"active","ping":69},{"user_id":548,"name":"Jordeee","steam_id":76561198069724050,"connected_time":247000000000,"state":"active","ping":77},{"user_id":551,"name":"Lytre","steam_id":76561198068768950,"connected_time":186000000000,"state":"active","ping":61},{"user_id":549,"name":"Riptide","steam_id":76561198164930435,"connected_time":244000000000,"state":"active","ping":58},{"user_id":552,"name":"Spooper","steam_id":76561198311552216,"connected_time":149000000000,"state":"active","ping":88},{"user_id":546,"name":"e_the_cat","steam_id":76561198214264483,"connected_time":280000000000,"state":"active","ping":93},{"user_id":553,"name":"WannaSeeA","steam_id":76561198097701042,"connected_time":129000000000,"state":"active","ping":89},{"user_id":545,"name":"Big kahuna","steam_id":76561198142024812,"connected_time":428000000000,"state":"active","ping":74},{"user_id":535,"name":"Kaluka","steam_id":76561198036861445,"connected_time":833000000000,"state":"active","ping":74},{"user_id":509,"name":"808Luxx","steam_id":76561198021034111,"connected_time":2799000000000,"state":"active","ping":60}]},{"server_id":401,"name":"Uncletopia | Atlanta | 4 | No Payload","name_short":"atl-4","host":"atl-1.us.uncletopia.com","port":27045,"enabled":true,"region":"us-east","cc":"us","latitude":33.753746,"longitude":-84.38633,"reserved":0,"last_update":"0001-01-01T00:00:00Z","name_a2s":"","protocol":0,"map":"","folder":"","game":"","app_id":0,"player_count":0,"max_players":0,"Bots":0,"server_type":"","server_os":"","password":false,"vac":false,"version":"","steam_id":0,"keywords":null,"game_id":0,"stv_port":0,"stv_name":"","players":null},{"server_id":2,"name":"Uncletopia | Chicago | 1 | All Maps","name_short":"chi-1","host":"chi-1.us.uncletopia.com","port":27015,"enabled":true,"region":"us-central","cc":"us","latitude":41.881832,"longitude":-87.62318,"reserved":0,"last_update":"0001-01-01T00:00:00Z","name_a2s":"Uncletopia | Chicago | 1 | All Maps","protocol":17,"map":"cp_dustbowl","folder":"tf","game":"Team Fortress","app_id":440,"player_count":24,"max_players":24,"Bots":0,"server_type":"Dedicated","server_os":"Linux","password":true,"vac":true,"version":"7757534","steam_id":85568392924469984,"keywords":["cp","nocrits","nodmgspread","uncletopia"],"game_id":440,"stv_port":27016,"stv_name":"Uncletopia | Chicago | 1 | All Maps | STV","players":[{"user_id":885,"name":"mild","steam_id":76561198082470182,"connected_time":261000000000,"state":"active","ping":89},{"user_id":858,"name":"Gabinator32","steam_id":76561198872467183,"connected_time":2340000000000,"state":"active","ping":45},{"user_id":871,"name":"workin on my chakras","steam_id":76561198135559825,"connected_time":882000000000,"state":"active","ping":61},{"user_id":832,"name":"man of the hour","steam_id":76561198264601809,"connected_time":3557000000000,"state":"active","ping":74},{"user_id":881,"name":"Fudge_Cake","steam_id":76561198059218167,"connected_time":616000000000,"state":"active","ping":62},{"user_id":854,"name":"Wumps","steam_id":76561198207226825,"connected_time":2580000000000,"state":"active","ping":75},{"user_id":866,"name":"Crate","steam_id":76561198216807112,"connected_time":1422000000000,"state":"active","ping":60},{"user_id":870,"name":"Oberon","steam_id":76561199360964272,"connected_time":1004000000000,"state":"active","ping":57},{"user_id":781,"name":"Swshbcklr","steam_id":76561197969421355,"connected_time":9156000000000,"state":"active","ping":61},{"user_id":834,"name":"FROYO donovin","steam_id":76561198045679387,"connected_time":3466000000000,"state":"active","ping":51},{"user_id":868,"name":"Baka!â‘¨â‘¨â‘¨â‘¨","steam_id":76561198152948254,"connected_time":1286000000000,"state":"active","ping":70},{"user_id":878,"name":"Apophis","steam_id":76561197989724484,"connected_time":700000000000,"state":"active","ping":75},{"user_id":811,"name":"Cyclaw","steam_id":76561198076045689,"connected_time":5660000000000,"state":"active","ping":46},{"user_id":882,"name":"Pink Beard Man (cant heal)","steam_id":76561198817302192,"connected_time":583000000000,"state":"active","ping":95},{"user_id":865,"name":"CamSoup","steam_id":76561198202483168,"connected_time":1568000000000,"state":"active","ping":68},{"user_id":884,"name":"mix^ joakim","steam_id":76561197961668407,"connected_time":558000000000,"state":"active","ping":83},{"user_id":874,"name":"Antifa Alligator","steam_id":76561197988170816,"connected_time":841000000000,"state":"active","ping":69},{"user_id":857,"name":"Hentai Mentai","steam_id":76561198333128330,"connected_time":2416000000000,"state":"active","ping":37},{"user_id":855,"name":"ShitsandGigglesâ„¢","steam_id":76561198058708019,"connected_time":2568000000000,"state":"active","ping":56},{"user_id":879,"name":"LEAKY-AA-","steam_id":76561198000509422,"connected_time":672000000000,"state":"active","ping":56},{"user_id":876,"name":"kier","steam_id":76561198018564445,"connected_time":802000000000,"state":"active","ping":60},{"user_id":839,"name":"Themlgplant","steam_id":76561199446887943,"connected_time":3375000000000,"state":"active","ping":116},{"user_id":843,"name":"Nicolas Cage Kisses Mace Windu","steam_id":76561198046127710,"connected_time":3236000000000,"state":"active","ping":57},{"user_id":764,"name":"Lia_Rein","steam_id":76561198151569597,"connected_time":11331000000000,"state":"active","ping":156}]},{"server_id":106,"name":"Uncletopia | Chicago | 2 | All Maps","name_short":"chi-2","host":"chi-1.us.uncletopia.com","port":27025,"enabled":true,"region":"us-central","cc":"us","latitude":41.881832,"longitude":-87.62318,"reserved":0,"last_update":"0001-01-01T00:00:00Z","name_a2s":"Uncletopia | Chicago | 2 | All Maps","protocol":17,"map":"pl_pier","folder":"tf","game":"Team Fortress","app_id":440,"player_count":23,"max_players":24,"Bots":0,"server_type":"Dedicated","server_os":"Linux","password":true,"vac":true,"version":"7757534","steam_id":85568392924469985,"keywords":["nocrits","nodmgspread","payload","uncletopia"],"game_id":440,"stv_port":27026,"stv_name":"Uncletopia | Chicago | 2 | All Maps | STV","players":[{"user_id":1004,"name":"Anderred","steam_id":76561198149983847,"connected_time":97000000000,"state":"active","ping":77},{"user_id":964,"name":"Speedy","steam_id":76561198080761661,"connected_time":2337000000000,"state":"active","ping":86},{"user_id":984,"name":"Insert_Name_Here","steam_id":76561198089428414,"connected_time":1346000000000,"state":"active","ping":96},{"user_id":994,"name":"bird doctor","steam_id":76561199144340440,"connected_time":518000000000,"state":"active","ping":62},{"user_id":1000,"name":"1 death=1 plant fact","steam_id":76561198995705248,"connected_time":326000000000,"state":"active","ping":79},{"user_id":937,"name":"DiscoTraveler","steam_id":76561199240168088,"connected_time":4562000000000,"state":"active","ping":55},{"user_id":957,"name":"ven","steam_id":76561198017539604,"connected_time":3157000000000,"state":"active","ping":74},{"user_id":966,"name":"Flubzy1","steam_id":76561198379456004,"connected_time":2259000000000,"state":"active","ping":66},{"user_id":1005,"name":"JIGRON","steam_id":76561197998694076,"connected_time":79000000000,"state":"active","ping":62},{"user_id":968,"name":"Mush","steam_id":76561198393461065,"connected_time":2221000000000,"state":"active","ping":78},{"user_id":947,"name":"uhooter","steam_id":76561198007829078,"connected_time":3572000000000,"state":"active","ping":45},{"user_id":996,"name":"Candy Sparkles","steam_id":76561198126871264,"connected_time":500000000000,"state":"active","ping":75},{"user_id":1003,"name":"heats","steam_id":76561198029719720,"connected_time":164000000000,"state":"active","ping":87},{"user_id":1001,"name":"Iron","steam_id":76561198247918478,"connected_time":313000000000,"state":"active","ping":60},{"user_id":1007,"name":"Triforce141","steam_id":76561198063896776,"connected_time":47000000000,"state":"active","ping":73},{"user_id":960,"name":"Alpha Goose","steam_id":76561198038927852,"connected_time":2614000000000,"state":"active","ping":66},{"user_id":993,"name":"Shiver from Splatoon 3","steam_id":76561198322969864,"connected_time":549000000000,"state":"active","ping":133},{"user_id":971,"name":"Neku","steam_id":76561198280843210,"connected_time":2122000000000,"state":"active","ping":64},{"user_id":1008,"name":"Wang of Wall St","steam_id":76561198047460598,"connected_time":12000000000,"state":"active","ping":62},{"user_id":976,"name":"Bird watcher #savetf2","steam_id":76561199201098634,"connected_time":1862000000000,"state":"active","ping":56},{"user_id":1002,"name":"Young, Hot, and Full of Grease","steam_id":76561198101092551,"connected_time":297000000000,"state":"active","ping":71},{"user_id":997,"name":"plum","steam_id":76561198145759044,"connected_time":420000000000,"state":"active","ping":62},{"user_id":999,"name":"Bzamo","steam_id":76561198039883392,"connected_time":378000000000,"state":"active","ping":72}]},{"server_id":402,"name":"Uncletopia | Chicago | 3 | All Maps","name_short":"chi-3","host":"chi-1.us.uncletopia.com","port":27035,"enabled":true,"region":"us-central","cc":"us","latitude":41.881832,"longitude":-87.62318,"reserved":0,"last_update":"0001-01-01T00:00:00Z","name_a2s":"Uncletopia | Chicago | 3 | All Maps","protocol":17,"map":"cp_sunshine","folder":"tf","game":"Team Fortress","app_id":440,"player_count":0,"max_players":24,"Bots":0,"server_type":"Dedicated","server_os":"Linux","password":true,"vac":true,"version":"7757534","steam_id":85568392924515191,"keywords":["cp","nocrits","nodmgspread","uncletopia"],"game_id":440,"stv_port":27036,"stv_name":"Uncletopia | Chicago | 3 | All Maps | STV","players":null},{"server_id":403,"name":"Uncletopia | Chicago | 4 | All Maps","name_short":"chi-4","host":"chi-1.us.uncletopia.com","port":27045,"enabled":true,"region":"us-central","cc":"us","latitude":41.881832,"longitude":-87.62318,"reserved":0,"last_update":"0001-01-01T00:00:00Z","name_a2s":"Uncletopia | Chicago | 4 | All Maps","protocol":17,"map":"pl_barnblitz","folder":"tf","game":"Team Fortress","app_id":440,"player_count":24,"max_players":24,"Bots":0,"server_type":"Dedicated","server_os":"Linux","password":true,"vac":true,"version":"7757534","steam_id":85568392924515193,"keywords":["nocrits","nodmgspread","payload","uncletopia"],"game_id":440,"stv_port":27046,"stv_name":"Uncletopia | Chicago | 4 | All Maps | STV","players":[{"user_id":729,"name":"kametro4","steam_id":76561198835430429,"connected_time":1633000000000,"state":"active","ping":89},{"user_id":746,"name":"tuck that","steam_id":76561198881665250,"connected_time":364000000000,"state":"active","ping":90},{"user_id":743,"name":"Dr Dre PHD","steam_id":76561198294955546,"connected_time":873000000000,"state":"active","ping":74},{"user_id":711,"name":"SpinetinglingToast","steam_id":76561198099470670,"connected_time":3283000000000,"state":"active","ping":71},{"user_id":696,"name":"RosemaryðŸŒ™ å¹½éœŠ [ 1 9 9 8 ","steam_id":76561198807726226,"connected_time":4923000000000,"state":"active","ping":90},{"user_id":731,"name":"Frank","steam_id":76561198104620535,"connected_time":1593000000000,"state":"active","ping":45},{"user_id":719,"name":"Treeckogeek","steam_id":76561198453328078,"connected_time":2989000000000,"state":"active","ping":59},{"user_id":683,"name":"chiswola","steam_id":76561198046920142,"connected_time":6376000000000,"state":"active","ping":73},{"user_id":716,"name":"Scalie with Soup","steam_id":76561198126745958,"connected_time":3064000000000,"state":"active","ping":83},{"user_id":732,"name":"GrumpyGrampaKoala","steam_id":76561198020441036,"connected_time":1550000000000,"state":"active","ping":81},{"user_id":733,"name":"Goku","steam_id":76561198064143198,"connected_time":1548000000000,"state":"active","ping":49},{"user_id":653,"name":"gamerboykeith","steam_id":76561198375390532,"connected_time":9608000000000,"state":"active","ping":61},{"user_id":734,"name":"normal guy","steam_id":76561198062712676,"connected_time":1477000000000,"state":"active","ping":102},{"user_id":735,"name":"Rukks","steam_id":76561197993918954,"connected_time":1475000000000,"state":"active","ping":87},{"user_id":727,"name":"Alkaios","steam_id":76561198246193520,"connected_time":2724000000000,"state":"active","ping":59},{"user_id":704,"name":"BigBubble42","steam_id":76561198136286123,"connected_time":3915000000000,"state":"active","ping":113},{"user_id":747,"name":"Quarter","steam_id":76561198219209367,"connected_time":169000000000,"state":"active","ping":69},{"user_id":741,"name":"emo era","steam_id":76561198277163301,"connected_time":1339000000000,"state":"active","ping":68},{"user_id":723,"name":"bur","steam_id":76561198004231658,"connected_time":2955000000000,"state":"active","ping":63},{"user_id":693,"name":"Free Use Vaporeon","steam_id":76561198118847920,"connected_time":5088000000000,"state":"active","ping":130},{"user_id":745,"name":"Andrew","steam_id":76561198070615190,"connected_time":405000000000,"state":"active","ping":64},{"user_id":664,"name":"TheTruthOfTheCessationOfDukkha","steam_id":76561198214370515,"connected_time":7701000000000,"state":"active","ping":74},{"user_id":674,"name":"monch","steam_id":76561198105374054,"connected_time":7518000000000,"state":"active","ping":134},{"user_id":738,"name":"is undertale real?","steam_id":76561198090289497,"connected_time":1394000000000,"state":"active","ping":74}]},{"server_id":36,"name":"Uncletopia | Chicago | 5 | All Maps","name_short":"chi-5","host":"chi-2.us.uncletopia.com","port":27015,"enabled":true,"region":"us-central","cc":"us","latitude":41.881832,"longitude":-87.62318,"reserved":0,"last_update":"0001-01-01T00:00:00Z","name_a2s":"Uncletopia | Chicago | 5 | All Maps","protocol":17,"map":"pl_badwater","folder":"tf","game":"Team Fortress","app_id":440,"player_count":22,"max_players":24,"Bots":0,"server_type":"Dedicated","server_os":"Linux","password":true,"vac":true,"version":"7757534","steam_id":85568392924866362,"keywords":["nocrits","nodmgspread","payload","uncletopia"],"game_id":440,"stv_port":27016,"stv_name":"Uncletopia | Chicago | 5 | All Maps | STV","players":[{"user_id":125,"name":"Wiggle_meat","steam_id":76561199211675823,"connected_time":617000000000,"state":"active","ping":111},{"user_id":126,"name":"Ronzik","steam_id":76561198124406935,"connected_time":594000000000,"state":"active","ping":78},{"user_id":119,"name":"bariatric medic","steam_id":76561198084582998,"connected_time":1056000000000,"state":"active","ping":68},{"user_id":124,"name":"easiest airshotter","steam_id":76561198812385770,"connected_time":671000000000,"state":"active","ping":75},{"user_id":49,"name":"Lore","steam_id":76561198098407538,"connected_time":7730000000000,"state":"active","ping":48},{"user_id":105,"name":"lowtierbrother","steam_id":76561198310880776,"connected_time":2363000000000,"state":"active","ping":77},{"user_id":96,"name":"xFactr","steam_id":76561198129007422,"connected_time":3525000000000,"state":"active","ping":52},{"user_id":19,"name":"Rat Methinks","steam_id":76561198422134361,"connected_time":9645000000000,"state":"active","ping":100},{"user_id":102,"name":"real rx like pap said","steam_id":76561198026393621,"connected_time":2452000000000,"state":"active","ping":94},{"user_id":115,"name":"sadface","steam_id":76561198096347625,"connected_time":1559000000000,"state":"active","ping":75},{"user_id":37,"name":"Dispenser (Twan)","steam_id":76561197991064908,"connected_time":9516000000000,"state":"active","ping":64},{"user_id":132,"name":"Blitzy","steam_id":76561198149472890,"connected_time":445000000000,"state":"active","ping":73},{"user_id":112,"name":"gettysburg","steam_id":76561198016157051,"connected_time":2067000000000,"state":"active","ping":61},{"user_id":116,"name":"Boznyan","steam_id":76561198129164016,"connected_time":1196000000000,"state":"active","ping":49},{"user_id":127,"name":"inventor1214","steam_id":76561198062317696,"connected_time":573000000000,"state":"active","ping":116},{"user_id":117,"name":"That Guy","steam_id":76561198322654075,"connected_time":1126000000000,"state":"active","ping":96},{"user_id":128,"name":"tutituti","steam_id":76561199102070698,"connected_time":524000000000,"state":"active","ping":114},{"user_id":114,"name":"chug jug","steam_id":76561198155631250,"connected_time":1769000000000,"state":"active","ping":65},{"user_id":129,"name":"Cheese","steam_id":76561199435683727,"connected_time":508000000000,"state":"active","ping":160},{"user_id":98,"name":"Funny Street Legend","steam_id":76561198275625984,"connected_time":3317000000000,"state":"active","ping":75},{"user_id":100,"name":"there is cum in my ramen","steam_id":76561198059815894,"connected_time":2982000000000,"state":"active","ping":51},{"user_id":133,"name":"ðŸ…œðŸ…”ðŸ…”ðŸ…šðŸ…¢ðŸ…£ðŸ…”\ufffd\ufffd\ufffd","steam_id":76561197999748343,"connected_time":442000000000,"state":"active","ping":64}]},{"server_id":37,"name":"Uncletopia | Chicago | 6 | All Maps","name_short":"chi-6","host":"chi-2.us.uncletopia.com","port":27025,"enabled":true,"region":"us-central","cc":"us","latitude":41.881832,"longitude":-87.62318,"reserved":0,"last_update":"0001-01-01T00:00:00Z","name_a2s":"Uncletopia | Chicago | 6 | All Maps","protocol":17,"map":"koth_viaduct","folder":"tf","game":"Team Fortress","app_id":440,"player_count":0,"max_players":24,"Bots":0,"server_type":"Dedicated","server_os":"Linux","password":true,"vac":true,"version":"7757534","steam_id":85568392924866363,"keywords":["cp","nocrits","nodmgspread","uncletopia"],"game_id":440,"stv_port":27026,"stv_name":"Uncletopia | Chicago | 6 | All Maps | STV","players":null},{"server_id":38,"name":"Uncletopia | Chicago | 7 | Stopwatch Beta","name_short":"chi-7","host":"chi-2.us.uncletopia.com","port":27035,"enabled":true,"region":"us-central","cc":"us","latitude":41.881832,"longitude":-87.62318,"reserved":0,"last_update":"0001-01-01T00:00:00Z","name_a2s":"Uncletopia | Chicago | 7 | Stopwatch Beta","protocol":17,"map":"cp_metalworks","folder":"tf","game":"Team Fortress","app_id":440,"player_count":0,"max_players":24,"Bots":0,"server_type":"Dedicated","server_os":"Linux","password":true,"vac":true,"version":"7757534","steam_id":85568392924866364,"keywords":["cp","nocrits","nodmgspread","uncletopia"],"game_id":440,"stv_port":27036,"stv_name":"Uncletopia | Chicago | 7 | Stopwatch Beta | STV","players":null},{"server_id":39,"name":"Uncletopia | Chicago | 8 | Community","name_short":"chi-8","host":"chi-2.us.uncletopia.com","port":27045,"enabled":true,"region":"us-central","cc":"us","latitude":41.881832,"longitude":-87.62318,"reserved":0,"last_update":"0001-01-01T00:00:00Z","name_a2s":"Uncletopia | Chicago | 8 | Community","protocol":17,"map":"workshop/cp_sulfur_rc2.ugc619869471","folder":"tf","game":"Team Fortress","app_id":440,"player_count":0,"max_players":24,"Bots":0,"server_type":"Dedicated","server_os":"Linux","password":true,"vac":true,"version":"7757534","steam_id":85568392924866365,"keywords":["cp","nocrits","nodmgspread","uncletopia"],"game_id":440,"stv_port":27046,"stv_name":"Uncletopia | Chicago | 8 | Community | STV","players":null},{"server_id":8,"name":"Uncletopia | Dallas | 1 | All Maps","name_short":"dal-1","host":"dal-1.us.uncletopia.com","port":27015,"enabled":true,"region":"us-central","cc":"us","latitude":32.779167,"longitude":-96.80889,"reserved":0,"last_update":"0001-01-01T00:00:00Z","name_a2s":"Uncletopia | Dallas | 1 | All Maps","protocol":17,"map":"pl_upward","folder":"tf","game":"Team Fortress","app_id":440,"player_count":24,"max_players":24,"Bots":0,"server_type":"Dedicated","server_os":"Linux","password":true,"vac":true,"version":"7757534","steam_id":85568392924469986,"keywords":["nocrits","nodmgspread","payload","uncletopia"],"game_id":440,"stv_port":27016,"stv_name":"Uncletopia | Dallas | 1 | All Maps | STV","players":[{"user_id":718,"name":"my palisman would be a polarbea","steam_id":76561199060224916,"connected_time":782000000000,"state":"active","ping":90},{"user_id":672,"name":"Locomotive","steam_id":76561199152926930,"connected_time":4372000000000,"state":"active","ping":70},{"user_id":721,"name":"blademiss","steam_id":76561198062083019,"connected_time":488000000000,"state":"active","ping":75},{"user_id":712,"name":"Ojen","steam_id":76561197998414482,"connected_time":938000000000,"state":"active","ping":89},{"user_id":707,"name":"Jasmine Rice","steam_id":76561198163163590,"connected_time":1917000000000,"state":"active","ping":61},{"user_id":726,"name":"Legit_Jaxer","steam_id":76561198172234053,"connected_time":9000000000,"state":"spawning","ping":103},{"user_id":676,"name":"Faraday","steam_id":76561198089928357,"connected_time":3860000000000,"state":"active","ping":52},{"user_id":724,"name":"Zeke McGeeks","steam_id":76561198067050258,"connected_time":32000000000,"state":"active","ping":92},{"user_id":690,"name":"Fumpo","steam_id":76561198206873365,"connected_time":3223000000000,"state":"active","ping":87},{"user_id":706,"name":"Lichy","steam_id":76561198310682841,"connected_time":1956000000000,"state":"active","ping":70},{"user_id":714,"name":"Joey Slapps","steam_id":76561198364717555,"connected_time":912000000000,"state":"active","ping":73},{"user_id":710,"name":"sexypringle","steam_id":76561198401282091,"connected_time":1344000000000,"state":"active","ping":71},{"user_id":699,"name":"/Loss/-Soul-","steam_id":76561198096899089,"connected_time":2279000000000,"state":"active","ping":124},{"user_id":711,"name":"Daddy","steam_id":76561198093028567,"connected_time":1267000000000,"state":"active","ping":71},{"user_id":715,"name":"WikiThis","steam_id":76561198103209713,"connected_time":911000000000,"state":"active","ping":93},{"user_id":716,"name":"GatorAIDS","steam_id":76561198043220092,"connected_time":889000000000,"state":"active","ping":47},{"user_id":725,"name":"Randy \"the Man\" Johnson","steam_id":76561198039124445,"connected_time":24000000000,"state":"active","ping":132},{"user_id":719,"name":"Joe Swanson","steam_id":76561199089907740,"connected_time":524000000000,"state":"active","ping":66},{"user_id":722,"name":"ryghehn","steam_id":76561198195359229,"connected_time":467000000000,"state":"active","ping":94},{"user_id":723,"name":"super","steam_id":76561198800358844,"connected_time":247000000000,"state":"active","ping":70},{"user_id":694,"name":"Action_Quacktion","steam_id":76561198407062426,"connected_time":2820000000000,"state":"active","ping":84},{"user_id":647,"name":"StarManMatt","steam_id":76561198125513574,"connected_time":6066000000000,"state":"active","ping":98},{"user_id":698,"name":"ProfessorBadger","steam_id":76561198276916055,"connected_time":2644000000000,"state":"active","ping":102},{"user_id":650,"name":"[Ã˜WQJÃ˜]chubacaalatake","steam_id":76561198136201697,"connected_time":6007000000000,"state":"active","ping":122}]},{"server_id":108,"name":"Uncletopia | Dallas | 2 | All Maps","name_short":"dal-2","host":"dal-1.us.uncletopia.com","port":27025,"enabled":true,"region":"us-central","cc":"us","latitude":32.779167,"longitude":-96.80889,"reserved":0,"last_update":"0001-01-01T00:00:00Z","name_a2s":"Uncletopia | Dallas | 2 | All Maps","protocol":17,"map":"cp_snakewater_final1","folder":"tf","game":"Team Fortress","app_id":440,"player_count":24,"max_players":24,"Bots":0,"server_type":"Dedicated","server_os":"Linux","password":true,"vac":true,"version":"7757534","steam_id":85568392924469988,"keywords":["cp","nocrits","nodmgspread","uncletopia"],"game_id":440,"stv_port":27026,"stv_name":"Uncletopia | Dallas | 2 | All Maps | STV","players":[{"user_id":387,"name":"SIGMA [BS]","steam_id":76561197962604879,"connected_time":11515000000000,"state":"active","ping":90},{"user_id":495,"name":"Regice","steam_id":76561198049860998,"connected_time":3274000000000,"state":"active","ping":68},{"user_id":517,"name":"Casilius","steam_id":76561198238478246,"connected_time":1144000000000,"state":"active","ping":99},{"user_id":503,"name":"Registeel","steam_id":76561198068516556,"connected_time":2929000000000,"state":"active","ping":98},{"user_id":443,"name":"King of Lames","steam_id":76561198006366763,"connected_time":7928000000000,"state":"active","ping":45},{"user_id":527,"name":"grunch","steam_id":76561198354292689,"connected_time":261000000000,"state":"active","ping":52},{"user_id":511,"name":"shadow wizard","steam_id":76561198165212575,"connected_time":2418000000000,"state":"active","ping":77},{"user_id":528,"name":"Darklacuna","steam_id":76561198889013399,"connected_time":223000000000,"state":"active","ping":86},{"user_id":520,"name":"Lucy","steam_id":76561198032590343,"connected_time":1066000000000,"state":"active","ping":91},{"user_id":513,"name":"Pope","steam_id":76561198053768137,"connected_time":2129000000000,"state":"active","ping":51},{"user_id":525,"name":"g0nk","steam_id":76561198838309024,"connected_time":348000000000,"state":"active","ping":76},{"user_id":519,"name":"dicksouls26","steam_id":76561198838196266,"connected_time":1132000000000,"state":"active","ping":100},{"user_id":515,"name":"Lemon Pine-Sol","steam_id":76561198068326695,"connected_time":1566000000000,"state":"active","ping":54},{"user_id":516,"name":"Blades_87","steam_id":76561198150870338,"connected_time":1300000000000,"state":"active","ping":92},{"user_id":466,"name":"Naffty","steam_id":76561198119734981,"connected_time":5130000000000,"state":"active","ping":88},{"user_id":439,"name":"Orange","steam_id":76561197960854889,"connected_time":7949000000000,"state":"active","ping":94},{"user_id":521,"name":"Hell_hunter","steam_id":76561197970810474,"connected_time":1031000000000,"state":"active","ping":74},{"user_id":457,"name":"James","steam_id":76561198081313916,"connected_time":6995000000000,"state":"active","ping":69},{"user_id":512,"name":"An Unhappy Clown","steam_id":76561198175516514,"connected_time":2209000000000,"state":"active","ping":54},{"user_id":522,"name":"cam","steam_id":76561198030171717,"connected_time":997000000000,"state":"active","ping":86},{"user_id":510,"name":"Fish Enjoyer","steam_id":76561198300458561,"connected_time":2426000000000,"state":"active","ping":83},{"user_id":408,"name":"Nugakku","steam_id":76561198082346219,"connected_time":10356000000000,"state":"active","ping":77},{"user_id":501,"name":"MoonWolf","steam_id":76561198095735033,"connected_time":3134000000000,"state":"active","ping":72},{"user_id":458,"name":"Rockgraham101","steam_id":76561198171740458,"connected_time":6188000000000,"state":"active","ping":71}]},{"server_id":5,"name":"Uncletopia | Frankfurt | 1 | All Maps","name_short":"frk-1","host":"frk-1.de.uncletopia.com","port":27015,"enabled":true,"region":"eu","cc":"de","latitude":50.110924,"longitude":8.682127,"reserved":0,"last_update":"0001-01-01T00:00:00Z","name_a2s":"Uncletopia | Frankfurt | 1 | All Maps","protocol":17,"map":"pl_badwater","folder":"tf","game":"Team Fortress","app_id":440,"player_count":0,"max_players":24,"Bots":0,"server_type":"Dedicated","server_os":"Linux","password":true,"vac":true,"version":"7757534","steam_id":85568392924469989,"keywords":["nocrits","nodmgspread","payload","uncletopia"],"game_id":440,"stv_port":27016,"stv_name":"Uncletopia | Frankfurt | 1 | All Maps | STV","players":null},{"server_id":110,"name":"Uncletopia | Frankfurt | 2 | All Maps","name_short":"frk-2","host":"frk-1.de.uncletopia.com","port":27025,"enabled":true,"region":"eu","cc":"de","latitude":50.110924,"longitude":8.682127,"reserved":0,"last_update":"0001-01-01T00:00:00Z","name_a2s":"Uncletopia | Frankfurt | 2 | All Maps","protocol":17,"map":"cp_altitude","folder":"tf","game":"Team Fortress","app_id":440,"player_count":0,"max_players":24,"Bots":0,"server_type":"Dedicated","server_os":"Linux","password":true,"vac":true,"version":"7757534","steam_id":85568392924469990,"keywords":["cp","nocrits","nodmgspread","uncletopia"],"game_id":440,"stv_port":27026,"stv_name":"Uncletopia | Frankfurt | 2 | All Maps | STV","players":null},{"server_id":308,"name":"Uncletopia | Frankfurt | 3 | All Maps","name_short":"frk-3","host":"frk-1.de.uncletopia.com","port":27035,"enabled":true,"region":"eu","cc":"de","latitude":50.110924,"longitude":8.682127,"reserved":0,"last_update":"0001-01-01T00:00:00Z","name_a2s":"Uncletopia | Frankfurt | 3 | All Maps","protocol":17,"map":"pl_borneo","folder":"tf","game":"Team Fortress","app_id":440,"player_count":0,"max_players":24,"Bots":0,"server_type":"Dedicated","server_os":"Linux","password":true,"vac":true,"version":"7757534","steam_id":85568392924504274,"keywords":["nocrits","nodmgspread","payload","uncletopia"],"game_id":440,"stv_port":27036,"stv_name":"Uncletopia | Frankfurt | 3 | All Maps | STV","players":null},{"server_id":309,"name":"Uncletopia | Frankfurt | 4 | All Maps","name_short":"frk-4","host":"frk-1.de.uncletopia.com","port":27045,"enabled":true,"region":"eu","cc":"de","latitude":50.110924,"longitude":8.682127,"reserved":0,"last_update":"0001-01-01T00:00:00Z","name_a2s":"Uncletopia | Frankfurt | 4 | All Maps","protocol":17,"map":"pl_pier","folder":"tf","game":"Team Fortress","app_id":440,"player_count":0,"max_players":24,"Bots":0,"server_type":"Dedicated","server_os":"Linux","password":true,"vac":true,"version":"7757534","steam_id":85568392924504275,"keywords":["nocrits","nodmgspread","payload","uncletopia"],"game_id":440,"stv_port":27046,"stv_name":"Uncletopia | Frankfurt | 4 | All Maps | STV","players":null},{"server_id":310,"name":"Uncletopia | Frankfurt | 5 | All Maps","name_short":"frk-5","host":"frk-1.de.uncletopia.com","port":27055,"enabled":true,"region":"eu","cc":"de","latitude":50.110924,"longitude":8.682127,"reserved":0,"last_update":"0001-01-01T00:00:00Z","name_a2s":"Uncletopia | Frankfurt | 5 | All Maps","protocol":17,"map":"cp_altitude","folder":"tf","game":"Team Fortress","app_id":440,"player_count":0,"max_players":24,"Bots":0,"server_type":"Dedicated","server_os":"Linux","password":true,"vac":true,"version":"7757534","steam_id":85568392924504277,"keywords":["cp","nocrits","nodmgspread","uncletopia"],"game_id":440,"stv_port":27056,"stv_name":"Uncletopia | Frankfurt | 5 | All Maps | STV","players":null},{"server_id":311,"name":"Uncletopia | Frankfurt | 6 | All Maps","name_short":"frk-6","host":"frk-1.de.uncletopia.com","port":27065,"enabled":true,"region":"eu","cc":"de","latitude":50.110924,"longitude":8.682127,"reserved":0,"last_update":"0001-01-01T00:00:00Z","name_a2s":"Uncletopia | Frankfurt | 6 | All Maps","protocol":17,"map":"pl_barnblitz","folder":"tf","game":"Team Fortress","app_id":440,"player_count":0,"max_players":24,"Bots":0,"server_type":"Dedicated","server_os":"Linux","password":true,"vac":true,"version":"7757534","steam_id":85568392924504278,"keywords":["nocrits","nodmgspread","payload","uncletopia"],"game_id":440,"stv_port":27066,"stv_name":"Uncletopia | Frankfurt | 6 | All Maps | STV","players":null},{"server_id":23,"name":"Uncletopia | Frankfurt | 7 | Stopwatch Beta","name_short":"frk-7","host":"frk-1.de.uncletopia.com","port":27075,"enabled":true,"region":"eu","cc":"de","latitude":50.110924,"longitude":8.682127,"reserved":0,"last_update":"0001-01-01T00:00:00Z","name_a2s":"Uncletopia | Frankfurt | 7 | Stopwatch Beta","protocol":17,"map":"pl_borneo","folder":"tf","game":"Team Fortress","app_id":440,"player_count":0,"max_players":24,"Bots":0,"server_type":"Dedicated","server_os":"Linux","password":true,"vac":true,"version":"7757534","steam_id":85568392924742827,"keywords":["nocrits","nodmgspread","payload","uncletopia"],"game_id":440,"stv_port":27076,"stv_name":"Uncletopia | Frankfurt | 7 | Stopwatch Beta | STV","players":null},{"server_id":24,"name":"Uncletopia | Frankfurt | 8 | Community","name_short":"frk-8","host":"frk-1.de.uncletopia.com","port":27085,"enabled":true,"region":"eu","cc":"de","latitude":50.110924,"longitude":8.682127,"reserved":0,"last_update":"0001-01-01T00:00:00Z","name_a2s":"Uncletopia | Frankfurt | 8 | Community","protocol":17,"map":"koth_viaduct","folder":"tf","game":"Team Fortress","app_id":440,"player_count":0,"max_players":24,"Bots":0,"server_type":"Dedicated","server_os":"Linux","password":true,"vac":true,"version":"7757534","steam_id":85568392924742828,"keywords":["cp","nocrits","nodmgspread","uncletopia"],"game_id":440,"stv_port":27086,"stv_name":"Uncletopia | Frankfurt | 8 | Community | STV","players":null},{"server_id":202,"name":"Uncletopia | Hong Kong | 1 | All Maps","name_short":"hgk-1","host":"hgk-1.hk.uncletopia.com","port":27015,"enabled":true,"region":"asia","cc":"hk","latitude":22.302711,"longitude":114.177216,"reserved":0,"last_update":"0001-01-01T00:00:00Z","name_a2s":"Uncletopia | Hong Kong | 1 | All Maps","protocol":17,"map":"pl_upward","folder":"tf","game":"Team Fortress","app_id":440,"player_count":0,"max_players":24,"Bots":0,"server_type":"Dedicated","server_os":"Linux","password":true,"vac":true,"version":"7757534","steam_id":85568392924494504,"keywords":["nocrits","nodmgspread","payload","uncletopia"],"game_id":440,"stv_port":27016,"stv_name":"Uncletopia | Hong Kong | 1 | All Maps | STV","players":null},{"server_id":1,"name":"Uncletopia | Los Angeles | 1 | All Maps","name_short":"lax-1","host":"lax-1.us.uncletopia.com","port":27015,"enabled":true,"region":"us-west","cc":"us","latitude":33.94279,"longitude":-118.41004,"reserved":0,"last_update":"0001-01-01T00:00:00Z","name_a2s":"Uncletopia | Los Angeles | 1 | All Maps","protocol":17,"map":"koth_cascade","folder":"tf","game":"Team Fortress","app_id":440,"player_count":6,"max_players":24,"Bots":0,"server_type":"Dedicated","server_os":"Linux","password":true,"vac":true,"version":"7757534","steam_id":85568392924469991,"keywords":["cp","nocrits","nodmgspread","uncletopia"],"game_id":440,"stv_port":27016,"stv_name":"Uncletopia | Los Angeles | 1 | All Maps | STV","players":[{"user_id":449,"name":"LeDerp64","steam_id":76561198297282734,"connected_time":709000000000,"state":"active","ping":84},{"user_id":450,"name":"studdedscot","steam_id":76561198069118787,"connected_time":303000000000,"state":"active","ping":75},{"user_id":425,"name":"PinguEnjoyer6","steam_id":76561199186723516,"connected_time":3009000000000,"state":"active","ping":33},{"user_id":438,"name":"xbox record that","steam_id":76561198150117455,"connected_time":2310000000000,"state":"active","ping":46},{"user_id":415,"name":"Crunchy","steam_id":76561198240523882,"connected_time":3702000000000,"state":"active","ping":45},{"user_id":439,"name":"mos","steam_id":76561198146126212,"connected_time":2294000000000,"state":"active","ping":91}]},{"server_id":112,"name":"Uncletopia | Los Angeles | 2 | All Maps","name_short":"lax-2","host":"lax-1.us.uncletopia.com","port":27025,"enabled":true,"region":"us-west","cc":"us","latitude":33.94279,"longitude":-118.41004,"reserved":0,"last_update":"0001-01-01T00:00:00Z","name_a2s":"Uncletopia | Los Angeles | 2 | All Maps","protocol":17,"map":"cp_dustbowl","folder":"tf","game":"Team Fortress","app_id":440,"player_count":24,"max_players":24,"Bots":0,"server_type":"Dedicated","server_os":"Linux","password":true,"vac":true,"version":"7757534","steam_id":85568392924469992,"keywords":["cp","nocrits","nodmgspread","uncletopia"],"game_id":440,"stv_port":27026,"stv_name":"Uncletopia | Los Angeles | 2 | All Maps | STV","players":[{"user_id":380,"name":"franklinhosy1999","steam_id":76561198077344871,"connected_time":465000000000,"state":"active","ping":76},{"user_id":358,"name":"nella","steam_id":76561198079349621,"connected_time":2551000000000,"state":"active","ping":59},{"user_id":377,"name":"yellow","steam_id":76561198366474647,"connected_time":1017000000000,"state":"active","ping":41},{"user_id":332,"name":"Not A Rapper","steam_id":76561198077523537,"connected_time":4250000000000,"state":"active","ping":100},{"user_id":375,"name":"Ken-Sama","steam_id":76561198040465331,"connected_time":1525000000000,"state":"active","ping":50},{"user_id":366,"name":"Jampie","steam_id":76561198362253034,"connected_time":1824000000000,"state":"active","ping":66},{"user_id":382,"name":"Crustacean Daddy","steam_id":76561198993807061,"connected_time":176000000000,"state":"active","ping":44},{"user_id":361,"name":"Joey Wheeler","steam_id":76561198073792437,"connected_time":2289000000000,"state":"active","ping":62},{"user_id":367,"name":"DJ Sheeve","steam_id":76561198095910139,"connected_time":1812000000000,"state":"active","ping":105},{"user_id":292,"name":"tanner","steam_id":76561198137381904,"connected_time":7612000000000,"state":"active","ping":65},{"user_id":370,"name":"A_Un1t_0","steam_id":76561197966223353,"connected_time":1611000000000,"state":"active","ping":41},{"user_id":368,"name":"Antzen","steam_id":76561198041343470,"connected_time":1782000000000,"state":"active","ping":57},{"user_id":371,"name":"big bertha","steam_id":76561198441032143,"connected_time":1586000000000,"state":"active","ping":63},{"user_id":337,"name":"earthbound393","steam_id":76561199444276547,"connected_time":3748000000000,"state":"active","ping":116},{"user_id":351,"name":"philio2010","steam_id":76561199086384636,"connected_time":3262000000000,"state":"active","ping":57},{"user_id":381,"name":"athena","steam_id":76561198179408597,"connected_time":209000000000,"state":"active","ping":43},{"user_id":373,"name":"Halcyon","steam_id":76561199103213955,"connected_time":1532000000000,"state":"active","ping":74},{"user_id":383,"name":"spark","steam_id":76561199001477021,"connected_time":76000000000,"state":"active","ping":107},{"user_id":354,"name":"Brass beast heavy","steam_id":76561198274197623,"connected_time":3095000000000,"state":"active","ping":180},{"user_id":362,"name":"Simba","steam_id":76561198073845172,"connected_time":2144000000000,"state":"active","ping":61},{"user_id":379,"name":"pmstr","steam_id":76561198039366409,"connected_time":508000000000,"state":"active","ping":81},{"user_id":309,"name":"HOG RIDER","steam_id":76561198298589502,"connected_time":6669000000000,"state":"active","ping":51},{"user_id":360,"name":"FriskyDemon","steam_id":76561198043684646,"connected_time":2512000000000,"state":"active","ping":82},{"user_id":374,"name":"Menace","steam_id":76561199208701350,"connected_time":1531000000000,"state":"active","ping":83}]},{"server_id":324,"name":"Uncletopia | Los Angeles | 3 | All Maps","name_short":"lax-3","host":"lax-1.us.uncletopia.com","port":27035,"enabled":true,"region":"us-west","cc":"us","latitude":33.94279,"longitude":-118.41004,"reserved":0,"last_update":"0001-01-01T00:00:00Z","name_a2s":"Uncletopia | Los Angeles | 3 | All Maps","protocol":17,"map":"pl_pier","folder":"tf","game":"Team Fortress","app_id":440,"player_count":23,"max_players":24,"Bots":0,"server_type":"Dedicated","server_os":"Linux","password":true,"vac":true,"version":"7757534","steam_id":85568392924510198,"keywords":["nocrits","nodmgspread","payload","uncletopia"],"game_id":440,"stv_port":27036,"stv_name":"Uncletopia | Los Angeles | 3 | All Maps | STV","players":[{"user_id":28,"name":"OrdinaryDays","steam_id":76561199105515243,"connected_time":1602000000000,"state":"active","ping":69},{"user_id":29,"name":"SyoGuardian","steam_id":76561198974245728,"connected_time":1510000000000,"state":"active","ping":92},{"user_id":30,"name":"FallenPlate6768","steam_id":76561198359942894,"connected_time":1510000000000,"state":"active","ping":51},{"user_id":31,"name":"Vas","steam_id":76561198212814871,"connected_time":1505000000000,"state":"active","ping":105},{"user_id":32,"name":"cfers4492","steam_id":76561198275145106,"connected_time":1498000000000,"state":"active","ping":114},{"user_id":50,"name":"Macintosh","steam_id":76561198127725246,"connected_time":414000000000,"state":"active","ping":101},{"user_id":61,"name":"Pah-Wraith Gul Dukat","steam_id":76561198033918106,"connected_time":1000000000,"state":"spawning","ping":85},{"user_id":36,"name":"Birdman743","steam_id":76561198799636748,"connected_time":935000000000,"state":"active","ping":85},{"user_id":42,"name":"Atimus_Wolf","steam_id":76561198868785736,"connected_time":714000000000,"state":"active","ping":50},{"user_id":38,"name":"H4V0C","steam_id":76561199129350925,"connected_time":879000000000,"state":"active","ping":82},{"user_id":39,"name":"Hog Rider","steam_id":76561198382429004,"connected_time":873000000000,"state":"active","ping":57},{"user_id":47,"name":"catrinaisahuman","steam_id":76561198281355729,"connected_time":488000000000,"state":"active","ping":85},{"user_id":48,"name":"omen","steam_id":76561199095245687,"connected_time":466000000000,"state":"active","ping":106},{"user_id":49,"name":"Ballistic","steam_id":76561198149383604,"connected_time":432000000000,"state":"active","ping":45},{"user_id":51,"name":"Ravanus","steam_id":76561198188695971,"connected_time":414000000000,"state":"active","ping":43},{"user_id":52,"name":"sfoster","steam_id":76561197993895857,"connected_time":381000000000,"state":"active","ping":123},{"user_id":53,"name":"Flembrane","steam_id":76561197995328898,"connected_time":357000000000,"state":"active","ping":40},{"user_id":60,"name":"LazyDoll","steam_id":76561198053186338,"connected_time":152000000000,"state":"active","ping":57},{"user_id":55,"name":"lytewerk","steam_id":76561198002819791,"connected_time":317000000000,"state":"active","ping":96},{"user_id":56,"name":"rice white","steam_id":76561198320732910,"connected_time":304000000000,"state":"active","ping":118},{"user_id":57,"name":"Type Three Dabeetus","steam_id":76561198062710038,"connected_time":267000000000,"state":"active","ping":59},{"user_id":58,"name":"SIIIIMPLE","steam_id":76561198339527138,"connected_time":263000000000,"state":"active","ping":46},{"user_id":59,"name":"Nekomata","steam_id":76561198191536489,"connected_time":245000000000,"state":"active","ping":64}]},{"server_id":25,"name":"Uncletopia | Los Angeles | 4 | Stopwatch Beta","name_short":"lax-4","host":"lax-1.us.uncletopia.com","port":27045,"enabled":true,"region":"us-west","cc":"us","latitude":33.94279,"longitude":-118.41004,"reserved":0,"last_update":"0001-01-01T00:00:00Z","name_a2s":"Uncletopia | Los Angeles | 4 | Stopwatch Beta","protocol":17,"map":"pl_swiftwater_final1","folder":"tf","game":"Team Fortress","app_id":440,"player_count":0,"max_players":24,"Bots":0,"server_type":"Dedicated","server_os":"Linux","password":true,"vac":true,"version":"7757534","steam_id":85568392924510199,"keywords":["nocrits","nodmgspread","payload","uncletopia"],"game_id":440,"stv_port":27046,"stv_name":"Uncletopia | Los Angeles | 4 | Stopwatch Beta | STV","players":null},{"server_id":11,"name":"Uncletopia | London | 1 | All Maps","name_short":"lon-1","host":"lon-1.uk.uncletopia.com","port":27015,"enabled":true,"region":"eu","cc":"gb","latitude":51.509865,"longitude":-0.118092,"reserved":0,"last_update":"0001-01-01T00:00:00Z","name_a2s":"Uncletopia | London | 1 | All Maps","protocol":17,"map":"pl_pier","folder":"tf","game":"Team Fortress","app_id":440,"player_count":0,"max_players":24,"Bots":0,"server_type":"Dedicated","server_os":"Linux","password":true,"vac":true,"version":"7757534","steam_id":85568392924367362,"keywords":["nocrits","nodmgspread","payload","uncletopia"],"game_id":440,"stv_port":27016,"stv_name":"Uncletopia | London | 1 | All Maps | STV","players":null},{"server_id":114,"name":"Uncletopia | London | 2 | All Maps","name_short":"lon-2","host":"lon-1.uk.uncletopia.com","port":27025,"enabled":true,"region":"eu","cc":"gb","latitude":51.509865,"longitude":-0.118092,"reserved":0,"last_update":"0001-01-01T00:00:00Z","name_a2s":"Uncletopia | London | 2 | All Maps","protocol":17,"map":"koth_cascade","folder":"tf","game":"Team Fortress","app_id":440,"player_count":0,"max_players":24,"Bots":0,"server_type":"Dedicated","server_os":"Linux","password":true,"vac":true,"version":"7757534","steam_id":85568392924470941,"keywords":["cp","nocrits","nodmgspread","uncletopia"],"game_id":440,"stv_port":27026,"stv_name":"Uncletopia | London | 2 | All Maps | STV","players":null},{"server_id":320,"name":"Uncletopia | London | 3 | All Maps","name_short":"lon-3","host":"lon-1.uk.uncletopia.com","port":27035,"enabled":true,"region":"eu","cc":"gb","latitude":51.509865,"longitude":-0.118092,"reserved":0,"last_update":"0001-01-01T00:00:00Z","name_a2s":"Uncletopia | London | 3 | All Maps","protocol":17,"map":"cp_sunshine","folder":"tf","game":"Team Fortress","app_id":440,"player_count":0,"max_players":24,"Bots":0,"server_type":"Dedicated","server_os":"Linux","password":true,"vac":true,"version":"7757534","steam_id":85568392924510192,"keywords":["cp","nocrits","nodmgspread","uncletopia"],"game_id":440,"stv_port":27036,"stv_name":"Uncletopia | London | 3 | All Maps | STV","players":null},{"server_id":321,"name":"Uncletopia | London | 4 | All Maps","name_short":"lon-4","host":"lon-1.uk.uncletopia.com","port":27045,"enabled":true,"region":"eu","cc":"gb","latitude":51.509865,"longitude":-0.118092,"reserved":0,"last_update":"0001-01-01T00:00:00Z","name_a2s":"Uncletopia | London | 4 | All Maps","protocol":17,"map":"pl_swiftwater_final1","folder":"tf","game":"Team Fortress","app_id":440,"player_count":0,"max_players":24,"Bots":0,"server_type":"Dedicated","server_os":"Linux","password":true,"vac":true,"version":"7757534","steam_id":85568392924510193,"keywords":["nocrits","nodmgspread","payload","uncletopia"],"game_id":440,"stv_port":27046,"stv_name":"Uncletopia | London | 4 | All Maps | STV","players":null},{"server_id":21,"name":"Uncletopia | London | 5 | All Maps","name_short":"lon-5","host":"lon-1.uk.uncletopia.com","port":27055,"enabled":true,"region":"eu","cc":"gb","latitude":51.509865,"longitude":-0.118092,"reserved":0,"last_update":"0001-01-01T00:00:00Z","name_a2s":"Uncletopia | London | 5 | All Maps","protocol":17,"map":"koth_viaduct","folder":"tf","game":"Team Fortress","app_id":440,"player_count":0,"max_players":24,"Bots":0,"server_type":"Dedicated","server_os":"Linux","password":true,"vac":true,"version":"7757534","steam_id":85568392924742829,"keywords":["cp","nocrits","nodmgspread","uncletopia"],"game_id":440,"stv_port":27056,"stv_name":"Uncletopia | London | 5 | All Maps | STV","players":null},{"server_id":22,"name":"Uncletopia | London | 6 | All Maps","name_short":"lon-6","host":"lon-1.uk.uncletopia.com","port":27065,"enabled":true,"region":"eu","cc":"gb","latitude":51.509865,"longitude":-0.118092,"reserved":0,"last_update":"0001-01-01T00:00:00Z","name_a2s":"Uncletopia | London | 6 | All Maps","protocol":17,"map":"koth_lakeside_final","folder":"tf","game":"Team Fortress","app_id":440,"player_count":0,"max_players":24,"Bots":0,"server_type":"Dedicated","server_os":"Linux","password":true,"vac":true,"version":"7757534","steam_id":85568392924742830,"keywords":["cp","nocrits","nodmgspread","uncletopia"],"game_id":440,"stv_port":27066,"stv_name":"Uncletopia | London | 6 | All Maps | STV","players":null},{"server_id":40,"name":"Uncletopia | London | 7 | No Payload","name_short":"lon-7","host":"lon-1.uk.uncletopia.com","port":27075,"enabled":true,"region":"eu","cc":"gb","latitude":51.509865,"longitude":-0.118092,"reserved":0,"last_update":"0001-01-01T00:00:00Z","name_a2s":"Uncletopia | London | 7 | No Payload","protocol":17,"map":"koth_highpass","folder":"tf","game":"Team Fortress","app_id":440,"player_count":0,"max_players":24,"Bots":0,"server_type":"Dedicated","server_os":"Linux","password":true,"vac":true,"version":"7757534","steam_id":85568392924964314,"keywords":["cp","nocrits","nodmgspread","uncletopia"],"game_id":440,"stv_port":27076,"stv_name":"Uncletopia | London | 7 | No Payload | STV","players":null},{"server_id":41,"name":"Uncletopia | London | 8 | Community","name_short":"lon-8","host":"lon-1.uk.uncletopia.com","port":27085,"enabled":true,"region":"eu","cc":"gb","latitude":51.509865,"longitude":-0.118092,"reserved":0,"last_update":"0001-01-01T00:00:00Z","name_a2s":"Uncletopia | London | 8 | Community","protocol":17,"map":"workshop/cp_bruhstbowl_b5.ugc2878604990","folder":"tf","game":"Team Fortress","app_id":440,"player_count":0,"max_players":24,"Bots":0,"server_type":"Dedicated","server_os":"Linux","password":true,"vac":true,"version":"7757534","steam_id":85568392924964315,"keywords":["cp","nocrits","nodmgspread","uncletopia"],"game_id":440,"stv_port":27086,"stv_name":"Uncletopia | London | 8 | Community | STV","players":null},{"server_id":300,"name":"Uncletopia | MontrÃ©al | 1 | All Maps","name_short":"mtl-1","host":"mtl-1.ca.uncletopia.com","port":27015,"enabled":true,"region":"us-east","cc":"ca","latitude":45.50889,"longitude":-73.56167,"reserved":0,"last_update":"0001-01-01T00:00:00Z","name_a2s":"Uncletopia | MontrÃ©al | 1 | All Maps","protocol":17,"map":"koth_cascade","folder":"tf","game":"Team Fortress","app_id":440,"player_count":0,"max_players":24,"Bots":0,"server_type":"Dedicated","server_os":"Linux","password":true,"vac":true,"version":"7757534","steam_id":85568392924500087,"keywords":["cp","nocrits","nodmgspread","uncletopia"],"game_id":440,"stv_port":27016,"stv_name":"Uncletopia | MontrÃ©al | 1 | All Maps | STV","players":null},{"server_id":301,"name":"Uncletopia | MontrÃ©al | 2 | All Maps","name_short":"mtl-2","host":"mtl-1.ca.uncletopia.com","port":27025,"enabled":true,"region":"us-east","cc":"ca","latitude":45.50889,"longitude":-73.56167,"reserved":0,"last_update":"0001-01-01T00:00:00Z","name_a2s":"Uncletopia | MontrÃ©al | 2 | All Maps","protocol":17,"map":"pl_swiftwater_final1","folder":"tf","game":"Team Fortress","app_id":440,"player_count":0,"max_players":24,"Bots":0,"server_type":"Dedicated","server_os":"Linux","password":true,"vac":true,"version":"7757534","steam_id":85568392924500088,"keywords":["nocrits","nodmgspread","payload","uncletopia"],"game_id":440,"stv_port":27026,"stv_name":"Uncletopia | MontrÃ©al | 2 | All Maps | STV","players":null},{"server_id":302,"name":"Uncletopia | MontrÃ©al | 3 | All Maps","name_short":"mtl-3","host":"mtl-1.ca.uncletopia.com","port":27035,"enabled":true,"region":"us-east","cc":"ca","latitude":45.50889,"longitude":-73.56167,"reserved":0,"last_update":"0001-01-01T00:00:00Z","name_a2s":"Uncletopia | MontrÃ©al | 3 | All Maps","protocol":17,"map":"pl_borneo","folder":"tf","game":"Team Fortress","app_id":440,"player_count":24,"max_players":24,"Bots":0,"server_type":"Dedicated","server_os":"Linux","password":true,"vac":true,"version":"7757534","steam_id":85568392924500089,"keywords":["nocrits","nodmgspread","payload","uncletopia"],"game_id":440,"stv_port":27036,"stv_name":"Uncletopia | MontrÃ©al | 3 | All Maps | STV","players":[{"user_id":198,"name":"StompOnYourFace!!!!","steam_id":76561198065581117,"connected_time":7695000000000,"state":"active","ping":86},{"user_id":294,"name":"Takareer","steam_id":76561198001751765,"connected_time":618000000000,"state":"active","ping":58},{"user_id":266,"name":"fleura","steam_id":76561199403319171,"connected_time":2476000000000,"state":"active","ping":149},{"user_id":268,"name":"champion  turkey","steam_id":76561198151338482,"connected_time":2296000000000,"state":"active","ping":90},{"user_id":264,"name":"atlas","steam_id":76561198398383076,"connected_time":2540000000000,"state":"active","ping":92},{"user_id":295,"name":"Î¶^Î¶","steam_id":76561198043173385,"connected_time":424000000000,"state":"active","ping":100},{"user_id":284,"name":"Ted Bundy","steam_id":76561198121014183,"connected_time":1532000000000,"state":"active","ping":54},{"user_id":298,"name":"bojack from the show bojack hor","steam_id":76561198053006712,"connected_time":375000000000,"state":"active","ping":45},{"user_id":256,"name":"Colepie","steam_id":76561198037853211,"connected_time":2890000000000,"state":"active","ping":88},{"user_id":297,"name":"Snow Matt","steam_id":76561198210567101,"connected_time":380000000000,"state":"active","ping":85},{"user_id":299,"name":"Tying the knot","steam_id":76561198247794130,"connected_time":366000000000,"state":"active","ping":71},{"user_id":300,"name":"THRILLHO","steam_id":76561198371663047,"connected_time":358000000000,"state":"active","ping":51},{"user_id":242,"name":"Mr. Dry Lips","steam_id":76561198028157625,"connected_time":4638000000000,"state":"active","ping":142},{"user_id":302,"name":"deadpixel","steam_id":76561198150249843,"connected_time":319000000000,"state":"active","ping":74},{"user_id":233,"name":"Duckworth","steam_id":76561198098304991,"connected_time":5321000000000,"state":"active","ping":105},{"user_id":271,"name":"Krellah","steam_id":76561198287045069,"connected_time":2083000000000,"state":"active","ping":47},{"user_id":280,"name":"Tomato Soup","steam_id":76561198048625847,"connected_time":1670000000000,"state":"active","ping":106},{"user_id":305,"name":"O.G. C.E.O","steam_id":76561198063928325,"connected_time":64000000000,"state":"active","ping":71},{"user_id":281,"name":"Scarecrow200","steam_id":76561198054395660,"connected_time":1622000000000,"state":"active","ping":117},{"user_id":282,"name":"Niglet","steam_id":76561198155573607,"connected_time":1619000000000,"state":"active","ping":115},{"user_id":283,"name":"MoonMan","steam_id":76561198202386904,"connected_time":1610000000000,"state":"active","ping":117},{"user_id":277,"name":"anamoli","steam_id":76561199131941269,"connected_time":1777000000000,"state":"active","ping":70},{"user_id":287,"name":"MarcusDragon11","steam_id":76561198071836719,"connected_time":1320000000000,"state":"active","ping":89},{"user_id":304,"name":"Trench Rats","steam_id":76561198407546032,"connected_time":213000000000,"state":"active","ping":87}]},{"server_id":303,"name":"Uncletopia | MontrÃ©al | 4 | No Payload","name_short":"mtl-4","host":"mtl-1.ca.uncletopia.com","port":27045,"enabled":true,"region":"us-east","cc":"ca","latitude":45.50889,"longitude":-73.56167,"reserved":0,"last_update":"0001-01-01T00:00:00Z","name_a2s":"Uncletopia | MontrÃ©al | 4 | No Payload","protocol":17,"map":"cp_sunshine","folder":"tf","game":"Team Fortress","app_id":440,"player_count":0,"max_players":24,"Bots":0,"server_type":"Dedicated","server_os":"Linux","password":true,"vac":true,"version":"7757534","steam_id":85568392924500090,"keywords":["cp","nocrits","nodmgspread","uncletopia"],"game_id":440,"stv_port":27046,"stv_name":"Uncletopia | MontrÃ©al | 4 | No Payload | STV","players":null},{"server_id":13,"name":"Uncletopia | New York City | 1 | All Maps","name_short":"nyc-1","host":"nyc-1.us.uncletopia.com","port":27015,"enabled":true,"region":"us-east","cc":"us","latitude":40.73061,"longitude":-73.93524,"reserved":0,"last_update":"0001-01-01T00:00:00Z","name_a2s":"Uncletopia | New York City | 1 | All Maps","protocol":17,"map":"koth_viaduct","folder":"tf","game":"Team Fortress","app_id":440,"player_count":0,"max_players":24,"Bots":0,"server_type":"Dedicated","server_os":"Linux","password":true,"vac":true,"version":"7757534","steam_id":85568392924469993,"keywords":["cp","nocrits","nodmgspread","uncletopia"],"game_id":440,"stv_port":27016,"stv_name":"Uncletopia | New York City | 1 | All Maps | STV","players":null},{"server_id":14,"name":"Uncletopia | New York City | 2 | All Maps","name_short":"nyc-2","host":"nyc-1.us.uncletopia.com","port":27025,"enabled":true,"region":"us-east","cc":"us","latitude":40.73061,"longitude":-73.93524,"reserved":0,"last_update":"0001-01-01T00:00:00Z","name_a2s":"Uncletopia | New York City | 2 | All Maps","protocol":17,"map":"pl_badwater","folder":"tf","game":"Team Fortress","app_id":440,"player_count":24,"max_players":24,"Bots":0,"server_type":"Dedicated","server_os":"Linux","password":true,"vac":true,"version":"7757534","steam_id":85568392924469994,"keywords":["nocrits","nodmgspread","payload","uncletopia"],"game_id":440,"stv_port":27026,"stv_name":"Uncletopia | New York City | 2 | All Maps | STV","players":[{"user_id":291,"name":"TacticalGlizzy","steam_id":76561198144786171,"connected_time":5358000000000,"state":"active","ping":54},{"user_id":358,"name":"chowder908","steam_id":76561198075858535,"connected_time":886000000000,"state":"active","ping":84},{"user_id":353,"name":"Colin102004","steam_id":76561198202384334,"connected_time":1251000000000,"state":"active","ping":38},{"user_id":297,"name":"Yesterday's Grouse's Son","steam_id":76561198259873083,"connected_time":4859000000000,"state":"active","ping":123},{"user_id":351,"name":"Tribrothers_2","steam_id":76561198143972134,"connected_time":1333000000000,"state":"active","ping":84},{"user_id":346,"name":"originally dogshit","steam_id":76561198173695818,"connected_time":1830000000000,"state":"active","ping":135},{"user_id":300,"name":"Anax Alter","steam_id":76561198110249546,"connected_time":4640000000000,"state":"active","ping":46},{"user_id":362,"name":"RobinHood3000","steam_id":76561197999446906,"connected_time":705000000000,"state":"active","ping":49},{"user_id":369,"name":"cinamin.kake","steam_id":76561199003171233,"connected_time":457000000000,"state":"active","ping":74},{"user_id":359,"name":"Baron von Whoopsie","steam_id":76561197996691013,"connected_time":863000000000,"state":"active","ping":64},{"user_id":360,"name":"pigswill","steam_id":76561197999081865,"connected_time":825000000000,"state":"active","ping":66},{"user_id":355,"name":"a fuddruckers","steam_id":76561198092656099,"connected_time":1175000000000,"state":"active","ping":60},{"user_id":335,"name":"theghazinator","steam_id":76561198188027695,"connected_time":2541000000000,"state":"active","ping":62},{"user_id":368,"name":"Random","steam_id":76561198318879454,"connected_time":535000000000,"state":"active","ping":68},{"user_id":361,"name":"toho","steam_id":76561198117747254,"connected_time":750000000000,"state":"active","ping":74},{"user_id":363,"name":"Speculo","steam_id":76561198417593040,"connected_time":697000000000,"state":"active","ping":128},{"user_id":327,"name":"Viennetta","steam_id":76561198044088335,"connected_time":3572000000000,"state":"active","ping":52},{"user_id":364,"name":"The Horselords and Animal Gods","steam_id":76561197975094050,"connected_time":685000000000,"state":"active","ping":129},{"user_id":315,"name":"Fever Dreams","steam_id":76561198116614620,"connected_time":4305000000000,"state":"active","ping":73},{"user_id":366,"name":"ClericsRose","steam_id":76561198011013806,"connected_time":583000000000,"state":"active","ping":71},{"user_id":330,"name":"thai","steam_id":76561198052462287,"connected_time":3562000000000,"state":"active","ping":110},{"user_id":367,"name":"frozenwasanokmovie","steam_id":76561198157407952,"connected_time":580000000000,"state":"active","ping":117},{"user_id":323,"name":"Ryuviana","steam_id":76561198107259706,"connected_time":4120000000000,"state":"active","ping":56},{"user_id":332,"name":"Gustavo_Banana","steam_id":76561198387866587,"connected_time":3449000000000,"state":"active","ping":171}]},{"server_id":15,"name":"Uncletopia | New York City | 3 | Stopwatch Beta","name_short":"nyc-3","host":"nyc-1.us.uncletopia.com","port":27035,"enabled":true,"region":"us-east","cc":"us","latitude":40.73061,"longitude":-73.93524,"reserved":0,"last_update":"0001-01-01T00:00:00Z","name_a2s":"Uncletopia | New York City | 3 | Stopwatch Beta","protocol":17,"map":"koth_lakeside_final","folder":"tf","game":"Team Fortress","app_id":440,"player_count":0,"max_players":24,"Bots":0,"server_type":"Dedicated","server_os":"Linux","password":true,"vac":true,"version":"7757534","steam_id":85568392924742820,"keywords":["cp","nocrits","nodmgspread","uncletopia"],"game_id":440,"stv_port":27036,"stv_name":"Uncletopia | New York City | 3 | Stopwatch Beta | STV","players":null},{"server_id":16,"name":"Uncletopia | New York City | 4 | Community","name_short":"nyc-4","host":"nyc-1.us.uncletopia.com","port":27045,"enabled":true,"region":"us-east","cc":"us","latitude":40.73061,"longitude":-73.93524,"reserved":0,"last_update":"0001-01-01T00:00:00Z","name_a2s":"Uncletopia | New York City | 4 | Community","protocol":17,"map":"workshop/koth_bagel_rc6.ugc2514036946","folder":"tf","game":"Team Fortress","app_id":440,"player_count":0,"max_players":24,"Bots":0,"server_type":"Dedicated","server_os":"Linux","password":true,"vac":true,"version":"7757534","steam_id":85568392924742821,"keywords":["cp","nocrits","nodmgspread","uncletopia"],"game_id":440,"stv_port":27046,"stv_name":"Uncletopia | New York City | 4 | Community | STV","players":null},{"server_id":142,"name":"Uncletopia | SÃ£o Paulo | 1 | All Maps","name_short":"sao-1","host":"sao-1.br.uncletopia.com","port":27015,"enabled":true,"region":"sa","cc":"br","latitude":-23.533773,"longitude":-46.62529,"reserved":0,"last_update":"0001-01-01T00:00:00Z","name_a2s":"Uncletopia | SÃ£o Paulo | 1 | All Maps","protocol":17,"map":"pl_upward","folder":"tf","game":"Team Fortress","app_id":440,"player_count":0,"max_players":24,"Bots":0,"server_type":"Dedicated","server_os":"Linux","password":true,"vac":true,"version":"7757534","steam_id":85568392924469996,"keywords":["nocrits","nodmgspread","payload","uncletopia"],"game_id":440,"stv_port":27016,"stv_name":"Uncletopia | SÃ£o Paulo | 1 | All Maps | STV","players":null},{"server_id":143,"name":"Uncletopia | SÃ£o Paulo | 2 | All Maps","name_short":"sao-2","host":"sao-2.br.uncletopia.com","port":27015,"enabled":true,"region":"sa","cc":"br","latitude":-23.533773,"longitude":-46.62529,"reserved":0,"last_update":"0001-01-01T00:00:00Z","name_a2s":"Uncletopia | SÃ£o Paulo | 2 | All Maps","protocol":17,"map":"cp_snakewater_final1","folder":"tf","game":"Team Fortress","app_id":440,"player_count":0,"max_players":24,"Bots":0,"server_type":"Dedicated","server_os":"Linux","password":true,"vac":true,"version":"7757534","steam_id":85568392924485349,"keywords":["cp","nocrits","nodmgspread","uncletopia"],"game_id":440,"stv_port":27016,"stv_name":"Uncletopia | SÃ£o Paulo | 2 | All Maps | STV","players":null},{"server_id":7,"name":"Uncletopia | Seattle | 1 | All Maps","name_short":"sea-1","host":"sea-1.us.uncletopia.com","port":27015,"enabled":true,"region":"us-west","cc":"us","latitude":47.608013,"longitude":-122.33517,"reserved":0,"last_update":"0001-01-01T00:00:00Z","name_a2s":"Uncletopia | Seattle | 1 | All Maps","protocol":17,"map":"pl_upward","folder":"tf","game":"Team Fortress","app_id":440,"player_count":24,"max_players":24,"Bots":0,"server_type":"Dedicated","server_os":"Linux","password":true,"vac":true,"version":"7757534","steam_id":85568392924469997,"keywords":["nocrits","nodmgspread","payload","uncletopia"],"game_id":440,"stv_port":27016,"stv_name":"Uncletopia | Seattle | 1 | All Maps | STV","players":[{"user_id":697,"name":"dust | she/it","steam_id":76561198045218909,"connected_time":5459000000000,"state":"active","ping":37},{"user_id":711,"name":"Nolan","steam_id":76561198169648081,"connected_time":3419000000000,"state":"active","ping":99},{"user_id":728,"name":"Cheezbeargur","steam_id":76561198164702899,"connected_time":772000000000,"state":"active","ping":61},{"user_id":655,"name":"Hassium","steam_id":76561198162541373,"connected_time":8676000000000,"state":"active","ping":53},{"user_id":676,"name":"rat gets the cheese","steam_id":76561198031234032,"connected_time":7396000000000,"state":"active","ping":97},{"user_id":686,"name":"Tungsten","steam_id":76561198312854342,"connected_time":6288000000000,"state":"active","ping":60},{"user_id":725,"name":"ice spicee","steam_id":76561198169755734,"connected_time":789000000000,"state":"active","ping":63},{"user_id":682,"name":"Peppy","steam_id":76561198866629645,"connected_time":6295000000000,"state":"active","ping":84},{"user_id":735,"name":"lustful for PokÃ©mon","steam_id":76561198063713049,"connected_time":178000000000,"state":"active","ping":102},{"user_id":706,"name":"bbbbb","steam_id":76561198095480838,"connected_time":3649000000000,"state":"active","ping":46},{"user_id":703,"name":"KingTinkerer","steam_id":76561198226856548,"connected_time":4417000000000,"state":"active","ping":76},{"user_id":709,"name":"WACKY JIM","steam_id":76561198961641122,"connected_time":3446000000000,"state":"active","ping":56},{"user_id":699,"name":"KakyÅin Noriaki","steam_id":76561198123809642,"connected_time":5340000000000,"state":"active","ping":122},{"user_id":737,"name":"Day Man","steam_id":76561198067154807,"connected_time":164000000000,"state":"active","ping":43},{"user_id":674,"name":"SwoopShoot","steam_id":76561199024079388,"connected_time":7585000000000,"state":"active","ping":50},{"user_id":731,"name":"pyrotechnic","steam_id":76561198043558709,"connected_time":718000000000,"state":"active","ping":49},{"user_id":713,"name":"General Fisticuffs","steam_id":76561198255721392,"connected_time":2635000000000,"state":"active","ping":111},{"user_id":727,"name":"5392vin","steam_id":76561198880493511,"connected_time":779000000000,"state":"active","ping":64},{"user_id":695,"name":"shane","steam_id":76561198060491451,"connected_time":5603000000000,"state":"active","ping":90},{"user_id":732,"name":"p9 jorts","steam_id":76561199041179985,"connected_time":626000000000,"state":"active","ping":60},{"user_id":716,"name":"Elias","steam_id":76561198031295139,"connected_time":2606000000000,"state":"active","ping":51},{"user_id":712,"name":"Truffles","steam_id":76561198095868800,"connected_time":3337000000000,"state":"active","ping":116},{"user_id":718,"name":"Ducks","steam_id":76561198130038345,"connected_time":2541000000000,"state":"active","ping":68},{"user_id":673,"name":"The Pee Factory","steam_id":76561198309035567,"connected_time":7593000000000,"state":"active","ping":410}]},{"server_id":119,"name":"Uncletopia | Seattle | 2 | All Maps","name_short":"sea-2","host":"sea-1.us.uncletopia.com","port":27025,"enabled":true,"region":"us-west","cc":"us","latitude":47.608013,"longitude":-122.33517,"reserved":0,"last_update":"0001-01-01T00:00:00Z","name_a2s":"Uncletopia | Seattle | 2 | All Maps","protocol":17,"map":"pl_badwater","folder":"tf","game":"Team Fortress","app_id":440,"player_count":25,"max_players":24,"Bots":0,"server_type":"Dedicated","server_os":"Linux","password":true,"vac":true,"version":"7757534","steam_id":85568392924469998,"keywords":["nocrits","nodmgspread","payload","uncletopia"],"game_id":440,"stv_port":27026,"stv_name":"Uncletopia | Seattle | 2 | All Maps | STV","players":[{"user_id":530,"name":"soda","steam_id":76561198105924953,"connected_time":6627000000000,"state":"active","ping":76},{"user_id":561,"name":"ShiftShock01","steam_id":76561199049488870,"connected_time":4004000000000,"state":"active","ping":55},{"user_id":672,"name":"koalacakes69","steam_id":76561199465452068,"connected_time":421000000000,"state":"active","ping":68},{"user_id":593,"name":"Snippykeegan","steam_id":76561198274529343,"connected_time":1840000000000,"state":"active","ping":87},{"user_id":575,"name":"SvicidalBug","steam_id":76561198221390504,"connected_time":3218000000000,"state":"active","ping":66},{"user_id":590,"name":"DAS SCHNITZELSTIEN","steam_id":76561198051137159,"connected_time":1964000000000,"state":"active","ping":56},{"user_id":613,"name":"FourBeanSalad","steam_id":76561198117415145,"connected_time":1407000000000,"state":"active","ping":55},{"user_id":550,"name":"laggy mcstab","steam_id":76561198106379962,"connected_time":4771000000000,"state":"active","ping":58},{"user_id":552,"name":"Roloman11","steam_id":76561198308927283,"connected_time":4744000000000,"state":"active","ping":116},{"user_id":589,"name":"Knakrapunt","steam_id":76561198165865896,"connected_time":2147000000000,"state":"active","ping":138},{"user_id":625,"name":"Greskrendtregk","steam_id":76561197969553142,"connected_time":1236000000000,"state":"active","ping":54},{"user_id":611,"name":"Jambi","steam_id":76561198846091685,"connected_time":1476000000000,"state":"active","ping":88},{"user_id":608,"name":"Austin the Forecaster","steam_id":76561198141635855,"connected_time":1510000000000,"state":"active","ping":76},{"user_id":636,"name":"mango cafe","steam_id":76561198142328193,"connected_time":1018000000000,"state":"active","ping":48},{"user_id":524,"name":"maiden hell","steam_id":76561198968958854,"connected_time":7262000000000,"state":"active","ping":58},{"user_id":585,"name":"twin","steam_id":76561198055626638,"connected_time":2431000000000,"state":"active","ping":149},{"user_id":632,"name":"1dk","steam_id":76561198135104742,"connected_time":1099000000000,"state":"active","ping":50},{"user_id":562,"name":"Harold","steam_id":76561198057317770,"connected_time":3998000000000,"state":"active","ping":60},{"user_id":695,"name":"Oshiwashi","steam_id":76561198205519169,"connected_time":12000000000,"state":"spawning","ping":42},{"user_id":687,"name":"MEDICINAL CRACK ENJOYER","steam_id":76561198113427343,"connected_time":171000000000,"state":"active","ping":84},{"user_id":591,"name":"Artemis","steam_id":76561198373659037,"connected_time":1888000000000,"state":"active","ping":77},{"user_id":614,"name":"Shamrock Shake Oct.10.2020 @8pm","steam_id":76561198833313201,"connected_time":1392000000000,"state":"active","ping":85},{"user_id":622,"name":"Evil BaconUltimate","steam_id":76561198060737668,"connected_time":1267000000000,"state":"active","ping":61},{"user_id":492,"name":"arsenic","steam_id":76561198176391550,"connected_time":9346000000000,"state":"active","ping":66},{"user_id":603,"name":"Cr0w!","steam_id":76561198178437265,"connected_time":1632000000000,"state":"active","ping":56}]},{"server_id":406,"name":"Uncletopia | Seattle | 3 | Stopwatch Beta","name_short":"sea-3","host":"sea-1.us.uncletopia.com","port":27035,"enabled":true,"region":"us-west","cc":"us","latitude":47.608013,"longitude":-122.33517,"reserved":0,"last_update":"0001-01-01T00:00:00Z","name_a2s":"Uncletopia | Seattle | 3 | Stopwatch Beta","protocol":17,"map":"cp_metalworks","folder":"tf","game":"Team Fortress","app_id":440,"player_count":0,"max_players":24,"Bots":0,"server_type":"Dedicated","server_os":"Linux","password":true,"vac":true,"version":"7757534","steam_id":85568392924515217,"keywords":["cp","nocrits","nodmgspread","uncletopia"],"game_id":440,"stv_port":27036,"stv_name":"Uncletopia | Seattle | 3 | Stopwatch Beta | STV","players":null},{"server_id":17,"name":"Uncletopia | San Francisco | 1 | All Maps","name_short":"sfo-1","host":"sfo-1.us.uncletopia.com","port":27015,"enabled":true,"region":"us-west","cc":"us","latitude":37.77397,"longitude":-122.4313,"reserved":0,"last_update":"0001-01-01T00:00:00Z","name_a2s":"Uncletopia | San Francisco | 1 | All Maps","protocol":17,"map":"pl_snowycoast","folder":"tf","game":"Team Fortress","app_id":440,"player_count":24,"max_players":24,"Bots":0,"server_type":"Dedicated","server_os":"Linux","password":true,"vac":true,"version":"7757534","steam_id":85568392924469999,"keywords":["nocrits","nodmgspread","payload","uncletopia"],"game_id":440,"stv_port":27016,"stv_name":"Uncletopia | San Francisco | 1 | All Maps | STV","players":[{"user_id":281,"name":"raya","steam_id":76561198051504581,"connected_time":1367000000000,"state":"active","ping":79},{"user_id":274,"name":"El Gato Paranoico","steam_id":76561198116567116,"connected_time":2540000000000,"state":"active","ping":103},{"user_id":263,"name":"Sunbae!! Sunbae!!","steam_id":76561198035698704,"connected_time":2770000000000,"state":"active","ping":63},{"user_id":309,"name":"great1photo","steam_id":76561198085481933,"connected_time":267000000000,"state":"active","ping":136},{"user_id":260,"name":"chaos","steam_id":76561198055462404,"connected_time":3078000000000,"state":"active","ping":48},{"user_id":266,"name":"SpazHero","steam_id":76561198021130008,"connected_time":2683000000000,"state":"active","ping":89},{"user_id":262,"name":"Strength!!","steam_id":76561198001241984,"connected_time":2852000000000,"state":"active","ping":64},{"user_id":296,"name":"diymo","steam_id":76561198017600790,"connected_time":636000000000,"state":"active","ping":60},{"user_id":301,"name":"Sahalanthro","steam_id":76561199073298722,"connected_time":576000000000,"state":"active","ping":58},{"user_id":280,"name":"Johnson, Navin R.","steam_id":76561197961107982,"connected_time":1624000000000,"state":"active","ping":103},{"user_id":306,"name":"Lord Magpie","steam_id":76561198056407365,"connected_time":346000000000,"state":"active","ping":73},{"user_id":275,"name":"Mysteryred12","steam_id":76561199206772814,"connected_time":2359000000000,"state":"active","ping":74},{"user_id":294,"name":"Melon","steam_id":76561199202306398,"connected_time":1018000000000,"state":"active","ping":68},{"user_id":300,"name":"Iskcal75","steam_id":76561199446407203,"connected_time":602000000000,"state":"active","ping":107},{"user_id":270,"name":"Foxy","steam_id":76561199179166383,"connected_time":2658000000000,"state":"active","ping":88},{"user_id":223,"name":"\"Gay Panic\"","steam_id":76561198132531594,"connected_time":4850000000000,"state":"active","ping":65},{"user_id":302,"name":"Master Breather","steam_id":76561198077030391,"connected_time":555000000000,"state":"active","ping":57},{"user_id":299,"name":"PainInTheRuss","steam_id":76561197977960543,"connected_time":626000000000,"state":"active","ping":47},{"user_id":221,"name":"Beep","steam_id":76561198166649901,"connected_time":5102000000000,"state":"active","ping":95},{"user_id":305,"name":"Defeat","steam_id":76561198065203818,"connected_time":423000000000,"state":"active","ping":54},{"user_id":307,"name":"Ivy","steam_id":76561198047758442,"connected_time":338000000000,"state":"active","ping":87},{"user_id":308,"name":"Braidenloxxx","steam_id":76561199007780557,"connected_time":331000000000,"state":"active","ping":193},{"user_id":304,"name":"voidpuppy","steam_id":76561198799922000,"connected_time":523000000000,"state":"active","ping":62},{"user_id":293,"name":"NVM!!!","steam_id":76561198432721568,"connected_time":1073000000000,"state":"active","ping":83}]},{"server_id":18,"name":"Uncletopia | San Francisco | 2 | All Maps","name_short":"sfo-2","host":"sfo-1.us.uncletopia.com","port":27025,"enabled":true,"region":"us-west","cc":"us","latitude":37.77397,"longitude":-122.4313,"reserved":0,"last_update":"0001-01-01T00:00:00Z","name_a2s":"Uncletopia | San Francisco | 2 | All Maps","protocol":17,"map":"pl_pier","folder":"tf","game":"Team Fortress","app_id":440,"player_count":22,"max_players":24,"Bots":0,"server_type":"Dedicated","server_os":"Linux","password":true,"vac":true,"version":"7757534","steam_id":85568392924470000,"keywords":["nocrits","nodmgspread","payload","uncletopia"],"game_id":440,"stv_port":27026,"stv_name":"Uncletopia | San Francisco | 2 | All Maps | STV","players":[{"user_id":174,"name":"Whiskey","steam_id":76561198858154667,"connected_time":5021000000000,"state":"active","ping":59},{"user_id":189,"name":"M.L.JEW","steam_id":76561198997375055,"connected_time":4328000000000,"state":"active","ping":114},{"user_id":244,"name":"cream team","steam_id":76561198139043953,"connected_time":585000000000,"state":"active","ping":79},{"user_id":243,"name":"Dagoth Ur","steam_id":76561198117028805,"connected_time":776000000000,"state":"active","ping":84},{"user_id":175,"name":"Grassman (Cc)","steam_id":76561198026488532,"connected_time":4876000000000,"state":"active","ping":48},{"user_id":246,"name":"Gooner Witch","steam_id":76561198305488625,"connected_time":270000000000,"state":"active","ping":77},{"user_id":182,"name":"Nerdin4Life","steam_id":76561198138417387,"connected_time":4513000000000,"state":"active","ping":82},{"user_id":239,"name":"Dietrich","steam_id":76561198028163840,"connected_time":829000000000,"state":"active","ping":61},{"user_id":195,"name":"selling rice","steam_id":76561198063357023,"connected_time":3989000000000,"state":"active","ping":44},{"user_id":224,"name":"BernardBull","steam_id":76561198036138813,"connected_time":2187000000000,"state":"active","ping":78},{"user_id":240,"name":"Spha","steam_id":76561198796297800,"connected_time":824000000000,"state":"active","ping":45},{"user_id":245,"name":"/--","steam_id":76561197969622110,"connected_time":579000000000,"state":"active","ping":111},{"user_id":212,"name":"What A Thrill :^)","steam_id":76561198041198327,"connected_time":3127000000000,"state":"active","ping":53},{"user_id":104,"name":"firestabber","steam_id":76561198057055577,"connected_time":9924000000000,"state":"active","ping":66},{"user_id":241,"name":"Kuudere","steam_id":76561198075028016,"connected_time":823000000000,"state":"active","ping":84},{"user_id":176,"name":"BurningKev","steam_id":76561198057688837,"connected_time":4867000000000,"state":"active","ping":74},{"user_id":221,"name":"AceSea","steam_id":76561198851176490,"connected_time":2241000000000,"state":"active","ping":40},{"user_id":242,"name":"b.net queue waiter","steam_id":76561197968787431,"connected_time":818000000000,"state":"active","ping":74},{"user_id":226,"name":"_D_I_S_P_E_N_S_E_R_","steam_id":76561199383097700,"connected_time":2128000000000,"state":"active","ping":79},{"user_id":232,"name":"Huzoop","steam_id":76561199249278873,"connected_time":1578000000000,"state":"active","ping":72},{"user_id":235,"name":"SuaveFrenchman","steam_id":76561198043762683,"connected_time":1483000000000,"state":"active","ping":46},{"user_id":233,"name":"SneakyRocks","steam_id":76561198201694213,"connected_time":1572000000000,"state":"active","ping":65}]},{"server_id":19,"name":"Uncletopia | San Francisco | 3 | Stopwatch Beta","name_short":"sfo-3","host":"sfo-1.us.uncletopia.com","port":27035,"enabled":true,"region":"us-west","cc":"us","latitude":37.77397,"longitude":-122.4313,"reserved":0,"last_update":"0001-01-01T00:00:00Z","name_a2s":"Uncletopia | San Francisco | 3 | Stopwatch Beta","protocol":17,"map":"workshop/koth_bagel_rc6.ugc2514036946","folder":"tf","game":"Team Fortress","app_id":440,"player_count":24,"max_players":24,"Bots":0,"server_type":"Dedicated","server_os":"Linux","password":true,"vac":true,"version":"7757534","steam_id":85568392924742824,"keywords":["cp","nocrits","nodmgspread","uncletopia"],"game_id":440,"stv_port":27036,"stv_name":"Uncletopia | San Francisco | 3 | Stopwatch Beta | STV","players":[{"user_id":139,"name":"Ran","steam_id":76561198248511368,"connected_time":1279000000000,"state":"active","ping":82},{"user_id":140,"name":"Sad Sapling","steam_id":76561198075612150,"connected_time":1216000000000,"state":"active","ping":60},{"user_id":148,"name":"Alf Creepypasta","steam_id":76561198841844093,"connected_time":845000000000,"state":"active","ping":53},{"user_id":141,"name":"Mom","steam_id":76561198207936000,"connected_time":1209000000000,"state":"active","ping":39},{"user_id":142,"name":"Fierce Unggoy","steam_id":76561198262565372,"connected_time":1173000000000,"state":"active","ping":73},{"user_id":152,"name":"cass","steam_id":76561198074502046,"connected_time":566000000000,"state":"active","ping":106},{"user_id":114,"name":"Super crak 202 9","steam_id":76561199176207530,"connected_time":3401000000000,"state":"active","ping":102},{"user_id":87,"name":"Feel the bern","steam_id":76561198078824519,"connected_time":5683000000000,"state":"active","ping":55},{"user_id":123,"name":"Stanley'sSuperSauce","steam_id":76561198057946400,"connected_time":2845000000000,"state":"active","ping":95},{"user_id":144,"name":"the heavy","steam_id":76561198101203842,"connected_time":1127000000000,"state":"active","ping":93},{"user_id":156,"name":"unnamed56565","steam_id":76561199082953233,"connected_time":86000000000,"state":"active","ping":59},{"user_id":119,"name":"Project 101","steam_id":76561199013370349,"connected_time":3238000000000,"state":"active","ping":102},{"user_id":138,"name":"Trash Man","steam_id":76561198874518834,"connected_time":1381000000000,"state":"active","ping":86},{"user_id":124,"name":"FlameWolf","steam_id":76561198234517204,"connected_time":2776000000000,"state":"active","ping":76},{"user_id":125,"name":"smelly boy james(he stinkin)","steam_id":76561197997006216,"connected_time":2673000000000,"state":"active","ping":98},{"user_id":130,"name":"[EASY] Layne","steam_id":76561198316087364,"connected_time":2546000000000,"state":"active","ping":121},{"user_id":127,"name":"solitaire","steam_id":76561198964025682,"connected_time":2633000000000,"state":"active","ping":54},{"user_id":151,"name":"SuperBurgerBoy","steam_id":76561198856387197,"connected_time":702000000000,"state":"active","ping":75},{"user_id":145,"name":"azureglxy","steam_id":76561198861388315,"connected_time":1126000000000,"state":"active","ping":52},{"user_id":153,"name":"summerof69","steam_id":76561198069049410,"connected_time":380000000000,"state":"active","ping":100},{"user_id":101,"name":"Weebsbros","steam_id":76561198056750224,"connected_time":4896000000000,"state":"active","ping":114},{"user_id":155,"name":"The Assistant Regional Manager","steam_id":76561199221484936,"connected_time":192000000000,"state":"active","ping":72},{"user_id":82,"name":"Pak Industrial","steam_id":76561198057900166,"connected_time":6300000000000,"state":"active","ping":90},{"user_id":147,"name":"Qdude","steam_id":76561198045444111,"connected_time":928000000000,"state":"active","ping":66}]},{"server_id":20,"name":"Uncletopia | San Francisco | 4 | Community","name_short":"sfo-4","host":"sfo-1.us.uncletopia.com","port":27045,"enabled":true,"region":"us-west","cc":"us","latitude":37.77397,"longitude":-122.4313,"reserved":0,"last_update":"0001-01-01T00:00:00Z","name_a2s":"Uncletopia | San Francisco | 4 | Community","protocol":17,"map":"workshop/cp_mannbase_rc2a.ugc1900737467","folder":"tf","game":"Team Fortress","app_id":440,"player_count":0,"max_players":24,"Bots":0,"server_type":"Dedicated","server_os":"Linux","password":true,"vac":true,"version":"7757534","steam_id":85568392924742826,"keywords":["cp","nocrits","nodmgspread","uncletopia"],"game_id":440,"stv_port":27046,"stv_name":"Uncletopia | San Francisco | 4 | Community | STV","players":null},{"server_id":141,"name":"Uncletopia | Sydney | 1 | All Maps","name_short":"syd-1","host":"syd-1.au.uncletopia.com","port":27015,"enabled":true,"region":"au","cc":"au","latitude":-33.865143,"longitude":151.2099,"reserved":0,"last_update":"0001-01-01T00:00:00Z","name_a2s":"Uncletopia | Sydney | 1 | All Maps","protocol":17,"map":"koth_highpass","folder":"tf","game":"Team Fortress","app_id":440,"player_count":0,"max_players":24,"Bots":0,"server_type":"Dedicated","server_os":"Linux","password":true,"vac":true,"version":"7757534","steam_id":85568392924470001,"keywords":["cp","nocrits","nodmgspread","uncletopia"],"game_id":440,"stv_port":27016,"stv_name":"Uncletopia | Sydney | 1 | All Maps | STV","players":null},{"server_id":123,"name":"Uncletopia | Sydney | 2 | All Maps","name_short":"syd-2","host":"syd-1.au.uncletopia.com","port":27025,"enabled":true,"region":"au","cc":"au","latitude":-33.865143,"longitude":151.2099,"reserved":0,"last_update":"0001-01-01T00:00:00Z","name_a2s":"Uncletopia | Sydney | 2 | All Maps","protocol":17,"map":"pl_barnblitz","folder":"tf","game":"Team Fortress","app_id":440,"player_count":2,"max_players":24,"Bots":0,"server_type":"Dedicated","server_os":"Linux","password":true,"vac":true,"version":"7757534","steam_id":85568392924470002,"keywords":["nocrits","nodmgspread","payload","uncletopia"],"game_id":440,"stv_port":27026,"stv_name":"Uncletopia | Sydney | 2 | All Maps | STV","players":[{"user_id":11,"name":"Glockenspe (She/Her)","steam_id":76561199184115241,"connected_time":1551000000000,"state":"active","ping":50},{"user_id":13,"name":"KILLER WHALES","steam_id":76561198012422705,"connected_time":542000000000,"state":"active","ping":57}]},{"server_id":395,"name":"Uncletopia | Sydney | 3 | All Maps","name_short":"syd-3","host":"syd-1.au.uncletopia.com","port":27035,"enabled":true,"region":"au","cc":"au","latitude":-33.865143,"longitude":151.2099,"reserved":0,"last_update":"0001-01-01T00:00:00Z","name_a2s":"Uncletopia | Sydney | 3 | All Maps","protocol":17,"map":"cp_altitude","folder":"tf","game":"Team Fortress","app_id":440,"player_count":0,"max_players":24,"Bots":0,"server_type":"Dedicated","server_os":"Linux","password":true,"vac":true,"version":"7757534","steam_id":85568392925194467,"keywords":["cp","nocrits","nodmgspread","uncletopia"],"game_id":440,"stv_port":27036,"stv_name":"Uncletopia | Sydney | 3 | All Maps | STV","players":null},{"server_id":396,"name":"Uncletopia | Sydney | 4 | All Maps","name_short":"syd-4","host":"syd-1.au.uncletopia.com","port":27045,"enabled":true,"region":"au","cc":"au","latitude":-33.865143,"longitude":151.2099,"reserved":0,"last_update":"0001-01-01T00:00:00Z","name_a2s":"Uncletopia | Sydney | 4 | All Maps","protocol":17,"map":"pl_swiftwater_final1","folder":"tf","game":"Team Fortress","app_id":440,"player_count":15,"max_players":24,"Bots":0,"server_type":"Dedicated","server_os":"Linux","password":true,"vac":true,"version":"7757534","steam_id":85568392925397958,"keywords":["nocrits","nodmgspread","payload","uncletopia"],"game_id":440,"stv_port":27046,"stv_name":"Uncletopia | Sydney | 4 | All Maps | STV","players":[{"user_id":81,"name":"Frog Enemy","steam_id":76561199262196710,"connected_time":3673000000000,"state":"active","ping":44},{"user_id":148,"name":"steame17","steam_id":76561199387872784,"connected_time":993000000000,"state":"active","ping":196},{"user_id":145,"name":"Edgy","steam_id":76561198827434123,"connected_time":1107000000000,"state":"active","ping":331},{"user_id":143,"name":"Bond","steam_id":76561198089262776,"connected_time":1191000000000,"state":"active","ping":301},{"user_id":147,"name":"Dragonite","steam_id":76561199185507683,"connected_time":1005000000000,"state":"active","ping":39},{"user_id":156,"name":"Hertog van Damme","steam_id":76561198152470958,"connected_time":194000000000,"state":"active","ping":60},{"user_id":150,"name":"V2","steam_id":76561198205919189,"connected_time":934000000000,"state":"active","ping":83},{"user_id":151,"name":"6'4 220lb racist","steam_id":76561198315774295,"connected_time":682000000000,"state":"active","ping":59},{"user_id":152,"name":"Raypest","steam_id":76561197980678745,"connected_time":632000000000,"state":"active","ping":31},{"user_id":153,"name":"DKC","steam_id":76561198313578155,"connected_time":517000000000,"state":"active","ping":42},{"user_id":154,"name":"Genuline","steam_id":76561198126426787,"connected_time":483000000000,"state":"active","ping":45},{"user_id":155,"name":"Squishy","steam_id":76561198985769205,"connected_time":482000000000,"state":"active","ping":52},{"user_id":157,"name":"Jersh","steam_id":76561198048641834,"connected_time":143000000000,"state":"active","ping":47},{"user_id":158,"name":"Averg","steam_id":76561199116359172,"connected_time":86000000000,"state":"active","ping":53},{"user_id":159,"name":"Matt From Wii Sports","steam_id":76561198093079335,"connected_time":34000000000,"state":"spawning","ping":129}]},{"server_id":58,"name":"Uncletopia | Sydney | 5 | Stopwatch Beta","name_short":"syd-5","host":"syd-1.au.uncletopia.com","port":27055,"enabled":true,"region":"au","cc":"au","latitude":-33.865143,"longitude":151.2099,"reserved":0,"last_update":"0001-01-01T00:00:00Z","name_a2s":"Uncletopia | Sydney | 5 | Stopwatch Beta","protocol":17,"map":"workshop/pl_barnblitz_pro7.ugc582280235","folder":"tf","game":"Team Fortress","app_id":440,"player_count":0,"max_players":24,"Bots":0,"server_type":"Dedicated","server_os":"Linux","password":true,"vac":true,"version":"7757534","steam_id":85568392925397959,"keywords":["nocrits","nodmgspread","payload","uncletopia"],"game_id":440,"stv_port":27056,"stv_name":"Uncletopia | Sydney | 5 | Stopwatch Beta | STV","players":null},{"server_id":59,"name":"Uncletopia | Sydney | 6 | Community","name_short":"syd-6","host":"syd-1.au.uncletopia.com","port":27065,"enabled":true,"region":"au","cc":"au","latitude":-33.865143,"longitude":151.2099,"reserved":0,"last_update":"0001-01-01T00:00:00Z","name_a2s":"Uncletopia | Sydney | 6 | Community","protocol":17,"map":"workshop/pl_eruption_b9a.ugc2807898013","folder":"tf","game":"Team Fortress","app_id":440,"player_count":0,"max_players":24,"Bots":0,"server_type":"Dedicated","server_os":"Linux","password":true,"vac":true,"version":"7757534","steam_id":85568392925397960,"keywords":["nocrits","nodmgspread","payload","uncletopia"],"game_id":440,"stv_port":27066,"stv_name":"Uncletopia | Sydney | 6 | Community | STV","players":null},{"server_id":49,"name":"Uncletopia | Warsaw | 1 | All Maps","name_short":"waw-1","host":"waw-1.pl.uncletopia.com","port":27015,"enabled":true,"region":"eu","cc":"pl","latitude":52.2297,"longitude":21.017532,"reserved":0,"last_update":"0001-01-01T00:00:00Z","name_a2s":"","protocol":0,"map":"","folder":"","game":"","app_id":0,"player_count":0,"max_players":0,"Bots":0,"server_type":"","server_os":"","password":false,"vac":false,"version":"","steam_id":0,"keywords":null,"game_id":0,"stv_port":0,"stv_name":"","players":null},{"server_id":50,"name":"Uncletopia | Warsaw | 2 | All Maps","name_short":"waw-2","host":"waw-1.pl.uncletopia.com","port":27025,"enabled":true,"region":"eu","cc":"pl","latitude":52.2297,"longitude":21.017532,"reserved":0,"last_update":"0001-01-01T00:00:00Z","name_a2s":"Uncletopia | Warsaw | 2 | All Maps","protocol":17,"map":"pl_upward","folder":"tf","game":"Team Fortress","app_id":440,"player_count":0,"max_players":24,"Bots":0,"server_type":"Dedicated","server_os":"Linux","password":true,"vac":true,"version":"7757534","steam_id":85568392925397851,"keywords":["nocrits","nodmgspread","payload","uncletopia"],"game_id":440,"stv_port":27026,"stv_name":"Uncletopia | Warsaw | 2 | All Maps | STV","players":null},{"server_id":51,"name":"Uncletopia | Warsaw | 3 | All Maps","name_short":"waw-3","host":"waw-1.pl.uncletopia.com","port":27035,"enabled":true,"region":"eu","cc":"pl","latitude":52.2297,"longitude":21.017532,"reserved":0,"last_update":"0001-01-01T00:00:00Z","name_a2s":"Uncletopia | Warsaw | 3 | All Maps","protocol":17,"map":"pl_barnblitz","folder":"tf","game":"Team Fortress","app_id":440,"player_count":0,"max_players":24,"Bots":0,"server_type":"Dedicated","server_os":"Linux","password":true,"vac":true,"version":"7757534","steam_id":85568392925397852,"keywords":["nocrits","nodmgspread","payload","uncletopia"],"game_id":440,"stv_port":27036,"stv_name":"Uncletopia | Warsaw | 3 | All Maps | STV","players":null},{"server_id":52,"name":"Uncletopia | Warsaw | 4 | All Maps","name_short":"waw-4","host":"waw-1.pl.uncletopia.com","port":27045,"enabled":true,"region":"eu","cc":"pl","latitude":52.2297,"longitude":21.017532,"reserved":0,"last_update":"0001-01-01T00:00:00Z","name_a2s":"Uncletopia | Warsaw | 4 | All Maps","protocol":17,"map":"cp_altitude","folder":"tf","game":"Team Fortress","app_id":440,"player_count":0,"max_players":24,"Bots":0,"server_type":"Dedicated","server_os":"Linux","password":true,"vac":true,"version":"7757534","steam_id":85568392925397853,"keywords":["cp","nocrits","nodmgspread","uncletopia"],"game_id":440,"stv_port":27046,"stv_name":"Uncletopia | Warsaw | 4 | All Maps | STV","players":null},{"server_id":53,"name":"Uncletopia | Warsaw | 5 | Stopwatch Beta","name_short":"waw-5","host":"waw-1.pl.uncletopia.com","port":27055,"enabled":true,"region":"eu","cc":"pl","latitude":52.2297,"longitude":21.017532,"reserved":0,"last_update":"0001-01-01T00:00:00Z","name_a2s":"Uncletopia | Warsaw | 5 | Stopwatch Beta","protocol":17,"map":"pl_pier","folder":"tf","game":"Team Fortress","app_id":440,"player_count":0,"max_players":24,"Bots":0,"server_type":"Dedicated","server_os":"Linux","password":true,"vac":true,"version":"7757534","steam_id":85568392925397854,"keywords":["nocrits","nodmgspread","payload","uncletopia"],"game_id":440,"stv_port":27056,"stv_name":"Uncletopia | Warsaw | 5 | Stopwatch Beta | STV","players":null},{"server_id":54,"name":"Uncletopia | Warsaw | 6 | Community","name_short":"waw-6","host":"waw-1.pl.uncletopia.com","port":27065,"enabled":true,"region":"eu","cc":"pl","latitude":52.2297,"longitude":21.017532,"reserved":0,"last_update":"0001-01-01T00:00:00Z","name_a2s":"Uncletopia | Warsaw | 6 | Community","protocol":17,"map":"koth_highpass","folder":"tf","game":"Team Fortress","app_id":440,"player_count":0,"max_players":24,"Bots":0,"server_type":"Dedicated","server_os":"Linux","password":true,"vac":true,"version":"7757534","steam_id":85568392925397856,"keywords":["cp","nocrits","nodmgspread","uncletopia"],"game_id":440,"stv_port":27066,"stv_name":"Uncletopia | Warsaw | 6 | Community | STV","players":null}]}