{"status":true,"message":"","result":[{"server_id":9,"name":"Uncletopia | Atlanta | 1 | All Maps","name_short":"atl-1","host":"atl-1.us.uncletopia.com","port":27015,"enabled":true,"region":"us-east","cc":"us","latitude":33.753746,"longitude":-84.38633,"reserved":0,"last_update":"0001-01-01T00:00:00Z","name_a2s":"Uncletopia | Atlanta | 1 | All Maps","protocol":17,"map":"pl_frontier_final","folder":"tf","game":"Team Fortress","app_id":440,"player_count":23,"max_players":24,"Bots":0,"server_type":"Dedicated","server_os":"Linux","password":true,"vac":true,"version":"7882260","steam_id":85568392924469982,"keywords":["nocrits","nodmgspread","payload","uncletopia"],"game_id":440,"stv_port":27016,"stv_name":"Uncletopia | Atlanta | 1 | All Maps | STV","players":[{"user_id":560,"name":"raduski","steam_id":76561198795699119,"connected_time":97000000000,"state":"active","ping":102},{"user_id":548,"name":"Gaming","steam_id":76561198107080532,"connected_time":632000000000,"state":"active","ping":75},{"user_id":557,"name":"FRANKY!!!","steam_id":76561199211305343,"connected_time":339000000000,"state":"active","ping":118},{"user_id":529,"name":"Ghetto Smosh Fan","steam_id":76561198097272509,"connected_time":2639000000000,"state":"active","ping":32},{"user_id":549,"name":"TheIronVal","steam_id":76561198042023839,"connected_time":623000000000,"state":"active","ping":68},{"user_id":558,"name":"ВАН ДАРКХОЛМ","steam_id":76561198070547748,"connected_time":283000000000,"state":"active","ping":58},{"user_id":555,"name":"ChickenExploder","steam_id":76561198214199900,"connected_time":464000000000,"state":"active","ping":67},{"user_id":538,"name":"DragonFalcon™","steam_id":76561198044559930,"connected_time":1482000000000,"state":"active","ping":57},{"user_id":559,"name":"WaluigiThyme","steam_id":76561198347579460,"connected_time":244000000000,"state":"active","ping":117},{"user_id":561,"name":"Yummy Kabobz","steam_id":76561198067661705,"connected_time":26000000000,"state":"active","ping":59},{"user_id":544,"name":"Quietsharp","steam_id":76561198277968438,"connected_time":903000000000,"state":"active","ping":103},{"user_id":473,"name":"Save your wifi","steam_id":76561198286147372,"connected_time":7938000000000,"state":"active","ping":60},{"user_id":513,"name":"Wheat Box","steam_id":76561198203443358,"connected_time":4394000000000,"state":"active","ping":74},{"user_id":379,"name":"cola","steam_id":76561198374390458,"connected_time":14096000000000,"state":"active","ping":60},{"user_id":547,"name":"Hey","steam_id":76561198447517893,"connected_time":785000000000,"state":"active","ping":65},{"user_id":551,"name":"BL00DFUCKER1","steam_id":76561198085036623,"connected_time":586000000000,"state":"active","ping":90},{"user_id":540,"name":"chexo4","steam_id":76561198150532531,"connected_time":1048000000000,"state":"active","ping":45},{"user_id":562,"name":"Pho","steam_id":76561198306515742,"connected_time":21000000000,"state":"active","ping":106},{"user_id":553,"name":"The Mothman","steam_id":76561198079047592,"connected_time":558000000000,"state":"active","ping":79},{"user_id":536,"name":"adiosToreador","steam_id":76561198297961039,"connected_time":1796000000000,"state":"active","ping":92},{"user_id":563,"name":"Super D Duper","steam_id":76561198078203677,"connected_time":11000000000,"state":"spawning","ping":55},{"user_id":556,"name":"AwesomeMissB","steam_id":76561199066244584,"connected_time":430000000000,"state":"active","ping":48},{"user_id":528,"name":"jin","steam_id":76561198119873148,"connected_time":2967000000000,"state":"active","ping":65}]},{"server_id":104,"name":"Uncletopia | Atlanta | 2 | All Maps","name_short":"atl-2","host":"atl-1.us.uncletopia.com","port":27025,"enabled":true,"region":"us-east","cc":"us","latitude":33.753746,"longitude":-84.38633,"reserved":0,"last_update":"0001-01-01T00:00:00Z","name_a2s":"Uncletopia | Atlanta | 2 | All Maps","protocol":17,"map":"pl_upward","folder":"tf","game":"Team Fortress","app_id":440,"player_count":24,"max_players":24,"Bots":0,"server_type":"Dedicated","server_os":"Linux","password":true,"vac":true,"version":"7882260","steam_id":85568392924469983,"keywords":["nocrits","nodmgspread","payload","uncletopia"],"game_id":440,"stv_port":27026,"stv_name":"Uncletopia | Atlanta | 2 | All Maps | STV","players":[{"user_id":538,"name":"Zeodexic","steam_id":76561198055636655,"connected_time":254000000000,"state":"active","ping":75},{"user_id":539,"name":"pizzasam","steam_id":76561197972511201,"connected_time":34000000000,"state":"active","ping":105},{"user_id":425,"name":"Gamerdude313","steam_id":76561198869211435,"connected_time":9599000000000,"state":"active","ping":74},{"user_id":527,"name":"Azuras","steam_id":76561198156416843,"connected_time":2494000000000,"state":"active","ping":67},{"user_id":533,"name":"ᕕ( ᐛ )ᕗ Wakko","steam_id":76561198049850471,"connected_time":1551000000000,"state":"active","ping":71},{"user_id":476,"name":"Literally Printer Jesus","steam_id":76561198093687962,"connected_time":5276000000000,"state":"active","ping":105},{"user_id":526,"name":"lokm","steam_id":76561198030374238,"connected_time":2671000000000,"state":"active","ping":128},{"user_id":537,"name":"Drapph","steam_id":76561199384213314,"connected_time":510000000000,"state":"active","ping":91},{"user_id":528,"name":"IronGiant","steam_id":76561198062139190,"connected_time":2288000000000,"state":"active","ping":103},{"user_id":535,"name":"A Shiny Meat Bicycle","steam_id":76561198358757709,"connected_time":1491000000000,"state":"active","ping":74},{"user_id":525,"name":"Noctis","steam_id":76561198845208323,"connected_time":2782000000000,"state":"active","ping":76},{"user_id":514,"name":"Wookiee","steam_id":76561198139642742,"connected_time":3142000000000,"state":"active","ping":76},{"user_id":447,"name":"highschool drop-out","steam_id":76561198366299848,"connected_time":7378000000000,"state":"active","ping":51},{"user_id":515,"name":"Mg330","steam_id":76561199438395728,"connected_time":3089000000000,"state":"active","ping":103},{"user_id":532,"name":"lester375jimenez","steam_id":76561199301390498,"connected_time":1861000000000,"state":"active","ping":190},{"user_id":508,"name":"orange","steam_id":76561198272694642,"connected_time":3725000000000,"state":"active","ping":61},{"user_id":529,"name":"kris ♥","steam_id":76561198134746536,"connected_time":2139000000000,"state":"active","ping":164},{"user_id":486,"name":"gorf?","steam_id":76561198142286417,"connected_time":4855000000000,"state":"active","ping":75},{"user_id":484,"name":"tux","steam_id":76561198167746330,"connected_time":5088000000000,"state":"active","ping":48},{"user_id":524,"name":"crayonnipple","steam_id":76561198070253331,"connected_time":2905000000000,"state":"active","ping":80},{"user_id":521,"name":"kree","steam_id":76561197979960008,"connected_time":2962000000000,"state":"active","ping":76},{"user_id":522,"name":"G_Bob","steam_id":76561198098133233,"connected_time":2952000000000,"state":"active","ping":60},{"user_id":536,"name":"exotic.luke","steam_id":76561198126466112,"connected_time":1467000000000,"state":"active","ping":95},{"user_id":493,"name":"wunkem","steam_id":76561198055948497,"connected_time":4656000000000,"state":"active","ping":84}]},{"server_id":400,"name":"Uncletopia | Atlanta | 3 | Community","name_short":"atl-3","host":"atl-1.us.uncletopia.com","port":27035,"enabled":true,"region":"us-east","cc":"us","latitude":33.753746,"longitude":-84.38633,"reserved":0,"last_update":"0001-01-01T00:00:00Z","name_a2s":"Uncletopia | Atlanta | 3 | Community","protocol":17,"map":"workshop/koth_trenchfoot_b1a.ugc731436616","folder":"tf","game":"Team Fortress","app_id":440,"player_count":0,"max_players":24,"Bots":0,"server_type":"Dedicated","server_os":"Linux","password":true,"vac":true,"version":"7882260","steam_id":85568392924515187,"keywords":["cp","nocrits","nodmgspread","uncletopia"],"game_id":440,"stv_port":27036,"stv_name":"Uncletopia | Atlanta | 3 | Community | STV","players":null},{"server_id":401,"name":"Uncletopia | Atlanta | 4 | No Payload","name_short":"atl-4","host":"atl-1.us.uncletopia.com","port":27045,"enabled":true,"region":"us-east","cc":"us","latitude":33.753746,"longitude":-84.38633,"reserved":0,"last_update":"0001-01-01T00:00:00Z","name_a2s":"","protocol":0,"map":"","folder":"","game":"","app_id":0,"player_count":0,"max_players":0,"Bots":0,"server_type":"","server_os":"","password":false,"vac":false,"version":"","steam_id":0,"keywords":null,"game_id":0,"stv_port":0,"stv_name":"","players":null},{"server_id":2,"name":"Uncletopia | Chicago | 1 | All Maps","name_short":"chi-1","host":"chi-1.us.uncletopia.com","port":27015,"enabled":true,"region":"us-central","cc":"us","latitude":41.881832,"longitude":-87.62318,"reserved":0,"last_update":"0001-01-01T00:00:00Z","name_a2s":"Uncletopia | Chicago | 1 | All Maps","protocol":17,"map":"koth_lakeside_final","folder":"tf","game":"Team Fortress","app_id":440,"player_count":24,"max_players":24,"Bots":0,"server_type":"Dedicated","server_os":"Linux","password":true,"vac":true,"version":"7882260","steam_id":85568392924469984,"keywords":["cp","nocrits","nodmgspread","uncletopia"],"game_id":440,"stv_port":27016,"stv_name":"Uncletopia | Chicago | 1 | All Maps | STV","players":[{"user_id":625,"name":"ROGUE-PLANET","steam_id":76561198116023052,"connected_time":2903000000000,"state":"active","ping":69},{"user_id":667,"name":"tony hawk","steam_id":76561198172050802,"connected_time":645000000000,"state":"active","ping":105},{"user_id":639,"name":"Suez","steam_id":76561198034642980,"connected_time":2404000000000,"state":"active","ping":77},{"user_id":640,"name":"Blitzy","steam_id":76561198149472890,"connected_time":2383000000000,"state":"active","ping":75},{"user_id":677,"name":"Demonica","steam_id":76561198841858340,"connected_time":344000000000,"state":"active","ping":68},{"user_id":671,"name":"Alexei Obolensky","steam_id":76561198010339626,"connected_time":523000000000,"state":"active","ping":87},{"user_id":680,"name":"nell","steam_id":76561198136225723,"connected_time":87000000000,"state":"active","ping":74},{"user_id":665,"name":"KooKooKachue","steam_id":76561198391195262,"connected_time":662000000000,"state":"active","ping":86},{"user_id":628,"name":"Human Person","steam_id":76561198283855440,"connected_time":2797000000000,"state":"active","ping":71},{"user_id":598,"name":"GIGAHAXX","steam_id":76561197993714726,"connected_time":5183000000000,"state":"active","ping":60},{"user_id":679,"name":"YordleJay","steam_id":76561198062683514,"connected_time":114000000000,"state":"active","ping":81},{"user_id":672,"name":"Wizard Raccoon","steam_id":76561198072562591,"connected_time":499000000000,"state":"active","ping":76},{"user_id":631,"name":"c9","steam_id":76561198136642793,"connected_time":2750000000000,"state":"active","ping":66},{"user_id":673,"name":"WHY U RUNNIN PAPI","steam_id":76561198144766439,"connected_time":479000000000,"state":"active","ping":45},{"user_id":663,"name":"aishteru","steam_id":76561198126358045,"connected_time":1034000000000,"state":"active","ping":79},{"user_id":660,"name":"meownt evewest :3","steam_id":76561198017686306,"connected_time":1280000000000,"state":"active","ping":156},{"user_id":670,"name":"plb1337","steam_id":76561198072740690,"connected_time":598000000000,"state":"active","ping":60},{"user_id":654,"name":"m yfrogs","steam_id":76561198371149432,"connected_time":2066000000000,"state":"active","ping":47},{"user_id":681,"name":"bladee is the 5th beatle","steam_id":76561198984612489,"connected_time":85000000000,"state":"active","ping":91},{"user_id":676,"name":"Brother Pudge","steam_id":76561198247815090,"connected_time":426000000000,"state":"active","ping":58},{"user_id":643,"name":"xxa","steam_id":76561197984735021,"connected_time":2366000000000,"state":"active","ping":76},{"user_id":682,"name":"Rock Kickass","steam_id":76561198450510841,"connected_time":30000000000,"state":"active","ping":115},{"user_id":664,"name":"lytewerk","steam_id":76561198002819791,"connected_time":1034000000000,"state":"active","ping":77},{"user_id":655,"name":"Stanley Yelnats","steam_id":76561198088571112,"connected_time":2008000000000,"state":"active","ping":115}]},{"server_id":106,"name":"Uncletopia | Chicago | 2 | All Maps","name_short":"chi-2","host":"chi-1.us.uncletopia.com","port":27025,"enabled":true,"region":"us-central","cc":"us","latitude":41.881832,"longitude":-87.62318,"reserved":0,"last_update":"0001-01-01T00:00:00Z","name_a2s":"Uncletopia | Chicago | 2 | All Maps","protocol":17,"map":"pl_borneo","folder":"tf","game":"Team Fortress","app_id":440,"player_count":24,"max_players":24,"Bots":0,"server_type":"Dedicated","server_os":"Linux","password":true,"vac":true,"version":"7882260","steam_id":85568392924469985,"keywords":["nocrits","nodmgspread","payload","uncletopia"],"game_id":440,"stv_port":27026,"stv_name":"Uncletopia | Chicago | 2 | All Maps | STV","players":[{"user_id":411,"name":"bill","steam_id":76561199142779872,"connected_time":966000000000,"state":"active","ping":66},{"user_id":415,"name":"chem⭑","steam_id":76561198972045654,"connected_time":850000000000,"state":"active","ping":82},{"user_id":428,"name":"lana_del_Rei.com","steam_id":76561198172447621,"connected_time":265000000000,"state":"active","ping":94},{"user_id":397,"name":"lanoc","steam_id":76561198055415367,"connected_time":2232000000000,"state":"active","ping":59},{"user_id":420,"name":"squiddy101","steam_id":76561198210199168,"connected_time":562000000000,"state":"active","ping":92},{"user_id":339,"name":"sithreis","steam_id":76561198000564263,"connected_time":6713000000000,"state":"active","ping":68},{"user_id":423,"name":"SquishyDog","steam_id":76561198059014380,"connected_time":497000000000,"state":"active","ping":48},{"user_id":408,"name":"BigDeac","steam_id":76561198091237274,"connected_time":1002000000000,"state":"active","ping":55},{"user_id":350,"name":"Rose","steam_id":76561198955581861,"connected_time":5399000000000,"state":"active","ping":117},{"user_id":402,"name":"bwuce ree","steam_id":76561198038080028,"connected_time":1552000000000,"state":"active","ping":88},{"user_id":389,"name":"Merchant","steam_id":76561198130468663,"connected_time":2816000000000,"state":"active","ping":53},{"user_id":409,"name":"rxea","steam_id":76561198868168910,"connected_time":989000000000,"state":"active","ping":110},{"user_id":396,"name":"ATL1 | yumyum","steam_id":76561198150567198,"connected_time":2277000000000,"state":"active","ping":63},{"user_id":398,"name":"Average Caber Fan","steam_id":76561199451299044,"connected_time":2172000000000,"state":"active","ping":93},{"user_id":404,"name":"ttv/Everfrost Samoyed","steam_id":76561198072580699,"connected_time":1441000000000,"state":"active","ping":69},{"user_id":410,"name":"noah","steam_id":76561198173310157,"connected_time":985000000000,"state":"active","ping":54},{"user_id":424,"name":"viagra addict","steam_id":76561198017705248,"connected_time":462000000000,"state":"active","ping":46},{"user_id":316,"name":"java","steam_id":76561198030276792,"connected_time":8252000000000,"state":"active","ping":60},{"user_id":401,"name":"yomommasabitch","steam_id":76561198323217150,"connected_time":1674000000000,"state":"active","ping":67},{"user_id":426,"name":"*","steam_id":76561198173047169,"connected_time":375000000000,"state":"active","ping":57},{"user_id":421,"name":"Local","steam_id":76561198069537437,"connected_time":548000000000,"state":"active","ping":120},{"user_id":425,"name":"Meth Goblin","steam_id":76561198086355221,"connected_time":454000000000,"state":"active","ping":86},{"user_id":429,"name":"Chimi","steam_id":76561198067800540,"connected_time":210000000000,"state":"active","ping":86},{"user_id":327,"name":"the real banjo kazooie","steam_id":76561198042444734,"connected_time":7397000000000,"state":"active","ping":64}]},{"server_id":402,"name":"Uncletopia | Chicago | 3 | All Maps","name_short":"chi-3","host":"chi-1.us.uncletopia.com","port":27035,"enabled":true,"region":"us-central","cc":"us","latitude":41.881832,"longitude":-87.62318,"reserved":0,"last_update":"0001-01-01T00:00:00Z","name_a2s":"Uncletopia | Chicago | 3 | All Maps","protocol":17,"map":"pl_upward","folder":"tf","game":"Team Fortress","app_id":440,"player_count":24,"max_players":24,"Bots":0,"server_type":"Dedicated","server_os":"Linux","password":true,"vac":true,"version":"7882260","steam_id":85568392924515191,"keywords":["nocrits","nodmgspread","payload","uncletopia"],"game_id":440,"stv_port":27036,"stv_name":"Uncletopia | Chicago | 3 | All Maps | STV","players":[{"user_id":388,"name":"Codo Sapien","steam_id":76561198014206810,"connected_time":3008000000000,"state":"active","ping":33},{"user_id":420,"name":"Panckakebro","steam_id":76561198106419992,"connected_time":1032000000000,"state":"active","ping":81},{"user_id":384,"name":"BBOSensei","steam_id":76561198071548190,"connected_time":4338000000000,"state":"active","ping":67},{"user_id":419,"name":"ApertureCity","steam_id":76561198004153607,"connected_time":1348000000000,"state":"active","ping":103},{"user_id":425,"name":"Ryan Lewis truther","steam_id":76561198050505826,"connected_time":779000000000,"state":"active","ping":77},{"user_id":411,"name":"objective permanence","steam_id":76561198050393061,"connected_time":1682000000000,"state":"active","ping":70},{"user_id":361,"name":"griff928","steam_id":76561198149614679,"connected_time":6303000000000,"state":"active","ping":49},{"user_id":427,"name":"The Foolish Samurai","steam_id":76561198094494945,"connected_time":428000000000,"state":"active","ping":108},{"user_id":422,"name":"noellehound","steam_id":76561198108844158,"connected_time":930000000000,"state":"active","ping":90},{"user_id":385,"name":"totally not a pile of beans","steam_id":76561198119851931,"connected_time":3835000000000,"state":"active","ping":82},{"user_id":428,"name":"thundah!","steam_id":76561199159928133,"connected_time":394000000000,"state":"active","ping":93},{"user_id":382,"name":"Technic","steam_id":76561198200302281,"connected_time":4455000000000,"state":"active","ping":74},{"user_id":398,"name":"cataconik","steam_id":76561198145530829,"connected_time":2333000000000,"state":"active","ping":87},{"user_id":413,"name":"Elite_Friendly","steam_id":76561198819972127,"connected_time":1614000000000,"state":"active","ping":102},{"user_id":392,"name":"DO NOT call me BART SIMPSON!!","steam_id":76561198069113375,"connected_time":2975000000000,"state":"active","ping":69},{"user_id":426,"name":"stinker","steam_id":76561198295640486,"connected_time":710000000000,"state":"active","ping":97},{"user_id":433,"name":"flooreater419","steam_id":76561198098656830,"connected_time":275000000000,"state":"active","ping":88},{"user_id":437,"name":"transgender velvet worm","steam_id":76561198181086298,"connected_time":84000000000,"state":"active","ping":105},{"user_id":430,"name":"tactical hotdog","steam_id":76561199270028694,"connected_time":350000000000,"state":"active","ping":102},{"user_id":423,"name":"carly rae jepsen","steam_id":76561198336144991,"connected_time":922000000000,"state":"active","ping":67},{"user_id":436,"name":"Jeeper","steam_id":76561198155583692,"connected_time":148000000000,"state":"active","ping":80},{"user_id":435,"name":"ElectronX","steam_id":76561198116034988,"connected_time":226000000000,"state":"active","ping":109},{"user_id":424,"name":"NoExit","steam_id":76561198065725996,"connected_time":886000000000,"state":"active","ping":97},{"user_id":407,"name":"ARGON Soulidity","steam_id":76561198429603550,"connected_time":1978000000000,"state":"active","ping":88}]},{"server_id":403,"name":"Uncletopia | Chicago | 4 | All Maps","name_short":"chi-4","host":"chi-1.us.uncletopia.com","port":27045,"enabled":true,"region":"us-central","cc":"us","latitude":41.881832,"longitude":-87.62318,"reserved":0,"last_update":"0001-01-01T00:00:00Z","name_a2s":"Uncletopia | Chicago | 4 | All Maps","protocol":17,"map":"cp_dustbowl","folder":"tf","game":"Team Fortress","app_id":440,"player_count":16,"max_players":24,"Bots":0,"server_type":"Dedicated","server_os":"Linux","password":true,"vac":true,"version":"7882260","steam_id":85568392924515193,"keywords":["cp","nocrits","nodmgspread","uncletopia"],"game_id":440,"stv_port":27046,"stv_name":"Uncletopia | Chicago | 4 | All Maps | STV","players":[{"user_id":455,"name":"MonkeyNobody","steam_id":76561199451266605,"connected_time":72000000000,"state":"active","ping":109},{"user_id":456,"name":"gromit","steam_id":76561198037746805,"connected_time":69000000000,"state":"active","ping":61},{"user_id":389,"name":"Maxxycat","steam_id":76561198194062681,"connected_time":5033000000000,"state":"active","ping":60},{"user_id":454,"name":"Femtofarad","steam_id":76561198308583053,"connected_time":158000000000,"state":"active","ping":80},{"user_id":438,"name":"jon pickle water","steam_id":76561199036212135,"connected_time":962000000000,"state":"active","ping":111},{"user_id":439,"name":"Marion Moseby","steam_id":76561198052477319,"connected_time":948000000000,"state":"active","ping":42},{"user_id":397,"name":"Horrizan","steam_id":76561197965028480,"connected_time":4258000000000,"state":"active","ping":74},{"user_id":420,"name":"bong water","steam_id":76561198880398499,"connected_time":2606000000000,"state":"active","ping":55},{"user_id":453,"name":"Nigel Powers","steam_id":76561198107382571,"connected_time":238000000000,"state":"active","ping":130},{"user_id":392,"name":":)","steam_id":76561198093921290,"connected_time":4685000000000,"state":"active","ping":44},{"user_id":364,"name":"Spike","steam_id":76561198141356571,"connected_time":6907000000000,"state":"active","ping":59},{"user_id":441,"name":"It's Over!","steam_id":76561198104086771,"connected_time":896000000000,"state":"active","ping":96},{"user_id":450,"name":"sodo","steam_id":76561198858474714,"connected_time":567000000000,"state":"active","ping":102},{"user_id":428,"name":"A Lil Guy","steam_id":76561198135662712,"connected_time":2152000000000,"state":"active","ping":95},{"user_id":446,"name":"night.light","steam_id":76561198014557455,"connected_time":743000000000,"state":"active","ping":60},{"user_id":411,"name":"blossom","steam_id":76561198042735130,"connected_time":3077000000000,"state":"active","ping":106}]},{"server_id":36,"name":"Uncletopia | Chicago | 5 | All Maps","name_short":"chi-5","host":"chi-2.us.uncletopia.com","port":27015,"enabled":true,"region":"us-central","cc":"us","latitude":41.881832,"longitude":-87.62318,"reserved":0,"last_update":"0001-01-01T00:00:00Z","name_a2s":"Uncletopia | Chicago | 5 | All Maps","protocol":17,"map":"koth_lakeside_final","folder":"tf","game":"Team Fortress","app_id":440,"player_count":0,"max_players":24,"Bots":0,"server_type":"Dedicated","server_os":"Linux","password":true,"vac":true,"version":"7882260","steam_id":85568392924866362,"keywords":["cp","nocrits","nodmgspread","uncletopia"],"game_id":440,"stv_port":27016,"stv_name":"Uncletopia | Chicago | 5 | All Maps | STV","players":null},{"server_id":37,"name":"Uncletopia | Chicago | 6 | All Maps","name_short":"chi-6","host":"chi-2.us.uncletopia.com","port":27025,"enabled":true,"region":"us-central","cc":"us","latitude":41.881832,"longitude":-87.62318,"reserved":0,"last_update":"0001-01-01T00:00:00Z","name_a2s":"Uncletopia | Chicago | 6 | All Maps","protocol":17,"map":"pl_upward","folder":"tf","game":"Team Fortress","app_id":440,"player_count":24,"max_players":24,"Bots":0,"server_type":"Dedicated","server_os":"Linux","password":true,"vac":true,"version":"7882260","steam_id":85568392924866363,"keywords":["nocrits","nodmgspread","payload","uncletopia"],"game_id":440,"stv_port":27026,"stv_name":"Uncletopia | Chicago | 6 | All Maps | STV","players":[{"user_id":847,"name":"Nova","steam_id":76561198421340963,"connected_time":1806000000000,"state":"active","ping":61},{"user_id":805,"name":"mikhail","steam_id":76561198242175530,"connected_time":5289000000000,"state":"active","ping":68},{"user_id":848,"name":"›› 1dayumay","steam_id":76561198218719943,"connected_time":1738000000000,"state":"active","ping":91},{"user_id":837,"name":"Spillprnz","steam_id":76561198082337619,"connected_time":2201000000000,"state":"active","ping":67},{"user_id":804,"name":"Atlas (Skylar)","steam_id":76561198041531774,"connected_time":5336000000000,"state":"active","ping":54},{"user_id":862,"name":"comet","steam_id":76561198149217841,"connected_time":455000000000,"state":"active","ping":100},{"user_id":849,"name":"thatbedrockblock","steam_id":76561199069286524,"connected_time":1511000000000,"state":"active","ping":126},{"user_id":855,"name":"Ice","steam_id":76561198045076794,"connected_time":749000000000,"state":"active","ping":51},{"user_id":864,"name":"THIRDPIERCE","steam_id":76561198405366314,"connected_time":377000000000,"state":"active","ping":85},{"user_id":839,"name":"milo","steam_id":76561199061380038,"connected_time":2108000000000,"state":"active","ping":68},{"user_id":803,"name":"bojack from the show bojack hor","steam_id":76561198053006712,"connected_time":5443000000000,"state":"active","ping":60},{"user_id":865,"name":"CrizpyCreams","steam_id":76561198353089012,"connected_time":353000000000,"state":"active","ping":57},{"user_id":861,"name":"Sqooky","steam_id":76561198838054669,"connected_time":475000000000,"state":"active","ping":70},{"user_id":856,"name":"Nr","steam_id":76561198156798850,"connected_time":696000000000,"state":"active","ping":68},{"user_id":857,"name":"OneMisguidedSlyGuy","steam_id":76561198372243261,"connected_time":630000000000,"state":"active","ping":97},{"user_id":858,"name":"n99k","steam_id":76561198203732449,"connected_time":582000000000,"state":"active","ping":76},{"user_id":859,"name":"alex ☆","steam_id":76561198197977237,"connected_time":532000000000,"state":"active","ping":69},{"user_id":860,"name":"Lore","steam_id":76561198098407538,"connected_time":530000000000,"state":"active","ping":58},{"user_id":866,"name":"AllTheOthers","steam_id":76561198252901043,"connected_time":304000000000,"state":"active","ping":84},{"user_id":867,"name":"Save Image As...","steam_id":76561198046603251,"connected_time":278000000000,"state":"active","ping":72},{"user_id":868,"name":"O-mega","steam_id":76561199175970696,"connected_time":276000000000,"state":"active","ping":126},{"user_id":872,"name":"sKoOlAiD","steam_id":76561199048847533,"connected_time":96000000000,"state":"active","ping":67},{"user_id":820,"name":"Townze","steam_id":76561198081827165,"connected_time":4223000000000,"state":"active","ping":53},{"user_id":871,"name":"TheRat","steam_id":76561198006571338,"connected_time":118000000000,"state":"active","ping":52}]},{"server_id":38,"name":"Uncletopia | Chicago | 7 | Stopwatch Beta","name_short":"chi-7","host":"chi-2.us.uncletopia.com","port":27035,"enabled":true,"region":"us-central","cc":"us","latitude":41.881832,"longitude":-87.62318,"reserved":0,"last_update":"0001-01-01T00:00:00Z","name_a2s":"Uncletopia | Chicago | 7 | Stopwatch Beta","protocol":17,"map":"cp_granary","folder":"tf","game":"Team Fortress","app_id":440,"player_count":0,"max_players":24,"Bots":0,"server_type":"Dedicated","server_os":"Linux","password":true,"vac":true,"version":"7882260","steam_id":85568392924866364,"keywords":["cp","nocrits","nodmgspread","uncletopia"],"game_id":440,"stv_port":27036,"stv_name":"Uncletopia | Chicago | 7 | Stopwatch Beta | STV","players":null},{"server_id":39,"name":"Uncletopia | Chicago | 8 | Community","name_short":"chi-8","host":"chi-2.us.uncletopia.com","port":27045,"enabled":true,"region":"us-central","cc":"us","latitude":41.881832,"longitude":-87.62318,"reserved":0,"last_update":"0001-01-01T00:00:00Z","name_a2s":"Uncletopia | Chicago | 8 | Community","protocol":17,"map":"workshop/koth_bagel_rc6.ugc2514036946","folder":"tf","game":"Team Fortress","app_id":440,"player_count":14,"max_players":24,"Bots":0,"server_type":"Dedicated","server_os":"Linux","password":true,"vac":true,"version":"7882260","steam_id":85568392924866365,"keywords":["cp","nocrits","nodmgspread","uncletopia"],"game_id":440,"stv_port":27046,"stv_name":"Uncletopia | Chicago | 8 | Community | STV","players":[{"user_id":297,"name":"jennifer nasb","steam_id":76561198055068182,"connected_time":318000000000,"state":"active","ping":58},{"user_id":251,"name":"So Hygienic! Washed gamer","steam_id":76561198321627268,"connected_time":4695000000000,"state":"active","ping":109},{"user_id":257,"name":"Tom Crúaich","steam_id":76561197999439911,"connected_time":4475000000000,"state":"active","ping":71},{"user_id":249,"name":"PinguEnjoyer6","steam_id":76561199186723516,"connected_time":4794000000000,"state":"active","ping":93},{"user_id":242,"name":"mu","steam_id":76561197997530228,"connected_time":5494000000000,"state":"active","ping":108},{"user_id":298,"name":"GuyGoom","steam_id":76561198254522178,"connected_time":86000000000,"state":"active","ping":54},{"user_id":205,"name":"don't leave her waiting","steam_id":76561198103496593,"connected_time":8744000000000,"state":"active","ping":60},{"user_id":279,"name":"wilmer el versatil","steam_id":76561198155393832,"connected_time":1952000000000,"state":"active","ping":144},{"user_id":280,"name":"LumaDooma","steam_id":76561198076875817,"connected_time":1942000000000,"state":"active","ping":60},{"user_id":281,"name":"Stoofy","steam_id":76561198280750328,"connected_time":1893000000000,"state":"active","ping":87},{"user_id":228,"name":"Buckshot","steam_id":76561198312838299,"connected_time":6863000000000,"state":"active","ping":73},{"user_id":259,"name":"teafital","steam_id":76561198406252824,"connected_time":4407000000000,"state":"active","ping":106},{"user_id":277,"name":"Goofball","steam_id":76561198074189084,"connected_time":2542000000000,"state":"active","ping":59},{"user_id":232,"name":"Mathatguy","steam_id":76561198225432188,"connected_time":6679000000000,"state":"active","ping":96}]},{"server_id":8,"name":"Uncletopia | Dallas | 1 | All Maps","name_short":"dal-1","host":"dal-1.us.uncletopia.com","port":27015,"enabled":true,"region":"us-central","cc":"us","latitude":32.779167,"longitude":-96.80889,"reserved":0,"last_update":"0001-01-01T00:00:00Z","name_a2s":"Uncletopia | Dallas | 1 | All Maps","protocol":17,"map":"pl_barnblitz","folder":"tf","game":"Team Fortress","app_id":440,"player_count":24,"max_players":24,"Bots":0,"server_type":"Dedicated","server_os":"Linux","password":true,"vac":true,"version":"7882260","steam_id":85568392924469986,"keywords":["nocrits","nodmgspread","payload","uncletopia"],"game_id":440,"stv_port":27016,"stv_name":"Uncletopia | Dallas | 1 | All Maps | STV","players":[{"user_id":417,"name":"MeMyBongusAndTheGreatOutdoors","steam_id":76561198097708978,"connected_time":4566000000000,"state":"active","ping":56},{"user_id":461,"name":"moe","steam_id":76561198929586245,"connected_time":1389000000000,"state":"active","ping":69},{"user_id":458,"name":"MetalTao","steam_id":76561198189408110,"connected_time":1736000000000,"state":"active","ping":112},{"user_id":462,"name":"lustful for Pokémon","steam_id":76561198063713049,"connected_time":744000000000,"state":"active","ping":56},{"user_id":432,"name":"AgenT BendeR RodrigueZ","steam_id":76561197962498428,"connected_time":3374000000000,"state":"active","ping":91},{"user_id":429,"name":"♠Silver♠","steam_id":76561198206109224,"connected_time":3947000000000,"state":"active","ping":136},{"user_id":452,"name":"Emberformula","steam_id":76561198171526119,"connected_time":1957000000000,"state":"active","ping":55},{"user_id":445,"name":"InvaderAlex","steam_id":76561198039232451,"connected_time":2449000000000,"state":"active","ping":62},{"user_id":404,"name":"Sods","steam_id":76561198010204565,"connected_time":5723000000000,"state":"active","ping":41},{"user_id":428,"name":"NexFrost","steam_id":76561197985774837,"connected_time":3950000000000,"state":"active","ping":41},{"user_id":464,"name":"the smiling zombie","steam_id":76561199246231090,"connected_time":345000000000,"state":"active","ping":84},{"user_id":389,"name":"hunterzar","steam_id":76561198347666725,"connected_time":7464000000000,"state":"active","ping":87},{"user_id":453,"name":"Sarbanes-Oxley","steam_id":76561197975898479,"connected_time":1944000000000,"state":"active","ping":56},{"user_id":463,"name":"Renota","steam_id":76561198058224488,"connected_time":669000000000,"state":"active","ping":84},{"user_id":448,"name":"bunny girl bimbo!","steam_id":76561198122027532,"connected_time":2342000000000,"state":"active","ping":82},{"user_id":446,"name":"ThugSlug","steam_id":76561198086098047,"connected_time":2393000000000,"state":"active","ping":83},{"user_id":454,"name":"Shamrock Shake Oct.10.2020 @8pm","steam_id":76561198833313201,"connected_time":1923000000000,"state":"active","ping":97},{"user_id":465,"name":"SnakeyK","steam_id":76561198038414152,"connected_time":129000000000,"state":"active","ping":73},{"user_id":450,"name":"Antifa Supersoldier","steam_id":76561198141816516,"connected_time":2048000000000,"state":"active","ping":47},{"user_id":430,"name":"SPREAD SPRING GROWTH AND WARMTH","steam_id":76561198800386026,"connected_time":3553000000000,"state":"active","ping":91},{"user_id":455,"name":"makeshift_burrito","steam_id":76561198042510825,"connected_time":1902000000000,"state":"active","ping":93},{"user_id":421,"name":"Prophet","steam_id":76561198134948582,"connected_time":4463000000000,"state":"active","ping":117},{"user_id":456,"name":"Neophyte","steam_id":76561198027183394,"connected_time":1878000000000,"state":"active","ping":84},{"user_id":459,"name":"CheeseLikeSubstance","steam_id":76561197977170646,"connected_time":1682000000000,"state":"active","ping":74}]},{"server_id":108,"name":"Uncletopia | Dallas | 2 | All Maps","name_short":"dal-2","host":"dal-1.us.uncletopia.com","port":27025,"enabled":true,"region":"us-central","cc":"us","latitude":32.779167,"longitude":-96.80889,"reserved":0,"last_update":"0001-01-01T00:00:00Z","name_a2s":"Uncletopia | Dallas | 2 | All Maps","protocol":17,"map":"pl_goldrush","folder":"tf","game":"Team Fortress","app_id":440,"player_count":25,"max_players":24,"Bots":0,"server_type":"Dedicated","server_os":"Linux","password":true,"vac":true,"version":"7882260","steam_id":85568392924469988,"keywords":["nocrits","nodmgspread","payload","uncletopia"],"game_id":440,"stv_port":27026,"stv_name":"Uncletopia | Dallas | 2 | All Maps | STV","players":[{"user_id":560,"name":"I. C. Wiener","steam_id":76561198062777610,"connected_time":532000000000,"state":"active","ping":68},{"user_id":526,"name":"TF2 Drip Designer","steam_id":76561198069735882,"connected_time":1416000000000,"state":"active","ping":82},{"user_id":525,"name":"AshMouse","steam_id":76561198151145819,"connected_time":1420000000000,"state":"active","ping":89},{"user_id":511,"name":"Big Dick Swinging","steam_id":76561198053819929,"connected_time":2837000000000,"state":"active","ping":74},{"user_id":445,"name":"SpecialForce19","steam_id":76561198120974644,"connected_time":6311000000000,"state":"active","ping":90},{"user_id":572,"name":"ゴ?!Jon Chainsaw!?ゴ","steam_id":76561198400240040,"connected_time":66000000000,"state":"active","ping":55},{"user_id":527,"name":"loco503","steam_id":76561198827495121,"connected_time":1390000000000,"state":"active","ping":101},{"user_id":518,"name":"Bikeway Naros","steam_id":76561198086676786,"connected_time":1662000000000,"state":"active","ping":82},{"user_id":528,"name":"cesartele3000","steam_id":76561198142149479,"connected_time":1388000000000,"state":"active","ping":81},{"user_id":549,"name":"Noisgamer02","steam_id":76561198129665722,"connected_time":918000000000,"state":"active","ping":61},{"user_id":553,"name":"TDR","steam_id":76561198093243434,"connected_time":845000000000,"state":"active","ping":87},{"user_id":529,"name":"acceleяator","steam_id":76561198046842513,"connected_time":1368000000000,"state":"active","ping":82},{"user_id":516,"name":"I'm better then u","steam_id":76561198937717599,"connected_time":1798000000000,"state":"active","ping":39},{"user_id":522,"name":"090-nsalih","steam_id":76561199467467873,"connected_time":1531000000000,"state":"active","ping":211},{"user_id":443,"name":"it's peanut time","steam_id":76561198236028020,"connected_time":6639000000000,"state":"active","ping":107},{"user_id":541,"name":"lker","steam_id":76561197976975075,"connected_time":1147000000000,"state":"active","ping":54},{"user_id":447,"name":"Faraday","steam_id":76561198089928357,"connected_time":6303000000000,"state":"active","ping":48},{"user_id":530,"name":"Ox-cart","steam_id":76561198059960625,"connected_time":1356000000000,"state":"active","ping":98},{"user_id":552,"name":"The Announcer's Feet","steam_id":76561199443456893,"connected_time":866000000000,"state":"active","ping":50},{"user_id":514,"name":"ChottoAMinute","steam_id":76561198873157775,"connected_time":2764000000000,"state":"active","ping":44},{"user_id":532,"name":"Axel Beoulve","steam_id":76561198126511231,"connected_time":1342000000000,"state":"active","ping":116},{"user_id":574,"name":"Manly Emerald","steam_id":76561198245838476,"connected_time":8000000000,"state":"spawning","ping":55},{"user_id":543,"name":"Jezzus","steam_id":76561199289676387,"connected_time":1087000000000,"state":"active","ping":63},{"user_id":523,"name":"EleventhGoose","steam_id":76561198912390211,"connected_time":1476000000000,"state":"active","ping":86},{"user_id":535,"name":"Greeble","steam_id":76561198000283892,"connected_time":1284000000000,"state":"active","ping":98}]},{"server_id":5,"name":"Uncletopia | Frankfurt | 1 | All Maps","name_short":"frk-1","host":"frk-1.de.uncletopia.com","port":27015,"enabled":true,"region":"eu","cc":"de","latitude":50.110924,"longitude":8.682127,"reserved":0,"last_update":"0001-01-01T00:00:00Z","name_a2s":"Uncletopia | Frankfurt | 1 | All Maps","protocol":17,"map":"cp_process_final","folder":"tf","game":"Team Fortress","app_id":440,"player_count":0,"max_players":24,"Bots":0,"server_type":"Dedicated","server_os":"Linux","password":true,"vac":true,"version":"7882260","steam_id":85568392924469989,"keywords":["cp","nocrits","nodmgspread","uncletopia"],"game_id":440,"stv_port":27016,"stv_name":"Uncletopia | Frankfurt | 1 | All Maps | STV","players":null},{"server_id":110,"name":"Uncletopia | Frankfurt | 2 | All Maps","name_short":"frk-2","host":"frk-1.de.uncletopia.com","port":27025,"enabled":true,"region":"eu","cc":"de","latitude":50.110924,"longitude":8.682127,"reserved":0,"last_update":"0001-01-01T00:00:00Z","name_a2s":"Uncletopia | Frankfurt | 2 | All Maps","protocol":17,"map":"pl_swiftwater_final1","folder":"tf","game":"Team Fortress","app_id":440,"player_count":0,"max_players":24,"Bots":0,"server_type":"Dedicated","server_os":"Linux","password":true,"vac":true,"version":"7882260","steam_id":85568392924469990,"keywords":["nocrits","nodmgspread","payload","uncletopia"],"game_id":440,"stv_port":27026,"stv_name":"Uncletopia | Frankfurt | 2 | All Maps | STV","players":null},{"server_id":308,"name":"Uncletopia | Frankfurt | 3 | All Maps","name_short":"frk-3","host":"frk-1.de.uncletopia.com","port":27035,"enabled":true,"region":"eu","cc":"de","latitude":50.110924,"longitude":8.682127,"reserved":0,"last_update":"0001-01-01T00:00:00Z","name_a2s":"Uncletopia | Frankfurt | 3 | All Maps","protocol":17,"map":"pl_snowycoast","folder":"tf","game":"Team Fortress","app_id":440,"player_count":0,"max_players":24,"Bots":0,"server_type":"Dedicated","server_os":"Linux","password":true,"vac":true,"version":"7882260","steam_id":85568392924504274,"keywords":["nocrits","nodmgspread","payload","uncletopia"],"game_id":440,"stv_port":27036,"stv_name":"Uncletopia | Frankfurt | 3 | All Maps | STV","players":null},{"server_id":309,"name":"Uncletopia | Frankfurt | 4 | All Maps","name_short":"frk-4","host":"frk-1.de.uncletopia.com","port":27045,"enabled":true,"region":"eu","cc":"de","latitude":50.110924,"longitude":8.682127,"reserved":0,"last_update":"0001-01-01T00:00:00Z","name_a2s":"Uncletopia | Frankfurt | 4 | All Maps","protocol":17,"map":"cp_dustbowl","folder":"tf","game":"Team Fortress","app_id":440,"player_count":9,"max_players":24,"Bots":0,"server_type":"Dedicated","server_os":"Linux","password":true,"vac":true,"version":"7882260","steam_id":85568392924504275,"keywords":["cp","nocrits","nodmgspread","uncletopia"],"game_id":440,"stv_port":27046,"stv_name":"Uncletopia | Frankfurt | 4 | All Maps | STV","players":[{"user_id":13,"name":"john fortress the second","steam_id":76561198110198881,"connected_time":2571000000000,"state":"active","ping":60},{"user_id":24,"name":"wide appreciator","steam_id":76561198083286511,"connected_time":817000000000,"state":"active","ping":52},{"user_id":14,"name":"i ate joe borgar","steam_id":76561198377966913,"connected_time":2231000000000,"state":"active","ping":93},{"user_id":16,"name":"dorak","steam_id":76561198818037965,"connected_time":2021000000000,"state":"active","ping":105},{"user_id":25,"name":"MarkBV","steam_id":76561198427014506,"connected_time":616000000000,"state":"active","ping":123},{"user_id":26,"name":"Neimon","steam_id":76561198343485710,"connected_time":560000000000,"state":"active","ping":122},{"user_id":27,"name":"Hussain_144","steam_id":76561198346029208,"connected_time":248000000000,"state":"active","ping":173},{"user_id":21,"name":"USBug999","steam_id":76561199174677820,"connected_time":1371000000000,"state":"active","ping":136},{"user_id":28,"name":"rat female","steam_id":76561199053478994,"connected_time":145000000000,"state":"active","ping":56}]},{"server_id":310,"name":"Uncletopia | Frankfurt | 5 | All Maps","name_short":"frk-5","host":"frk-1.de.uncletopia.com","port":27055,"enabled":true,"region":"eu","cc":"de","latitude":50.110924,"longitude":8.682127,"reserved":0,"last_update":"0001-01-01T00:00:00Z","name_a2s":"Uncletopia | Frankfurt | 5 | All Maps","protocol":17,"map":"cp_mountainlab","folder":"tf","game":"Team Fortress","app_id":440,"player_count":0,"max_players":24,"Bots":0,"server_type":"Dedicated","server_os":"Linux","password":true,"vac":true,"version":"7882260","steam_id":85568392924504277,"keywords":["cp","nocrits","nodmgspread","uncletopia"],"game_id":440,"stv_port":27056,"stv_name":"Uncletopia | Frankfurt | 5 | All Maps | STV","players":null},{"server_id":311,"name":"Uncletopia | Frankfurt | 6 | All Maps","name_short":"frk-6","host":"frk-1.de.uncletopia.com","port":27065,"enabled":true,"region":"eu","cc":"de","latitude":50.110924,"longitude":8.682127,"reserved":0,"last_update":"0001-01-01T00:00:00Z","name_a2s":"Uncletopia | Frankfurt | 6 | All Maps","protocol":17,"map":"pl_badwater","folder":"tf","game":"Team Fortress","app_id":440,"player_count":0,"max_players":24,"Bots":0,"server_type":"Dedicated","server_os":"Linux","password":true,"vac":true,"version":"7882260","steam_id":85568392924504278,"keywords":["nocrits","nodmgspread","payload","uncletopia"],"game_id":440,"stv_port":27066,"stv_name":"Uncletopia | Frankfurt | 6 | All Maps | STV","players":null},{"server_id":23,"name":"Uncletopia | Frankfurt | 7 | Stopwatch Beta","name_short":"frk-7","host":"frk-1.de.uncletopia.com","port":27075,"enabled":true,"region":"eu","cc":"de","latitude":50.110924,"longitude":8.682127,"reserved":0,"last_update":"0001-01-01T00:00:00Z","name_a2s":"Uncletopia | Frankfurt | 7 | Stopwatch Beta","protocol":17,"map":"cp_dustbowl","folder":"tf","game":"Team Fortress","app_id":440,"player_count":0,"max_players":24,"Bots":0,"server_type":"Dedicated","server_os":"Linux","password":true,"vac":true,"version":"7882260","steam_id":85568392924742827,"keywords":["cp","nocrits","nodmgspread","uncletopia"],"game_id":440,"stv_port":27076,"stv_name":"Uncletopia | Frankfurt | 7 | Stopwatch Beta | STV","players":null},{"server_id":24,"name":"Uncletopia | Frankfurt | 8 | Community","name_short":"frk-8","host":"frk-1.de.uncletopia.com","port":27085,"enabled":true,"region":"eu","cc":"de","latitude":50.110924,"longitude":8.682127,"reserved":0,"last_update":"0001-01-01T00:00:00Z","name_a2s":"Uncletopia | Frankfurt | 8 | Community","protocol":17,"map":"koth_cascade","folder":"tf","game":"Team Fortress","app_id":440,"player_count":0,"max_players":24,"Bots":0,"server_type":"Dedicated","server_os":"Linux","password":true,"vac":true,"version":"7882260","steam_id":85568392924742828,"keywords":["cp","nocrits","nodmgspread","uncletopia"],"game_id":440,"stv_port":27086,"stv_name":"Uncletopia | Frankfurt | 8 | Community | STV","players":null},{"server_id":202,"name":"Uncletopia | Hong Kong | 1 | All Maps","name_short":"hgk-1","host":"hgk-1.hk.uncletopia.com","port":27015,"enabled":true,"region":"asia","cc":"hk","latitude":22.302711,"longitude":114.177216,"reserved":0,"last_update":"0001-01-01T00:00:00Z","name_a2s":"Uncletopia | Hong Kong | 1 | All Maps","protocol":17,"map":"pl_badwater","folder":"tf","game":"Team Fortress","app_id":440,"player_count":20,"max_players":24,"Bots":0,"server_type":"Dedicated","server_os":"Linux","password":true,"vac":true,"version":"7882260","steam_id":85568392924494504,"keywords":["nocrits","nodmgspread","payload","uncletopia"],"game_id":440,"stv_port":27016,"stv_name":"Uncletopia | Hong Kong | 1 | All Maps | STV","players":[{"user_id":11,"name":"RP birdzz","steam_id":76561198318077734,"connected_time":5839000000000,"state":"active","ping":62},{"user_id":26,"name":"ellz71","steam_id":76561199216074568,"connected_time":2084000000000,"state":"active","ping":102},{"user_id":25,"name":"Water Buffalo","steam_id":76561198200672038,"connected_time":2142000000000,"state":"active","ping":89},{"user_id":36,"name":"soda of melon","steam_id":76561198870774355,"connected_time":1125000000000,"state":"active","ping":102},{"user_id":27,"name":"cstr","steam_id":76561198125946388,"connected_time":1996000000000,"state":"active","ping":96},{"user_id":51,"name":"Typewriter","steam_id":76561199055466497,"connected_time":163000000000,"state":"active","ping":180},{"user_id":30,"name":"Bad dental hygiene","steam_id":76561198332177411,"connected_time":1711000000000,"state":"active","ping":69},{"user_id":46,"name":"Shotty 2 Hotty","steam_id":76561199174449723,"connected_time":413000000000,"state":"active","ping":119},{"user_id":52,"name":"Bossrabeet (ඬ arc)","steam_id":76561199203075792,"connected_time":134000000000,"state":"active","ping":58},{"user_id":33,"name":"brizzard","steam_id":76561198048438653,"connected_time":1412000000000,"state":"active","ping":52},{"user_id":34,"name":"Lelouch","steam_id":76561198828840546,"connected_time":1320000000000,"state":"active","ping":77},{"user_id":35,"name":"Katami","steam_id":76561199061052792,"connected_time":1188000000000,"state":"active","ping":115},{"user_id":42,"name":"Puddin","steam_id":76561198140052918,"connected_time":747000000000,"state":"active","ping":92},{"user_id":38,"name":"Andrew Tate","steam_id":76561199198221353,"connected_time":1084000000000,"state":"active","ping":67},{"user_id":40,"name":"Merc$_$","steam_id":76561199155373516,"connected_time":887000000000,"state":"active","ping":100},{"user_id":43,"name":"Drutzhfer","steam_id":76561198299948446,"connected_time":577000000000,"state":"active","ping":96},{"user_id":45,"name":"WaifuThatGiveMeBloodPressure","steam_id":76561199090343752,"connected_time":569000000000,"state":"active","ping":113},{"user_id":49,"name":"blobeye","steam_id":76561198420018387,"connected_time":365000000000,"state":"active","ping":36},{"user_id":50,"name":"j_rex","steam_id":76561198132473926,"connected_time":351000000000,"state":"active","ping":60}]},{"server_id":1,"name":"Uncletopia | Los Angeles | 1 | All Maps","name_short":"lax-1","host":"lax-1.us.uncletopia.com","port":27015,"enabled":true,"region":"us-west","cc":"us","latitude":33.94279,"longitude":-118.41004,"reserved":0,"last_update":"0001-01-01T00:00:00Z","name_a2s":"Uncletopia | Los Angeles | 1 | All Maps","protocol":17,"map":"pl_barnblitz","folder":"tf","game":"Team Fortress","app_id":440,"player_count":24,"max_players":24,"Bots":0,"server_type":"Dedicated","server_os":"Linux","password":true,"vac":true,"version":"7882260","steam_id":85568392924469991,"keywords":["nocrits","nodmgspread","payload","uncletopia"],"game_id":440,"stv_port":27016,"stv_name":"Uncletopia | Los Angeles | 1 | All Maps | STV","players":[{"user_id":386,"name":"nothing personal","steam_id":76561199163838005,"connected_time":686000000000,"state":"active","ping":97},{"user_id":390,"name":"fish","steam_id":76561198054070811,"connected_time":353000000000,"state":"active","ping":47},{"user_id":296,"name":"usedhalfcart","steam_id":76561198072621852,"connected_time":9321000000000,"state":"active","ping":89},{"user_id":392,"name":"Stocking Anarchy","steam_id":76561199013422135,"connected_time":331000000000,"state":"active","ping":128},{"user_id":317,"name":"Lonlily","steam_id":76561198130418647,"connected_time":7649000000000,"state":"active","ping":64},{"user_id":360,"name":"RagingBagon","steam_id":76561198255453127,"connected_time":4417000000000,"state":"active","ping":39},{"user_id":382,"name":"Whisper!","steam_id":76561198119609795,"connected_time":876000000000,"state":"active","ping":46},{"user_id":380,"name":"THC Freebaser","steam_id":76561198075779863,"connected_time":1307000000000,"state":"active","ping":106},{"user_id":361,"name":"June","steam_id":76561198141803658,"connected_time":4056000000000,"state":"active","ping":48},{"user_id":385,"name":"Shochu Fiend","steam_id":76561198055193376,"connected_time":735000000000,"state":"active","ping":113},{"user_id":375,"name":"luigiclub","steam_id":76561198180548194,"connected_time":2626000000000,"state":"active","ping":70},{"user_id":393,"name":"Knuckles","steam_id":76561198000704259,"connected_time":142000000000,"state":"active","ping":105},{"user_id":356,"name":"2 for $3.50 McChickens","steam_id":76561198089908660,"connected_time":5145000000000,"state":"active","ping":55},{"user_id":372,"name":"charley","steam_id":76561198828238339,"connected_time":3046000000000,"state":"active","ping":79},{"user_id":388,"name":"k'ouft","steam_id":76561198080207021,"connected_time":638000000000,"state":"active","ping":45},{"user_id":270,"name":"fire","steam_id":76561198044354279,"connected_time":11021000000000,"state":"active","ping":45},{"user_id":389,"name":"2STAR","steam_id":76561198126709382,"connected_time":600000000000,"state":"active","ping":34},{"user_id":381,"name":"Spring Beans","steam_id":76561197978546259,"connected_time":958000000000,"state":"active","ping":65},{"user_id":368,"name":"Archie","steam_id":76561198137112917,"connected_time":3489000000000,"state":"active","ping":58},{"user_id":387,"name":"FlashyLily","steam_id":76561198110050476,"connected_time":677000000000,"state":"active","ping":74},{"user_id":323,"name":"Specter the Unchained","steam_id":76561198348354629,"connected_time":7327000000000,"state":"active","ping":42},{"user_id":293,"name":"Taco+Taco=Burrito","steam_id":76561198063128663,"connected_time":9403000000000,"state":"active","ping":38},{"user_id":374,"name":"Richard_MF_Nixon","steam_id":76561198011398728,"connected_time":2653000000000,"state":"active","ping":89},{"user_id":328,"name":"Mythical Lag","steam_id":76561198347031281,"connected_time":7177000000000,"state":"active","ping":87}]},{"server_id":112,"name":"Uncletopia | Los Angeles | 2 | All Maps","name_short":"lax-2","host":"lax-1.us.uncletopia.com","port":27025,"enabled":true,"region":"us-west","cc":"us","latitude":33.94279,"longitude":-118.41004,"reserved":0,"last_update":"0001-01-01T00:00:00Z","name_a2s":"Uncletopia | Los Angeles | 2 | All Maps","protocol":17,"map":"pl_barnblitz","folder":"tf","game":"Team Fortress","app_id":440,"player_count":0,"max_players":24,"Bots":0,"server_type":"Dedicated","server_os":"Linux","password":true,"vac":true,"version":"7882260","steam_id":85568392924469992,"keywords":["nocrits","nodmgspread","payload","uncletopia"],"game_id":440,"stv_port":27026,"stv_name":"Uncletopia | Los Angeles | 2 | All Maps | STV","players":null},{"server_id":324,"name":"Uncletopia | Los Angeles | 3 | All Maps","name_short":"lax-3","host":"lax-1.us.uncletopia.com","port":27035,"enabled":true,"region":"us-west","cc":"us","latitude":33.94279,"longitude":-118.41004,"reserved":0,"last_update":"0001-01-01T00:00:00Z","name_a2s":"Uncletopia | Los Angeles | 3 | All Maps","protocol":17,"map":"pl_upward","folder":"tf","game":"Team Fortress","app_id":440,"player_count":24,"max_players":24,"Bots":0,"server_type":"Dedicated","server_os":"Linux","password":true,"vac":true,"version":"7882260","steam_id":85568392924510198,"keywords":["nocrits","nodmgspread","payload","uncletopia"],"game_id":440,"stv_port":27036,"stv_name":"Uncletopia | Los Angeles | 3 | All Maps | STV","players":[{"user_id":383,"name":"carpet","steam_id":76561198207881077,"connected_time":450000000000,"state":"active","ping":90},{"user_id":338,"name":"SQbuilder","steam_id":76561198076473375,"connected_time":3469000000000,"state":"active","ping":29},{"user_id":360,"name":"Rollo","steam_id":76561198064812108,"connected_time":1270000000000,"state":"active","ping":93},{"user_id":354,"name":"odran","steam_id":76561199122931272,"connected_time":1527000000000,"state":"active","ping":183},{"user_id":356,"name":"Ryshy02","steam_id":76561198055425447,"connected_time":1422000000000,"state":"active","ping":70},{"user_id":362,"name":"Seanvich","steam_id":76561198065805500,"connected_time":1250000000000,"state":"active","ping":95},{"user_id":358,"name":"HOG RIDER","steam_id":76561198298589502,"connected_time":1294000000000,"state":"active","ping":47},{"user_id":363,"name":"im bad at game","steam_id":76561199391930993,"connected_time":1240000000000,"state":"active","ping":55},{"user_id":364,"name":"SolarusD","steam_id":76561198029279861,"connected_time":1212000000000,"state":"active","ping":56},{"user_id":365,"name":"weed","steam_id":76561199128192017,"connected_time":1112000000000,"state":"active","ping":87},{"user_id":386,"name":"Tanuki in your attic.","steam_id":76561198027487285,"connected_time":331000000000,"state":"active","ping":152},{"user_id":339,"name":"SanitysEdge","steam_id":76561198130732813,"connected_time":3329000000000,"state":"active","ping":48},{"user_id":320,"name":"Racist Pyro","steam_id":76561198016168993,"connected_time":4905000000000,"state":"active","ping":81},{"user_id":329,"name":"SleeplessCollin","steam_id":76561198968140914,"connected_time":4517000000000,"state":"active","ping":47},{"user_id":384,"name":"riSygneD","steam_id":76561198331618687,"connected_time":442000000000,"state":"active","ping":40},{"user_id":373,"name":"sunny","steam_id":76561198069380992,"connected_time":882000000000,"state":"active","ping":83},{"user_id":324,"name":"Ian","steam_id":76561198159334435,"connected_time":4783000000000,"state":"active","ping":172},{"user_id":381,"name":"basmati jarate","steam_id":76561198319442494,"connected_time":591000000000,"state":"active","ping":56},{"user_id":378,"name":"punch you i'll punch you","steam_id":76561198035698704,"connected_time":803000000000,"state":"active","ping":61},{"user_id":374,"name":"cringy","steam_id":76561198323000455,"connected_time":882000000000,"state":"active","ping":67},{"user_id":348,"name":"Walmus","steam_id":76561198111416393,"connected_time":1983000000000,"state":"active","ping":59},{"user_id":382,"name":"Pithecanthropus","steam_id":76561197997072732,"connected_time":568000000000,"state":"active","ping":103},{"user_id":379,"name":"El Gato Paranoico","steam_id":76561198116567116,"connected_time":787000000000,"state":"active","ping":93},{"user_id":380,"name":"Whyamidoingthisaaaa","steam_id":76561199168837342,"connected_time":674000000000,"state":"active","ping":108}]},{"server_id":25,"name":"Uncletopia | Los Angeles | 4 | Stopwatch Beta","name_short":"lax-4","host":"lax-1.us.uncletopia.com","port":27045,"enabled":true,"region":"us-west","cc":"us","latitude":33.94279,"longitude":-118.41004,"reserved":0,"last_update":"0001-01-01T00:00:00Z","name_a2s":"Uncletopia | Los Angeles | 4 | Stopwatch Beta","protocol":17,"map":"workshop/koth_ramjam_rc1.ugc459778887","folder":"tf","game":"Team Fortress","app_id":440,"player_count":5,"max_players":24,"Bots":0,"server_type":"Dedicated","server_os":"Linux","password":true,"vac":true,"version":"7882260","steam_id":85568392924510199,"keywords":["nocrits","nodmgspread","payload","uncletopia"],"game_id":440,"stv_port":27046,"stv_name":"Uncletopia | Los Angeles | 4 | Stopwatch Beta | STV","players":[{"user_id":46,"name":"SunkerMacgunker","steam_id":76561199081868742,"connected_time":2000000000,"state":"connecting","ping":147},{"user_id":40,"name":"[TC] Lag","steam_id":76561198983494186,"connected_time":1770000000000,"state":"connecting","ping":109},{"user_id":22,"name":"FrAnK (iDfK ArC)","steam_id":76561198428759980,"connected_time":3431000000000,"state":"connecting","ping":87},{"user_id":23,"name":"amoeber","steam_id":76561198081564767,"connected_time":3425000000000,"state":"spawning","ping":100},{"user_id":24,"name":"that guy (lowercase mode)","steam_id":76561198851266251,"connected_time":3421000000000,"state":"connecting","ping":113}]},{"server_id":11,"name":"Uncletopia | London | 1 | All Maps","name_short":"lon-1","host":"lon-1.uk.uncletopia.com","port":27015,"enabled":true,"region":"eu","cc":"gb","latitude":51.509865,"longitude":-0.118092,"reserved":0,"last_update":"0001-01-01T00:00:00Z","name_a2s":"Uncletopia | London | 1 | All Maps","protocol":17,"map":"cp_process_final","folder":"tf","game":"Team Fortress","app_id":440,"player_count":0,"max_players":24,"Bots":0,"server_type":"Dedicated","server_os":"Linux","password":true,"vac":true,"version":"7882260","steam_id":85568392924367362,"keywords":["cp","nocrits","nodmgspread","uncletopia"],"game_id":440,"stv_port":27016,"stv_name":"Uncletopia | London | 1 | All Maps | STV","players":null},{"server_id":114,"name":"Uncletopia | London | 2 | All Maps","name_short":"lon-2","host":"lon-1.uk.uncletopia.com","port":27025,"enabled":true,"region":"eu","cc":"gb","latitude":51.509865,"longitude":-0.118092,"reserved":0,"last_update":"0001-01-01T00:00:00Z","name_a2s":"Uncletopia | London | 2 | All Maps","protocol":17,"map":"pl_swiftwater_final1","folder":"tf","game":"Team Fortress","app_id":440,"player_count":0,"max_players":24,"Bots":0,"server_type":"Dedicated","server_os":"Linux","password":true,"vac":true,"version":"7882260","steam_id":85568392924470941,"keywords":["nocrits","nodmgspread","payload","uncletopia"],"game_id":440,"stv_port":27026,"stv_name":"Uncletopia | London | 2 | All Maps | STV","players":null},{"server_id":320,"name":"Uncletopia | London | 3 | All Maps","name_short":"lon-3","host":"lon-1.uk.uncletopia.com","port":27035,"enabled":true,"region":"eu","cc":"gb","latitude":51.509865,"longitude":-0.118092,"reserved":0,"last_update":"0001-01-01T00:00:00Z","name_a2s":"Uncletopia | London | 3 | All Maps","protocol":17,"map":"koth_highpass","folder":"tf","game":"Team Fortress","app_id":440,"player_count":0,"max_players":24,"Bots":0,"server_type":"Dedicated","server_os":"Linux","password":true,"vac":true,"version":"7882260","steam_id":85568392924510192,"keywords":["cp","nocrits","nodmgspread","uncletopia"],"game_id":440,"stv_port":27036,"stv_name":"Uncletopia | London | 3 | All Maps | STV","players":null},{"server_id":321,"name":"Uncletopia | London | 4 | All Maps","name_short":"lon-4","host":"lon-1.uk.uncletopia.com","port":27045,"enabled":true,"region":"eu","cc":"gb","latitude":51.509865,"longitude":-0.118092,"reserved":0,"last_update":"0001-01-01T00:00:00Z","name_a2s":"Uncletopia | London | 4 | All Maps","protocol":17,"map":"pl_upward","folder":"tf","game":"Team Fortress","app_id":440,"player_count":1,"max_players":24,"Bots":0,"server_type":"Dedicated","server_os":"Linux","password":true,"vac":true,"version":"7882260","steam_id":85568392924510193,"keywords":["nocrits","nodmgspread","payload","uncletopia"],"game_id":440,"stv_port":27046,"stv_name":"Uncletopia | London | 4 | All Maps | STV","players":[{"user_id":3,"name":"Marcus","steam_id":76561198205027963,"connected_time":217000000000,"state":"active","ping":55}]},{"server_id":21,"name":"Uncletopia | London | 5 | All Maps","name_short":"lon-5","host":"lon-1.uk.uncletopia.com","port":27055,"enabled":true,"region":"eu","cc":"gb","latitude":51.509865,"longitude":-0.118092,"reserved":0,"last_update":"0001-01-01T00:00:00Z","name_a2s":"Uncletopia | London | 5 | All Maps","protocol":17,"map":"pl_frontier_final","folder":"tf","game":"Team Fortress","app_id":440,"player_count":0,"max_players":24,"Bots":0,"server_type":"Dedicated","server_os":"Linux","password":true,"vac":true,"version":"7882260","steam_id":85568392924742829,"keywords":["nocrits","nodmgspread","payload","uncletopia"],"game_id":440,"stv_port":27056,"stv_name":"Uncletopia | London | 5 | All Maps | STV","players":null},{"server_id":22,"name":"Uncletopia | London | 6 | All Maps","name_short":"lon-6","host":"lon-1.uk.uncletopia.com","port":27065,"enabled":true,"region":"eu","cc":"gb","latitude":51.509865,"longitude":-0.118092,"reserved":0,"last_update":"0001-01-01T00:00:00Z","name_a2s":"Uncletopia | London | 6 | All Maps","protocol":17,"map":"cp_altitude","folder":"tf","game":"Team Fortress","app_id":440,"player_count":0,"max_players":24,"Bots":0,"server_type":"Dedicated","server_os":"Linux","password":true,"vac":true,"version":"7882260","steam_id":85568392924742830,"keywords":["cp","nocrits","nodmgspread","uncletopia"],"game_id":440,"stv_port":27066,"stv_name":"Uncletopia | London | 6 | All Maps | STV","players":null},{"server_id":40,"name":"Uncletopia | London | 7 | No Payload","name_short":"lon-7","host":"lon-1.uk.uncletopia.com","port":27075,"enabled":true,"region":"eu","cc":"gb","latitude":51.509865,"longitude":-0.118092,"reserved":0,"last_update":"0001-01-01T00:00:00Z","name_a2s":"Uncletopia | London | 7 | No Payload","protocol":17,"map":"pl_pier","folder":"tf","game":"Team Fortress","app_id":440,"player_count":0,"max_players":24,"Bots":0,"server_type":"Dedicated","server_os":"Linux","password":true,"vac":true,"version":"7882260","steam_id":85568392924964314,"keywords":["nocrits","nodmgspread","payload","uncletopia"],"game_id":440,"stv_port":27076,"stv_name":"Uncletopia | London | 7 | No Payload | STV","players":null},{"server_id":41,"name":"Uncletopia | London | 8 | Community","name_short":"lon-8","host":"lon-1.uk.uncletopia.com","port":27085,"enabled":true,"region":"eu","cc":"gb","latitude":51.509865,"longitude":-0.118092,"reserved":0,"last_update":"0001-01-01T00:00:00Z","name_a2s":"Uncletopia | London | 8 | Community","protocol":17,"map":"pl_swiftwater_final1","folder":"tf","game":"Team Fortress","app_id":440,"player_count":0,"max_players":24,"Bots":0,"server_type":"Dedicated","server_os":"Linux","password":true,"vac":true,"version":"7882260","steam_id":85568392924964315,"keywords":["nocrits","nodmgspread","payload","uncletopia"],"game_id":440,"stv_port":27086,"stv_name":"Uncletopia | London | 8 | Community | STV","players":null},{"server_id":300,"name":"Uncletopia | Montréal | 1 | All Maps","name_short":"mtl-1","host":"mtl-1.ca.uncletopia.com","port":27015,"enabled":true,"region":"us-east","cc":"ca","latitude":45.50889,"longitude":-73.56167,"reserved":0,"last_update":"0001-01-01T00:00:00Z","name_a2s":"Uncletopia | Montréal | 1 | All Maps","protocol":17,"map":"cp_snakewater_final1","folder":"tf","game":"Team Fortress","app_id":440,"player_count":0,"max_players":24,"Bots":0,"server_type":"Dedicated","server_os":"Linux","password":true,"vac":true,"version":"7882260","steam_id":85568392924500087,"keywords":["cp","nocrits","nodmgspread","uncletopia"],"game_id":440,"stv_port":27016,"stv_name":"Uncletopia | Montréal | 1 | All Maps | STV","players":null},{"server_id":301,"name":"Uncletopia | Montréal | 2 | All Maps","name_short":"mtl-2","host":"mtl-1.ca.uncletopia.com","port":27025,"enabled":true,"region":"us-east","cc":"ca","latitude":45.50889,"longitude":-73.56167,"reserved":0,"last_update":"0001-01-01T00:00:00Z","name_a2s":"Uncletopia | Montréal | 2 | All Maps","protocol":17,"map":"koth_highpass","folder":"tf","game":"Team Fortress","app_id":440,"player_count":0,"max_players":24,"Bots":0,"server_type":"Dedicated","server_os":"Linux","password":true,"vac":true,"version":"7882260","steam_id":85568392924500088,"keywords":["cp","nocrits","nodmgspread","uncletopia"],"game_id":440,"stv_port":27026,"stv_name":"Uncletopia | Montréal | 2 | All Maps | STV","players":null},{"server_id":302,"name":"Uncletopia | Montréal | 3 | All Maps","name_short":"mtl-3","host":"mtl-1.ca.uncletopia.com","port":27035,"enabled":true,"region":"us-east","cc":"ca","latitude":45.50889,"longitude":-73.56167,"reserved":0,"last_update":"0001-01-01T00:00:00Z","name_a2s":"Uncletopia | Montréal | 3 | All Maps","protocol":17,"map":"cp_snakewater_final1","folder":"tf","game":"Team Fortress","app_id":440,"player_count":0,"max_players":24,"Bots":0,"server_type":"Dedicated","server_os":"Linux","password":true,"vac":true,"version":"7882260","steam_id":85568392924500089,"keywords":["cp","nocrits","nodmgspread","uncletopia"],"game_id":440,"stv_port":27036,"stv_name":"Uncletopia | Montréal | 3 | All Maps | STV","players":null},{"server_id":303,"name":"Uncletopia | Montréal | 4 | No Payload","name_short":"mtl-4","host":"mtl-1.ca.uncletopia.com","port":27045,"enabled":true,"region":"us-east","cc":"ca","latitude":45.50889,"longitude":-73.56167,"reserved":0,"last_update":"0001-01-01T00:00:00Z","name_a2s":"Uncletopia | Montréal | 4 | No Payload","protocol":17,"map":"plr_pipeline","folder":"tf","game":"Team Fortress","app_id":440,"player_count":0,"max_players":24,"Bots":0,"server_type":"Dedicated","server_os":"Linux","password":true,"vac":true,"version":"7882260","steam_id":85568392924500090,"keywords":["nocrits","nodmgspread","payload","uncletopia"],"game_id":440,"stv_port":27046,"stv_name":"Uncletopia | Montréal | 4 | No Payload | STV","players":null},{"server_id":13,"name":"Uncletopia | New York City | 1 | All Maps","name_short":"nyc-1","host":"nyc-1.us.uncletopia.com","port":27015,"enabled":true,"region":"us-east","cc":"us","latitude":40.73061,"longitude":-73.93524,"reserved":0,"last_update":"0001-01-01T00:00:00Z","name_a2s":"Uncletopia | New York City | 1 | All Maps","protocol":17,"map":"pl_badwater","folder":"tf","game":"Team Fortress","app_id":440,"player_count":24,"max_players":24,"Bots":0,"server_type":"Dedicated","server_os":"Linux","password":true,"vac":true,"version":"7882260","steam_id":85568392924469993,"keywords":["nocrits","nodmgspread","payload","uncletopia"],"game_id":440,"stv_port":27016,"stv_name":"Uncletopia | New York City | 1 | All Maps | STV","players":[{"user_id":666,"name":"Ivyprophen","steam_id":76561198096893644,"connected_time":1270000000000,"state":"active","ping":85},{"user_id":652,"name":"kbsfnk","steam_id":76561198036884600,"connected_time":1884000000000,"state":"active","ping":58},{"user_id":632,"name":"TJGSASQUATCH","steam_id":76561198077806921,"connected_time":3989000000000,"state":"active","ping":70},{"user_id":663,"name":"Wang of Wall St","steam_id":76561198047460598,"connected_time":1370000000000,"state":"active","ping":58},{"user_id":655,"name":"Firecrotch Fredo","steam_id":76561198099658220,"connected_time":1861000000000,"state":"active","ping":70},{"user_id":656,"name":"Logic is a Good Rapper","steam_id":76561198976821898,"connected_time":1852000000000,"state":"active","ping":120},{"user_id":657,"name":"JoJoJo","steam_id":76561198067153390,"connected_time":1838000000000,"state":"active","ping":71},{"user_id":678,"name":"Super63","steam_id":76561197981504131,"connected_time":194000000000,"state":"active","ping":53},{"user_id":669,"name":"GoldtoothFour","steam_id":76561198055529332,"connected_time":1231000000000,"state":"active","ping":71},{"user_id":673,"name":"Pixel","steam_id":76561198129243055,"connected_time":926000000000,"state":"active","ping":60},{"user_id":642,"name":"Falk","steam_id":76561198117024236,"connected_time":3155000000000,"state":"active","ping":63},{"user_id":679,"name":"Raikujo","steam_id":76561197972778707,"connected_time":150000000000,"state":"active","ping":46},{"user_id":610,"name":"Ludcmorais","steam_id":76561198359217809,"connected_time":5608000000000,"state":"active","ping":167},{"user_id":668,"name":"blythe","steam_id":76561198254999149,"connected_time":1259000000000,"state":"active","ping":65},{"user_id":670,"name":"Artic_Ryuu","steam_id":76561198182194918,"connected_time":1167000000000,"state":"active","ping":100},{"user_id":674,"name":"Bulletmancer","steam_id":76561199012973315,"connected_time":647000000000,"state":"active","ping":73},{"user_id":570,"name":"JD","steam_id":76561198202669250,"connected_time":8780000000000,"state":"active","ping":67},{"user_id":648,"name":"BannerSiamang15","steam_id":76561198990892565,"connected_time":2552000000000,"state":"active","ping":92},{"user_id":659,"name":"Juno","steam_id":76561198042417277,"connected_time":1766000000000,"state":"active","ping":80},{"user_id":677,"name":"Paulypicture42","steam_id":76561199122494395,"connected_time":219000000000,"state":"active","ping":76},{"user_id":680,"name":"Apple Crisp","steam_id":76561198129518886,"connected_time":142000000000,"state":"active","ping":88},{"user_id":672,"name":"Grease Monkey","steam_id":76561199073112578,"connected_time":1033000000000,"state":"active","ping":67},{"user_id":631,"name":"big kahuna dynamite splash","steam_id":76561198094486651,"connected_time":4067000000000,"state":"active","ping":70},{"user_id":676,"name":"Dezorbo","steam_id":76561197971883897,"connected_time":223000000000,"state":"active","ping":66}]},{"server_id":14,"name":"Uncletopia | New York City | 2 | All Maps","name_short":"nyc-2","host":"nyc-1.us.uncletopia.com","port":27025,"enabled":true,"region":"us-east","cc":"us","latitude":40.73061,"longitude":-73.93524,"reserved":0,"last_update":"0001-01-01T00:00:00Z","name_a2s":"Uncletopia | New York City | 2 | All Maps","protocol":17,"map":"pl_swiftwater_final1","folder":"tf","game":"Team Fortress","app_id":440,"player_count":0,"max_players":24,"Bots":0,"server_type":"Dedicated","server_os":"Linux","password":true,"vac":true,"version":"7882260","steam_id":85568392924469994,"keywords":["nocrits","nodmgspread","payload","uncletopia"],"game_id":440,"stv_port":27026,"stv_name":"Uncletopia | New York City | 2 | All Maps | STV","players":null},{"server_id":15,"name":"Uncletopia | New York City | 3 | Stopwatch Beta","name_short":"nyc-3","host":"nyc-1.us.uncletopia.com","port":27035,"enabled":true,"region":"us-east","cc":"us","latitude":40.73061,"longitude":-73.93524,"reserved":0,"last_update":"0001-01-01T00:00:00Z","name_a2s":"Uncletopia | New York City | 3 | Stopwatch Beta","protocol":17,"map":"workshop/koth_product_final.ugc454272353","folder":"tf","game":"Team Fortress","app_id":440,"player_count":0,"max_players":24,"Bots":0,"server_type":"Dedicated","server_os":"Linux","password":true,"vac":true,"version":"7882260","steam_id":85568392924742820,"keywords":["cp","nocrits","nodmgspread","uncletopia"],"game_id":440,"stv_port":27036,"stv_name":"Uncletopia | New York City | 3 | Stopwatch Beta | STV","players":null},{"server_id":16,"name":"Uncletopia | New York City | 4 | Community","name_short":"nyc-4","host":"nyc-1.us.uncletopia.com","port":27045,"enabled":true,"region":"us-east","cc":"us","latitude":40.73061,"longitude":-73.93524,"reserved":0,"last_update":"0001-01-01T00:00:00Z","name_a2s":"Uncletopia | New York City | 4 | Community","protocol":17,"map":"workshop/cp_snowbase_b18.ugc2081770490","folder":"tf","game":"Team Fortress","app_id":440,"player_count":0,"max_players":24,"Bots":0,"server_type":"Dedicated","server_os":"Linux","password":true,"vac":true,"version":"7882260","steam_id":85568392924742821,"keywords":["cp","nocrits","nodmgspread","uncletopia"],"game_id":440,"stv_port":27046,"stv_name":"Uncletopia | New York City | 4 | Community | STV","players":null},{"server_id":142,"name":"Uncletopia | São Paulo | 1 | All Maps","name_short":"sao-1","host":"sao-1.br.uncletopia.com","port":27015,"enabled":true,"region":"sa","cc":"br","latitude":-23.533773,"longitude":-46.62529,"reserved":0,"last_update":"0001-01-01T00:00:00Z","name_a2s":"Uncletopia | São Paulo | 1 | All Maps","protocol":17,"map":"koth_highpass","folder":"tf","game":"Team Fortress","app_id":440,"player_count":0,"max_players":24,"Bots":0,"server_type":"Dedicated","server_os":"Linux","password":true,"vac":true,"version":"7882260","steam_id":85568392924469996,"keywords":["cp","nocrits","nodmgspread","uncletopia"],"game_id":440,"stv_port":27016,"stv_name":"Uncletopia | São Paulo | 1 | All Maps | STV","players":null},{"server_id":143,"name":"Uncletopia | São Paulo | 2 | All Maps","name_short":"sao-2","host":"sao-2.br.uncletopia.com","port":27015,"enabled":true,"region":"sa","cc":"br","latitude":-23.533773,"longitude":-46.62529,"reserved":0,"last_update":"0001-01-01T00:00:00Z","name_a2s":"Uncletopia | São Paulo | 2 | All Maps","protocol":17,"map":"koth_cascade","folder":"tf","game":"Team Fortress","app_id":440,"player_count":0,"max_players":24,"Bots":0,"server_type":"Dedicated","server_os":"Linux","password":true,"vac":true,"version":"7882260","steam_id":85568392924485349,"keywords":["cp","nocrits","nodmgspread","uncletopia"],"game_id":440,"stv_port":27016,"stv_name":"Uncletopia | São Paulo | 2 | All Maps | STV","players":null},{"server_id":7,"name":"Uncletopia | Seattle | 1 | All Maps","name_short":"sea-1","host":"sea-1.us.uncletopia.com","port":27015,"enabled":true,"region":"us-west","cc":"us","latitude":47.608013,"longitude":-122.33517,"reserved":0,"last_update":"0001-01-01T00:00:00Z","name_a2s":"Uncletopia | Seattle | 1 | All Maps","protocol":17,"map":"pl_pier","folder":"tf","game":"Team Fortress","app_id":440,"player_count":24,"max_players":24,"Bots":0,"server_type":"Dedicated","server_os":"Linux","password":true,"vac":true,"version":"7882260","steam_id":85568392924469997,"keywords":["nocrits","nodmgspread","payload","uncletopia"],"game_id":440,"stv_port":27016,"stv_name":"Uncletopia | Seattle | 1 | All Maps | STV","players":[{"user_id":646,"name":"PachucoWaffle","steam_id":76561198051491032,"connected_time":10697000000000,"state":"active","ping":55},{"user_id":677,"name":"forest (girldick)","steam_id":76561198157960257,"connected_time":7667000000000,"state":"active","ping":40},{"user_id":717,"name":"spenca","steam_id":76561198025371154,"connected_time":2976000000000,"state":"active","ping":70},{"user_id":742,"name":"gwy","steam_id":76561198277458653,"connected_time":1122000000000,"state":"active","ping":37},{"user_id":743,"name":"Bald Rice","steam_id":76561199019142767,"connected_time":1120000000000,"state":"active","ping":59},{"user_id":738,"name":"BigGoose","steam_id":76561198833281392,"connected_time":1149000000000,"state":"active","ping":101},{"user_id":722,"name":"Mr. Ravioli","steam_id":76561197996625649,"connected_time":2919000000000,"state":"active","ping":57},{"user_id":701,"name":"profile name","steam_id":76561198032625036,"connected_time":5008000000000,"state":"active","ping":60},{"user_id":721,"name":"Dealer","steam_id":76561198801450794,"connected_time":2933000000000,"state":"active","ping":99},{"user_id":748,"name":"exephur","steam_id":76561198135763234,"connected_time":489000000000,"state":"active","ping":67},{"user_id":740,"name":"Sniff","steam_id":76561198010270922,"connected_time":1148000000000,"state":"active","ping":44},{"user_id":749,"name":"||BassMan||","steam_id":76561198279865229,"connected_time":271000000000,"state":"active","ping":97},{"user_id":718,"name":"Mitch McHoover","steam_id":76561198178827614,"connected_time":2950000000000,"state":"active","ping":64},{"user_id":744,"name":"Sadodere Grimace","steam_id":76561198008332028,"connected_time":1107000000000,"state":"active","ping":143},{"user_id":745,"name":"Deathmagus","steam_id":76561198004626117,"connected_time":1080000000000,"state":"active","ping":54},{"user_id":750,"name":"strbry","steam_id":76561198155133601,"connected_time":95000000000,"state":"active","ping":57},{"user_id":729,"name":"rat gets the cheese","steam_id":76561198031234032,"connected_time":2153000000000,"state":"active","ping":106},{"user_id":724,"name":"Monsieur Pequeño","steam_id":76561198327271041,"connected_time":2861000000000,"state":"active","ping":50},{"user_id":739,"name":"An Old Lady","steam_id":76561198047480318,"connected_time":1149000000000,"state":"active","ping":80},{"user_id":733,"name":"The Super Mario Bros. Movie","steam_id":76561198871692156,"connected_time":1929000000000,"state":"active","ping":55},{"user_id":731,"name":"Ayayayayayahuasca","steam_id":76561199002906056,"connected_time":2084000000000,"state":"active","ping":56},{"user_id":693,"name":"Cream Corn","steam_id":76561198043791586,"connected_time":6147000000000,"state":"active","ping":108},{"user_id":747,"name":"WaffleWithNoToppings","steam_id":76561199088280111,"connected_time":505000000000,"state":"active","ping":46},{"user_id":698,"name":"NEBULA","steam_id":76561198086878595,"connected_time":5311000000000,"state":"active","ping":76}]},{"server_id":119,"name":"Uncletopia | Seattle | 2 | All Maps","name_short":"sea-2","host":"sea-1.us.uncletopia.com","port":27025,"enabled":true,"region":"us-west","cc":"us","latitude":47.608013,"longitude":-122.33517,"reserved":0,"last_update":"0001-01-01T00:00:00Z","name_a2s":"Uncletopia | Seattle | 2 | All Maps","protocol":17,"map":"pl_upward","folder":"tf","game":"Team Fortress","app_id":440,"player_count":24,"max_players":24,"Bots":0,"server_type":"Dedicated","server_os":"Linux","password":true,"vac":true,"version":"7882260","steam_id":85568392924469998,"keywords":["nocrits","nodmgspread","payload","uncletopia"],"game_id":440,"stv_port":27026,"stv_name":"Uncletopia | Seattle | 2 | All Maps | STV","players":[{"user_id":690,"name":"Empty","steam_id":76561198289696924,"connected_time":386000000000,"state":"active","ping":85},{"user_id":637,"name":"Ping","steam_id":76561198072947773,"connected_time":4651000000000,"state":"active","ping":110},{"user_id":675,"name":"rorywashere /ᐠ - ˕ -マ Ⳋ","steam_id":76561198065825165,"connected_time":1492000000000,"state":"active","ping":102},{"user_id":683,"name":"mega","steam_id":76561198089520959,"connected_time":851000000000,"state":"active","ping":94},{"user_id":687,"name":"Chocc","steam_id":76561198068070211,"connected_time":739000000000,"state":"active","ping":89},{"user_id":590,"name":"Battery Acid Slurper","steam_id":76561198439793697,"connected_time":6957000000000,"state":"active","ping":103},{"user_id":657,"name":"MyMonkeyBaby","steam_id":76561198046896670,"connected_time":3541000000000,"state":"active","ping":60},{"user_id":686,"name":"oil","steam_id":76561198099980149,"connected_time":798000000000,"state":"active","ping":79},{"user_id":679,"name":"Beautiful bastard","steam_id":76561198858700490,"connected_time":993000000000,"state":"active","ping":106},{"user_id":680,"name":"benji","steam_id":76561198084417967,"connected_time":940000000000,"state":"active","ping":71},{"user_id":694,"name":"cowgirl_up rodney bling","steam_id":76561198136535844,"connected_time":134000000000,"state":"active","ping":58},{"user_id":669,"name":"Jones","steam_id":76561198046037216,"connected_time":1854000000000,"state":"active","ping":82},{"user_id":655,"name":"Rusty","steam_id":76561198055585129,"connected_time":3702000000000,"state":"active","ping":49},{"user_id":609,"name":"fucking batman","steam_id":76561198419896433,"connected_time":5592000000000,"state":"active","ping":37},{"user_id":684,"name":"Monty","steam_id":76561197993567253,"connected_time":817000000000,"state":"active","ping":54},{"user_id":682,"name":"Cr0w!","steam_id":76561198178437265,"connected_time":934000000000,"state":"active","ping":55},{"user_id":672,"name":"SvicidalBug","steam_id":76561198221390504,"connected_time":1755000000000,"state":"active","ping":66},{"user_id":654,"name":"no vc no c","steam_id":76561197989503095,"connected_time":3892000000000,"state":"active","ping":156},{"user_id":658,"name":"General Fisticuffs","steam_id":76561198255721392,"connected_time":3282000000000,"state":"active","ping":117},{"user_id":673,"name":"Thundalife","steam_id":76561198254523198,"connected_time":1632000000000,"state":"active","ping":55},{"user_id":639,"name":"DanceBunny","steam_id":76561198243610560,"connected_time":4567000000000,"state":"active","ping":82},{"user_id":689,"name":"FD0XY","steam_id":76561198862653083,"connected_time":467000000000,"state":"active","ping":44},{"user_id":688,"name":"cornealvase9152","steam_id":76561198851958868,"connected_time":721000000000,"state":"active","ping":67},{"user_id":677,"name":"jorts","steam_id":76561199041179985,"connected_time":1441000000000,"state":"active","ping":67}]},{"server_id":406,"name":"Uncletopia | Seattle | 3 | Stopwatch Beta","name_short":"sea-3","host":"sea-1.us.uncletopia.com","port":27035,"enabled":true,"region":"us-west","cc":"us","latitude":47.608013,"longitude":-122.33517,"reserved":0,"last_update":"0001-01-01T00:00:00Z","name_a2s":"Uncletopia | Seattle | 3 | Stopwatch Beta","protocol":17,"map":"workshop/pl_vigil_rc9.ugc1266210012","folder":"tf","game":"Team Fortress","app_id":440,"player_count":21,"max_players":24,"Bots":0,"server_type":"Dedicated","server_os":"Linux","password":true,"vac":true,"version":"7882260","steam_id":85568392924515217,"keywords":["nocrits","nodmgspread","payload","uncletopia"],"game_id":440,"stv_port":27036,"stv_name":"Uncletopia | Seattle | 3 | Stopwatch Beta | STV","players":[{"user_id":116,"name":"mafia is mafia","steam_id":76561198042574722,"connected_time":2919000000000,"state":"active","ping":53},{"user_id":152,"name":"Crustacean Daddy","steam_id":76561198993807061,"connected_time":420000000000,"state":"active","ping":75},{"user_id":157,"name":"not goob","steam_id":76561198445025050,"connected_time":99000000000,"state":"active","ping":106},{"user_id":32,"name":"Sleempreem","steam_id":76561198131987251,"connected_time":9064000000000,"state":"active","ping":61},{"user_id":158,"name":"big fish","steam_id":76561198186479818,"connected_time":93000000000,"state":"active","ping":84},{"user_id":129,"name":"samantha","steam_id":76561198049258493,"connected_time":1818000000000,"state":"active","ping":47},{"user_id":159,"name":"st4rb0y^*","steam_id":76561198337487263,"connected_time":7000000000,"state":"spawning","ping":104},{"user_id":138,"name":"mike, freshly circed","steam_id":76561198225411004,"connected_time":1289000000000,"state":"active","ping":62},{"user_id":144,"name":"𝕮𝖆𝖒𝖊𝖗𝖔𝖓 \ufffd\ufffd","steam_id":76561198045826628,"connected_time":875000000000,"state":"active","ping":81},{"user_id":160,"name":"Trash Rummager","steam_id":76561198085388962,"connected_time":7000000000,"state":"spawning","ping":78},{"user_id":149,"name":"Dr. Milker [CASHING OUT BP]","steam_id":76561198068516964,"connected_time":618000000000,"state":"active","ping":63},{"user_id":147,"name":"Cypress [ +/- ] ✔","steam_id":76561198067164431,"connected_time":674000000000,"state":"active","ping":63},{"user_id":154,"name":"Jomdac","steam_id":76561198150447896,"connected_time":287000000000,"state":"active","ping":84},{"user_id":135,"name":"zonemaster95","steam_id":76561198072572032,"connected_time":1556000000000,"state":"active","ping":71},{"user_id":137,"name":"louie, engineer main","steam_id":76561198168084763,"connected_time":1458000000000,"state":"active","ping":45},{"user_id":108,"name":"Peter, what are you doing?","steam_id":76561198066452726,"connected_time":3916000000000,"state":"active","ping":77},{"user_id":155,"name":"epicgameslauncherplaer878","steam_id":76561198360279519,"connected_time":247000000000,"state":"active","ping":121},{"user_id":148,"name":"ArchmageF","steam_id":76561197992246851,"connected_time":670000000000,"state":"active","ping":53},{"user_id":56,"name":"Fluffy","steam_id":76561198213561811,"connected_time":7203000000000,"state":"active","ping":69},{"user_id":150,"name":"salarua (he/him)","steam_id":76561199016501570,"connected_time":610000000000,"state":"active","ping":62},{"user_id":156,"name":"AirFryerBuyOneGetOneFree","steam_id":76561198043572048,"connected_time":200000000000,"state":"active","ping":120}]},{"server_id":17,"name":"Uncletopia | San Francisco | 1 | All Maps","name_short":"sfo-1","host":"sfo-1.us.uncletopia.com","port":27015,"enabled":true,"region":"us-west","cc":"us","latitude":37.77397,"longitude":-122.4313,"reserved":0,"last_update":"0001-01-01T00:00:00Z","name_a2s":"Uncletopia | San Francisco | 1 | All Maps","protocol":17,"map":"cp_process_final","folder":"tf","game":"Team Fortress","app_id":440,"player_count":0,"max_players":24,"Bots":0,"server_type":"Dedicated","server_os":"Linux","password":true,"vac":true,"version":"7757534","steam_id":85568392924469999,"keywords":["cp","nocrits","nodmgspread","uncletopia"],"game_id":440,"stv_port":27016,"stv_name":"Uncletopia | San Francisco | 1 | All Maps | STV","players":null},{"server_id":18,"name":"Uncletopia | San Francisco | 2 | All Maps","name_short":"sfo-2","host":"sfo-1.us.uncletopia.com","port":27025,"enabled":true,"region":"us-west","cc":"us","latitude":37.77397,"longitude":-122.4313,"reserved":0,"last_update":"0001-01-01T00:00:00Z","name_a2s":"Uncletopia | San Francisco | 2 | All Maps","protocol":17,"map":"koth_highpass","folder":"tf","game":"Team Fortress","app_id":440,"player_count":0,"max_players":24,"Bots":0,"server_type":"Dedicated","server_os":"Linux","password":true,"vac":true,"version":"7757534","steam_id":85568392924470000,"keywords":["cp","nocrits","nodmgspread","uncletopia"],"game_id":440,"stv_port":27026,"stv_name":"Uncletopia | San Francisco | 2 | All Maps | STV","players":null},{"server_id":19,"name":"Uncletopia | San Francisco | 3 | Stopwatch Beta","name_short":"sfo-3","host":"sfo-1.us.uncletopia.com","port":27035,"enabled":true,"region":"us-west","cc":"us","latitude":37.77397,"longitude":-122.4313,"reserved":0,"last_update":"0001-01-01T00:00:00Z","name_a2s":"Uncletopia | San Francisco | 3 | Stopwatch Beta","protocol":17,"map":"koth_lakeside_final","folder":"tf","game":"Team Fortress","app_id":440,"player_count":0,"max_players":24,"Bots":0,"server_type":"Dedicated","server_os":"Linux","password":true,"vac":true,"version":"7757534","steam_id":85568392924742824,"keywords":["cp","nocrits","nodmgspread","uncletopia"],"game_id":440,"stv_port":27036,"stv_name":"Uncletopia | San Francisco | 3 | Stopwatch Beta | STV","players":null},{"server_id":20,"name":"Uncletopia | San Francisco | 4 | Community","name_short":"sfo-4","host":"sfo-1.us.uncletopia.com","port":27045,"enabled":true,"region":"us-west","cc":"us","latitude":37.77397,"longitude":-122.4313,"reserved":0,"last_update":"0001-01-01T00:00:00Z","name_a2s":"Uncletopia | San Francisco | 4 | Community","protocol":17,"map":"cp_altitude","folder":"tf","game":"Team Fortress","app_id":440,"player_count":0,"max_players":24,"Bots":0,"server_type":"Dedicated","server_os":"Linux","password":true,"vac":true,"version":"7757534","steam_id":85568392924742826,"keywords":["cp","nocrits","nodmgspread","uncletopia"],"game_id":440,"stv_port":27046,"stv_name":"Uncletopia | San Francisco | 4 | Community | STV","players":null},{"server_id":141,"name":"Uncletopia | Sydney | 1 | All Maps","name_short":"syd-1","host":"syd-1.au.uncletopia.com","port":27015,"enabled":true,"region":"au","cc":"au","latitude":-33.865143,"longitude":151.2099,"reserved":0,"last_update":"0001-01-01T00:00:00Z","name_a2s":"Uncletopia | Sydney | 1 | All Maps","protocol":17,"map":"koth_viaduct","folder":"tf","game":"Team Fortress","app_id":440,"player_count":0,"max_players":24,"Bots":0,"server_type":"Dedicated","server_os":"Linux","password":true,"vac":true,"version":"7882260","steam_id":85568392924470001,"keywords":["cp","nocrits","nodmgspread","uncletopia"],"game_id":440,"stv_port":27016,"stv_name":"Uncletopia | Sydney | 1 | All Maps | STV","players":null},{"server_id":123,"name":"Uncletopia | Sydney | 2 | All Maps","name_short":"syd-2","host":"syd-1.au.uncletopia.com","port":27025,"enabled":true,"region":"au","cc":"au","latitude":-33.865143,"longitude":151.2099,"reserved":0,"last_update":"0001-01-01T00:00:00Z","name_a2s":"Uncletopia | Sydney | 2 | All Maps","protocol":17,"map":"cp_snakewater_final1","folder":"tf","game":"Team Fortress","app_id":440,"player_count":0,"max_players":24,"Bots":0,"server_type":"Dedicated","server_os":"Linux","password":true,"vac":true,"version":"7882260","steam_id":85568392924470002,"keywords":["cp","nocrits","nodmgspread","uncletopia"],"game_id":440,"stv_port":27026,"stv_name":"Uncletopia | Sydney | 2 | All Maps | STV","players":null},{"server_id":395,"name":"Uncletopia | Sydney | 3 | All Maps","name_short":"syd-3","host":"syd-1.au.uncletopia.com","port":27035,"enabled":true,"region":"au","cc":"au","latitude":-33.865143,"longitude":151.2099,"reserved":0,"last_update":"0001-01-01T00:00:00Z","name_a2s":"Uncletopia | Sydney | 3 | All Maps","protocol":17,"map":"koth_cascade","folder":"tf","game":"Team Fortress","app_id":440,"player_count":0,"max_players":24,"Bots":0,"server_type":"Dedicated","server_os":"Linux","password":true,"vac":true,"version":"7882260","steam_id":85568392925194467,"keywords":["cp","nocrits","nodmgspread","uncletopia"],"game_id":440,"stv_port":27036,"stv_name":"Uncletopia | Sydney | 3 | All Maps | STV","players":null},{"server_id":396,"name":"Uncletopia | Sydney | 4 | All Maps","name_short":"syd-4","host":"syd-1.au.uncletopia.com","port":27045,"enabled":true,"region":"au","cc":"au","latitude":-33.865143,"longitude":151.2099,"reserved":0,"last_update":"0001-01-01T00:00:00Z","name_a2s":"Uncletopia | Sydney | 4 | All Maps","protocol":17,"map":"koth_cascade","folder":"tf","game":"Team Fortress","app_id":440,"player_count":0,"max_players":24,"Bots":0,"server_type":"Dedicated","server_os":"Linux","password":true,"vac":true,"version":"7882260","steam_id":85568392925397958,"keywords":["cp","nocrits","nodmgspread","uncletopia"],"game_id":440,"stv_port":27046,"stv_name":"Uncletopia | Sydney | 4 | All Maps | STV","players":null},{"server_id":58,"name":"Uncletopia | Sydney | 5 | Stopwatch Beta","name_short":"syd-5","host":"syd-1.au.uncletopia.com","port":27055,"enabled":true,"region":"au","cc":"au","latitude":-33.865143,"longitude":151.2099,"reserved":0,"last_update":"0001-01-01T00:00:00Z","name_a2s":"Uncletopia | Sydney | 5 | Stopwatch Beta","protocol":17,"map":"pl_swiftwater_final1","folder":"tf","game":"Team Fortress","app_id":440,"player_count":0,"max_players":24,"Bots":0,"server_type":"Dedicated","server_os":"Linux","password":true,"vac":true,"version":"7882260","steam_id":85568392925397959,"keywords":["nocrits","nodmgspread","payload","uncletopia"],"game_id":440,"stv_port":27056,"stv_name":"Uncletopia | Sydney | 5 | Stopwatch Beta | STV","players":null},{"server_id":59,"name":"Uncletopia | Sydney | 6 | Community","name_short":"syd-6","host":"syd-1.au.uncletopia.com","port":27065,"enabled":true,"region":"au","cc":"au","latitude":-33.865143,"longitude":151.2099,"reserved":0,"last_update":"0001-01-01T00:00:00Z","name_a2s":"Uncletopia | Sydney | 6 | Community","protocol":17,"map":"pl_snowycoast","folder":"tf","game":"Team Fortress","app_id":440,"player_count":0,"max_players":24,"Bots":0,"server_type":"Dedicated","server_os":"Linux","password":true,"vac":true,"version":"7882260","steam_id":85568392925397960,"keywords":["nocrits","nodmgspread","payload","uncletopia"],"game_id":440,"stv_port":27066,"stv_name":"Uncletopia | Sydney | 6 | Community | STV","players":null},{"server_id":49,"name":"Uncletopia | Warsaw | 1 | All Maps","name_short":"waw-1","host":"waw-1.pl.uncletopia.com","port":27015,"enabled":true,"region":"eu","cc":"pl","latitude":52.2297,"longitude":21.017532,"reserved":0,"last_update":"0001-01-01T00:00:00Z","name_a2s":"","protocol":0,"map":"","folder":"","game":"","app_id":0,"player_count":0,"max_players":0,"Bots":0,"server_type":"","server_os":"","password":false,"vac":false,"version":"","steam_id":0,"keywords":null,"game_id":0,"stv_port":0,"stv_name":"","players":null},{"server_id":50,"name":"Uncletopia | Warsaw | 2 | All Maps","name_short":"waw-2","host":"waw-1.pl.uncletopia.com","port":27025,"enabled":true,"region":"eu","cc":"pl","latitude":52.2297,"longitude":21.017532,"reserved":0,"last_update":"0001-01-01T00:00:00Z","name_a2s":"Uncletopia | Warsaw | 2 | All Maps","protocol":17,"map":"pl_swiftwater_final1","folder":"tf","game":"Team Fortress","app_id":440,"player_count":0,"max_players":24,"Bots":0,"server_type":"Dedicated","server_os":"Linux","password":true,"vac":true,"version":"7882260","steam_id":85568392925397851,"keywords":["nocrits","nodmgspread","payload","uncletopia"],"game_id":440,"stv_port":27026,"stv_name":"Uncletopia | Warsaw | 2 | All Maps | STV","players":null},{"server_id":51,"name":"Uncletopia | Warsaw | 3 | All Maps","name_short":"waw-3","host":"waw-1.pl.uncletopia.com","port":27035,"enabled":true,"region":"eu","cc":"pl","latitude":52.2297,"longitude":21.017532,"reserved":0,"last_update":"0001-01-01T00:00:00Z","name_a2s":"Uncletopia | Warsaw | 3 | All Maps","protocol":17,"map":"koth_viaduct","folder":"tf","game":"Team Fortress","app_id":440,"player_count":0,"max_players":24,"Bots":0,"server_type":"Dedicated","server_os":"Linux","password":true,"vac":true,"version":"7882260","steam_id":85568392925397852,"keywords":["cp","nocrits","nodmgspread","uncletopia"],"game_id":440,"stv_port":27036,"stv_name":"Uncletopia | Warsaw | 3 | All Maps | STV","players":null},{"server_id":52,"name":"Uncletopia | Warsaw | 4 | All Maps","name_short":"waw-4","host":"waw-1.pl.uncletopia.com","port":27045,"enabled":true,"region":"eu","cc":"pl","latitude":52.2297,"longitude":21.017532,"reserved":0,"last_update":"0001-01-01T00:00:00Z","name_a2s":"Uncletopia | Warsaw | 4 | All Maps","protocol":17,"map":"koth_highpass","folder":"tf","game":"Team Fortress","app_id":440,"player_count":0,"max_players":24,"Bots":0,"server_type":"Dedicated","server_os":"Linux","password":true,"vac":true,"version":"7882260","steam_id":85568392925397853,"keywords":["cp","nocrits","nodmgspread","uncletopia"],"game_id":440,"stv_port":27046,"stv_name":"Uncletopia | Warsaw | 4 | All Maps | STV","players":null},{"server_id":53,"name":"Uncletopia | Warsaw | 5 | Stopwatch Beta","name_short":"waw-5","host":"waw-1.pl.uncletopia.com","port":27055,"enabled":true,"region":"eu","cc":"pl","latitude":52.2297,"longitude":21.017532,"reserved":0,"last_update":"0001-01-01T00:00:00Z","name_a2s":"Uncletopia | Warsaw | 5 | Stopwatch Beta","protocol":17,"map":"cp_mountainlab","folder":"tf","game":"Team Fortress","app_id":440,"player_count":0,"max_players":24,"Bots":0,"server_type":"Dedicated","server_os":"Linux","password":true,"vac":true,"version":"7882260","steam_id":85568392925397854,"keywords":["cp","nocrits","nodmgspread","uncletopia"],"game_id":440,"stv_port":27056,"stv_name":"Uncletopia | Warsaw | 5 | Stopwatch Beta | STV","players":null},{"server_id":54,"name":"Uncletopia | Warsaw | 6 | Community","name_short":"waw-6","host":"waw-1.pl.uncletopia.com","port":27065,"enabled":true,"region":"eu","cc":"pl","latitude":52.2297,"longitude":21.017532,"reserved":0,"last_update":"0001-01-01T00:00:00Z","name_a2s":"Uncletopia | Warsaw | 6 | Community","protocol":17,"map":"koth_viaduct","folder":"tf","game":"Team Fortress","app_id":440,"player_count":0,"max_players":24,"Bots":0,"server_type":"Dedicated","server_os":"Linux","password":true,"vac":true,"version":"7882260","steam_id":85568392925397856,"keywords":["cp","nocrits","nodmgspread","uncletopia"],"game_id":440,"stv_port":27066,"stv_name":"Uncletopia | Warsaw | 6 | Community | STV","players":null}]}