{"status":true,"message":"","result":[{"server_id":9,"name":"Uncletopia | Atlanta | 1 | All Maps","name_short":"atl-1","host":"atl-1.us.uncletopia.com","port":27015,"enabled":true,"region":"us-east","cc":"us","latitude":33.753746,"longitude":-84.38633,"reserved":0,"last_update":"0001-01-01T00:00:00Z","name_a2s":"Uncletopia | Atlanta | 1 | All Maps","protocol":17,"map":"koth_badlands","folder":"tf","game":"Team Fortress","app_id":440,"player_count":24,"max_players":24,"Bots":0,"server_type":"Dedicated","server_os":"Linux","password":true,"vac":true,"version":"7961495","steam_id":85568392924469982,"keywords":["cp","nocrits","nodmgspread","uncletopia"],"game_id":440,"stv_port":27016,"stv_name":"Uncletopia | Atlanta | 1 | All Maps | STV","players":[{"user_id":618,"name":"Wilma","steam_id":76561198138420251,"connected_time":1686000000000,"state":"active","ping":87},{"user_id":631,"name":"Tremore","steam_id":76561198114176976,"connected_time":1086000000000,"state":"active","ping":171},{"user_id":617,"name":"killeroverscore123","steam_id":76561199168131321,"connected_time":1779000000000,"state":"active","ping":88},{"user_id":632,"name":"Swifgz","steam_id":76561198162875756,"connected_time":888000000000,"state":"active","ping":63},{"user_id":590,"name":"tgirl swag","steam_id":76561198128164970,"connected_time":3599000000000,"state":"active","ping":105},{"user_id":634,"name":"Birthday Power","steam_id":76561197978508626,"connected_time":596000000000,"state":"active","ping":84},{"user_id":558,"name":"Squanchy","steam_id":76561198036319676,"connected_time":7267000000000,"state":"active","ping":45},{"user_id":621,"name":"Lunch Money Taker","steam_id":76561198358974675,"connected_time":1537000000000,"state":"active","ping":74},{"user_id":593,"name":"Chuckles","steam_id":76561198340110176,"connected_time":3537000000000,"state":"active","ping":79},{"user_id":638,"name":"Scorch_","steam_id":76561197977611078,"connected_time":184000000000,"state":"active","ping":65},{"user_id":615,"name":"MilliePop","steam_id":76561198146233078,"connected_time":1835000000000,"state":"active","ping":127},{"user_id":625,"name":"1000 Ping","steam_id":76561198098330939,"connected_time":1286000000000,"state":"active","ping":132},{"user_id":575,"name":"Under an Unquiet Skull","steam_id":76561198164782653,"connected_time":5026000000000,"state":"active","ping":75},{"user_id":635,"name":"FreshlyBrewed","steam_id":76561198181099881,"connected_time":392000000000,"state":"active","ping":102},{"user_id":627,"name":"Hey","steam_id":76561198447517893,"connected_time":1268000000000,"state":"active","ping":59},{"user_id":616,"name":"allahsdroptop (Bag/Chaser)","steam_id":76561198133195238,"connected_time":1812000000000,"state":"active","ping":111},{"user_id":628,"name":"Rafl","steam_id":76561198055222756,"connected_time":1196000000000,"state":"active","ping":59},{"user_id":599,"name":"Super Nae Nae Baby 2","steam_id":76561198141802482,"connected_time":3311000000000,"state":"active","ping":73},{"user_id":576,"name":"gerg","steam_id":76561197997127387,"connected_time":5024000000000,"state":"active","ping":103},{"user_id":629,"name":"ùíÜùíóùíäùíçArnoldGamingÔæ†","steam_id":76561198040140247,"connected_time":1190000000000,"state":"active","ping":100},{"user_id":633,"name":"GoldtoothFour","steam_id":76561198055529332,"connected_time":714000000000,"state":"active","ping":69},{"user_id":637,"name":"Hunterkio1222","steam_id":76561198240237672,"connected_time":258000000000,"state":"active","ping":72},{"user_id":609,"name":"Pete","steam_id":76561198044797506,"connected_time":2472000000000,"state":"active","ping":79},{"user_id":549,"name":"Grace","steam_id":76561199004825390,"connected_time":8581000000000,"state":"active","ping":121}]},{"server_id":104,"name":"Uncletopia | Atlanta | 2 | All Maps","name_short":"atl-2","host":"atl-1.us.uncletopia.com","port":27025,"enabled":true,"region":"us-east","cc":"us","latitude":33.753746,"longitude":-84.38633,"reserved":0,"last_update":"0001-01-01T00:00:00Z","name_a2s":"Uncletopia | Atlanta | 2 | All Maps","protocol":17,"map":"koth_cascade","folder":"tf","game":"Team Fortress","app_id":440,"player_count":0,"max_players":24,"Bots":0,"server_type":"Dedicated","server_os":"Linux","password":true,"vac":true,"version":"7961495","steam_id":85568392924469983,"keywords":["cp","nocrits","nodmgspread","uncletopia"],"game_id":440,"stv_port":27026,"stv_name":"Uncletopia | Atlanta | 2 | All Maps | STV","players":null},{"server_id":400,"name":"Uncletopia | Atlanta | 3 | Stopwatch","name_short":"atl-3","host":"atl-1.us.uncletopia.com","port":27035,"enabled":true,"region":"us-east","cc":"us","latitude":33.753746,"longitude":-84.38633,"reserved":0,"last_update":"0001-01-01T00:00:00Z","name_a2s":"Uncletopia | Atlanta | 3 | Stopwatch","protocol":17,"map":"workshop/cp_reckoner_rc6.ugc674719999","folder":"tf","game":"Team Fortress","app_id":440,"player_count":0,"max_players":24,"Bots":0,"server_type":"Dedicated","server_os":"Linux","password":true,"vac":true,"version":"7961495","steam_id":85568392924515187,"keywords":["cp","nocrits","nodmgspread","uncletopia"],"game_id":440,"stv_port":27036,"stv_name":"Uncletopia | Atlanta | 3 | Stopwatch | STV","players":null},{"server_id":401,"name":"Uncletopia | Atlanta | 4 | Community","name_short":"atl-4","host":"atl-1.us.uncletopia.com","port":27045,"enabled":true,"region":"us-east","cc":"us","latitude":33.753746,"longitude":-84.38633,"reserved":0,"last_update":"0001-01-01T00:00:00Z","name_a2s":"Uncletopia | Atlanta | 4 | Community","protocol":17,"map":"workshop/cp_caldera_rc3.ugc2834196889","folder":"tf","game":"Team Fortress","app_id":440,"player_count":0,"max_players":24,"Bots":0,"server_type":"Dedicated","server_os":"Linux","password":true,"vac":true,"version":"7961495","steam_id":85568392924515188,"keywords":["cp","nocrits","nodmgspread","uncletopia"],"game_id":440,"stv_port":27046,"stv_name":"Uncletopia | Atlanta | 4 | Community | STV","players":null},{"server_id":2,"name":"Uncletopia | Chicago | 1 | All Maps","name_short":"chi-1","host":"chi-1.us.uncletopia.com","port":27015,"enabled":true,"region":"us-central","cc":"us","latitude":41.881832,"longitude":-87.62318,"reserved":0,"last_update":"0001-01-01T00:00:00Z","name_a2s":"Uncletopia | Chicago | 1 | All Maps","protocol":17,"map":"cp_sunshine","folder":"tf","game":"Team Fortress","app_id":440,"player_count":0,"max_players":24,"Bots":0,"server_type":"Dedicated","server_os":"Linux","password":true,"vac":true,"version":"7961495","steam_id":85568392924469984,"keywords":["cp","nocrits","nodmgspread","uncletopia"],"game_id":440,"stv_port":27016,"stv_name":"Uncletopia | Chicago | 1 | All Maps | STV","players":null},{"server_id":106,"name":"Uncletopia | Chicago | 2 | All Maps","name_short":"chi-2","host":"chi-1.us.uncletopia.com","port":27025,"enabled":true,"region":"us-central","cc":"us","latitude":41.881832,"longitude":-87.62318,"reserved":0,"last_update":"0001-01-01T00:00:00Z","name_a2s":"Uncletopia | Chicago | 2 | All Maps","protocol":17,"map":"cp_snakewater_final1","folder":"tf","game":"Team Fortress","app_id":440,"player_count":20,"max_players":24,"Bots":0,"server_type":"Dedicated","server_os":"Linux","password":true,"vac":true,"version":"7961495","steam_id":85568392924469985,"keywords":["cp","nocrits","nodmgspread","uncletopia"],"game_id":440,"stv_port":27026,"stv_name":"Uncletopia | Chicago | 2 | All Maps | STV","players":[{"user_id":901,"name":"dahperson","steam_id":76561198067207467,"connected_time":316000000000,"state":"active","ping":55},{"user_id":900,"name":"Mexican Immigrant","steam_id":76561198387341089,"connected_time":365000000000,"state":"active","ping":57},{"user_id":886,"name":"Indigo","steam_id":76561198430362969,"connected_time":1845000000000,"state":"active","ping":75},{"user_id":844,"name":"LVL","steam_id":76561198334403617,"connected_time":5485000000000,"state":"active","ping":54},{"user_id":894,"name":"g0nk","steam_id":76561198838309024,"connected_time":986000000000,"state":"active","ping":83},{"user_id":776,"name":"CEO, Co-Producer, Manager, Etc.","steam_id":76561197969386201,"connected_time":11806000000000,"state":"active","ping":45},{"user_id":881,"name":"kaputon","steam_id":76561198146299782,"connected_time":2184000000000,"state":"active","ping":59},{"user_id":880,"name":"Schizo Femboy","steam_id":76561199162627150,"connected_time":2231000000000,"state":"active","ping":122},{"user_id":902,"name":"Mathatguy","steam_id":76561198225432188,"connected_time":290000000000,"state":"active","ping":94},{"user_id":903,"name":"glue","steam_id":76561198003593070,"connected_time":238000000000,"state":"active","ping":59},{"user_id":904,"name":"Decapitation Station","steam_id":76561198201796098,"connected_time":153000000000,"state":"active","ping":74},{"user_id":899,"name":"wepry","steam_id":76561198114091417,"connected_time":402000000000,"state":"active","ping":60},{"user_id":906,"name":"medieval mushroom","steam_id":76561198067697879,"connected_time":119000000000,"state":"active","ping":52},{"user_id":907,"name":"Snap","steam_id":76561198116225537,"connected_time":44000000000,"state":"active","ping":58},{"user_id":897,"name":"Joe Biden","steam_id":76561198056170906,"connected_time":731000000000,"state":"active","ping":82},{"user_id":908,"name":"Weebmcgee","steam_id":76561198081231557,"connected_time":8000000000,"state":"spawning","ping":275},{"user_id":889,"name":"Rusted Cake","steam_id":76561198209755931,"connected_time":1824000000000,"state":"active","ping":106},{"user_id":775,"name":"bofa ur parents dislike u","steam_id":76561198144766439,"connected_time":11961000000000,"state":"active","ping":45},{"user_id":893,"name":"twinblock","steam_id":76561198157414556,"connected_time":1491000000000,"state":"active","ping":84},{"user_id":895,"name":"Nash","steam_id":76561198056871257,"connected_time":947000000000,"state":"active","ping":70}]},{"server_id":402,"name":"Uncletopia | Chicago | 3 | All Maps","name_short":"chi-3","host":"chi-1.us.uncletopia.com","port":27035,"enabled":true,"region":"us-central","cc":"us","latitude":41.881832,"longitude":-87.62318,"reserved":0,"last_update":"0001-01-01T00:00:00Z","name_a2s":"Uncletopia | Chicago | 3 | All Maps","protocol":17,"map":"cp_steel","folder":"tf","game":"Team Fortress","app_id":440,"player_count":14,"max_players":24,"Bots":0,"server_type":"Dedicated","server_os":"Linux","password":true,"vac":true,"version":"7961495","steam_id":85568392924515191,"keywords":["cp","nocrits","nodmgspread","uncletopia"],"game_id":440,"stv_port":27036,"stv_name":"Uncletopia | Chicago | 3 | All Maps | STV","players":[{"user_id":768,"name":"Not_my_Birthday","steam_id":76561198059508807,"connected_time":3756000000000,"state":"active","ping":117},{"user_id":673,"name":"Cy4nideCutie\u003c3","steam_id":76561198126686695,"connected_time":10698000000000,"state":"active","ping":73},{"user_id":794,"name":"Super Ghostbusters (Full Album)","steam_id":76561198057415490,"connected_time":302000000000,"state":"active","ping":51},{"user_id":771,"name":"Joe","steam_id":76561198247499954,"connected_time":3664000000000,"state":"active","ping":56},{"user_id":786,"name":"Dysentery.","steam_id":76561198982415497,"connected_time":1868000000000,"state":"active","ping":96},{"user_id":772,"name":"Money Gang","steam_id":76561199167836944,"connected_time":3643000000000,"state":"active","ping":54},{"user_id":637,"name":"TheGerg","steam_id":76561198257099217,"connected_time":11919000000000,"state":"active","ping":73},{"user_id":795,"name":"Ghost","steam_id":76561198110914180,"connected_time":159000000000,"state":"active","ping":174},{"user_id":760,"name":"KASHI","steam_id":76561198045285049,"connected_time":4254000000000,"state":"active","ping":78},{"user_id":792,"name":"Always Here for You","steam_id":76561198219252313,"connected_time":1023000000000,"state":"active","ping":64},{"user_id":789,"name":"poopybutt420","steam_id":76561199000805315,"connected_time":1119000000000,"state":"active","ping":116},{"user_id":787,"name":"baedeker","steam_id":76561199081837220,"connected_time":1797000000000,"state":"active","ping":58},{"user_id":737,"name":"Sun Drop","steam_id":76561198086605258,"connected_time":5651000000000,"state":"active","ping":50},{"user_id":793,"name":"ok","steam_id":76561198310495200,"connected_time":826000000000,"state":"active","ping":54}]},{"server_id":403,"name":"Uncletopia | Chicago | 4 | All Maps","name_short":"chi-4","host":"chi-1.us.uncletopia.com","port":27045,"enabled":true,"region":"us-central","cc":"us","latitude":41.881832,"longitude":-87.62318,"reserved":0,"last_update":"0001-01-01T00:00:00Z","name_a2s":"Uncletopia | Chicago | 4 | All Maps","protocol":17,"map":"koth_lakeside_final","folder":"tf","game":"Team Fortress","app_id":440,"player_count":0,"max_players":24,"Bots":0,"server_type":"Dedicated","server_os":"Linux","password":true,"vac":true,"version":"7961495","steam_id":85568392924515193,"keywords":["cp","nocrits","nodmgspread","uncletopia"],"game_id":440,"stv_port":27046,"stv_name":"Uncletopia | Chicago | 4 | All Maps | STV","players":null},{"server_id":36,"name":"Uncletopia | Chicago | 5 | All Maps","name_short":"chi-5","host":"chi-2.us.uncletopia.com","port":27015,"enabled":true,"region":"us-central","cc":"us","latitude":41.881832,"longitude":-87.62318,"reserved":0,"last_update":"0001-01-01T00:00:00Z","name_a2s":"Uncletopia | Chicago | 5 | All Maps","protocol":17,"map":"koth_lakeside_final","folder":"tf","game":"Team Fortress","app_id":440,"player_count":4,"max_players":24,"Bots":0,"server_type":"Dedicated","server_os":"Linux","password":true,"vac":true,"version":"7961495","steam_id":85568392924866362,"keywords":["cp","nocrits","nodmgspread","uncletopia"],"game_id":440,"stv_port":27016,"stv_name":"Uncletopia | Chicago | 5 | All Maps | STV","players":[{"user_id":807,"name":"cajun thotsauce","steam_id":76561198101636066,"connected_time":201000000000,"state":"active","ping":90},{"user_id":805,"name":"Yackaboi","steam_id":76561199444911765,"connected_time":3831000000000,"state":"active","ping":91},{"user_id":794,"name":"menonamed","steam_id":76561198199564382,"connected_time":8277000000000,"state":"active","ping":70},{"user_id":785,"name":"bleach65","steam_id":76561198115270571,"connected_time":9274000000000,"state":"active","ping":75}]},{"server_id":37,"name":"Uncletopia | Chicago | 6 | All Maps","name_short":"chi-6","host":"chi-2.us.uncletopia.com","port":27025,"enabled":true,"region":"us-central","cc":"us","latitude":41.881832,"longitude":-87.62318,"reserved":0,"last_update":"0001-01-01T00:00:00Z","name_a2s":"Uncletopia | Chicago | 6 | All Maps","protocol":17,"map":"cp_dustbowl","folder":"tf","game":"Team Fortress","app_id":440,"player_count":0,"max_players":24,"Bots":0,"server_type":"Dedicated","server_os":"Linux","password":true,"vac":true,"version":"7961495","steam_id":85568392924866363,"keywords":["cp","nocrits","nodmgspread","uncletopia"],"game_id":440,"stv_port":27026,"stv_name":"Uncletopia | Chicago | 6 | All Maps | STV","players":null},{"server_id":38,"name":"Uncletopia | Chicago | 7 | Stopwatch","name_short":"chi-7","host":"chi-2.us.uncletopia.com","port":27035,"enabled":true,"region":"us-central","cc":"us","latitude":41.881832,"longitude":-87.62318,"reserved":0,"last_update":"0001-01-01T00:00:00Z","name_a2s":"Uncletopia | Chicago | 7 | Stopwatch","protocol":17,"map":"workshop/koth_ramjam_rc1.ugc459778887","folder":"tf","game":"Team Fortress","app_id":440,"player_count":0,"max_players":24,"Bots":0,"server_type":"Dedicated","server_os":"Linux","password":true,"vac":true,"version":"7961495","steam_id":85568392924866364,"keywords":["cp","nocrits","nodmgspread","uncletopia"],"game_id":440,"stv_port":27036,"stv_name":"Uncletopia | Chicago | 7 | Stopwatch | STV","players":null},{"server_id":39,"name":"Uncletopia | Chicago | 8 | Community","name_short":"chi-8","host":"chi-2.us.uncletopia.com","port":27045,"enabled":true,"region":"us-central","cc":"us","latitude":41.881832,"longitude":-87.62318,"reserved":0,"last_update":"0001-01-01T00:00:00Z","name_a2s":"Uncletopia | Chicago | 8 | Community","protocol":17,"map":"workshop/rd_asteroid_redux_b1.ugc2154902912","folder":"tf","game":"Team Fortress","app_id":440,"player_count":0,"max_players":24,"Bots":0,"server_type":"Dedicated","server_os":"Linux","password":true,"vac":true,"version":"7961495","steam_id":85568392924866365,"keywords":["beta","nocrits","nodmgspread","rd","uncletopia"],"game_id":440,"stv_port":27046,"stv_name":"Uncletopia | Chicago | 8 | Community | STV","players":null},{"server_id":8,"name":"Uncletopia | Dallas | 1 | All Maps","name_short":"dal-1","host":"dal-1.us.uncletopia.com","port":27015,"enabled":true,"region":"us-central","cc":"us","latitude":32.779167,"longitude":-96.80889,"reserved":0,"last_update":"0001-01-01T00:00:00Z","name_a2s":"Uncletopia | Dallas | 1 | All Maps","protocol":17,"map":"cp_process_final","folder":"tf","game":"Team Fortress","app_id":440,"player_count":21,"max_players":24,"Bots":0,"server_type":"Dedicated","server_os":"Linux","password":true,"vac":true,"version":"7961495","steam_id":85568392924469986,"keywords":["cp","nocrits","nodmgspread","uncletopia"],"game_id":440,"stv_port":27016,"stv_name":"Uncletopia | Dallas | 1 | All Maps | STV","players":[{"user_id":914,"name":"Mufalito","steam_id":76561198951889482,"connected_time":1461000000000,"state":"active","ping":131},{"user_id":923,"name":"BL√òRG","steam_id":76561198036126673,"connected_time":57000000000,"state":"active","ping":74},{"user_id":828,"name":"HalfDead","steam_id":76561198049700226,"connected_time":7296000000000,"state":"active","ping":100},{"user_id":890,"name":"Czechoslovakia!","steam_id":76561198214713811,"connected_time":2718000000000,"state":"active","ping":110},{"user_id":921,"name":"rf","steam_id":76561199018207049,"connected_time":218000000000,"state":"active","ping":70},{"user_id":917,"name":"Kantamoe","steam_id":76561198046661611,"connected_time":1413000000000,"state":"active","ping":76},{"user_id":912,"name":"M249 | Spectre","steam_id":76561198118334485,"connected_time":1646000000000,"state":"active","ping":93},{"user_id":900,"name":"turtle","steam_id":76561198112673874,"connected_time":2323000000000,"state":"active","ping":85},{"user_id":916,"name":"dobo","steam_id":76561197998785704,"connected_time":1432000000000,"state":"active","ping":86},{"user_id":924,"name":"MoiMoi","steam_id":76561198873850038,"connected_time":9000000000,"state":"spawning","ping":72},{"user_id":901,"name":"Excel","steam_id":76561198156108845,"connected_time":2318000000000,"state":"active","ping":73},{"user_id":880,"name":"BackToSchoolAds","steam_id":76561198870281128,"connected_time":3228000000000,"state":"active","ping":104},{"user_id":843,"name":"poggerchamp","steam_id":76561199145124973,"connected_time":6930000000000,"state":"active","ping":51},{"user_id":918,"name":"flintdotcom #TransRights","steam_id":76561199198577763,"connected_time":1378000000000,"state":"active","ping":61},{"user_id":910,"name":"Rat God","steam_id":76561198066161598,"connected_time":1674000000000,"state":"active","ping":79},{"user_id":814,"name":"Van Tastic","steam_id":76561198063855523,"connected_time":8011000000000,"state":"active","ping":34},{"user_id":869,"name":"zpalmtree","steam_id":76561198134307620,"connected_time":3488000000000,"state":"active","ping":75},{"user_id":830,"name":"Remix.SMG","steam_id":76561198052895933,"connected_time":7253000000000,"state":"active","ping":87},{"user_id":904,"name":"Mocha Josie","steam_id":76561198066452726,"connected_time":2176000000000,"state":"active","ping":88},{"user_id":922,"name":"QuesaDiaz","steam_id":76561198355667850,"connected_time":186000000000,"state":"active","ping":80},{"user_id":887,"name":"mayonnaise","steam_id":76561198120753890,"connected_time":2775000000000,"state":"active","ping":55}]},{"server_id":108,"name":"Uncletopia | Dallas | 2 | All Maps","name_short":"dal-2","host":"dal-1.us.uncletopia.com","port":27025,"enabled":true,"region":"us-central","cc":"us","latitude":32.779167,"longitude":-96.80889,"reserved":0,"last_update":"0001-01-01T00:00:00Z","name_a2s":"Uncletopia | Dallas | 2 | All Maps","protocol":17,"map":"koth_viaduct","folder":"tf","game":"Team Fortress","app_id":440,"player_count":0,"max_players":24,"Bots":0,"server_type":"Dedicated","server_os":"Linux","password":true,"vac":true,"version":"7961495","steam_id":85568392924469988,"keywords":["cp","nocrits","nodmgspread","uncletopia"],"game_id":440,"stv_port":27026,"stv_name":"Uncletopia | Dallas | 2 | All Maps | STV","players":null},{"server_id":404,"name":"Uncletopia | Dallas | 3 | All Maps","name_short":"dal-3","host":"dal-1.us.uncletopia.com","port":27035,"enabled":true,"region":"us-central","cc":"us","latitude":32.779167,"longitude":-96.80889,"reserved":0,"last_update":"0001-01-01T00:00:00Z","name_a2s":"Uncletopia | Dallas | 3 | All Maps","protocol":17,"map":"koth_viaduct","folder":"tf","game":"Team Fortress","app_id":440,"player_count":3,"max_players":24,"Bots":0,"server_type":"Dedicated","server_os":"Linux","password":true,"vac":true,"version":"7961495","steam_id":85568392924515219,"keywords":["cp","nocrits","nodmgspread","uncletopia"],"game_id":440,"stv_port":27036,"stv_name":"Uncletopia | Dallas | 3 | All Maps | STV","players":[{"user_id":398,"name":"Gul'dan","steam_id":76561198240466940,"connected_time":1235000000000,"state":"active","ping":180},{"user_id":394,"name":"[FAZE] XxcodgodxX","steam_id":76561199474871203,"connected_time":4466000000000,"state":"active","ping":75},{"user_id":373,"name":"Shotty Man","steam_id":76561198175255334,"connected_time":6466000000000,"state":"active","ping":36}]},{"server_id":405,"name":"Uncletopia | Dallas | 4 | Community","name_short":"dal-4","host":"dal-1.us.uncletopia.com","port":27045,"enabled":true,"region":"us-central","cc":"us","latitude":32.779167,"longitude":-96.80889,"reserved":0,"last_update":"0001-01-01T00:00:00Z","name_a2s":"Uncletopia | Dallas | 4 | Community","protocol":17,"map":"pl_pier","folder":"tf","game":"Team Fortress","app_id":440,"player_count":0,"max_players":24,"Bots":0,"server_type":"Dedicated","server_os":"Linux","password":true,"vac":true,"version":"7961495","steam_id":85568392924515220,"keywords":["nocrits","nodmgspread","payload","uncletopia"],"game_id":440,"stv_port":27046,"stv_name":"Uncletopia | Dallas | 4 | Community | STV","players":null},{"server_id":5,"name":"Uncletopia | Frankfurt | 1 | All Maps","name_short":"frk-1","host":"frk-1.de.uncletopia.com","port":27015,"enabled":true,"region":"eu","cc":"de","latitude":50.110924,"longitude":8.682127,"reserved":0,"last_update":"0001-01-01T00:00:00Z","name_a2s":"Uncletopia | Frankfurt | 1 | All Maps","protocol":17,"map":"koth_highpass","folder":"tf","game":"Team Fortress","app_id":440,"player_count":0,"max_players":24,"Bots":0,"server_type":"Dedicated","server_os":"Linux","password":true,"vac":true,"version":"7961495","steam_id":85568392924469989,"keywords":["cp","nocrits","nodmgspread","uncletopia"],"game_id":440,"stv_port":27016,"stv_name":"Uncletopia | Frankfurt | 1 | All Maps | STV","players":null},{"server_id":110,"name":"Uncletopia | Frankfurt | 2 | All Maps","name_short":"frk-2","host":"frk-1.de.uncletopia.com","port":27025,"enabled":true,"region":"eu","cc":"de","latitude":50.110924,"longitude":8.682127,"reserved":0,"last_update":"0001-01-01T00:00:00Z","name_a2s":"Uncletopia | Frankfurt | 2 | All Maps","protocol":17,"map":"cp_dustbowl","folder":"tf","game":"Team Fortress","app_id":440,"player_count":0,"max_players":24,"Bots":0,"server_type":"Dedicated","server_os":"Linux","password":true,"vac":true,"version":"7961495","steam_id":85568392924469990,"keywords":["cp","nocrits","nodmgspread","uncletopia"],"game_id":440,"stv_port":27026,"stv_name":"Uncletopia | Frankfurt | 2 | All Maps | STV","players":null},{"server_id":308,"name":"Uncletopia | Frankfurt | 3 | All Maps","name_short":"frk-3","host":"frk-1.de.uncletopia.com","port":27035,"enabled":true,"region":"eu","cc":"de","latitude":50.110924,"longitude":8.682127,"reserved":0,"last_update":"0001-01-01T00:00:00Z","name_a2s":"Uncletopia | Frankfurt | 3 | All Maps","protocol":17,"map":"pl_barnblitz","folder":"tf","game":"Team Fortress","app_id":440,"player_count":0,"max_players":24,"Bots":0,"server_type":"Dedicated","server_os":"Linux","password":true,"vac":true,"version":"7961495","steam_id":85568392924504274,"keywords":["nocrits","nodmgspread","payload","uncletopia"],"game_id":440,"stv_port":27036,"stv_name":"Uncletopia | Frankfurt | 3 | All Maps | STV","players":null},{"server_id":309,"name":"Uncletopia | Frankfurt | 4 | All Maps","name_short":"frk-4","host":"frk-1.de.uncletopia.com","port":27045,"enabled":true,"region":"eu","cc":"de","latitude":50.110924,"longitude":8.682127,"reserved":0,"last_update":"0001-01-01T00:00:00Z","name_a2s":"Uncletopia | Frankfurt | 4 | All Maps","protocol":17,"map":"koth_highpass","folder":"tf","game":"Team Fortress","app_id":440,"player_count":0,"max_players":24,"Bots":0,"server_type":"Dedicated","server_os":"Linux","password":true,"vac":true,"version":"7961495","steam_id":85568392924504275,"keywords":["cp","nocrits","nodmgspread","uncletopia"],"game_id":440,"stv_port":27046,"stv_name":"Uncletopia | Frankfurt | 4 | All Maps | STV","players":null},{"server_id":310,"name":"Uncletopia | Frankfurt | 5 | All Maps","name_short":"frk-5","host":"frk-1.de.uncletopia.com","port":27055,"enabled":true,"region":"eu","cc":"de","latitude":50.110924,"longitude":8.682127,"reserved":0,"last_update":"0001-01-01T00:00:00Z","name_a2s":"Uncletopia | Frankfurt | 5 | All Maps","protocol":17,"map":"cp_steel","folder":"tf","game":"Team Fortress","app_id":440,"player_count":24,"max_players":24,"Bots":0,"server_type":"Dedicated","server_os":"Linux","password":true,"vac":true,"version":"7961495","steam_id":85568392924504277,"keywords":["cp","nocrits","nodmgspread","uncletopia"],"game_id":440,"stv_port":27056,"stv_name":"Uncletopia | Frankfurt | 5 | All Maps | STV","players":[{"user_id":53,"name":"rubn","steam_id":76561198119586410,"connected_time":203000000000,"state":"active","ping":57},{"user_id":52,"name":"lulu","steam_id":76561199147764133,"connected_time":229000000000,"state":"active","ping":60},{"user_id":5,"name":"PENGUN","steam_id":76561199015156956,"connected_time":3185000000000,"state":"active","ping":95},{"user_id":6,"name":"Mr_Pulse_","steam_id":76561198095001602,"connected_time":3168000000000,"state":"active","ping":98},{"user_id":40,"name":"Ace","steam_id":76561198193179149,"connected_time":793000000000,"state":"active","ping":99},{"user_id":50,"name":"G√ºnther","steam_id":76561198333417038,"connected_time":267000000000,"state":"active","ping":70},{"user_id":10,"name":"Bapples","steam_id":76561198065781496,"connected_time":2990000000000,"state":"active","ping":60},{"user_id":57,"name":"Peter","steam_id":76561198093973223,"connected_time":38000000000,"state":"active","ping":73},{"user_id":56,"name":"Rimx","steam_id":76561198053034840,"connected_time":92000000000,"state":"active","ping":85},{"user_id":15,"name":"marvi444","steam_id":76561198431534139,"connected_time":2795000000000,"state":"active","ping":47},{"user_id":42,"name":"vetzakski","steam_id":76561198988041775,"connected_time":731000000000,"state":"active","ping":69},{"user_id":17,"name":"Henkat","steam_id":76561199079480352,"connected_time":2510000000000,"state":"active","ping":91},{"user_id":32,"name":"Very Original Name","steam_id":76561199159833013,"connected_time":1755000000000,"state":"active","ping":55},{"user_id":47,"name":"rocze","steam_id":76561198088280730,"connected_time":433000000000,"state":"active","ping":72},{"user_id":48,"name":"engineer drip","steam_id":76561198991032570,"connected_time":403000000000,"state":"active","ping":94},{"user_id":21,"name":"Madeen","steam_id":76561198051120288,"connected_time":2321000000000,"state":"active","ping":51},{"user_id":35,"name":"Certified Hood pybro (ua)","steam_id":76561198970562699,"connected_time":1551000000000,"state":"active","ping":59},{"user_id":24,"name":"kenny","steam_id":76561199102477437,"connected_time":2179000000000,"state":"active","ping":105},{"user_id":25,"name":"I hate Phlog","steam_id":76561199214163032,"connected_time":2171000000000,"state":"active","ping":89},{"user_id":27,"name":"leadsquid","steam_id":76561198071544109,"connected_time":1887000000000,"state":"active","ping":126},{"user_id":49,"name":"delta man","steam_id":76561198204491245,"connected_time":388000000000,"state":"active","ping":145},{"user_id":51,"name":"SantiTzePug","steam_id":76561199049615996,"connected_time":255000000000,"state":"active","ping":73},{"user_id":33,"name":"Spicy raccon","steam_id":76561198408560636,"connected_time":1688000000000,"state":"active","ping":73},{"user_id":34,"name":"tim","steam_id":76561198801490317,"connected_time":1655000000000,"state":"active","ping":124}]},{"server_id":311,"name":"Uncletopia | Frankfurt | 6 | All Maps","name_short":"frk-6","host":"frk-1.de.uncletopia.com","port":27065,"enabled":true,"region":"eu","cc":"de","latitude":50.110924,"longitude":8.682127,"reserved":0,"last_update":"0001-01-01T00:00:00Z","name_a2s":"Uncletopia | Frankfurt | 6 | All Maps","protocol":17,"map":"cp_altitude","folder":"tf","game":"Team Fortress","app_id":440,"player_count":0,"max_players":24,"Bots":0,"server_type":"Dedicated","server_os":"Linux","password":true,"vac":true,"version":"7961495","steam_id":85568392924504278,"keywords":["cp","nocrits","nodmgspread","uncletopia"],"game_id":440,"stv_port":27066,"stv_name":"Uncletopia | Frankfurt | 6 | All Maps | STV","players":null},{"server_id":23,"name":"Uncletopia | Frankfurt | 7 | Stopwatch","name_short":"frk-7","host":"frk-1.de.uncletopia.com","port":27075,"enabled":true,"region":"eu","cc":"de","latitude":50.110924,"longitude":8.682127,"reserved":0,"last_update":"0001-01-01T00:00:00Z","name_a2s":"Uncletopia | Frankfurt | 7 | Stopwatch","protocol":17,"map":"pl_frontier_final","folder":"tf","game":"Team Fortress","app_id":440,"player_count":0,"max_players":24,"Bots":0,"server_type":"Dedicated","server_os":"Linux","password":true,"vac":true,"version":"7961495","steam_id":85568392924742827,"keywords":["nocrits","nodmgspread","payload","uncletopia"],"game_id":440,"stv_port":27076,"stv_name":"Uncletopia | Frankfurt | 7 | Stopwatch | STV","players":null},{"server_id":24,"name":"Uncletopia | Frankfurt | 8 | Community","name_short":"frk-8","host":"frk-1.de.uncletopia.com","port":27085,"enabled":true,"region":"eu","cc":"de","latitude":50.110924,"longitude":8.682127,"reserved":0,"last_update":"0001-01-01T00:00:00Z","name_a2s":"Uncletopia | Frankfurt | 8 | Community","protocol":17,"map":"cp_mountainlab","folder":"tf","game":"Team Fortress","app_id":440,"player_count":0,"max_players":24,"Bots":0,"server_type":"Dedicated","server_os":"Linux","password":true,"vac":true,"version":"7961495","steam_id":85568392924742828,"keywords":["cp","nocrits","nodmgspread","uncletopia"],"game_id":440,"stv_port":27086,"stv_name":"Uncletopia | Frankfurt | 8 | Community | STV","players":null},{"server_id":202,"name":"Uncletopia | Hong Kong | 1 | All Maps","name_short":"hgk-1","host":"hgk-1.hk.uncletopia.com","port":27015,"enabled":true,"region":"asia","cc":"hk","latitude":22.302711,"longitude":114.177216,"reserved":0,"last_update":"0001-01-01T00:00:00Z","name_a2s":"Uncletopia | Hong Kong | 1 | All Maps","protocol":17,"map":"cp_sunshine","folder":"tf","game":"Team Fortress","app_id":440,"player_count":25,"max_players":24,"Bots":0,"server_type":"Dedicated","server_os":"Linux","password":true,"vac":true,"version":"7961495","steam_id":85568392924494504,"keywords":["cp","nocrits","nodmgspread","uncletopia"],"game_id":440,"stv_port":27016,"stv_name":"Uncletopia | Hong Kong | 1 | All Maps | STV","players":[{"user_id":210,"name":"Sir Reginald Wallace","steam_id":76561198979586124,"connected_time":2301000000000,"state":"active","ping":141},{"user_id":196,"name":"Saffron","steam_id":76561199025320247,"connected_time":3816000000000,"state":"active","ping":73},{"user_id":221,"name":"StewBÿ≠ŸêŸäŸíŸÖ„ÉÑ","steam_id":76561198131423270,"connected_time":180000000000,"state":"active","ping":62},{"user_id":65,"name":"the thrower","steam_id":76561198992723983,"connected_time":14755000000000,"state":"active","ping":98},{"user_id":193,"name":"water tastes good","steam_id":76561199375947670,"connected_time":4200000000000,"state":"active","ping":58},{"user_id":222,"name":"marisaloses","steam_id":76561199033032870,"connected_time":169000000000,"state":"active","ping":71},{"user_id":180,"name":"Ivy","steam_id":76561198400698408,"connected_time":5840000000000,"state":"active","ping":92},{"user_id":197,"name":"MongGoyo63","steam_id":76561198349540834,"connected_time":3805000000000,"state":"active","ping":85},{"user_id":160,"name":"Pillboi","steam_id":76561198011172886,"connected_time":7932000000000,"state":"active","ping":42},{"user_id":182,"name":"im_0ff","steam_id":76561198339346695,"connected_time":5336000000000,"state":"active","ping":122},{"user_id":141,"name":"lerry","steam_id":76561199137927625,"connected_time":8869000000000,"state":"active","ping":95},{"user_id":204,"name":"mari","steam_id":76561198991275263,"connected_time":2815000000000,"state":"active","ping":89},{"user_id":216,"name":"help me escape college life","steam_id":76561198113401862,"connected_time":1332000000000,"state":"active","ping":93},{"user_id":223,"name":"Vesha","steam_id":76561199208233146,"connected_time":126000000000,"state":"connecting","ping":0},{"user_id":211,"name":"Mac09","steam_id":76561198934873063,"connected_time":2301000000000,"state":"active","ping":76},{"user_id":220,"name":"Corn_Archer","steam_id":76561199185044554,"connected_time":202000000000,"state":"active","ping":75},{"user_id":73,"name":"xPhid","steam_id":76561199080808930,"connected_time":14364000000000,"state":"active","ping":73},{"user_id":189,"name":"TomCat","steam_id":76561198133744053,"connected_time":4464000000000,"state":"active","ping":114},{"user_id":169,"name":"LIBERTY110","steam_id":76561199365952747,"connected_time":7370000000000,"state":"active","ping":101},{"user_id":224,"name":"Dell Conagher","steam_id":76561198853001370,"connected_time":125000000000,"state":"active","ping":71},{"user_id":199,"name":"Lu","steam_id":76561198320532821,"connected_time":2917000000000,"state":"active","ping":93},{"user_id":213,"name":"Shotty 2 Hotty","steam_id":76561199174449723,"connected_time":1398000000000,"state":"active","ping":120},{"user_id":214,"name":"Lelouch","steam_id":76561198828840546,"connected_time":1375000000000,"state":"active","ping":80},{"user_id":219,"name":"Â∏ï","steam_id":76561198439343999,"connected_time":599000000000,"state":"active","ping":74},{"user_id":191,"name":"vintage","steam_id":76561198230213828,"connected_time":4271000000000,"state":"active","ping":62}]},{"server_id":1,"name":"Uncletopia | Los Angeles | 1 | All Maps","name_short":"lax-1","host":"lax-1.us.uncletopia.com","port":27015,"enabled":true,"region":"us-west","cc":"us","latitude":33.94279,"longitude":-118.41004,"reserved":0,"last_update":"0001-01-01T00:00:00Z","name_a2s":"Uncletopia | Los Angeles | 1 | All Maps","protocol":17,"map":"pl_upward","folder":"tf","game":"Team Fortress","app_id":440,"player_count":24,"max_players":24,"Bots":0,"server_type":"Dedicated","server_os":"Linux","password":true,"vac":true,"version":"7961495","steam_id":85568392924469991,"keywords":["nocrits","nodmgspread","payload","uncletopia"],"game_id":440,"stv_port":27016,"stv_name":"Uncletopia | Los Angeles | 1 | All Maps | STV","players":[{"user_id":646,"name":"None of that $9.99 bullshit","steam_id":76561198116169903,"connected_time":47000000000,"state":"active","ping":91},{"user_id":624,"name":"Bcuz","steam_id":76561197981318027,"connected_time":1066000000000,"state":"active","ping":69},{"user_id":625,"name":"Thequirka","steam_id":76561198968058652,"connected_time":1060000000000,"state":"active","ping":76},{"user_id":622,"name":"TriggerPullPone","steam_id":76561198071789810,"connected_time":1901000000000,"state":"active","ping":37},{"user_id":641,"name":"Shrew","steam_id":76561198085421224,"connected_time":248000000000,"state":"active","ping":72},{"user_id":610,"name":"Future Tusk","steam_id":76561198199635217,"connected_time":2581000000000,"state":"active","ping":58},{"user_id":626,"name":"Coolstuff","steam_id":76561198178350213,"connected_time":1051000000000,"state":"active","ping":93},{"user_id":645,"name":"The Caretaker","steam_id":76561198125241411,"connected_time":69000000000,"state":"active","ping":79},{"user_id":637,"name":"candle randel","steam_id":76561198081545613,"connected_time":367000000000,"state":"active","ping":105},{"user_id":638,"name":"roach :3","steam_id":76561198354811369,"connected_time":365000000000,"state":"active","ping":45},{"user_id":599,"name":"‚òÖ‚òÖthastephen‚òÖ‚òÖ","steam_id":76561198080289775,"connected_time":4149000000000,"state":"active","ping":54},{"user_id":640,"name":"jim awesome","steam_id":76561198337486020,"connected_time":325000000000,"state":"active","ping":60},{"user_id":643,"name":"plutonium isotope","steam_id":76561198319442494,"connected_time":143000000000,"state":"active","ping":54},{"user_id":597,"name":"inoricaM","steam_id":76561199199257149,"connected_time":4418000000000,"state":"active","ping":97},{"user_id":623,"name":"soccer2010","steam_id":76561198404271005,"connected_time":1221000000000,"state":"active","ping":58},{"user_id":631,"name":"HAT-WEARING‚Ñ¢ Maggot Gamer Cat","steam_id":76561197973992705,"connected_time":878000000000,"state":"active","ping":72},{"user_id":635,"name":"nat","steam_id":76561198179923093,"connected_time":612000000000,"state":"active","ping":57},{"user_id":644,"name":"a chicken","steam_id":76561198313121580,"connected_time":108000000000,"state":"active","ping":57},{"user_id":629,"name":"Siats","steam_id":76561198063539885,"connected_time":969000000000,"state":"active","ping":100},{"user_id":621,"name":"TheBrocklobster","steam_id":76561198039682984,"connected_time":1957000000000,"state":"active","ping":62},{"user_id":619,"name":"Bradz","steam_id":76561198175090085,"connected_time":2265000000000,"state":"active","ping":87},{"user_id":606,"name":"Fremond Games","steam_id":76561198847910046,"connected_time":2934000000000,"state":"active","ping":93},{"user_id":562,"name":"JustAnotherHuman","steam_id":76561199018122924,"connected_time":7201000000000,"state":"active","ping":90},{"user_id":630,"name":"C‚àÖRVUS","steam_id":76561198100640019,"connected_time":943000000000,"state":"active","ping":87}]},{"server_id":112,"name":"Uncletopia | Los Angeles | 2 | All Maps","name_short":"lax-2","host":"lax-1.us.uncletopia.com","port":27025,"enabled":true,"region":"us-west","cc":"us","latitude":33.94279,"longitude":-118.41004,"reserved":0,"last_update":"0001-01-01T00:00:00Z","name_a2s":"Uncletopia | Los Angeles | 2 | All Maps","protocol":17,"map":"pl_upward","folder":"tf","game":"Team Fortress","app_id":440,"player_count":24,"max_players":24,"Bots":0,"server_type":"Dedicated","server_os":"Linux","password":true,"vac":true,"version":"7961495","steam_id":85568392924469992,"keywords":["nocrits","nodmgspread","payload","uncletopia"],"game_id":440,"stv_port":27026,"stv_name":"Uncletopia | Los Angeles | 2 | All Maps | STV","players":[{"user_id":323,"name":"type \"bad med\" to kick","steam_id":76561198076402476,"connected_time":744000000000,"state":"active","ping":70},{"user_id":240,"name":"Madz","steam_id":76561197980025933,"connected_time":8372000000000,"state":"active","ping":70},{"user_id":325,"name":"HOG RIDER","steam_id":76561198298589502,"connected_time":324000000000,"state":"active","ping":52},{"user_id":286,"name":"i cant aim","steam_id":76561198065873462,"connected_time":4133000000000,"state":"active","ping":50},{"user_id":288,"name":"Dr.Bleach","steam_id":76561198043836873,"connected_time":3647000000000,"state":"active","ping":63},{"user_id":329,"name":"Tots","steam_id":76561198027485007,"connected_time":89000000000,"state":"active","ping":89},{"user_id":316,"name":"Teh Pug","steam_id":76561198085810161,"connected_time":1440000000000,"state":"active","ping":46},{"user_id":290,"name":"CommanderFailure","steam_id":76561198028656461,"connected_time":3637000000000,"state":"active","ping":69},{"user_id":312,"name":"4 life","steam_id":76561198175961598,"connected_time":2252000000000,"state":"active","ping":60},{"user_id":328,"name":"Tam Honks","steam_id":76561198044347961,"connected_time":181000000000,"state":"active","ping":71},{"user_id":305,"name":"BIGGUS DICKUS","steam_id":76561199057483763,"connected_time":2752000000000,"state":"active","ping":44},{"user_id":314,"name":"Batso","steam_id":76561198106589452,"connected_time":1524000000000,"state":"active","ping":54},{"user_id":306,"name":"exx","steam_id":76561198090552145,"connected_time":2743000000000,"state":"active","ping":48},{"user_id":321,"name":"Fred","steam_id":76561197983870604,"connected_time":750000000000,"state":"active","ping":53},{"user_id":280,"name":"CheeseCake488","steam_id":76561199407617942,"connected_time":4849000000000,"state":"active","ping":82},{"user_id":330,"name":"gyat","steam_id":76561198043684960,"connected_time":66000000000,"state":"active","ping":77},{"user_id":313,"name":"[√òWQJ√ò]chubacaalatake","steam_id":76561198136201697,"connected_time":2133000000000,"state":"active","ping":94},{"user_id":317,"name":"hello","steam_id":76561198080256936,"connected_time":923000000000,"state":"active","ping":50},{"user_id":295,"name":"„ÅäÂßâ„Åï„Çì","steam_id":76561198068218533,"connected_time":3551000000000,"state":"active","ping":67},{"user_id":315,"name":"Scorpianswag","steam_id":76561198260651036,"connected_time":1514000000000,"state":"active","ping":31},{"user_id":318,"name":"ToonRandom","steam_id":76561198208689031,"connected_time":923000000000,"state":"active","ping":37},{"user_id":324,"name":"T√ºCold","steam_id":76561198111278197,"connected_time":732000000000,"state":"active","ping":66},{"user_id":297,"name":"purple hatsune miku","steam_id":76561198108844158,"connected_time":3529000000000,"state":"active","ping":59},{"user_id":298,"name":"Spruce","steam_id":76561198081684676,"connected_time":3496000000000,"state":"active","ping":96}]},{"server_id":324,"name":"Uncletopia | Los Angeles | 3 | All Maps","name_short":"lax-3","host":"lax-1.us.uncletopia.com","port":27035,"enabled":true,"region":"us-west","cc":"us","latitude":33.94279,"longitude":-118.41004,"reserved":0,"last_update":"0001-01-01T00:00:00Z","name_a2s":"Uncletopia | Los Angeles | 3 | All Maps","protocol":17,"map":"pl_pier","folder":"tf","game":"Team Fortress","app_id":440,"player_count":22,"max_players":24,"Bots":0,"server_type":"Dedicated","server_os":"Linux","password":true,"vac":true,"version":"7961495","steam_id":85568392924510198,"keywords":["nocrits","nodmgspread","payload","uncletopia"],"game_id":440,"stv_port":27036,"stv_name":"Uncletopia | Los Angeles | 3 | All Maps | STV","players":[{"user_id":336,"name":"Chica","steam_id":76561198381832158,"connected_time":629000000000,"state":"active","ping":74},{"user_id":341,"name":"nk (historic)","steam_id":76561198055170290,"connected_time":23000000000,"state":"active","ping":51},{"user_id":331,"name":"Blackbeard","steam_id":76561198046952265,"connected_time":882000000000,"state":"active","ping":75},{"user_id":332,"name":"Artic_Ryuu","steam_id":76561198182194918,"connected_time":727000000000,"state":"active","ping":72},{"user_id":308,"name":"üê∫-Iwky-ü¶ä","steam_id":76561198185616311,"connected_time":2009000000000,"state":"active","ping":72},{"user_id":333,"name":"Generator","steam_id":76561198011762257,"connected_time":709000000000,"state":"active","ping":126},{"user_id":310,"name":"Mosstrill","steam_id":76561198433576507,"connected_time":1885000000000,"state":"active","ping":65},{"user_id":311,"name":"Chiefirons","steam_id":76561198057984431,"connected_time":1795000000000,"state":"active","ping":118},{"user_id":337,"name":"ashwee","steam_id":76561198204926435,"connected_time":431000000000,"state":"active","ping":67},{"user_id":314,"name":"ILiketoHaveFun","steam_id":76561198036091406,"connected_time":1756000000000,"state":"active","ping":91},{"user_id":339,"name":"kisses to yo missus","steam_id":76561198014326643,"connected_time":160000000000,"state":"active","ping":122},{"user_id":316,"name":"noise","steam_id":76561198081375875,"connected_time":1683000000000,"state":"active","ping":76},{"user_id":319,"name":"TOP 10 ROCKS FROM MY BACKYARD","steam_id":76561198131567365,"connected_time":1439000000000,"state":"active","ping":77},{"user_id":318,"name":"Imabee","steam_id":76561198032523749,"connected_time":1562000000000,"state":"active","ping":59},{"user_id":320,"name":"Light Green","steam_id":76561199125221195,"connected_time":1434000000000,"state":"active","ping":48},{"user_id":321,"name":"florence","steam_id":76561198854390990,"connected_time":1430000000000,"state":"active","ping":58},{"user_id":322,"name":"Arm","steam_id":76561198116535637,"connected_time":1403000000000,"state":"active","ping":66},{"user_id":323,"name":"Faux Booz","steam_id":76561198083755379,"connected_time":1382000000000,"state":"active","ping":63},{"user_id":330,"name":"mario is missing!!!","steam_id":76561198028249503,"connected_time":994000000000,"state":"active","ping":132},{"user_id":326,"name":"Antking14","steam_id":76561198188971771,"connected_time":1244000000000,"state":"active","ping":71},{"user_id":338,"name":"[UW] BobbyZimmerman","steam_id":76561197993835647,"connected_time":276000000000,"state":"active","ping":91},{"user_id":329,"name":"Poppet","steam_id":76561198012301951,"connected_time":1018000000000,"state":"active","ping":135}]},{"server_id":25,"name":"Uncletopia | Los Angeles | 4 | Stopwatch","name_short":"lax-4","host":"lax-1.us.uncletopia.com","port":27045,"enabled":true,"region":"us-west","cc":"us","latitude":33.94279,"longitude":-118.41004,"reserved":0,"last_update":"0001-01-01T00:00:00Z","name_a2s":"Uncletopia | Los Angeles | 4 | Stopwatch","protocol":17,"map":"workshop/koth_product_final.ugc454272353","folder":"tf","game":"Team Fortress","app_id":440,"player_count":0,"max_players":24,"Bots":0,"server_type":"Dedicated","server_os":"Linux","password":true,"vac":true,"version":"7961495","steam_id":85568392924510199,"keywords":["cp","nocrits","nodmgspread","uncletopia"],"game_id":440,"stv_port":27046,"stv_name":"Uncletopia | Los Angeles | 4 | Stopwatch | STV","players":null},{"server_id":11,"name":"Uncletopia | London | 1 | All Maps","name_short":"lon-1","host":"lon-1.uk.uncletopia.com","port":27015,"enabled":true,"region":"eu","cc":"gb","latitude":51.509865,"longitude":-0.118092,"reserved":0,"last_update":"0001-01-01T00:00:00Z","name_a2s":"Uncletopia | London | 1 | All Maps","protocol":17,"map":"koth_highpass","folder":"tf","game":"Team Fortress","app_id":440,"player_count":0,"max_players":24,"Bots":0,"server_type":"Dedicated","server_os":"Linux","password":true,"vac":true,"version":"7961495","steam_id":85568392924367362,"keywords":["cp","nocrits","nodmgspread","uncletopia"],"game_id":440,"stv_port":27016,"stv_name":"Uncletopia | London | 1 | All Maps | STV","players":null},{"server_id":114,"name":"Uncletopia | London | 2 | All Maps","name_short":"lon-2","host":"lon-1.uk.uncletopia.com","port":27025,"enabled":true,"region":"eu","cc":"gb","latitude":51.509865,"longitude":-0.118092,"reserved":0,"last_update":"0001-01-01T00:00:00Z","name_a2s":"Uncletopia | London | 2 | All Maps","protocol":17,"map":"pl_borneo","folder":"tf","game":"Team Fortress","app_id":440,"player_count":23,"max_players":24,"Bots":0,"server_type":"Dedicated","server_os":"Linux","password":true,"vac":true,"version":"7961495","steam_id":85568392924470941,"keywords":["nocrits","nodmgspread","payload","uncletopia"],"game_id":440,"stv_port":27026,"stv_name":"Uncletopia | London | 2 | All Maps | STV","players":[{"user_id":114,"name":"Dr. Livesey","steam_id":76561198071049943,"connected_time":119000000000,"state":"active","ping":62},{"user_id":112,"name":"Rin-Nakaret","steam_id":76561197971051188,"connected_time":227000000000,"state":"active","ping":56},{"user_id":115,"name":"yodel","steam_id":76561198138777659,"connected_time":66000000000,"state":"active","ping":50},{"user_id":111,"name":"demoman","steam_id":76561198046170435,"connected_time":264000000000,"state":"active","ping":68},{"user_id":109,"name":"--","steam_id":76561198365098582,"connected_time":777000000000,"state":"active","ping":148},{"user_id":75,"name":"Nutty Dark^^","steam_id":76561198036241064,"connected_time":3046000000000,"state":"active","ping":74},{"user_id":74,"name":"geroxe cruo","steam_id":76561199480942903,"connected_time":3053000000000,"state":"active","ping":75},{"user_id":41,"name":"just_adhenz1284 #SaveTF2","steam_id":76561198293654671,"connected_time":5870000000000,"state":"active","ping":153},{"user_id":101,"name":"night.s","steam_id":76561198326287823,"connected_time":1606000000000,"state":"active","ping":74},{"user_id":12,"name":"Zamorocian","steam_id":76561198076604017,"connected_time":8626000000000,"state":"active","ping":40},{"user_id":102,"name":"cat step","steam_id":76561198118412910,"connected_time":1548000000000,"state":"active","ping":56},{"user_id":103,"name":"Builditup","steam_id":76561198997821765,"connected_time":1508000000000,"state":"active","ping":50},{"user_id":35,"name":"dirty rascal","steam_id":76561198000871038,"connected_time":6115000000000,"state":"active","ping":45},{"user_id":110,"name":"Nejt","steam_id":76561199264515158,"connected_time":564000000000,"state":"active","ping":82},{"user_id":100,"name":"insanitY","steam_id":76561198055666742,"connected_time":1855000000000,"state":"active","ping":97},{"user_id":116,"name":"hnac snack","steam_id":76561199036687361,"connected_time":29000000000,"state":"active","ping":145},{"user_id":106,"name":"Rui","steam_id":76561198263735498,"connected_time":1361000000000,"state":"active","ping":94},{"user_id":77,"name":"autistic luigi","steam_id":76561199218285040,"connected_time":2959000000000,"state":"active","ping":84},{"user_id":117,"name":"Morten49","steam_id":76561199375618712,"connected_time":22000000000,"state":"spawning","ping":58},{"user_id":56,"name":"stefanbejenari","steam_id":76561199466718294,"connected_time":5107000000000,"state":"active","ping":86},{"user_id":107,"name":"Guppy","steam_id":76561198135398757,"connected_time":1320000000000,"state":"active","ping":46},{"user_id":73,"name":"Asmodeus","steam_id":76561198283156425,"connected_time":3119000000000,"state":"active","ping":76},{"user_id":71,"name":"Lewylow","steam_id":76561198005425686,"connected_time":3240000000000,"state":"active","ping":56}]},{"server_id":320,"name":"Uncletopia | London | 3 | All Maps","name_short":"lon-3","host":"lon-1.uk.uncletopia.com","port":27035,"enabled":true,"region":"eu","cc":"gb","latitude":51.509865,"longitude":-0.118092,"reserved":0,"last_update":"0001-01-01T00:00:00Z","name_a2s":"Uncletopia | London | 3 | All Maps","protocol":17,"map":"pl_upward","folder":"tf","game":"Team Fortress","app_id":440,"player_count":0,"max_players":24,"Bots":0,"server_type":"Dedicated","server_os":"Linux","password":true,"vac":true,"version":"7961495","steam_id":85568392924510192,"keywords":["nocrits","nodmgspread","payload","uncletopia"],"game_id":440,"stv_port":27036,"stv_name":"Uncletopia | London | 3 | All Maps | STV","players":null},{"server_id":321,"name":"Uncletopia | London | 4 | All Maps","name_short":"lon-4","host":"lon-1.uk.uncletopia.com","port":27045,"enabled":true,"region":"eu","cc":"gb","latitude":51.509865,"longitude":-0.118092,"reserved":0,"last_update":"0001-01-01T00:00:00Z","name_a2s":"Uncletopia | London | 4 | All Maps","protocol":17,"map":"koth_cascade","folder":"tf","game":"Team Fortress","app_id":440,"player_count":0,"max_players":24,"Bots":0,"server_type":"Dedicated","server_os":"Linux","password":true,"vac":true,"version":"7961495","steam_id":85568392924510193,"keywords":["cp","nocrits","nodmgspread","uncletopia"],"game_id":440,"stv_port":27046,"stv_name":"Uncletopia | London | 4 | All Maps | STV","players":null},{"server_id":21,"name":"Uncletopia | London | 5 | All Maps","name_short":"lon-5","host":"lon-1.uk.uncletopia.com","port":27055,"enabled":true,"region":"eu","cc":"gb","latitude":51.509865,"longitude":-0.118092,"reserved":0,"last_update":"0001-01-01T00:00:00Z","name_a2s":"Uncletopia | London | 5 | All Maps","protocol":17,"map":"koth_lakeside_final","folder":"tf","game":"Team Fortress","app_id":440,"player_count":0,"max_players":24,"Bots":0,"server_type":"Dedicated","server_os":"Linux","password":true,"vac":true,"version":"7961495","steam_id":85568392924742829,"keywords":["cp","nocrits","nodmgspread","uncletopia"],"game_id":440,"stv_port":27056,"stv_name":"Uncletopia | London | 5 | All Maps | STV","players":null},{"server_id":22,"name":"Uncletopia | London | 6 | All Maps","name_short":"lon-6","host":"lon-1.uk.uncletopia.com","port":27065,"enabled":true,"region":"eu","cc":"gb","latitude":51.509865,"longitude":-0.118092,"reserved":0,"last_update":"0001-01-01T00:00:00Z","name_a2s":"Uncletopia | London | 6 | All Maps","protocol":17,"map":"cp_dustbowl","folder":"tf","game":"Team Fortress","app_id":440,"player_count":0,"max_players":24,"Bots":0,"server_type":"Dedicated","server_os":"Linux","password":true,"vac":true,"version":"7961495","steam_id":85568392924742830,"keywords":["cp","nocrits","nodmgspread","uncletopia"],"game_id":440,"stv_port":27066,"stv_name":"Uncletopia | London | 6 | All Maps | STV","players":null},{"server_id":40,"name":"Uncletopia | London | 7 | Stopwatch","name_short":"lon-7","host":"lon-1.uk.uncletopia.com","port":27075,"enabled":true,"region":"eu","cc":"gb","latitude":51.509865,"longitude":-0.118092,"reserved":0,"last_update":"0001-01-01T00:00:00Z","name_a2s":"Uncletopia | London | 7 | Stopwatch","protocol":17,"map":"koth_lakeside_final","folder":"tf","game":"Team Fortress","app_id":440,"player_count":0,"max_players":24,"Bots":0,"server_type":"Dedicated","server_os":"Linux","password":true,"vac":true,"version":"7961495","steam_id":85568392924964314,"keywords":["cp","nocrits","nodmgspread","uncletopia"],"game_id":440,"stv_port":27076,"stv_name":"Uncletopia | London | 7 | Stopwatch | STV","players":null},{"server_id":41,"name":"Uncletopia | London | 8 | Community","name_short":"lon-8","host":"lon-1.uk.uncletopia.com","port":27085,"enabled":true,"region":"eu","cc":"gb","latitude":51.509865,"longitude":-0.118092,"reserved":0,"last_update":"0001-01-01T00:00:00Z","name_a2s":"Uncletopia | London | 8 | Community","protocol":17,"map":"cp_snakewater_final1","folder":"tf","game":"Team Fortress","app_id":440,"player_count":0,"max_players":24,"Bots":0,"server_type":"Dedicated","server_os":"Linux","password":true,"vac":true,"version":"7961495","steam_id":85568392924964315,"keywords":["cp","nocrits","nodmgspread","uncletopia"],"game_id":440,"stv_port":27086,"stv_name":"Uncletopia | London | 8 | Community | STV","players":null},{"server_id":300,"name":"Uncletopia | Montr√©al | 1 | One Thousand Uncles","name_short":"mtl-1","host":"mtl-1.ca.uncletopia.com","port":27015,"enabled":true,"region":"us-east","cc":"ca","latitude":45.50889,"longitude":-73.56167,"reserved":0,"last_update":"0001-01-01T00:00:00Z","name_a2s":"","protocol":0,"map":"","folder":"","game":"","app_id":0,"player_count":0,"max_players":0,"Bots":0,"server_type":"","server_os":"","password":false,"vac":false,"version":"","steam_id":0,"keywords":null,"game_id":0,"stv_port":0,"stv_name":"","players":null},{"server_id":301,"name":"Uncletopia | Montr√©al | 2 | One Thousand Uncles","name_short":"mtl-2","host":"mtl-1.ca.uncletopia.com","port":27025,"enabled":true,"region":"us-east","cc":"ca","latitude":45.50889,"longitude":-73.56167,"reserved":0,"last_update":"0001-01-01T00:00:00Z","name_a2s":"","protocol":0,"map":"","folder":"","game":"","app_id":0,"player_count":0,"max_players":0,"Bots":0,"server_type":"","server_os":"","password":false,"vac":false,"version":"","steam_id":0,"keywords":null,"game_id":0,"stv_port":0,"stv_name":"","players":null},{"server_id":302,"name":"Uncletopia | Montr√©al | 3 | One Thousand Uncles","name_short":"mtl-3","host":"mtl-1.ca.uncletopia.com","port":27035,"enabled":true,"region":"us-east","cc":"ca","latitude":45.50889,"longitude":-73.56167,"reserved":0,"last_update":"0001-01-01T00:00:00Z","name_a2s":"","protocol":0,"map":"","folder":"","game":"","app_id":0,"player_count":0,"max_players":0,"Bots":0,"server_type":"","server_os":"","password":false,"vac":false,"version":"","steam_id":0,"keywords":null,"game_id":0,"stv_port":0,"stv_name":"","players":null},{"server_id":13,"name":"Uncletopia | New York City | 1 | All Maps","name_short":"nyc-1","host":"nyc-1.us.uncletopia.com","port":27015,"enabled":true,"region":"us-east","cc":"us","latitude":40.73061,"longitude":-73.93524,"reserved":0,"last_update":"0001-01-01T00:00:00Z","name_a2s":"Uncletopia | New York City | 1 | All Maps","protocol":17,"map":"pl_pier","folder":"tf","game":"Team Fortress","app_id":440,"player_count":5,"max_players":24,"Bots":0,"server_type":"Dedicated","server_os":"Linux","password":true,"vac":true,"version":"7961495","steam_id":85568392924469993,"keywords":["nocrits","nodmgspread","payload","uncletopia"],"game_id":440,"stv_port":27016,"stv_name":"Uncletopia | New York City | 1 | All Maps | STV","players":[{"user_id":1062,"name":"KYLE KYLESON","steam_id":76561198021920887,"connected_time":545000000000,"state":"active","ping":59},{"user_id":1060,"name":"Thy_Hampter_blw.tf","steam_id":76561198796466427,"connected_time":838000000000,"state":"active","ping":63},{"user_id":1051,"name":"Yuki1234998","steam_id":76561198107358245,"connected_time":1910000000000,"state":"active","ping":110},{"user_id":1061,"name":"Coca162","steam_id":76561198230656540,"connected_time":731000000000,"state":"active","ping":104},{"user_id":1063,"name":"üçíbutaüçí","steam_id":76561198135538212,"connected_time":541000000000,"state":"active","ping":73}]},{"server_id":14,"name":"Uncletopia | New York City | 2 | All Maps","name_short":"nyc-2","host":"nyc-1.us.uncletopia.com","port":27025,"enabled":true,"region":"us-east","cc":"us","latitude":40.73061,"longitude":-73.93524,"reserved":0,"last_update":"0001-01-01T00:00:00Z","name_a2s":"Uncletopia | New York City | 2 | All Maps","protocol":17,"map":"cp_dustbowl","folder":"tf","game":"Team Fortress","app_id":440,"player_count":0,"max_players":24,"Bots":0,"server_type":"Dedicated","server_os":"Linux","password":true,"vac":true,"version":"7961495","steam_id":85568392924469994,"keywords":["cp","nocrits","nodmgspread","uncletopia"],"game_id":440,"stv_port":27026,"stv_name":"Uncletopia | New York City | 2 | All Maps | STV","players":null},{"server_id":15,"name":"Uncletopia | New York City | 3 | Stopwatch","name_short":"nyc-3","host":"nyc-1.us.uncletopia.com","port":27035,"enabled":true,"region":"us-east","cc":"us","latitude":40.73061,"longitude":-73.93524,"reserved":0,"last_update":"0001-01-01T00:00:00Z","name_a2s":"Uncletopia | New York City | 3 | Stopwatch","protocol":17,"map":"workshop/cp_reckoner_rc6.ugc674719999","folder":"tf","game":"Team Fortress","app_id":440,"player_count":0,"max_players":24,"Bots":0,"server_type":"Dedicated","server_os":"Linux","password":true,"vac":true,"version":"7961495","steam_id":85568392924742820,"keywords":["cp","nocrits","nodmgspread","uncletopia"],"game_id":440,"stv_port":27036,"stv_name":"Uncletopia | New York City | 3 | Stopwatch | STV","players":null},{"server_id":16,"name":"Uncletopia | New York City | 4 | Community","name_short":"nyc-4","host":"nyc-1.us.uncletopia.com","port":27045,"enabled":true,"region":"us-east","cc":"us","latitude":40.73061,"longitude":-73.93524,"reserved":0,"last_update":"0001-01-01T00:00:00Z","name_a2s":"Uncletopia | New York City | 4 | Community","protocol":17,"map":"cp_altitude","folder":"tf","game":"Team Fortress","app_id":440,"player_count":0,"max_players":24,"Bots":0,"server_type":"Dedicated","server_os":"Linux","password":true,"vac":true,"version":"7961495","steam_id":85568392924742821,"keywords":["cp","nocrits","nodmgspread","uncletopia"],"game_id":440,"stv_port":27046,"stv_name":"Uncletopia | New York City | 4 | Community | STV","players":null},{"server_id":142,"name":"Uncletopia | S√£o Paulo | 1 | All Maps","name_short":"sao-1","host":"sao-1.br.uncletopia.com","port":27015,"enabled":true,"region":"sa","cc":"br","latitude":-23.533773,"longitude":-46.62529,"reserved":0,"last_update":"0001-01-01T00:00:00Z","name_a2s":"Uncletopia | S√£o Paulo | 1 | All Maps","protocol":17,"map":"koth_lakeside_final","folder":"tf","game":"Team Fortress","app_id":440,"player_count":0,"max_players":24,"Bots":0,"server_type":"Dedicated","server_os":"Linux","password":true,"vac":true,"version":"7961495","steam_id":85568392924469996,"keywords":["cp","nocrits","nodmgspread","uncletopia"],"game_id":440,"stv_port":27016,"stv_name":"Uncletopia | S√£o Paulo | 1 | All Maps | STV","players":null},{"server_id":143,"name":"Uncletopia | S√£o Paulo | 2 | Community","name_short":"sao-2","host":"sao-2.br.uncletopia.com","port":27015,"enabled":true,"region":"sa","cc":"br","latitude":-23.533773,"longitude":-46.62529,"reserved":0,"last_update":"0001-01-01T00:00:00Z","name_a2s":"Uncletopia | S√£o Paulo | 2 | Community","protocol":17,"map":"workshop/koth_slaughter_rc1.ugc1712845210","folder":"tf","game":"Team Fortress","app_id":440,"player_count":0,"max_players":24,"Bots":0,"server_type":"Dedicated","server_os":"Linux","password":true,"vac":true,"version":"7961495","steam_id":85568392924485349,"keywords":["cp","nocrits","nodmgspread","uncletopia"],"game_id":440,"stv_port":27016,"stv_name":"Uncletopia | S√£o Paulo | 2 | Community | STV","players":null},{"server_id":7,"name":"Uncletopia | Seattle | 1 | All Maps","name_short":"sea-1","host":"sea-1.us.uncletopia.com","port":27015,"enabled":true,"region":"us-west","cc":"us","latitude":47.608013,"longitude":-122.33517,"reserved":0,"last_update":"0001-01-01T00:00:00Z","name_a2s":"Uncletopia | Seattle | 1 | All Maps","protocol":17,"map":"koth_harvest_final","folder":"tf","game":"Team Fortress","app_id":440,"player_count":24,"max_players":24,"Bots":0,"server_type":"Dedicated","server_os":"Linux","password":true,"vac":true,"version":"7961495","steam_id":85568392924469997,"keywords":["cp","nocrits","nodmgspread","uncletopia"],"game_id":440,"stv_port":27016,"stv_name":"Uncletopia | Seattle | 1 | All Maps | STV","players":[{"user_id":791,"name":"thats crazy","steam_id":76561198095480838,"connected_time":1292000000000,"state":"active","ping":44},{"user_id":774,"name":"[TrC] Dackstrus","steam_id":76561197973518509,"connected_time":3423000000000,"state":"active","ping":64},{"user_id":732,"name":"Arsonist Goose","steam_id":76561198147441830,"connected_time":7526000000000,"state":"active","ping":71},{"user_id":799,"name":"Username","steam_id":76561198198918781,"connected_time":625000000000,"state":"active","ping":73},{"user_id":771,"name":"ed","steam_id":76561198080475712,"connected_time":3635000000000,"state":"active","ping":68},{"user_id":789,"name":"fragadelphia","steam_id":76561198066116363,"connected_time":1953000000000,"state":"active","ping":63},{"user_id":783,"name":"smeasly","steam_id":76561198028718812,"connected_time":2226000000000,"state":"active","ping":42},{"user_id":797,"name":"Loot Bugs","steam_id":76561199028698726,"connected_time":709000000000,"state":"active","ping":45},{"user_id":795,"name":"pyrotechnic","steam_id":76561198043558709,"connected_time":737000000000,"state":"active","ping":46},{"user_id":794,"name":"worker","steam_id":76561198039608940,"connected_time":1051000000000,"state":"active","ping":45},{"user_id":798,"name":"Owls = Government Drones","steam_id":76561198439793697,"connected_time":706000000000,"state":"active","ping":91},{"user_id":765,"name":"NEBULA","steam_id":76561198086878595,"connected_time":4074000000000,"state":"active","ping":71},{"user_id":800,"name":"Trips","steam_id":76561198054581597,"connected_time":585000000000,"state":"active","ping":62},{"user_id":801,"name":"The Don","steam_id":76561198322125657,"connected_time":207000000000,"state":"active","ping":51},{"user_id":802,"name":"Mantis Toboggan, MD","steam_id":76561198000285984,"connected_time":136000000000,"state":"active","ping":74},{"user_id":796,"name":"NightHawk","steam_id":76561198276385639,"connected_time":736000000000,"state":"active","ping":91},{"user_id":785,"name":"Dr. Bob","steam_id":76561198020215410,"connected_time":2160000000000,"state":"active","ping":75},{"user_id":773,"name":"rushy :))","steam_id":76561198065825165,"connected_time":3585000000000,"state":"active","ping":46},{"user_id":803,"name":"delight","steam_id":76561197980280272,"connected_time":125000000000,"state":"active","ping":55},{"user_id":786,"name":"how do i cloak","steam_id":76561198137082062,"connected_time":2134000000000,"state":"active","ping":65},{"user_id":804,"name":"Gonotic gnelf","steam_id":76561199135847219,"connected_time":52000000000,"state":"active","ping":62},{"user_id":787,"name":"Hello Citizen","steam_id":76561198055522364,"connected_time":2127000000000,"state":"active","ping":78},{"user_id":805,"name":"lshleo","steam_id":76561198366975960,"connected_time":27000000000,"state":"active","ping":150},{"user_id":770,"name":"tophawkyy","steam_id":76561199075934685,"connected_time":3650000000000,"state":"active","ping":92}]},{"server_id":119,"name":"Uncletopia | Seattle | 2 | All Maps","name_short":"sea-2","host":"sea-1.us.uncletopia.com","port":27025,"enabled":true,"region":"us-west","cc":"us","latitude":47.608013,"longitude":-122.33517,"reserved":0,"last_update":"0001-01-01T00:00:00Z","name_a2s":"Uncletopia | Seattle | 2 | All Maps","protocol":17,"map":"pl_frontier_final","folder":"tf","game":"Team Fortress","app_id":440,"player_count":19,"max_players":24,"Bots":0,"server_type":"Dedicated","server_os":"Linux","password":true,"vac":true,"version":"7961495","steam_id":85568392924469998,"keywords":["nocrits","nodmgspread","payload","uncletopia"],"game_id":440,"stv_port":27026,"stv_name":"Uncletopia | Seattle | 2 | All Maps | STV","players":[{"user_id":542,"name":"vacachimuela","steam_id":76561198297332421,"connected_time":601000000000,"state":"active","ping":51},{"user_id":527,"name":"Stick","steam_id":76561198001509374,"connected_time":1669000000000,"state":"active","ping":90},{"user_id":410,"name":"Context","steam_id":76561197972634187,"connected_time":9911000000000,"state":"active","ping":53},{"user_id":497,"name":"CaiGaming","steam_id":76561198313023508,"connected_time":2861000000000,"state":"active","ping":76},{"user_id":548,"name":"havarti gaming","steam_id":76561198069895678,"connected_time":10000000000,"state":"spawning","ping":50},{"user_id":498,"name":"kwetzal","steam_id":76561198845749671,"connected_time":2855000000000,"state":"active","ping":66},{"user_id":531,"name":"Clornk (Destroyer of Happiness)","steam_id":76561198360396485,"connected_time":1293000000000,"state":"active","ping":64},{"user_id":506,"name":"Bolbi","steam_id":76561198051811597,"connected_time":2604000000000,"state":"active","ping":76},{"user_id":474,"name":"Zesty Zucchini Ziti","steam_id":76561198092494136,"connected_time":4427000000000,"state":"active","ping":105},{"user_id":507,"name":"crazyabe111","steam_id":76561198407686352,"connected_time":2584000000000,"state":"active","ping":73},{"user_id":546,"name":"scum","steam_id":76561198152149679,"connected_time":374000000000,"state":"active","ping":38},{"user_id":544,"name":"incredirocks","steam_id":76561198061079993,"connected_time":497000000000,"state":"active","ping":105},{"user_id":545,"name":"Funky Kong Jr.","steam_id":76561199351137762,"connected_time":461000000000,"state":"active","ping":43},{"user_id":520,"name":"ninety9dragonfly","steam_id":76561198363406983,"connected_time":1990000000000,"state":"active","ping":62},{"user_id":538,"name":"PurpleShoe","steam_id":76561198148759883,"connected_time":922000000000,"state":"active","ping":53},{"user_id":543,"name":"Majestic-A","steam_id":76561198988062101,"connected_time":601000000000,"state":"active","ping":45},{"user_id":505,"name":"CookieMeister","steam_id":76561198112646899,"connected_time":2746000000000,"state":"active","ping":52},{"user_id":488,"name":"ElectronX","steam_id":76561198116034988,"connected_time":3863000000000,"state":"active","ping":67},{"user_id":547,"name":"Beef","steam_id":76561198082238388,"connected_time":327000000000,"state":"active","ping":49}]},{"server_id":406,"name":"Uncletopia | Seattle | 3 | Stopwatch","name_short":"sea-3","host":"sea-1.us.uncletopia.com","port":27035,"enabled":true,"region":"us-west","cc":"us","latitude":47.608013,"longitude":-122.33517,"reserved":0,"last_update":"0001-01-01T00:00:00Z","name_a2s":"Uncletopia | Seattle | 3 | Stopwatch","protocol":17,"map":"workshop/pl_summercoast_rc8e.ugc1761528829","folder":"tf","game":"Team Fortress","app_id":440,"player_count":0,"max_players":24,"Bots":0,"server_type":"Dedicated","server_os":"Linux","password":true,"vac":true,"version":"7961495","steam_id":85568392924515217,"keywords":["nocrits","nodmgspread","payload","uncletopia"],"game_id":440,"stv_port":27036,"stv_name":"Uncletopia | Seattle | 3 | Stopwatch | STV","players":null},{"server_id":17,"name":"Uncletopia | San Francisco | 1 | All Maps","name_short":"sfo-1","host":"sfo-1.us.uncletopia.com","port":27015,"enabled":true,"region":"us-west","cc":"us","latitude":37.77397,"longitude":-122.4313,"reserved":0,"last_update":"0001-01-01T00:00:00Z","name_a2s":"Uncletopia | San Francisco | 1 | All Maps","protocol":17,"map":"koth_cascade","folder":"tf","game":"Team Fortress","app_id":440,"player_count":0,"max_players":24,"Bots":0,"server_type":"Dedicated","server_os":"Linux","password":true,"vac":true,"version":"7961495","steam_id":85568392924469999,"keywords":["cp","nocrits","nodmgspread","uncletopia"],"game_id":440,"stv_port":27016,"stv_name":"Uncletopia | San Francisco | 1 | All Maps | STV","players":null},{"server_id":18,"name":"Uncletopia | San Francisco | 2 | All Maps","name_short":"sfo-2","host":"sfo-1.us.uncletopia.com","port":27025,"enabled":true,"region":"us-west","cc":"us","latitude":37.77397,"longitude":-122.4313,"reserved":0,"last_update":"0001-01-01T00:00:00Z","name_a2s":"Uncletopia | San Francisco | 2 | All Maps","protocol":17,"map":"plr_bananabay","folder":"tf","game":"Team Fortress","app_id":440,"player_count":0,"max_players":24,"Bots":0,"server_type":"Dedicated","server_os":"Linux","password":true,"vac":true,"version":"7961495","steam_id":85568392924470000,"keywords":["nocrits","nodmgspread","payload","uncletopia"],"game_id":440,"stv_port":27026,"stv_name":"Uncletopia | San Francisco | 2 | All Maps | STV","players":null},{"server_id":19,"name":"Uncletopia | San Francisco | 3 | Stopwatch","name_short":"sfo-3","host":"sfo-1.us.uncletopia.com","port":27035,"enabled":true,"region":"us-west","cc":"us","latitude":37.77397,"longitude":-122.4313,"reserved":0,"last_update":"0001-01-01T00:00:00Z","name_a2s":"Uncletopia | San Francisco | 3 | Stopwatch","protocol":17,"map":"workshop/koth_ramjam_rc1.ugc459778887","folder":"tf","game":"Team Fortress","app_id":440,"player_count":0,"max_players":24,"Bots":0,"server_type":"Dedicated","server_os":"Linux","password":true,"vac":true,"version":"7961495","steam_id":85568392924742824,"keywords":["cp","nocrits","nodmgspread","uncletopia"],"game_id":440,"stv_port":27036,"stv_name":"Uncletopia | San Francisco | 3 | Stopwatch | STV","players":null},{"server_id":20,"name":"Uncletopia | San Francisco | 4 | Community","name_short":"sfo-4","host":"sfo-1.us.uncletopia.com","port":27045,"enabled":true,"region":"us-west","cc":"us","latitude":37.77397,"longitude":-122.4313,"reserved":0,"last_update":"0001-01-01T00:00:00Z","name_a2s":"Uncletopia | San Francisco | 4 | Community","protocol":17,"map":"workshop/cp_caldera_rc3.ugc2834196889","folder":"tf","game":"Team Fortress","app_id":440,"player_count":0,"max_players":24,"Bots":0,"server_type":"Dedicated","server_os":"Linux","password":true,"vac":true,"version":"7961495","steam_id":85568392924742826,"keywords":["cp","nocrits","nodmgspread","uncletopia"],"game_id":440,"stv_port":27046,"stv_name":"Uncletopia | San Francisco | 4 | Community | STV","players":null},{"server_id":141,"name":"Uncletopia | Sydney | 1 | All Maps","name_short":"syd-1","host":"syd-1.au.uncletopia.com","port":27015,"enabled":true,"region":"au","cc":"au","latitude":-33.865143,"longitude":151.2099,"reserved":0,"last_update":"0001-01-01T00:00:00Z","name_a2s":"Uncletopia | Sydney | 1 | All Maps","protocol":17,"map":"pl_swiftwater_final1","folder":"tf","game":"Team Fortress","app_id":440,"player_count":24,"max_players":24,"Bots":0,"server_type":"Dedicated","server_os":"Linux","password":true,"vac":true,"version":"7961495","steam_id":85568392924470001,"keywords":["nocrits","nodmgspread","payload","uncletopia"],"game_id":440,"stv_port":27016,"stv_name":"Uncletopia | Sydney | 1 | All Maps | STV","players":[{"user_id":180,"name":"Pompadouraus","steam_id":76561198327530525,"connected_time":4199000000000,"state":"active","ping":75},{"user_id":169,"name":"kentral","steam_id":76561199128944380,"connected_time":6024000000000,"state":"active","ping":53},{"user_id":97,"name":"voxii","steam_id":76561198099698281,"connected_time":12793000000000,"state":"active","ping":68},{"user_id":197,"name":"Mr ._. Phil","steam_id":76561198081187571,"connected_time":2782000000000,"state":"active","ping":39},{"user_id":216,"name":"Overlold","steam_id":76561197978635495,"connected_time":760000000000,"state":"active","ping":86},{"user_id":214,"name":"Qu√Ω Ng√†i Tom","steam_id":76561199503025139,"connected_time":836000000000,"state":"active","ping":169},{"user_id":151,"name":"Dog With Headphones","steam_id":76561198111076916,"connected_time":8830000000000,"state":"active","ping":64},{"user_id":143,"name":"elmaxo","steam_id":76561198122259040,"connected_time":8893000000000,"state":"active","ping":44},{"user_id":212,"name":"The :)","steam_id":76561198958059883,"connected_time":1205000000000,"state":"active","ping":80},{"user_id":155,"name":"Astro Samurai","steam_id":76561198328252260,"connected_time":7911000000000,"state":"active","ping":52},{"user_id":219,"name":"rotomwashed","steam_id":76561198058375270,"connected_time":696000000000,"state":"active","ping":38},{"user_id":213,"name":"MushyHyena9516","steam_id":76561198323314165,"connected_time":1121000000000,"state":"active","ping":85},{"user_id":220,"name":"Biggus Dickus","steam_id":76561199138574655,"connected_time":694000000000,"state":"active","ping":86},{"user_id":146,"name":"Cymboll","steam_id":76561198043584364,"connected_time":8861000000000,"state":"active","ping":31},{"user_id":184,"name":"Reefo","steam_id":76561198161626796,"connected_time":4017000000000,"state":"active","ping":70},{"user_id":206,"name":"Jontohil2","steam_id":76561198114091810,"connected_time":1862000000000,"state":"active","ping":64},{"user_id":175,"name":"Pasta.","steam_id":76561198124243169,"connected_time":5088000000000,"state":"active","ping":58},{"user_id":147,"name":"yummyfraco0404","steam_id":76561198044522636,"connected_time":8861000000000,"state":"active","ping":48},{"user_id":205,"name":"Sinister80s","steam_id":76561198343540472,"connected_time":1924000000000,"state":"active","ping":72},{"user_id":207,"name":"sober tony","steam_id":76561198046239819,"connected_time":1688000000000,"state":"active","ping":95},{"user_id":183,"name":"touchem","steam_id":76561199082450690,"connected_time":4192000000000,"state":"active","ping":62},{"user_id":221,"name":"Blondie","steam_id":76561198046977058,"connected_time":679000000000,"state":"active","ping":71},{"user_id":215,"name":"n3dd","steam_id":76561198159412279,"connected_time":800000000000,"state":"active","ping":52},{"user_id":217,"name":"ItzDecster","steam_id":76561198321908932,"connected_time":710000000000,"state":"active","ping":67}]},{"server_id":123,"name":"Uncletopia | Sydney | 2 | All Maps","name_short":"syd-2","host":"syd-1.au.uncletopia.com","port":27025,"enabled":true,"region":"au","cc":"au","latitude":-33.865143,"longitude":151.2099,"reserved":0,"last_update":"0001-01-01T00:00:00Z","name_a2s":"Uncletopia | Sydney | 2 | All Maps","protocol":17,"map":"pl_barnblitz","folder":"tf","game":"Team Fortress","app_id":440,"player_count":24,"max_players":24,"Bots":0,"server_type":"Dedicated","server_os":"Linux","password":true,"vac":true,"version":"7961495","steam_id":85568392924470002,"keywords":["nocrits","nodmgspread","payload","uncletopia"],"game_id":440,"stv_port":27026,"stv_name":"Uncletopia | Sydney | 2 | All Maps | STV","players":[{"user_id":158,"name":"lotus","steam_id":76561199045059964,"connected_time":78000000000,"state":"active","ping":114},{"user_id":135,"name":"Chrstufr","steam_id":76561198028065572,"connected_time":1124000000000,"state":"active","ping":46},{"user_id":152,"name":"Bio","steam_id":76561198441581752,"connected_time":285000000000,"state":"active","ping":96},{"user_id":143,"name":"Philadelphia Collins","steam_id":76561198069610070,"connected_time":613000000000,"state":"active","ping":58},{"user_id":148,"name":"Lick_My_Nuts","steam_id":76561198410558580,"connected_time":422000000000,"state":"active","ping":88},{"user_id":145,"name":"symphony (of screams)","steam_id":76561199400467501,"connected_time":515000000000,"state":"active","ping":101},{"user_id":134,"name":"F.R.O.G Friend","steam_id":76561198054505772,"connected_time":1215000000000,"state":"active","ping":59},{"user_id":63,"name":"carrot monster","steam_id":76561199056025092,"connected_time":5166000000000,"state":"active","ping":50},{"user_id":149,"name":"Carpark (not deodorenting)","steam_id":76561198137128594,"connected_time":350000000000,"state":"active","ping":51},{"user_id":147,"name":"Sover blw.tf","steam_id":76561198136347837,"connected_time":487000000000,"state":"active","ping":126},{"user_id":131,"name":"Tqs_Remx","steam_id":76561198073584755,"connected_time":1308000000000,"state":"active","ping":35},{"user_id":124,"name":"Jiggles","steam_id":76561198043939682,"connected_time":1899000000000,"state":"active","ping":40},{"user_id":150,"name":"Goose McBroose","steam_id":76561198232287708,"connected_time":349000000000,"state":"active","ping":71},{"user_id":153,"name":"Guy LeDouche","steam_id":76561198004628151,"connected_time":276000000000,"state":"active","ping":66},{"user_id":136,"name":"Kelpy","steam_id":76561198137658085,"connected_time":1045000000000,"state":"active","ping":61},{"user_id":72,"name":"hazz_mcpie -BvM-","steam_id":76561198092450084,"connected_time":4203000000000,"state":"active","ping":85},{"user_id":154,"name":"Wonky","steam_id":76561198356866756,"connected_time":242000000000,"state":"active","ping":71},{"user_id":155,"name":"Greg","steam_id":76561198195563143,"connected_time":238000000000,"state":"active","ping":82},{"user_id":156,"name":"tenten","steam_id":76561198402822072,"connected_time":136000000000,"state":"active","ping":117},{"user_id":40,"name":"Toastie","steam_id":76561197990059475,"connected_time":6967000000000,"state":"active","ping":45},{"user_id":157,"name":"invert.","steam_id":76561198049619174,"connected_time":91000000000,"state":"active","ping":67},{"user_id":159,"name":"SassnCheeky","steam_id":76561197993875592,"connected_time":74000000000,"state":"active","ping":43},{"user_id":160,"name":"FascismSalad","steam_id":76561198262410973,"connected_time":69000000000,"state":"active","ping":55},{"user_id":161,"name":"noguchi sensei","steam_id":76561198115314385,"connected_time":34000000000,"state":"active","ping":175}]},{"server_id":395,"name":"Uncletopia | Sydney | 3 | All Maps","name_short":"syd-3","host":"syd-1.au.uncletopia.com","port":27035,"enabled":true,"region":"au","cc":"au","latitude":-33.865143,"longitude":151.2099,"reserved":0,"last_update":"0001-01-01T00:00:00Z","name_a2s":"Uncletopia | Sydney | 3 | All Maps","protocol":17,"map":"pl_snowycoast","folder":"tf","game":"Team Fortress","app_id":440,"player_count":0,"max_players":24,"Bots":0,"server_type":"Dedicated","server_os":"Linux","password":true,"vac":true,"version":"7961495","steam_id":85568392925194467,"keywords":["nocrits","nodmgspread","payload","uncletopia"],"game_id":440,"stv_port":27036,"stv_name":"Uncletopia | Sydney | 3 | All Maps | STV","players":null},{"server_id":396,"name":"Uncletopia | Sydney | 4 | All Maps","name_short":"syd-4","host":"syd-1.au.uncletopia.com","port":27045,"enabled":true,"region":"au","cc":"au","latitude":-33.865143,"longitude":151.2099,"reserved":0,"last_update":"0001-01-01T00:00:00Z","name_a2s":"Uncletopia | Sydney | 4 | All Maps","protocol":17,"map":"pl_pier","folder":"tf","game":"Team Fortress","app_id":440,"player_count":0,"max_players":24,"Bots":0,"server_type":"Dedicated","server_os":"Linux","password":true,"vac":true,"version":"7961495","steam_id":85568392925397958,"keywords":["nocrits","nodmgspread","payload","uncletopia"],"game_id":440,"stv_port":27046,"stv_name":"Uncletopia | Sydney | 4 | All Maps | STV","players":null},{"server_id":58,"name":"Uncletopia | Sydney | 5 | Stopwatch","name_short":"syd-5","host":"syd-1.au.uncletopia.com","port":27055,"enabled":true,"region":"au","cc":"au","latitude":-33.865143,"longitude":151.2099,"reserved":0,"last_update":"0001-01-01T00:00:00Z","name_a2s":"Uncletopia | Sydney | 5 | Stopwatch","protocol":17,"map":"workshop/pl_summercoast_rc8e.ugc1761528829","folder":"tf","game":"Team Fortress","app_id":440,"player_count":0,"max_players":24,"Bots":0,"server_type":"Dedicated","server_os":"Linux","password":true,"vac":true,"version":"7961495","steam_id":85568392925397959,"keywords":["nocrits","nodmgspread","payload","uncletopia"],"game_id":440,"stv_port":27056,"stv_name":"Uncletopia | Sydney | 5 | Stopwatch | STV","players":null},{"server_id":59,"name":"Uncletopia | Sydney | 6 | Community","name_short":"syd-6","host":"syd-1.au.uncletopia.com","port":27065,"enabled":true,"region":"au","cc":"au","latitude":-33.865143,"longitude":151.2099,"reserved":0,"last_update":"0001-01-01T00:00:00Z","name_a2s":"Uncletopia | Sydney | 6 | Community","protocol":17,"map":"workshop/pl_shoreleave_rc2.ugc1238849347","folder":"tf","game":"Team Fortress","app_id":440,"player_count":0,"max_players":24,"Bots":0,"server_type":"Dedicated","server_os":"Linux","password":true,"vac":true,"version":"7961495","steam_id":85568392925397960,"keywords":["nocrits","nodmgspread","payload","uncletopia"],"game_id":440,"stv_port":27066,"stv_name":"Uncletopia | Sydney | 6 | Community | STV","players":null},{"server_id":49,"name":"Uncletopia | Warsaw | 1 | One Thousand Uncles","name_short":"waw-1","host":"waw-1.pl.uncletopia.com","port":27015,"enabled":true,"region":"eu","cc":"pl","latitude":52.2297,"longitude":21.017532,"reserved":0,"last_update":"0001-01-01T00:00:00Z","name_a2s":"Uncletopia | Warsaw | 1 | One Thousand Uncles","protocol":17,"map":"pl_badwater","folder":"tf","game":"Team Fortress","app_id":440,"player_count":26,"max_players":32,"Bots":16,"server_type":"Dedicated","server_os":"Linux","password":true,"vac":true,"version":"7961495","steam_id":85568392925397850,"keywords":["alltalk","bots","danepve","increased_maxplayers","nocrits","norespawntime","payload","uncletopia"],"game_id":440,"stv_port":0,"stv_name":"","players":[{"user_id":3,"name":"David Gaming","steam_id":76561199162746976,"connected_time":5291000000000,"state":"active","ping":84},{"user_id":20,"name":"LikestormL","steam_id":76561199110114513,"connected_time":4576000000000,"state":"active","ping":123},{"user_id":44,"name":"Soya Suki","steam_id":76561197998106435,"connected_time":1812000000000,"state":"active","ping":67},{"user_id":22,"name":"Alsu","steam_id":76561198904141412,"connected_time":4308000000000,"state":"active","ping":112},{"user_id":25,"name":"Ahmed255","steam_id":76561198965597848,"connected_time":3341000000000,"state":"active","ping":129},{"user_id":42,"name":"korea","steam_id":76561198120520111,"connected_time":3009000000000,"state":"active","ping":57},{"user_id":45,"name":"Toripistefi","steam_id":76561199173353462,"connected_time":1350000000000,"state":"active","ping":105},{"user_id":46,"name":"hiyoko main","steam_id":76561199000135577,"connected_time":1103000000000,"state":"active","ping":58},{"user_id":47,"name":"Nag","steam_id":76561197970488206,"connected_time":914000000000,"state":"active","ping":103},{"user_id":54,"name":"Burrito","steam_id":76561198327217654,"connected_time":51000000000,"state":"active","ping":54}]},{"server_id":50,"name":"Uncletopia | Warsaw | 2 | One Thousand Uncles","name_short":"waw-2","host":"waw-1.pl.uncletopia.com","port":27025,"enabled":true,"region":"eu","cc":"pl","latitude":52.2297,"longitude":21.017532,"reserved":0,"last_update":"0001-01-01T00:00:00Z","name_a2s":"Uncletopia | Warsaw | 2 | One Thousand Uncles","protocol":17,"map":"pl_goldrush","folder":"tf","game":"Team Fortress","app_id":440,"player_count":0,"max_players":32,"Bots":0,"server_type":"Dedicated","server_os":"Linux","password":true,"vac":true,"version":"7961495","steam_id":85568392925397851,"keywords":["alltalk","danepve","increased_maxplayers","nocrits","norespawntime","payload","uncletopia"],"game_id":440,"stv_port":0,"stv_name":"","players":null},{"server_id":51,"name":"Uncletopia | Warsaw | 3 | All Maps","name_short":"waw-3","host":"waw-1.pl.uncletopia.com","port":27035,"enabled":true,"region":"eu","cc":"pl","latitude":52.2297,"longitude":21.017532,"reserved":0,"last_update":"0001-01-01T00:00:00Z","name_a2s":"Uncletopia | Warsaw | 3 | All Maps","protocol":17,"map":"plr_pipeline","folder":"tf","game":"Team Fortress","app_id":440,"player_count":0,"max_players":24,"Bots":0,"server_type":"Dedicated","server_os":"Linux","password":true,"vac":true,"version":"7961495","steam_id":85568392925397852,"keywords":["nocrits","nodmgspread","payload","uncletopia"],"game_id":440,"stv_port":27036,"stv_name":"Uncletopia | Warsaw | 3 | All Maps | STV","players":null},{"server_id":52,"name":"Uncletopia | Warsaw | 4 | All Maps","name_short":"waw-4","host":"waw-1.pl.uncletopia.com","port":27045,"enabled":true,"region":"eu","cc":"pl","latitude":52.2297,"longitude":21.017532,"reserved":0,"last_update":"0001-01-01T00:00:00Z","name_a2s":"Uncletopia | Warsaw | 4 | All Maps","protocol":17,"map":"cp_coldfront","folder":"tf","game":"Team Fortress","app_id":440,"player_count":0,"max_players":24,"Bots":0,"server_type":"Dedicated","server_os":"Linux","password":true,"vac":true,"version":"7961495","steam_id":85568392925397853,"keywords":["cp","nocrits","nodmgspread","uncletopia"],"game_id":440,"stv_port":27046,"stv_name":"Uncletopia | Warsaw | 4 | All Maps | STV","players":null},{"server_id":53,"name":"Uncletopia | Warsaw | 5 | Stopwatch","name_short":"waw-5","host":"waw-1.pl.uncletopia.com","port":27055,"enabled":true,"region":"eu","cc":"pl","latitude":52.2297,"longitude":21.017532,"reserved":0,"last_update":"0001-01-01T00:00:00Z","name_a2s":"Uncletopia | Warsaw | 5 | Stopwatch","protocol":17,"map":"workshop/koth_bagel_rc6.ugc2514036946","folder":"tf","game":"Team Fortress","app_id":440,"player_count":0,"max_players":24,"Bots":0,"server_type":"Dedicated","server_os":"Linux","password":true,"vac":true,"version":"7961495","steam_id":85568392925397854,"keywords":["cp","nocrits","nodmgspread","uncletopia"],"game_id":440,"stv_port":27056,"stv_name":"Uncletopia | Warsaw | 5 | Stopwatch | STV","players":null},{"server_id":54,"name":"Uncletopia | Warsaw | 6 | Community","name_short":"waw-6","host":"waw-1.pl.uncletopia.com","port":27065,"enabled":true,"region":"eu","cc":"pl","latitude":52.2297,"longitude":21.017532,"reserved":0,"last_update":"0001-01-01T00:00:00Z","name_a2s":"Uncletopia | Warsaw | 6 | Community","protocol":17,"map":"workshop/pl_badwater_pro_v12.ugc2142942074","folder":"tf","game":"Team Fortress","app_id":440,"player_count":0,"max_players":24,"Bots":0,"server_type":"Dedicated","server_os":"Linux","password":true,"vac":true,"version":"7961495","steam_id":85568392925397856,"keywords":["nocrits","nodmgspread","payload","uncletopia"],"game_id":440,"stv_port":27066,"stv_name":"Uncletopia | Warsaw | 6 | Community | STV","players":null}]}