{"status":true,"message":"","result":[{"server_id":9,"name":"Uncletopia | Atlanta | 1 | All Maps","name_short":"atl-1","host":"atl-1.us.uncletopia.com","port":27015,"enabled":true,"region":"us-east","cc":"us","latitude":33.753746,"longitude":-84.38633,"reserved":0,"last_update":"0001-01-01T00:00:00Z","name_a2s":"Uncletopia | Atlanta | 1 | All Maps","protocol":17,"map":"koth_highpass","folder":"tf","game":"Team Fortress","app_id":440,"player_count":0,"max_players":24,"Bots":0,"server_type":"Dedicated","server_os":"Linux","password":true,"vac":true,"version":"7961495","steam_id":85568392924469982,"keywords":["cp","nocrits","nodmgspread","uncletopia"],"game_id":440,"stv_port":27016,"stv_name":"Uncletopia | Atlanta | 1 | All Maps | STV","players":null},{"server_id":104,"name":"Uncletopia | Atlanta | 2 | All Maps","name_short":"atl-2","host":"atl-1.us.uncletopia.com","port":27025,"enabled":true,"region":"us-east","cc":"us","latitude":33.753746,"longitude":-84.38633,"reserved":0,"last_update":"0001-01-01T00:00:00Z","name_a2s":"Uncletopia | Atlanta | 2 | All Maps","protocol":17,"map":"cp_sunshine","folder":"tf","game":"Team Fortress","app_id":440,"player_count":24,"max_players":24,"Bots":0,"server_type":"Dedicated","server_os":"Linux","password":true,"vac":true,"version":"7961495","steam_id":85568392924469983,"keywords":["cp","nocrits","nodmgspread","uncletopia"],"game_id":440,"stv_port":27026,"stv_name":"Uncletopia | Atlanta | 2 | All Maps | STV","players":[{"user_id":752,"name":"ਹੁੱਡ ਕਾਉਬੌਏ","steam_id":76561198021308963,"connected_time":1386000000000,"state":"active","ping":76},{"user_id":743,"name":"no more fucks to give","steam_id":76561199129974320,"connected_time":1970000000000,"state":"active","ping":47},{"user_id":765,"name":"ThePowerOfPoe","steam_id":76561199013287986,"connected_time":331000000000,"state":"active","ping":110},{"user_id":741,"name":"Blorgh","steam_id":76561197990534924,"connected_time":2066000000000,"state":"active","ping":106},{"user_id":583,"name":"ArcticTone","steam_id":76561199163932146,"connected_time":14923000000000,"state":"active","ping":53},{"user_id":728,"name":"DaMultiversalist","steam_id":76561198239552412,"connected_time":2880000000000,"state":"active","ping":82},{"user_id":753,"name":"Snoopist","steam_id":76561198144023761,"connected_time":1378000000000,"state":"active","ping":50},{"user_id":734,"name":"Liver stealer","steam_id":76561199029954287,"connected_time":2574000000000,"state":"active","ping":126},{"user_id":747,"name":"kernstjean97","steam_id":76561199216661045,"connected_time":1678000000000,"state":"active","ping":77},{"user_id":742,"name":"Engi-man","steam_id":76561199438537880,"connected_time":2044000000000,"state":"active","ping":180},{"user_id":769,"name":"Delta","steam_id":76561198158985472,"connected_time":162000000000,"state":"active","ping":107},{"user_id":748,"name":"medic tf2","steam_id":76561198004065704,"connected_time":1573000000000,"state":"active","ping":82},{"user_id":771,"name":"NotPikawin","steam_id":76561198106844042,"connected_time":79000000000,"state":"active","ping":77},{"user_id":761,"name":"lu","steam_id":76561198080731872,"connected_time":822000000000,"state":"active","ping":71},{"user_id":726,"name":"Gay Cake","steam_id":76561198004388831,"connected_time":3746000000000,"state":"active","ping":76},{"user_id":763,"name":"Snikersnee","steam_id":76561198156512551,"connected_time":378000000000,"state":"active","ping":80},{"user_id":725,"name":"Holiday Fartcruise","steam_id":76561198043851584,"connected_time":3822000000000,"state":"active","ping":129},{"user_id":764,"name":"denzell05","steam_id":76561198086987061,"connected_time":365000000000,"state":"active","ping":106},{"user_id":772,"name":"Spencer","steam_id":76561198329247286,"connected_time":44000000000,"state":"active","ping":70},{"user_id":720,"name":"El Gato Paranoico","steam_id":76561198116567116,"connected_time":4592000000000,"state":"active","ping":91},{"user_id":750,"name":"sumerian death metal warrior","steam_id":76561198997380708,"connected_time":1555000000000,"state":"active","ping":89},{"user_id":758,"name":"Ghor7","steam_id":76561198025552658,"connected_time":1174000000000,"state":"active","ping":86},{"user_id":751,"name":"Canadian Beb","steam_id":76561198055462395,"connected_time":1504000000000,"state":"active","ping":79},{"user_id":768,"name":"RaixaR","steam_id":76561198025289430,"connected_time":189000000000,"state":"active","ping":72}]},{"server_id":400,"name":"Uncletopia | Atlanta | 3 | Stopwatch","name_short":"atl-3","host":"atl-1.us.uncletopia.com","port":27035,"enabled":true,"region":"us-east","cc":"us","latitude":33.753746,"longitude":-84.38633,"reserved":0,"last_update":"0001-01-01T00:00:00Z","name_a2s":"Uncletopia | Atlanta | 3 | Stopwatch","protocol":17,"map":"koth_highpass","folder":"tf","game":"Team Fortress","app_id":440,"player_count":0,"max_players":24,"Bots":0,"server_type":"Dedicated","server_os":"Linux","password":true,"vac":true,"version":"7961495","steam_id":85568392924515187,"keywords":["cp","nocrits","nodmgspread","uncletopia"],"game_id":440,"stv_port":27036,"stv_name":"Uncletopia | Atlanta | 3 | Stopwatch | STV","players":null},{"server_id":401,"name":"Uncletopia | Atlanta | 4 | Community","name_short":"atl-4","host":"atl-1.us.uncletopia.com","port":27045,"enabled":true,"region":"us-east","cc":"us","latitude":33.753746,"longitude":-84.38633,"reserved":0,"last_update":"0001-01-01T00:00:00Z","name_a2s":"Uncletopia | Atlanta | 4 | Community","protocol":17,"map":"workshop/koth_trenchfoot_ab1.ugc731436616","folder":"tf","game":"Team Fortress","app_id":440,"player_count":0,"max_players":24,"Bots":0,"server_type":"Dedicated","server_os":"Linux","password":true,"vac":true,"version":"7961495","steam_id":85568392924515188,"keywords":["cp","nocrits","nodmgspread","uncletopia"],"game_id":440,"stv_port":27046,"stv_name":"Uncletopia | Atlanta | 4 | Community | STV","players":null},{"server_id":2,"name":"Uncletopia | Chicago | 1 | All Maps","name_short":"chi-1","host":"chi-1.us.uncletopia.com","port":27015,"enabled":true,"region":"us-central","cc":"us","latitude":41.881832,"longitude":-87.62318,"reserved":0,"last_update":"0001-01-01T00:00:00Z","name_a2s":"Uncletopia | Chicago | 1 | All Maps","protocol":17,"map":"cp_dustbowl","folder":"tf","game":"Team Fortress","app_id":440,"player_count":3,"max_players":24,"Bots":0,"server_type":"Dedicated","server_os":"Linux","password":true,"vac":true,"version":"7961495","steam_id":85568392924469984,"keywords":["cp","nocrits","nodmgspread","uncletopia"],"game_id":440,"stv_port":27016,"stv_name":"Uncletopia | Chicago | 1 | All Maps | STV","players":[{"user_id":890,"name":"Micc","steam_id":76561199447744486,"connected_time":2390000000000,"state":"active","ping":88},{"user_id":903,"name":"Castroy","steam_id":76561198108160099,"connected_time":1373000000000,"state":"active","ping":44},{"user_id":904,"name":"KimonoBoxFox","steam_id":76561197968892800,"connected_time":1336000000000,"state":"active","ping":103}]},{"server_id":106,"name":"Uncletopia | Chicago | 2 | All Maps","name_short":"chi-2","host":"chi-1.us.uncletopia.com","port":27025,"enabled":true,"region":"us-central","cc":"us","latitude":41.881832,"longitude":-87.62318,"reserved":0,"last_update":"0001-01-01T00:00:00Z","name_a2s":"Uncletopia | Chicago | 2 | All Maps","protocol":17,"map":"pl_badwater","folder":"tf","game":"Team Fortress","app_id":440,"player_count":24,"max_players":24,"Bots":0,"server_type":"Dedicated","server_os":"Linux","password":true,"vac":true,"version":"7961495","steam_id":85568392924469985,"keywords":["nocrits","nodmgspread","payload","uncletopia"],"game_id":440,"stv_port":27026,"stv_name":"Uncletopia | Chicago | 2 | All Maps | STV","players":[{"user_id":734,"name":"Meso","steam_id":76561197988971820,"connected_time":1656000000000,"state":"active","ping":46},{"user_id":750,"name":"Kwol-o Tingba","steam_id":76561198067653291,"connected_time":388000000000,"state":"active","ping":57},{"user_id":747,"name":"steven","steam_id":76561198173047169,"connected_time":739000000000,"state":"active","ping":57},{"user_id":751,"name":"Thingy","steam_id":76561198140161202,"connected_time":382000000000,"state":"active","ping":85},{"user_id":745,"name":"Raccoon Wizard","steam_id":76561198072562591,"connected_time":1005000000000,"state":"active","ping":76},{"user_id":733,"name":"junebug","steam_id":76561198126662775,"connected_time":1694000000000,"state":"active","ping":47},{"user_id":695,"name":"PizzaThot","steam_id":76561198278237289,"connected_time":4617000000000,"state":"active","ping":87},{"user_id":740,"name":"MoonWolf","steam_id":76561198095735033,"connected_time":1478000000000,"state":"active","ping":68},{"user_id":749,"name":"PinguEnjoyer6","steam_id":76561199186723516,"connected_time":457000000000,"state":"active","ping":112},{"user_id":736,"name":"Alecto","steam_id":76561198042476864,"connected_time":1601000000000,"state":"active","ping":45},{"user_id":737,"name":"Rohi Mig","steam_id":76561198113623627,"connected_time":1597000000000,"state":"active","ping":65},{"user_id":758,"name":"Bully.Hunter_76","steam_id":76561198150769967,"connected_time":318000000000,"state":"active","ping":94},{"user_id":738,"name":"Goofball","steam_id":76561199367622042,"connected_time":1579000000000,"state":"active","ping":99},{"user_id":753,"name":"JakePackage","steam_id":76561198033973438,"connected_time":349000000000,"state":"active","ping":73},{"user_id":704,"name":"Jerry Kool-Aid","steam_id":76561198030281560,"connected_time":4436000000000,"state":"active","ping":64},{"user_id":754,"name":"be","steam_id":76561198000824533,"connected_time":343000000000,"state":"active","ping":82},{"user_id":693,"name":"Nefarious Fentsmokaa Rudebwoy","steam_id":76561198160572249,"connected_time":4649000000000,"state":"active","ping":80},{"user_id":739,"name":"Neo","steam_id":76561198112618713,"connected_time":1562000000000,"state":"active","ping":81},{"user_id":729,"name":"Crystal Toa","steam_id":76561198033861221,"connected_time":2561000000000,"state":"active","ping":111},{"user_id":746,"name":"Genderneutron","steam_id":76561199022773775,"connected_time":866000000000,"state":"active","ping":97},{"user_id":742,"name":"Saucy Boy","steam_id":76561198178332031,"connected_time":1449000000000,"state":"active","ping":73},{"user_id":744,"name":"Bullahorns","steam_id":76561197997138052,"connected_time":1321000000000,"state":"active","ping":58},{"user_id":756,"name":"wile","steam_id":76561198125261443,"connected_time":330000000000,"state":"active","ping":119},{"user_id":757,"name":"Loleo","steam_id":76561198348132374,"connected_time":328000000000,"state":"active","ping":58}]},{"server_id":402,"name":"Uncletopia | Chicago | 3 | All Maps","name_short":"chi-3","host":"chi-1.us.uncletopia.com","port":27035,"enabled":true,"region":"us-central","cc":"us","latitude":41.881832,"longitude":-87.62318,"reserved":0,"last_update":"0001-01-01T00:00:00Z","name_a2s":"Uncletopia | Chicago | 3 | All Maps","protocol":17,"map":"cp_snakewater_final1","folder":"tf","game":"Team Fortress","app_id":440,"player_count":14,"max_players":24,"Bots":0,"server_type":"Dedicated","server_os":"Linux","password":true,"vac":true,"version":"7961495","steam_id":85568392924515191,"keywords":["cp","nocrits","nodmgspread","uncletopia"],"game_id":440,"stv_port":27036,"stv_name":"Uncletopia | Chicago | 3 | All Maps | STV","players":[{"user_id":598,"name":"jb","steam_id":76561198038607085,"connected_time":617000000000,"state":"spawning","ping":128},{"user_id":593,"name":"kikikikoboy","steam_id":76561198073380271,"connected_time":922000000000,"state":"spawning","ping":154},{"user_id":591,"name":"Bearegard","steam_id":76561198061926542,"connected_time":1072000000000,"state":"spawning","ping":97},{"user_id":557,"name":"Cabbage","steam_id":76561198405573530,"connected_time":3995000000000,"state":"spawning","ping":127},{"user_id":512,"name":"The Great Bearer of Wealth","steam_id":76561198352687317,"connected_time":7902000000000,"state":"spawning","ping":140},{"user_id":546,"name":"Large Man","steam_id":76561198880396651,"connected_time":5393000000000,"state":"spawning","ping":164},{"user_id":493,"name":"shitass | troutsupply.net","steam_id":76561198210572481,"connected_time":10039000000000,"state":"spawning","ping":205},{"user_id":594,"name":"Riff III","steam_id":76561198066921423,"connected_time":913000000000,"state":"spawning","ping":151},{"user_id":571,"name":"The High Sorcerer","steam_id":76561198381214177,"connected_time":2882000000000,"state":"spawning","ping":105},{"user_id":597,"name":"Loagurt","steam_id":76561198076171759,"connected_time":676000000000,"state":"spawning","ping":194},{"user_id":561,"name":"HIDDEN HIPPO the hippo","steam_id":76561198071628457,"connected_time":3791000000000,"state":"spawning","ping":159},{"user_id":564,"name":"Duck","steam_id":76561198076077244,"connected_time":3430000000000,"state":"spawning","ping":74},{"user_id":596,"name":"bladees realest, saddest verse","steam_id":76561198098099826,"connected_time":832000000000,"state":"spawning","ping":175},{"user_id":590,"name":"minecraft","steam_id":76561198104345201,"connected_time":1177000000000,"state":"spawning","ping":189}]},{"server_id":403,"name":"Uncletopia | Chicago | 4 | All Maps","name_short":"chi-4","host":"chi-1.us.uncletopia.com","port":27045,"enabled":true,"region":"us-central","cc":"us","latitude":41.881832,"longitude":-87.62318,"reserved":0,"last_update":"0001-01-01T00:00:00Z","name_a2s":"Uncletopia | Chicago | 4 | All Maps","protocol":17,"map":"pl_borneo","folder":"tf","game":"Team Fortress","app_id":440,"player_count":24,"max_players":24,"Bots":0,"server_type":"Dedicated","server_os":"Linux","password":true,"vac":true,"version":"7961495","steam_id":85568392924515193,"keywords":["nocrits","nodmgspread","payload","uncletopia"],"game_id":440,"stv_port":27046,"stv_name":"Uncletopia | Chicago | 4 | All Maps | STV","players":[{"user_id":811,"name":"Kel","steam_id":76561198046283896,"connected_time":1073000000000,"state":"active","ping":74},{"user_id":817,"name":"WILDF1RE","steam_id":76561198050098483,"connected_time":485000000000,"state":"active","ping":90},{"user_id":800,"name":"♡Ame♡","steam_id":76561198071217748,"connected_time":1650000000000,"state":"active","ping":60},{"user_id":801,"name":"We Make It Look Easy™","steam_id":76561198024442760,"connected_time":1628000000000,"state":"active","ping":66},{"user_id":802,"name":"SpycyNoodles","steam_id":76561198309439750,"connected_time":1609000000000,"state":"active","ping":59},{"user_id":816,"name":"mommy","steam_id":76561198129195009,"connected_time":826000000000,"state":"active","ping":70},{"user_id":797,"name":"kazoodles","steam_id":76561198044969343,"connected_time":2313000000000,"state":"active","ping":74},{"user_id":813,"name":"Sweater-Fan","steam_id":76561199389567214,"connected_time":1038000000000,"state":"active","ping":65},{"user_id":812,"name":"CrushforceX","steam_id":76561198367985723,"connected_time":1072000000000,"state":"active","ping":82},{"user_id":775,"name":"The Sydney Sleeper Itself","steam_id":76561198180251763,"connected_time":3006000000000,"state":"active","ping":76},{"user_id":809,"name":"wrongthink","steam_id":76561198830293087,"connected_time":1479000000000,"state":"active","ping":40},{"user_id":796,"name":"Amish Robot","steam_id":76561198041156065,"connected_time":2327000000000,"state":"active","ping":82},{"user_id":814,"name":"Papa Smoke","steam_id":76561198181348206,"connected_time":940000000000,"state":"active","ping":63},{"user_id":790,"name":"ms. capgras [troutsupply.net]","steam_id":76561199080209996,"connected_time":2551000000000,"state":"active","ping":52},{"user_id":806,"name":"planelover96","steam_id":76561198208820421,"connected_time":1490000000000,"state":"active","ping":45},{"user_id":647,"name":"kaputon","steam_id":76561198146299782,"connected_time":11457000000000,"state":"active","ping":60},{"user_id":815,"name":"wholesome reddit big chingles","steam_id":76561199151398882,"connected_time":895000000000,"state":"active","ping":72},{"user_id":783,"name":"Training Bot [Easy]","steam_id":76561199119473164,"connected_time":2691000000000,"state":"active","ping":74},{"user_id":784,"name":"Bolbi","steam_id":76561198051811597,"connected_time":2680000000000,"state":"active","ping":118},{"user_id":819,"name":"Drapph","steam_id":76561199384213314,"connected_time":325000000000,"state":"active","ping":69},{"user_id":808,"name":"shoota","steam_id":76561198284992433,"connected_time":1485000000000,"state":"active","ping":57},{"user_id":791,"name":"Spare(8)Ball","steam_id":76561197982432995,"connected_time":2548000000000,"state":"active","ping":102},{"user_id":820,"name":"Shart Simpson","steam_id":76561198002759469,"connected_time":32000000000,"state":"active","ping":60},{"user_id":632,"name":"Shrebbie","steam_id":76561198875230824,"connected_time":13387000000000,"state":"active","ping":59}]},{"server_id":36,"name":"Uncletopia | Chicago | 5 | All Maps","name_short":"chi-5","host":"chi-2.us.uncletopia.com","port":27015,"enabled":true,"region":"us-central","cc":"us","latitude":41.881832,"longitude":-87.62318,"reserved":0,"last_update":"0001-01-01T00:00:00Z","name_a2s":"Uncletopia | Chicago | 5 | All Maps","protocol":17,"map":"koth_highpass","folder":"tf","game":"Team Fortress","app_id":440,"player_count":8,"max_players":24,"Bots":0,"server_type":"Dedicated","server_os":"Linux","password":true,"vac":true,"version":"7961495","steam_id":85568392924866362,"keywords":["cp","nocrits","nodmgspread","uncletopia"],"game_id":440,"stv_port":27016,"stv_name":"Uncletopia | Chicago | 5 | All Maps | STV","players":[{"user_id":708,"name":"badvernxxxxx","steam_id":76561198310087851,"connected_time":771000000000,"state":"active","ping":237},{"user_id":709,"name":"1000 Ping","steam_id":76561198098330939,"connected_time":466000000000,"state":"active","ping":122},{"user_id":707,"name":"doing the sponge","steam_id":76561198058209703,"connected_time":1442000000000,"state":"active","ping":54},{"user_id":703,"name":"be nice im new","steam_id":76561199227557263,"connected_time":2283000000000,"state":"active","ping":94},{"user_id":711,"name":"GrunerJunge","steam_id":76561199492836198,"connected_time":393000000000,"state":"active","ping":70},{"user_id":712,"name":"Roaper","steam_id":76561198000141041,"connected_time":232000000000,"state":"active","ping":119},{"user_id":700,"name":"Dom","steam_id":76561198156431338,"connected_time":3604000000000,"state":"active","ping":51},{"user_id":713,"name":"trackball triops","steam_id":76561198059041027,"connected_time":160000000000,"state":"active","ping":111}]},{"server_id":37,"name":"Uncletopia | Chicago | 6 | All Maps","name_short":"chi-6","host":"chi-2.us.uncletopia.com","port":27025,"enabled":true,"region":"us-central","cc":"us","latitude":41.881832,"longitude":-87.62318,"reserved":0,"last_update":"0001-01-01T00:00:00Z","name_a2s":"Uncletopia | Chicago | 6 | All Maps","protocol":17,"map":"pl_snowycoast","folder":"tf","game":"Team Fortress","app_id":440,"player_count":24,"max_players":24,"Bots":0,"server_type":"Dedicated","server_os":"Linux","password":true,"vac":true,"version":"7961495","steam_id":85568392924866363,"keywords":["nocrits","nodmgspread","payload","uncletopia"],"game_id":440,"stv_port":27026,"stv_name":"Uncletopia | Chicago | 6 | All Maps | STV","players":[{"user_id":376,"name":"BANDIDO","steam_id":76561199509676031,"connected_time":2203000000000,"state":"active","ping":59},{"user_id":344,"name":"Kola ✧","steam_id":76561198049995341,"connected_time":4628000000000,"state":"active","ping":57},{"user_id":374,"name":"LVL","steam_id":76561198334403617,"connected_time":2218000000000,"state":"active","ping":59},{"user_id":352,"name":"The strongest ⑨ ball","steam_id":76561198126760743,"connected_time":3737000000000,"state":"active","ping":70},{"user_id":372,"name":"-Freelove-","steam_id":76561198448594120,"connected_time":2808000000000,"state":"active","ping":114},{"user_id":342,"name":"iiamiizzyy","steam_id":76561198355030751,"connected_time":4785000000000,"state":"active","ping":82},{"user_id":387,"name":"What's he building in there","steam_id":76561198271907916,"connected_time":792000000000,"state":"active","ping":59},{"user_id":382,"name":"Lord_Manship","steam_id":76561198045168765,"connected_time":1049000000000,"state":"active","ping":80},{"user_id":378,"name":"Frontier Psychiatrist","steam_id":76561198038689088,"connected_time":2166000000000,"state":"active","ping":81},{"user_id":368,"name":"The Pootis'd Berd","steam_id":76561198141903490,"connected_time":3020000000000,"state":"active","ping":104},{"user_id":327,"name":"frank","steam_id":76561198137777483,"connected_time":6148000000000,"state":"active","ping":64},{"user_id":383,"name":"Mantis","steam_id":76561197964316152,"connected_time":1032000000000,"state":"active","ping":71},{"user_id":365,"name":"poopybutt420","steam_id":76561199000805315,"connected_time":3168000000000,"state":"active","ping":89},{"user_id":353,"name":"Uwu Micster","steam_id":76561198843890616,"connected_time":3733000000000,"state":"active","ping":89},{"user_id":379,"name":"I. C. Wiener","steam_id":76561198062777610,"connected_time":2112000000000,"state":"active","ping":102},{"user_id":373,"name":"jordan","steam_id":76561198136642793,"connected_time":2551000000000,"state":"active","ping":71},{"user_id":384,"name":"Microsoft Word","steam_id":76561198797633439,"connected_time":1019000000000,"state":"active","ping":110},{"user_id":377,"name":"FELON #COMEGETME","steam_id":76561198144766439,"connected_time":2190000000000,"state":"active","ping":46},{"user_id":332,"name":"Pollen Buying Skins \u0026 Backpacks","steam_id":76561198061779536,"connected_time":5917000000000,"state":"active","ping":74},{"user_id":333,"name":"ChampionOfSheets","steam_id":76561198297380028,"connected_time":5883000000000,"state":"active","ping":77},{"user_id":385,"name":"KrylonHeretic","steam_id":76561198139811459,"connected_time":1005000000000,"state":"active","ping":117},{"user_id":386,"name":"Rizzo The Rat","steam_id":76561199013385536,"connected_time":995000000000,"state":"active","ping":91},{"user_id":354,"name":"Grandad","steam_id":76561198931285831,"connected_time":3700000000000,"state":"active","ping":79},{"user_id":381,"name":"have blue","steam_id":76561198054260599,"connected_time":1460000000000,"state":"active","ping":79}]},{"server_id":38,"name":"Uncletopia | Chicago | 7 | Stopwatch","name_short":"chi-7","host":"chi-2.us.uncletopia.com","port":27035,"enabled":true,"region":"us-central","cc":"us","latitude":41.881832,"longitude":-87.62318,"reserved":0,"last_update":"0001-01-01T00:00:00Z","name_a2s":"Uncletopia | Chicago | 7 | Stopwatch","protocol":17,"map":"koth_highpass","folder":"tf","game":"Team Fortress","app_id":440,"player_count":0,"max_players":24,"Bots":0,"server_type":"Dedicated","server_os":"Linux","password":true,"vac":true,"version":"7961495","steam_id":85568392924866364,"keywords":["cp","nocrits","nodmgspread","uncletopia"],"game_id":440,"stv_port":27036,"stv_name":"Uncletopia | Chicago | 7 | Stopwatch | STV","players":null},{"server_id":39,"name":"Uncletopia | Chicago | 8 | Community","name_short":"chi-8","host":"chi-2.us.uncletopia.com","port":27045,"enabled":true,"region":"us-central","cc":"us","latitude":41.881832,"longitude":-87.62318,"reserved":0,"last_update":"0001-01-01T00:00:00Z","name_a2s":"Uncletopia | Chicago | 8 | Community","protocol":17,"map":"workshop/koth_slaughter_rc1.ugc1712845210","folder":"tf","game":"Team Fortress","app_id":440,"player_count":0,"max_players":24,"Bots":0,"server_type":"Dedicated","server_os":"Linux","password":true,"vac":true,"version":"7961495","steam_id":85568392924866365,"keywords":["cp","nocrits","nodmgspread","uncletopia"],"game_id":440,"stv_port":27046,"stv_name":"Uncletopia | Chicago | 8 | Community | STV","players":null},{"server_id":8,"name":"Uncletopia | Dallas | 1 | All Maps","name_short":"dal-1","host":"dal-1.us.uncletopia.com","port":27015,"enabled":true,"region":"us-central","cc":"us","latitude":32.779167,"longitude":-96.80889,"reserved":0,"last_update":"0001-01-01T00:00:00Z","name_a2s":"Uncletopia | Dallas | 1 | All Maps","protocol":17,"map":"pl_swiftwater_final1","folder":"tf","game":"Team Fortress","app_id":440,"player_count":24,"max_players":24,"Bots":0,"server_type":"Dedicated","server_os":"Linux","password":true,"vac":true,"version":"7961495","steam_id":85568392924469986,"keywords":["nocrits","nodmgspread","payload","uncletopia"],"game_id":440,"stv_port":27016,"stv_name":"Uncletopia | Dallas | 1 | All Maps | STV","players":[{"user_id":680,"name":"Muselk, but mexican","steam_id":76561199289676387,"connected_time":1343000000000,"state":"active","ping":61},{"user_id":639,"name":"Pvt. Dimitri Petrenko","steam_id":76561198078040091,"connected_time":6859000000000,"state":"active","ping":49},{"user_id":705,"name":"d1nero","steam_id":76561198295578318,"connected_time":412000000000,"state":"active","ping":75},{"user_id":682,"name":"mama luigi","steam_id":76561199012771039,"connected_time":1150000000000,"state":"active","ping":68},{"user_id":679,"name":"Wipes-Pee-Hole","steam_id":76561198144420129,"connected_time":1384000000000,"state":"active","ping":93},{"user_id":670,"name":"array","steam_id":76561198280409646,"connected_time":3071000000000,"state":"active","ping":76},{"user_id":696,"name":"Artic_Ryuu","steam_id":76561198182194918,"connected_time":759000000000,"state":"active","ping":75},{"user_id":686,"name":"Boston","steam_id":76561198061078236,"connected_time":937000000000,"state":"active","ping":64},{"user_id":703,"name":"TF2C | fac","steam_id":76561198009818412,"connected_time":517000000000,"state":"active","ping":60},{"user_id":707,"name":"Lamp","steam_id":76561198844301690,"connected_time":381000000000,"state":"active","ping":82},{"user_id":688,"name":"Lav (She/They)","steam_id":76561198289106015,"connected_time":864000000000,"state":"active","ping":90},{"user_id":689,"name":"chikin.sauce","steam_id":76561198042464635,"connected_time":859000000000,"state":"active","ping":51},{"user_id":691,"name":"local man","steam_id":76561198074946673,"connected_time":831000000000,"state":"active","ping":78},{"user_id":697,"name":"Biggest Dude In Town 4U","steam_id":76561198070281464,"connected_time":746000000000,"state":"active","ping":109},{"user_id":666,"name":"TheHumanTaco119","steam_id":76561198996107520,"connected_time":3140000000000,"state":"active","ping":83},{"user_id":693,"name":"ark","steam_id":76561198041066271,"connected_time":811000000000,"state":"active","ping":75},{"user_id":709,"name":"JOHNSMOKER007","steam_id":76561198145015891,"connected_time":77000000000,"state":"active","ping":58},{"user_id":698,"name":"Lemonade Juice","steam_id":76561198402892608,"connected_time":720000000000,"state":"active","ping":70},{"user_id":699,"name":"Kataoka","steam_id":76561198162169852,"connected_time":717000000000,"state":"active","ping":83},{"user_id":646,"name":"AzuriousAlex","steam_id":76561198158026405,"connected_time":5936000000000,"state":"active","ping":69},{"user_id":700,"name":"Squiddysquibbles","steam_id":76561198268476001,"connected_time":714000000000,"state":"active","ping":92},{"user_id":674,"name":"bigchungusgaming(real)","steam_id":76561198273392037,"connected_time":2483000000000,"state":"active","ping":89},{"user_id":701,"name":"Satori Komeiji","steam_id":76561198158211423,"connected_time":708000000000,"state":"active","ping":71},{"user_id":702,"name":"Glitch Zncro","steam_id":76561198139526026,"connected_time":644000000000,"state":"active","ping":61}]},{"server_id":108,"name":"Uncletopia | Dallas | 2 | All Maps","name_short":"dal-2","host":"dal-1.us.uncletopia.com","port":27025,"enabled":true,"region":"us-central","cc":"us","latitude":32.779167,"longitude":-96.80889,"reserved":0,"last_update":"0001-01-01T00:00:00Z","name_a2s":"Uncletopia | Dallas | 2 | All Maps","protocol":17,"map":"pl_snowycoast","folder":"tf","game":"Team Fortress","app_id":440,"player_count":23,"max_players":24,"Bots":0,"server_type":"Dedicated","server_os":"Linux","password":true,"vac":true,"version":"7961495","steam_id":85568392924469988,"keywords":["nocrits","nodmgspread","payload","uncletopia"],"game_id":440,"stv_port":27026,"stv_name":"Uncletopia | Dallas | 2 | All Maps | STV","players":[{"user_id":825,"name":"Russell","steam_id":76561198024159373,"connected_time":170000000000,"state":"active","ping":75},{"user_id":827,"name":"THIRDPIERCE","steam_id":76561198405366314,"connected_time":90000000000,"state":"active","ping":60},{"user_id":732,"name":"stuffedidiot","steam_id":76561199181513019,"connected_time":7197000000000,"state":"active","ping":119},{"user_id":824,"name":"nori_420","steam_id":76561199117134203,"connected_time":506000000000,"state":"active","ping":81},{"user_id":805,"name":"sleepychama","steam_id":76561198085314882,"connected_time":1348000000000,"state":"active","ping":173},{"user_id":793,"name":"Yeee","steam_id":76561198362095593,"connected_time":2467000000000,"state":"active","ping":83},{"user_id":828,"name":"raduski","steam_id":76561198795699119,"connected_time":69000000000,"state":"active","ping":75},{"user_id":829,"name":"drwwby","steam_id":76561198067741339,"connected_time":55000000000,"state":"active","ping":98},{"user_id":830,"name":"MoomyBoomy","steam_id":76561198150787961,"connected_time":17000000000,"state":"spawning","ping":45},{"user_id":810,"name":"Sasu","steam_id":76561198893447505,"connected_time":1168000000000,"state":"active","ping":75},{"user_id":831,"name":"Dreamy Sweat from 2hu","steam_id":76561198094602446,"connected_time":1000000000,"state":"spawning","ping":72},{"user_id":809,"name":"kyrgyzstan3","steam_id":76561198207940136,"connected_time":1213000000000,"state":"active","ping":54},{"user_id":812,"name":"Andrew's Taint","steam_id":76561198131400543,"connected_time":1118000000000,"state":"active","ping":72},{"user_id":743,"name":"Bond","steam_id":76561198089262776,"connected_time":6764000000000,"state":"active","ping":56},{"user_id":813,"name":"Smokey The VietCong Veteran","steam_id":76561198030988939,"connected_time":1112000000000,"state":"active","ping":87},{"user_id":764,"name":"anonEDM","steam_id":76561197976560316,"connected_time":5144000000000,"state":"active","ping":99},{"user_id":815,"name":"SorryICan","steam_id":76561199138270672,"connected_time":1042000000000,"state":"active","ping":82},{"user_id":798,"name":"craven","steam_id":76561198088191503,"connected_time":1938000000000,"state":"active","ping":72},{"user_id":816,"name":"Anonymoose","steam_id":76561198862312405,"connected_time":1007000000000,"state":"active","ping":61},{"user_id":768,"name":"Rat Smacker","steam_id":76561198043629646,"connected_time":3699000000000,"state":"active","ping":61},{"user_id":788,"name":"LaChancla","steam_id":76561198971528917,"connected_time":3299000000000,"state":"active","ping":55},{"user_id":818,"name":"chiwogi","steam_id":76561198199790246,"connected_time":947000000000,"state":"active","ping":115},{"user_id":820,"name":"totoro","steam_id":76561198210420871,"connected_time":878000000000,"state":"active","ping":73}]},{"server_id":404,"name":"Uncletopia | Dallas | 3 | All Maps","name_short":"dal-3","host":"dal-1.us.uncletopia.com","port":27035,"enabled":true,"region":"us-central","cc":"us","latitude":32.779167,"longitude":-96.80889,"reserved":0,"last_update":"0001-01-01T00:00:00Z","name_a2s":"Uncletopia | Dallas | 3 | All Maps","protocol":17,"map":"pl_borneo","folder":"tf","game":"Team Fortress","app_id":440,"player_count":0,"max_players":24,"Bots":0,"server_type":"Dedicated","server_os":"Linux","password":true,"vac":true,"version":"7961495","steam_id":85568392924515219,"keywords":["nocrits","nodmgspread","payload","uncletopia"],"game_id":440,"stv_port":27036,"stv_name":"Uncletopia | Dallas | 3 | All Maps | STV","players":null},{"server_id":405,"name":"Uncletopia | Dallas | 4 | Community","name_short":"dal-4","host":"dal-1.us.uncletopia.com","port":27045,"enabled":true,"region":"us-central","cc":"us","latitude":32.779167,"longitude":-96.80889,"reserved":0,"last_update":"0001-01-01T00:00:00Z","name_a2s":"Uncletopia | Dallas | 4 | Community","protocol":17,"map":"workshop/cp_hazyfort_rc6.ugc1365963729","folder":"tf","game":"Team Fortress","app_id":440,"player_count":0,"max_players":24,"Bots":0,"server_type":"Dedicated","server_os":"Linux","password":true,"vac":true,"version":"7961495","steam_id":85568392924515220,"keywords":["cp","nocrits","nodmgspread","uncletopia"],"game_id":440,"stv_port":27046,"stv_name":"Uncletopia | Dallas | 4 | Community | STV","players":null},{"server_id":5,"name":"Uncletopia | Frankfurt | 1 | All Maps","name_short":"frk-1","host":"frk-1.de.uncletopia.com","port":27015,"enabled":true,"region":"eu","cc":"de","latitude":50.110924,"longitude":8.682127,"reserved":0,"last_update":"0001-01-01T00:00:00Z","name_a2s":"Uncletopia | Frankfurt | 1 | All Maps","protocol":17,"map":"koth_highpass","folder":"tf","game":"Team Fortress","app_id":440,"player_count":0,"max_players":24,"Bots":0,"server_type":"Dedicated","server_os":"Linux","password":true,"vac":true,"version":"7961495","steam_id":85568392924469989,"keywords":["cp","nocrits","nodmgspread","uncletopia"],"game_id":440,"stv_port":27016,"stv_name":"Uncletopia | Frankfurt | 1 | All Maps | STV","players":null},{"server_id":110,"name":"Uncletopia | Frankfurt | 2 | All Maps","name_short":"frk-2","host":"frk-1.de.uncletopia.com","port":27025,"enabled":true,"region":"eu","cc":"de","latitude":50.110924,"longitude":8.682127,"reserved":0,"last_update":"0001-01-01T00:00:00Z","name_a2s":"Uncletopia | Frankfurt | 2 | All Maps","protocol":17,"map":"cp_coldfront","folder":"tf","game":"Team Fortress","app_id":440,"player_count":0,"max_players":24,"Bots":0,"server_type":"Dedicated","server_os":"Linux","password":true,"vac":true,"version":"7961495","steam_id":85568392924469990,"keywords":["cp","nocrits","nodmgspread","uncletopia"],"game_id":440,"stv_port":27026,"stv_name":"Uncletopia | Frankfurt | 2 | All Maps | STV","players":null},{"server_id":308,"name":"Uncletopia | Frankfurt | 3 | All Maps","name_short":"frk-3","host":"frk-1.de.uncletopia.com","port":27035,"enabled":true,"region":"eu","cc":"de","latitude":50.110924,"longitude":8.682127,"reserved":0,"last_update":"0001-01-01T00:00:00Z","name_a2s":"Uncletopia | Frankfurt | 3 | All Maps","protocol":17,"map":"plr_pipeline","folder":"tf","game":"Team Fortress","app_id":440,"player_count":0,"max_players":24,"Bots":0,"server_type":"Dedicated","server_os":"Linux","password":true,"vac":true,"version":"7961495","steam_id":85568392924504274,"keywords":["nocrits","nodmgspread","payload","uncletopia"],"game_id":440,"stv_port":27036,"stv_name":"Uncletopia | Frankfurt | 3 | All Maps | STV","players":null},{"server_id":309,"name":"Uncletopia | Frankfurt | 4 | All Maps","name_short":"frk-4","host":"frk-1.de.uncletopia.com","port":27045,"enabled":true,"region":"eu","cc":"de","latitude":50.110924,"longitude":8.682127,"reserved":0,"last_update":"0001-01-01T00:00:00Z","name_a2s":"Uncletopia | Frankfurt | 4 | All Maps","protocol":17,"map":"koth_lakeside_final","folder":"tf","game":"Team Fortress","app_id":440,"player_count":0,"max_players":24,"Bots":0,"server_type":"Dedicated","server_os":"Linux","password":true,"vac":true,"version":"7961495","steam_id":85568392924504275,"keywords":["cp","nocrits","nodmgspread","uncletopia"],"game_id":440,"stv_port":27046,"stv_name":"Uncletopia | Frankfurt | 4 | All Maps | STV","players":null},{"server_id":310,"name":"Uncletopia | Frankfurt | 5 | All Maps","name_short":"frk-5","host":"frk-1.de.uncletopia.com","port":27055,"enabled":true,"region":"eu","cc":"de","latitude":50.110924,"longitude":8.682127,"reserved":0,"last_update":"0001-01-01T00:00:00Z","name_a2s":"Uncletopia | Frankfurt | 5 | All Maps","protocol":17,"map":"cp_gorge","folder":"tf","game":"Team Fortress","app_id":440,"player_count":0,"max_players":24,"Bots":0,"server_type":"Dedicated","server_os":"Linux","password":true,"vac":true,"version":"7961495","steam_id":85568392924504277,"keywords":["cp","nocrits","nodmgspread","uncletopia"],"game_id":440,"stv_port":27056,"stv_name":"Uncletopia | Frankfurt | 5 | All Maps | STV","players":null},{"server_id":311,"name":"Uncletopia | Frankfurt | 6 | All Maps","name_short":"frk-6","host":"frk-1.de.uncletopia.com","port":27065,"enabled":true,"region":"eu","cc":"de","latitude":50.110924,"longitude":8.682127,"reserved":0,"last_update":"0001-01-01T00:00:00Z","name_a2s":"Uncletopia | Frankfurt | 6 | All Maps","protocol":17,"map":"cp_steel","folder":"tf","game":"Team Fortress","app_id":440,"player_count":0,"max_players":24,"Bots":0,"server_type":"Dedicated","server_os":"Linux","password":true,"vac":true,"version":"7961495","steam_id":85568392924504278,"keywords":["cp","nocrits","nodmgspread","uncletopia"],"game_id":440,"stv_port":27066,"stv_name":"Uncletopia | Frankfurt | 6 | All Maps | STV","players":null},{"server_id":23,"name":"Uncletopia | Frankfurt | 7 | Stopwatch","name_short":"frk-7","host":"frk-1.de.uncletopia.com","port":27075,"enabled":true,"region":"eu","cc":"de","latitude":50.110924,"longitude":8.682127,"reserved":0,"last_update":"0001-01-01T00:00:00Z","name_a2s":"Uncletopia | Frankfurt | 7 | Stopwatch","protocol":17,"map":"koth_highpass","folder":"tf","game":"Team Fortress","app_id":440,"player_count":0,"max_players":24,"Bots":0,"server_type":"Dedicated","server_os":"Linux","password":true,"vac":true,"version":"7961495","steam_id":85568392924742827,"keywords":["cp","nocrits","nodmgspread","uncletopia"],"game_id":440,"stv_port":27076,"stv_name":"Uncletopia | Frankfurt | 7 | Stopwatch | STV","players":null},{"server_id":24,"name":"Uncletopia | Frankfurt | 8 | Community","name_short":"frk-8","host":"frk-1.de.uncletopia.com","port":27085,"enabled":true,"region":"eu","cc":"de","latitude":50.110924,"longitude":8.682127,"reserved":0,"last_update":"0001-01-01T00:00:00Z","name_a2s":"Uncletopia | Frankfurt | 8 | Community","protocol":17,"map":"workshop/pl_stallberg_rc3.ugc1849111469","folder":"tf","game":"Team Fortress","app_id":440,"player_count":0,"max_players":24,"Bots":0,"server_type":"Dedicated","server_os":"Linux","password":true,"vac":true,"version":"7961495","steam_id":85568392924742828,"keywords":["nocrits","nodmgspread","payload","uncletopia"],"game_id":440,"stv_port":27086,"stv_name":"Uncletopia | Frankfurt | 8 | Community | STV","players":null},{"server_id":202,"name":"Uncletopia | Hong Kong | 1 | All Maps","name_short":"hgk-1","host":"hgk-1.hk.uncletopia.com","port":27015,"enabled":true,"region":"asia","cc":"hk","latitude":22.302711,"longitude":114.177216,"reserved":0,"last_update":"0001-01-01T00:00:00Z","name_a2s":"Uncletopia | Hong Kong | 1 | All Maps","protocol":17,"map":"pl_snowycoast","folder":"tf","game":"Team Fortress","app_id":440,"player_count":24,"max_players":24,"Bots":0,"server_type":"Dedicated","server_os":"Linux","password":true,"vac":true,"version":"7961495","steam_id":85568392924494504,"keywords":["nocrits","nodmgspread","payload","uncletopia"],"game_id":440,"stv_port":27016,"stv_name":"Uncletopia | Hong Kong | 1 | All Maps | STV","players":[{"user_id":194,"name":"ROns","steam_id":76561199075234448,"connected_time":673000000000,"state":"active","ping":95},{"user_id":176,"name":"Dr. Piss Rat","steam_id":76561199074809838,"connected_time":2326000000000,"state":"active","ping":67},{"user_id":150,"name":"BURN PYGMALION!!!","steam_id":76561198074339034,"connected_time":4472000000000,"state":"active","ping":73},{"user_id":168,"name":"im_0ff","steam_id":76561198339346695,"connected_time":2886000000000,"state":"active","ping":117},{"user_id":197,"name":"Cloud","steam_id":76561198272454184,"connected_time":401000000000,"state":"active","ping":92},{"user_id":202,"name":"steame17","steam_id":76561199387872784,"connected_time":328000000000,"state":"active","ping":149},{"user_id":59,"name":"14","steam_id":76561198113401862,"connected_time":11749000000000,"state":"active","ping":90},{"user_id":162,"name":"好油喔peko","steam_id":76561198326354576,"connected_time":3863000000000,"state":"active","ping":103},{"user_id":132,"name":"UR MOTHERRR... IS A N**GERRR","steam_id":76561198797699056,"connected_time":6678000000000,"state":"active","ping":95},{"user_id":179,"name":"water tastes good","steam_id":76561199375947670,"connected_time":2010000000000,"state":"active","ping":74},{"user_id":205,"name":"Variety","steam_id":76561198047396742,"connected_time":199000000000,"state":"active","ping":65},{"user_id":169,"name":"Mac09","steam_id":76561198934873063,"connected_time":2787000000000,"state":"active","ping":76},{"user_id":207,"name":"screaming sniper","steam_id":76561199085568674,"connected_time":125000000000,"state":"active","ping":70},{"user_id":106,"name":"yveth","steam_id":76561198320532821,"connected_time":8583000000000,"state":"active","ping":65},{"user_id":191,"name":"ConHoshi","steam_id":76561199387718733,"connected_time":897000000000,"state":"active","ping":73},{"user_id":206,"name":"toad♡","steam_id":76561198082199290,"connected_time":190000000000,"state":"active","ping":46},{"user_id":210,"name":"Ratboi7Street","steam_id":76561199222913157,"connected_time":9000000000,"state":"spawning","ping":59},{"user_id":182,"name":"Bearrett_","steam_id":76561198841067509,"connected_time":1799000000000,"state":"active","ping":80},{"user_id":166,"name":"v1.","steam_id":76561198037571054,"connected_time":3060000000000,"state":"active","ping":44},{"user_id":190,"name":"bad at everything(f2p)","steam_id":76561199378524169,"connected_time":1069000000000,"state":"active","ping":118},{"user_id":164,"name":"tiden2000","steam_id":76561198092969425,"connected_time":3199000000000,"state":"active","ping":65},{"user_id":181,"name":"Professor 'Iggins","steam_id":76561198064448905,"connected_time":1874000000000,"state":"active","ping":51},{"user_id":192,"name":"MongGoyo63","steam_id":76561198349540834,"connected_time":892000000000,"state":"active","ping":83},{"user_id":154,"name":"Ivy","steam_id":76561198400698408,"connected_time":4453000000000,"state":"active","ping":98}]},{"server_id":1,"name":"Uncletopia | Los Angeles | 1 | All Maps","name_short":"lax-1","host":"lax-1.us.uncletopia.com","port":27015,"enabled":true,"region":"us-west","cc":"us","latitude":33.94279,"longitude":-118.41004,"reserved":0,"last_update":"0001-01-01T00:00:00Z","name_a2s":"Uncletopia | Los Angeles | 1 | All Maps","protocol":17,"map":"koth_viaduct","folder":"tf","game":"Team Fortress","app_id":440,"player_count":24,"max_players":24,"Bots":0,"server_type":"Dedicated","server_os":"Linux","password":true,"vac":true,"version":"7961495","steam_id":85568392924469991,"keywords":["cp","nocrits","nodmgspread","uncletopia"],"game_id":440,"stv_port":27016,"stv_name":"Uncletopia | Los Angeles | 1 | All Maps | STV","players":[{"user_id":432,"name":"ocky","steam_id":76561198313049944,"connected_time":616000000000,"state":"active","ping":48},{"user_id":438,"name":"Jomdac","steam_id":76561198150447896,"connected_time":139000000000,"state":"active","ping":51},{"user_id":391,"name":"HAT-WEARING™ Maggot Gamer Cat","steam_id":76561197973992705,"connected_time":5250000000000,"state":"active","ping":63},{"user_id":420,"name":"Cool Vibrations","steam_id":76561198142493659,"connected_time":2655000000000,"state":"active","ping":55},{"user_id":436,"name":"Bodhi","steam_id":76561198043199143,"connected_time":565000000000,"state":"active","ping":49},{"user_id":417,"name":"mrthugpug1732","steam_id":76561198881200768,"connected_time":2847000000000,"state":"active","ping":58},{"user_id":415,"name":"a chicken","steam_id":76561198313121580,"connected_time":2951000000000,"state":"active","ping":47},{"user_id":430,"name":"dairy","steam_id":76561198047270339,"connected_time":1091000000000,"state":"active","ping":77},{"user_id":419,"name":"Leroy Sinclair","steam_id":76561198116082889,"connected_time":2694000000000,"state":"active","ping":57},{"user_id":418,"name":"O bez","steam_id":76561198841579939,"connected_time":2733000000000,"state":"active","ping":57},{"user_id":439,"name":"Cosmic Dunsparce","steam_id":76561199193908496,"connected_time":104000000000,"state":"active","ping":56},{"user_id":405,"name":"Jimbo","steam_id":76561198136560547,"connected_time":4120000000000,"state":"active","ping":60},{"user_id":406,"name":"baunter","steam_id":76561198024311871,"connected_time":4112000000000,"state":"active","ping":37},{"user_id":362,"name":"himbomccree","steam_id":76561198373330850,"connected_time":8127000000000,"state":"active","ping":41},{"user_id":388,"name":"Lambchop","steam_id":76561198043900363,"connected_time":5946000000000,"state":"active","ping":74},{"user_id":318,"name":"FI LO","steam_id":76561198976530881,"connected_time":11485000000000,"state":"active","ping":41},{"user_id":431,"name":"Gamer to Femboy pipeline","steam_id":76561198026941076,"connected_time":629000000000,"state":"active","ping":59},{"user_id":389,"name":"purple hatsune miku","steam_id":76561198108844158,"connected_time":5938000000000,"state":"active","ping":54},{"user_id":428,"name":"Ssamjang","steam_id":76561197966891870,"connected_time":1418000000000,"state":"active","ping":61},{"user_id":370,"name":"CometDrg0n_(he/him)","steam_id":76561198175713051,"connected_time":7135000000000,"state":"active","ping":58},{"user_id":440,"name":"Jeremy","steam_id":76561198286240347,"connected_time":70000000000,"state":"active","ping":115},{"user_id":423,"name":"[Industrial] A_HUMBLEBUMBLED","steam_id":76561198064771878,"connected_time":2230000000000,"state":"active","ping":73},{"user_id":433,"name":"Sir, your pants are down.","steam_id":76561198019023270,"connected_time":614000000000,"state":"active","ping":53},{"user_id":435,"name":"The Lovers","steam_id":76561198119759695,"connected_time":598000000000,"state":"active","ping":83}]},{"server_id":112,"name":"Uncletopia | Los Angeles | 2 | All Maps","name_short":"lax-2","host":"lax-1.us.uncletopia.com","port":27025,"enabled":true,"region":"us-west","cc":"us","latitude":33.94279,"longitude":-118.41004,"reserved":0,"last_update":"0001-01-01T00:00:00Z","name_a2s":"Uncletopia | Los Angeles | 2 | All Maps","protocol":17,"map":"cp_dustbowl","folder":"tf","game":"Team Fortress","app_id":440,"player_count":24,"max_players":24,"Bots":0,"server_type":"Dedicated","server_os":"Linux","password":true,"vac":true,"version":"7961495","steam_id":85568392924469992,"keywords":["cp","nocrits","nodmgspread","uncletopia"],"game_id":440,"stv_port":27026,"stv_name":"Uncletopia | Los Angeles | 2 | All Maps | STV","players":[{"user_id":161,"name":"Pork Belly","steam_id":76561198053003142,"connected_time":6126000000000,"state":"active","ping":56},{"user_id":230,"name":"SirAnthonyIII_","steam_id":76561198132602636,"connected_time":775000000000,"state":"active","ping":113},{"user_id":226,"name":"quackedツ","steam_id":76561198874961623,"connected_time":1406000000000,"state":"active","ping":128},{"user_id":195,"name":"MORE BOUNCE TO THE OUNCE","steam_id":76561198243399336,"connected_time":3866000000000,"state":"active","ping":71},{"user_id":211,"name":"waffles con leche","steam_id":76561198246934872,"connected_time":2362000000000,"state":"active","ping":66},{"user_id":213,"name":"An00bis","steam_id":76561198044084508,"connected_time":2293000000000,"state":"active","ping":59},{"user_id":228,"name":"Buben","steam_id":76561198081841996,"connected_time":1006000000000,"state":"active","ping":62},{"user_id":215,"name":"Squiggle","steam_id":76561198257197535,"connected_time":2245000000000,"state":"active","ping":49},{"user_id":216,"name":"TinyGayGuitar","steam_id":76561198130737316,"connected_time":2209000000000,"state":"active","ping":83},{"user_id":208,"name":"Artistic","steam_id":76561198118159566,"connected_time":2955000000000,"state":"active","ping":61},{"user_id":217,"name":"Banjo Jones","steam_id":76561198006889442,"connected_time":2208000000000,"state":"active","ping":79},{"user_id":227,"name":"Irony is pretty cringy","steam_id":76561198120391460,"connected_time":1234000000000,"state":"active","ping":46},{"user_id":234,"name":"June","steam_id":76561198141803658,"connected_time":296000000000,"state":"active","ping":46},{"user_id":156,"name":"Whisper!","steam_id":76561198119609795,"connected_time":6348000000000,"state":"active","ping":54},{"user_id":229,"name":"juice drainer","steam_id":76561198361999761,"connected_time":941000000000,"state":"active","ping":49},{"user_id":157,"name":"Eden","steam_id":76561198081284664,"connected_time":6337000000000,"state":"active","ping":59},{"user_id":219,"name":"superx","steam_id":76561198044976613,"connected_time":2145000000000,"state":"active","ping":107},{"user_id":177,"name":"chimplicity","steam_id":76561198012097062,"connected_time":5396000000000,"state":"active","ping":72},{"user_id":224,"name":"Mom","steam_id":76561198207936000,"connected_time":1481000000000,"state":"active","ping":44},{"user_id":231,"name":"Scrux","steam_id":76561198129763115,"connected_time":772000000000,"state":"active","ping":49},{"user_id":198,"name":"ZensGoldenNuts","steam_id":76561199086234004,"connected_time":3836000000000,"state":"active","ping":55},{"user_id":223,"name":"MistaRattle","steam_id":76561199144406643,"connected_time":1926000000000,"state":"active","ping":75},{"user_id":225,"name":"Noire","steam_id":76561198149370109,"connected_time":1466000000000,"state":"active","ping":77},{"user_id":233,"name":"supe®man","steam_id":76561198115924427,"connected_time":695000000000,"state":"active","ping":83}]},{"server_id":324,"name":"Uncletopia | Los Angeles | 3 | All Maps","name_short":"lax-3","host":"lax-1.us.uncletopia.com","port":27035,"enabled":true,"region":"us-west","cc":"us","latitude":33.94279,"longitude":-118.41004,"reserved":0,"last_update":"0001-01-01T00:00:00Z","name_a2s":"Uncletopia | Los Angeles | 3 | All Maps","protocol":17,"map":"koth_lakeside_final","folder":"tf","game":"Team Fortress","app_id":440,"player_count":0,"max_players":24,"Bots":0,"server_type":"Dedicated","server_os":"Linux","password":true,"vac":true,"version":"7961495","steam_id":85568392924510198,"keywords":["cp","nocrits","nodmgspread","uncletopia"],"game_id":440,"stv_port":27036,"stv_name":"Uncletopia | Los Angeles | 3 | All Maps | STV","players":null},{"server_id":25,"name":"Uncletopia | Los Angeles | 4 | Stopwatch","name_short":"lax-4","host":"lax-1.us.uncletopia.com","port":27045,"enabled":true,"region":"us-west","cc":"us","latitude":33.94279,"longitude":-118.41004,"reserved":0,"last_update":"0001-01-01T00:00:00Z","name_a2s":"Uncletopia | Los Angeles | 4 | Stopwatch","protocol":17,"map":"cp_metalworks","folder":"tf","game":"Team Fortress","app_id":440,"player_count":0,"max_players":24,"Bots":0,"server_type":"Dedicated","server_os":"Linux","password":true,"vac":true,"version":"7961495","steam_id":85568392924510199,"keywords":["cp","nocrits","nodmgspread","uncletopia"],"game_id":440,"stv_port":27046,"stv_name":"Uncletopia | Los Angeles | 4 | Stopwatch | STV","players":null},{"server_id":11,"name":"Uncletopia | London | 1 | All Maps","name_short":"lon-1","host":"lon-1.uk.uncletopia.com","port":27015,"enabled":true,"region":"eu","cc":"gb","latitude":51.509865,"longitude":-0.118092,"reserved":0,"last_update":"0001-01-01T00:00:00Z","name_a2s":"Uncletopia | London | 1 | All Maps","protocol":17,"map":"pl_borneo","folder":"tf","game":"Team Fortress","app_id":440,"player_count":23,"max_players":24,"Bots":0,"server_type":"Dedicated","server_os":"Linux","password":true,"vac":true,"version":"7961495","steam_id":85568392924367362,"keywords":["nocrits","nodmgspread","payload","uncletopia"],"game_id":440,"stv_port":27016,"stv_name":"Uncletopia | London | 1 | All Maps | STV","players":[{"user_id":3,"name":"AnimeGirl(real)","steam_id":76561199062433944,"connected_time":5917000000000,"state":"active","ping":136},{"user_id":4,"name":"P","steam_id":76561198399390201,"connected_time":5890000000000,"state":"active","ping":95},{"user_id":43,"name":"Zulik92","steam_id":76561198152442373,"connected_time":644000000000,"state":"active","ping":71},{"user_id":45,"name":"r2r keygen music","steam_id":76561198269154534,"connected_time":487000000000,"state":"active","ping":42},{"user_id":9,"name":"pulsar","steam_id":76561198842123868,"connected_time":4686000000000,"state":"active","ping":99},{"user_id":13,"name":"Coac","steam_id":76561198085265740,"connected_time":3206000000000,"state":"active","ping":73},{"user_id":14,"name":"Dov","steam_id":76561198856685379,"connected_time":2845000000000,"state":"active","ping":73},{"user_id":25,"name":"night.s","steam_id":76561198326287823,"connected_time":1814000000000,"state":"active","ping":74},{"user_id":16,"name":"dopamine overdose","steam_id":76561199032511302,"connected_time":2693000000000,"state":"active","ping":105},{"user_id":38,"name":"George W Bush","steam_id":76561198846784757,"connected_time":1293000000000,"state":"active","ping":58},{"user_id":48,"name":"lox.tf","steam_id":76561198271037396,"connected_time":229000000000,"state":"active","ping":115},{"user_id":47,"name":"FanFish","steam_id":76561199389558024,"connected_time":246000000000,"state":"active","ping":66},{"user_id":30,"name":"ez VAC from Bornholm","steam_id":76561198052381812,"connected_time":1606000000000,"state":"active","ping":61},{"user_id":23,"name":"Lewylow","steam_id":76561198005425686,"connected_time":1890000000000,"state":"active","ping":46},{"user_id":29,"name":"Josiepilled","steam_id":76561199417898973,"connected_time":1614000000000,"state":"active","ping":100},{"user_id":26,"name":"Dark ^^","steam_id":76561198036241064,"connected_time":1806000000000,"state":"active","ping":72},{"user_id":49,"name":"Yonio","steam_id":76561198408428132,"connected_time":206000000000,"state":"active","ping":76},{"user_id":32,"name":"Qdarks","steam_id":76561198013391340,"connected_time":1488000000000,"state":"active","ping":148},{"user_id":33,"name":"LowQualityMan","steam_id":76561199443272346,"connected_time":1465000000000,"state":"active","ping":60},{"user_id":34,"name":"Spraxinator","steam_id":76561199083563607,"connected_time":1460000000000,"state":"active","ping":177},{"user_id":39,"name":"Nyhde","steam_id":76561198012771416,"connected_time":1253000000000,"state":"active","ping":100},{"user_id":50,"name":"kirisame","steam_id":76561198273358760,"connected_time":154000000000,"state":"active","ping":70},{"user_id":42,"name":"Asmodeus","steam_id":76561198283156425,"connected_time":913000000000,"state":"active","ping":80}]},{"server_id":114,"name":"Uncletopia | London | 2 | All Maps","name_short":"lon-2","host":"lon-1.uk.uncletopia.com","port":27025,"enabled":true,"region":"eu","cc":"gb","latitude":51.509865,"longitude":-0.118092,"reserved":0,"last_update":"0001-01-01T00:00:00Z","name_a2s":"Uncletopia | London | 2 | All Maps","protocol":17,"map":"cp_mountainlab","folder":"tf","game":"Team Fortress","app_id":440,"player_count":0,"max_players":24,"Bots":0,"server_type":"Dedicated","server_os":"Linux","password":true,"vac":true,"version":"7961495","steam_id":85568392924470941,"keywords":["cp","nocrits","nodmgspread","uncletopia"],"game_id":440,"stv_port":27026,"stv_name":"Uncletopia | London | 2 | All Maps | STV","players":null},{"server_id":320,"name":"Uncletopia | London | 3 | All Maps","name_short":"lon-3","host":"lon-1.uk.uncletopia.com","port":27035,"enabled":true,"region":"eu","cc":"gb","latitude":51.509865,"longitude":-0.118092,"reserved":0,"last_update":"0001-01-01T00:00:00Z","name_a2s":"Uncletopia | London | 3 | All Maps","protocol":17,"map":"cp_mountainlab","folder":"tf","game":"Team Fortress","app_id":440,"player_count":0,"max_players":24,"Bots":0,"server_type":"Dedicated","server_os":"Linux","password":true,"vac":true,"version":"7961495","steam_id":85568392924510192,"keywords":["cp","nocrits","nodmgspread","uncletopia"],"game_id":440,"stv_port":27036,"stv_name":"Uncletopia | London | 3 | All Maps | STV","players":null},{"server_id":321,"name":"Uncletopia | London | 4 | All Maps","name_short":"lon-4","host":"lon-1.uk.uncletopia.com","port":27045,"enabled":true,"region":"eu","cc":"gb","latitude":51.509865,"longitude":-0.118092,"reserved":0,"last_update":"0001-01-01T00:00:00Z","name_a2s":"Uncletopia | London | 4 | All Maps","protocol":17,"map":"pl_badwater","folder":"tf","game":"Team Fortress","app_id":440,"player_count":0,"max_players":24,"Bots":0,"server_type":"Dedicated","server_os":"Linux","password":true,"vac":true,"version":"7961495","steam_id":85568392924510193,"keywords":["nocrits","nodmgspread","payload","uncletopia"],"game_id":440,"stv_port":27046,"stv_name":"Uncletopia | London | 4 | All Maps | STV","players":null},{"server_id":21,"name":"Uncletopia | London | 5 | All Maps","name_short":"lon-5","host":"lon-1.uk.uncletopia.com","port":27055,"enabled":true,"region":"eu","cc":"gb","latitude":51.509865,"longitude":-0.118092,"reserved":0,"last_update":"0001-01-01T00:00:00Z","name_a2s":"Uncletopia | London | 5 | All Maps","protocol":17,"map":"koth_suijin","folder":"tf","game":"Team Fortress","app_id":440,"player_count":0,"max_players":24,"Bots":0,"server_type":"Dedicated","server_os":"Linux","password":true,"vac":true,"version":"7961495","steam_id":85568392924742829,"keywords":["cp","nocrits","nodmgspread","uncletopia"],"game_id":440,"stv_port":27056,"stv_name":"Uncletopia | London | 5 | All Maps | STV","players":null},{"server_id":22,"name":"Uncletopia | London | 6 | All Maps","name_short":"lon-6","host":"lon-1.uk.uncletopia.com","port":27065,"enabled":true,"region":"eu","cc":"gb","latitude":51.509865,"longitude":-0.118092,"reserved":0,"last_update":"0001-01-01T00:00:00Z","name_a2s":"Uncletopia | London | 6 | All Maps","protocol":17,"map":"pl_frontier_final","folder":"tf","game":"Team Fortress","app_id":440,"player_count":0,"max_players":24,"Bots":0,"server_type":"Dedicated","server_os":"Linux","password":true,"vac":true,"version":"7961495","steam_id":85568392924742830,"keywords":["nocrits","nodmgspread","payload","uncletopia"],"game_id":440,"stv_port":27066,"stv_name":"Uncletopia | London | 6 | All Maps | STV","players":null},{"server_id":40,"name":"Uncletopia | London | 7 | Stopwatch","name_short":"lon-7","host":"lon-1.uk.uncletopia.com","port":27075,"enabled":true,"region":"eu","cc":"gb","latitude":51.509865,"longitude":-0.118092,"reserved":0,"last_update":"0001-01-01T00:00:00Z","name_a2s":"Uncletopia | London | 7 | Stopwatch","protocol":17,"map":"pl_swiftwater_final1","folder":"tf","game":"Team Fortress","app_id":440,"player_count":0,"max_players":24,"Bots":0,"server_type":"Dedicated","server_os":"Linux","password":true,"vac":true,"version":"7961495","steam_id":85568392924964314,"keywords":["nocrits","nodmgspread","payload","uncletopia"],"game_id":440,"stv_port":27076,"stv_name":"Uncletopia | London | 7 | Stopwatch | STV","players":null},{"server_id":41,"name":"Uncletopia | London | 8 | Community","name_short":"lon-8","host":"lon-1.uk.uncletopia.com","port":27085,"enabled":true,"region":"eu","cc":"gb","latitude":51.509865,"longitude":-0.118092,"reserved":0,"last_update":"0001-01-01T00:00:00Z","name_a2s":"Uncletopia | London | 8 | Community","protocol":17,"map":"workshop/cp_propaganda_b18.ugc1603743849","folder":"tf","game":"Team Fortress","app_id":440,"player_count":0,"max_players":24,"Bots":0,"server_type":"Dedicated","server_os":"Linux","password":true,"vac":true,"version":"7961495","steam_id":85568392924964315,"keywords":["cp","nocrits","nodmgspread","uncletopia"],"game_id":440,"stv_port":27086,"stv_name":"Uncletopia | London | 8 | Community | STV","players":null},{"server_id":300,"name":"Uncletopia | Montréal | 1 | One Thousand Uncles","name_short":"mtl-1","host":"mtl-1.ca.uncletopia.com","port":27015,"enabled":true,"region":"us-east","cc":"ca","latitude":45.50889,"longitude":-73.56167,"reserved":0,"last_update":"0001-01-01T00:00:00Z","name_a2s":"Uncletopia | Montréal | 1 | One Thousand Uncles","protocol":17,"map":"pl_thundermountain","folder":"tf","game":"Team Fortress","app_id":440,"player_count":29,"max_players":32,"Bots":20,"server_type":"Dedicated","server_os":"Linux","password":true,"vac":true,"version":"7961495","steam_id":85568392924500087,"keywords":["alltalk","bots","danepve","increased_maxplayers","norespawntime","payload","uncletopia"],"game_id":440,"stv_port":0,"stv_name":"","players":[{"user_id":461,"name":"Aristotle Voulton","steam_id":76561198100174923,"connected_time":20000000000,"state":"active","ping":92},{"user_id":450,"name":"Lucas096br","steam_id":76561198350760997,"connected_time":3882000000000,"state":"active","ping":220},{"user_id":454,"name":"Walla","steam_id":76561198103379757,"connected_time":2587000000000,"state":"active","ping":62},{"user_id":453,"name":"Robert Nutbar","steam_id":76561198062334757,"connected_time":2922000000000,"state":"active","ping":72},{"user_id":427,"name":"Why not Zoidberg?","steam_id":76561197982207556,"connected_time":5621000000000,"state":"active","ping":73},{"user_id":428,"name":"Crebb 2184","steam_id":76561198323163973,"connected_time":4739000000000,"state":"active","ping":129},{"user_id":455,"name":"ryqset","steam_id":76561198349299874,"connected_time":2368000000000,"state":"active","ping":112},{"user_id":456,"name":"Lots0","steam_id":76561198043143145,"connected_time":1826000000000,"state":"active","ping":107},{"user_id":460,"name":"sus_inturder","steam_id":76561199387186181,"connected_time":628000000000,"state":"active","ping":62}]},{"server_id":301,"name":"Uncletopia | Montréal | 2 | One Thousand Uncles","name_short":"mtl-2","host":"mtl-1.ca.uncletopia.com","port":27025,"enabled":true,"region":"us-east","cc":"ca","latitude":45.50889,"longitude":-73.56167,"reserved":0,"last_update":"0001-01-01T00:00:00Z","name_a2s":"Uncletopia | Montréal | 2 | One Thousand Uncles","protocol":17,"map":"cp_dustbowl","folder":"tf","game":"Team Fortress","app_id":440,"player_count":0,"max_players":32,"Bots":0,"server_type":"Dedicated","server_os":"Linux","password":true,"vac":true,"version":"7961495","steam_id":85568392924500088,"keywords":["alltalk","cp","danepve","increased_maxplayers","norespawntime","uncletopia"],"game_id":440,"stv_port":0,"stv_name":"","players":null},{"server_id":302,"name":"Uncletopia | Montréal | 3 | One Thousand Uncles","name_short":"mtl-3","host":"mtl-1.ca.uncletopia.com","port":27035,"enabled":true,"region":"us-east","cc":"ca","latitude":45.50889,"longitude":-73.56167,"reserved":0,"last_update":"0001-01-01T00:00:00Z","name_a2s":"Uncletopia | Montréal | 3 | One Thousand Uncles","protocol":17,"map":"pl_thundermountain","folder":"tf","game":"Team Fortress","app_id":440,"player_count":0,"max_players":32,"Bots":0,"server_type":"Dedicated","server_os":"Linux","password":true,"vac":true,"version":"7961495","steam_id":85568392924500089,"keywords":["alltalk","danepve","increased_maxplayers","norespawntime","payload","uncletopia"],"game_id":440,"stv_port":0,"stv_name":"","players":null},{"server_id":13,"name":"Uncletopia | New York City | 1 | All Maps","name_short":"nyc-1","host":"nyc-1.us.uncletopia.com","port":27015,"enabled":true,"region":"us-east","cc":"us","latitude":40.73061,"longitude":-73.93524,"reserved":0,"last_update":"0001-01-01T00:00:00Z","name_a2s":"Uncletopia | New York City | 1 | All Maps","protocol":17,"map":"pl_upward","folder":"tf","game":"Team Fortress","app_id":440,"player_count":24,"max_players":24,"Bots":0,"server_type":"Dedicated","server_os":"Linux","password":true,"vac":true,"version":"7961495","steam_id":85568392924469993,"keywords":["nocrits","nodmgspread","payload","uncletopia"],"game_id":440,"stv_port":27016,"stv_name":"Uncletopia | New York City | 1 | All Maps | STV","players":[{"user_id":851,"name":"komodoom","steam_id":76561198048619639,"connected_time":811000000000,"state":"active","ping":77},{"user_id":814,"name":"Feathers! 🞧","steam_id":76561198812663884,"connected_time":4030000000000,"state":"active","ping":92},{"user_id":859,"name":"NinjaLau95","steam_id":76561198001069938,"connected_time":111000000000,"state":"active","ping":52},{"user_id":806,"name":"The Great Eagle Scourge of 1822","steam_id":76561198325086209,"connected_time":4556000000000,"state":"active","ping":115},{"user_id":854,"name":"Zippy","steam_id":76561198279229422,"connected_time":757000000000,"state":"active","ping":67},{"user_id":839,"name":"WiteBord","steam_id":76561198891799301,"connected_time":1918000000000,"state":"active","ping":68},{"user_id":853,"name":"Wiley","steam_id":76561198057321128,"connected_time":805000000000,"state":"active","ping":59},{"user_id":855,"name":"coda","steam_id":76561198092052685,"connected_time":710000000000,"state":"active","ping":49},{"user_id":836,"name":"Bewen","steam_id":76561198325334261,"connected_time":2472000000000,"state":"active","ping":43},{"user_id":813,"name":"777","steam_id":76561198277163301,"connected_time":4068000000000,"state":"active","ping":76},{"user_id":841,"name":"Crystall","steam_id":76561198346607700,"connected_time":1735000000000,"state":"active","ping":65},{"user_id":858,"name":"[HOH] 「Kenubis」","steam_id":76561198105671758,"connected_time":308000000000,"state":"active","ping":148},{"user_id":843,"name":"Aoiuchuu","steam_id":76561198051947219,"connected_time":1614000000000,"state":"active","ping":177},{"user_id":826,"name":"John Pickle","steam_id":76561198151211107,"connected_time":3140000000000,"state":"active","ping":100},{"user_id":800,"name":"Alejandro","steam_id":76561197970051493,"connected_time":5557000000000,"state":"active","ping":130},{"user_id":844,"name":"GrinchsUltimatum","steam_id":76561198075366657,"connected_time":1602000000000,"state":"active","ping":112},{"user_id":828,"name":"Zero Hiro™","steam_id":76561198075423872,"connected_time":3132000000000,"state":"active","ping":90},{"user_id":816,"name":"Rambly Dambly","steam_id":76561198844496567,"connected_time":4007000000000,"state":"active","ping":34},{"user_id":845,"name":"Cobaltion","steam_id":76561198035701210,"connected_time":1574000000000,"state":"active","ping":125},{"user_id":834,"name":"t h i c c  b o i","steam_id":76561198059547538,"connected_time":2847000000000,"state":"active","ping":50},{"user_id":829,"name":"NickySlicky","steam_id":76561199108650500,"connected_time":3123000000000,"state":"active","ping":99},{"user_id":835,"name":"William","steam_id":76561198017970207,"connected_time":2525000000000,"state":"active","ping":88},{"user_id":848,"name":"Pootis ENGAGE","steam_id":76561198192752793,"connected_time":1332000000000,"state":"active","ping":49},{"user_id":857,"name":"Soapy","steam_id":76561198374539325,"connected_time":651000000000,"state":"active","ping":117}]},{"server_id":14,"name":"Uncletopia | New York City | 2 | All Maps","name_short":"nyc-2","host":"nyc-1.us.uncletopia.com","port":27025,"enabled":true,"region":"us-east","cc":"us","latitude":40.73061,"longitude":-73.93524,"reserved":0,"last_update":"0001-01-01T00:00:00Z","name_a2s":"Uncletopia | New York City | 2 | All Maps","protocol":17,"map":"koth_viaduct","folder":"tf","game":"Team Fortress","app_id":440,"player_count":1,"max_players":24,"Bots":0,"server_type":"Dedicated","server_os":"Linux","password":true,"vac":true,"version":"7961495","steam_id":85568392924469994,"keywords":["cp","nocrits","nodmgspread","uncletopia"],"game_id":440,"stv_port":27026,"stv_name":"Uncletopia | New York City | 2 | All Maps | STV","players":[{"user_id":266,"name":"eish","steam_id":76561198089463603,"connected_time":326000000000,"state":"active","ping":118}]},{"server_id":15,"name":"Uncletopia | New York City | 3 | Stopwatch","name_short":"nyc-3","host":"nyc-1.us.uncletopia.com","port":27035,"enabled":true,"region":"us-east","cc":"us","latitude":40.73061,"longitude":-73.93524,"reserved":0,"last_update":"0001-01-01T00:00:00Z","name_a2s":"Uncletopia | New York City | 3 | Stopwatch","protocol":17,"map":"workshop/pl_badwater_pro_v12.ugc2142942074","folder":"tf","game":"Team Fortress","app_id":440,"player_count":0,"max_players":24,"Bots":0,"server_type":"Dedicated","server_os":"Linux","password":true,"vac":true,"version":"7961495","steam_id":85568392924742820,"keywords":["nocrits","nodmgspread","payload","uncletopia"],"game_id":440,"stv_port":27036,"stv_name":"Uncletopia | New York City | 3 | Stopwatch | STV","players":null},{"server_id":16,"name":"Uncletopia | New York City | 4 | Community","name_short":"nyc-4","host":"nyc-1.us.uncletopia.com","port":27045,"enabled":true,"region":"us-east","cc":"us","latitude":40.73061,"longitude":-73.93524,"reserved":0,"last_update":"0001-01-01T00:00:00Z","name_a2s":"Uncletopia | New York City | 4 | Community","protocol":17,"map":"workshop/cp_bruhstbowl_b6.ugc2878604990","folder":"tf","game":"Team Fortress","app_id":440,"player_count":0,"max_players":24,"Bots":0,"server_type":"Dedicated","server_os":"Linux","password":true,"vac":true,"version":"7961495","steam_id":85568392924742821,"keywords":["cp","nocrits","nodmgspread","uncletopia"],"game_id":440,"stv_port":27046,"stv_name":"Uncletopia | New York City | 4 | Community | STV","players":null},{"server_id":142,"name":"Uncletopia | São Paulo | 1 | All Maps","name_short":"sao-1","host":"sao-1.br.uncletopia.com","port":27015,"enabled":true,"region":"sa","cc":"br","latitude":-23.533773,"longitude":-46.62529,"reserved":0,"last_update":"0001-01-01T00:00:00Z","name_a2s":"Uncletopia | São Paulo | 1 | All Maps","protocol":17,"map":"cp_gorge","folder":"tf","game":"Team Fortress","app_id":440,"player_count":0,"max_players":24,"Bots":0,"server_type":"Dedicated","server_os":"Linux","password":true,"vac":true,"version":"7961495","steam_id":85568392924469996,"keywords":["cp","nocrits","nodmgspread","uncletopia"],"game_id":440,"stv_port":27016,"stv_name":"Uncletopia | São Paulo | 1 | All Maps | STV","players":null},{"server_id":143,"name":"Uncletopia | São Paulo | 2 | Community","name_short":"sao-2","host":"sao-2.br.uncletopia.com","port":27015,"enabled":true,"region":"sa","cc":"br","latitude":-23.533773,"longitude":-46.62529,"reserved":0,"last_update":"0001-01-01T00:00:00Z","name_a2s":"Uncletopia | São Paulo | 2 | Community","protocol":17,"map":"workshop/koth_product_final.ugc454272353","folder":"tf","game":"Team Fortress","app_id":440,"player_count":0,"max_players":24,"Bots":0,"server_type":"Dedicated","server_os":"Linux","password":true,"vac":true,"version":"7961495","steam_id":85568392924485349,"keywords":["cp","nocrits","nodmgspread","uncletopia"],"game_id":440,"stv_port":27016,"stv_name":"Uncletopia | São Paulo | 2 | Community | STV","players":null},{"server_id":7,"name":"Uncletopia | Seattle | 1 | All Maps","name_short":"sea-1","host":"sea-1.us.uncletopia.com","port":27015,"enabled":true,"region":"us-west","cc":"us","latitude":47.608013,"longitude":-122.33517,"reserved":0,"last_update":"0001-01-01T00:00:00Z","name_a2s":"Uncletopia | Seattle | 1 | All Maps","protocol":17,"map":"pl_borneo","folder":"tf","game":"Team Fortress","app_id":440,"player_count":24,"max_players":24,"Bots":0,"server_type":"Dedicated","server_os":"Linux","password":true,"vac":true,"version":"7961495","steam_id":85568392924469997,"keywords":["nocrits","nodmgspread","payload","uncletopia"],"game_id":440,"stv_port":27016,"stv_name":"Uncletopia | Seattle | 1 | All Maps | STV","players":[{"user_id":887,"name":"zee","steam_id":76561198148876424,"connected_time":974000000000,"state":"active","ping":46},{"user_id":753,"name":"ghor","steam_id":76561197994547132,"connected_time":7606000000000,"state":"active","ping":31},{"user_id":749,"name":"AveragePhil","steam_id":76561199139836802,"connected_time":7833000000000,"state":"active","ping":48},{"user_id":857,"name":"Brathic","steam_id":76561198966232163,"connected_time":3064000000000,"state":"active","ping":77},{"user_id":890,"name":"lavender","steam_id":76561199069518286,"connected_time":234000000000,"state":"active","ping":68},{"user_id":888,"name":"orangePulp","steam_id":76561198038373636,"connected_time":613000000000,"state":"active","ping":94},{"user_id":871,"name":"Chi-Chia","steam_id":76561198067955987,"connected_time":2187000000000,"state":"active","ping":45},{"user_id":859,"name":"Thexx [she/they]","steam_id":76561198113823050,"connected_time":2979000000000,"state":"active","ping":48},{"user_id":886,"name":"Lily Thorn","steam_id":76561198305488625,"connected_time":1044000000000,"state":"active","ping":61},{"user_id":863,"name":"squash","steam_id":76561198150281353,"connected_time":2874000000000,"state":"active","ping":54},{"user_id":786,"name":"hazel","steam_id":76561198037292232,"connected_time":5593000000000,"state":"active","ping":131},{"user_id":872,"name":"smeasly","steam_id":76561198028718812,"connected_time":2144000000000,"state":"active","ping":45},{"user_id":861,"name":"Robogineer","steam_id":76561198026994739,"connected_time":2963000000000,"state":"active","ping":88},{"user_id":882,"name":"LFF prophet","steam_id":76561198131166135,"connected_time":1110000000000,"state":"active","ping":37},{"user_id":873,"name":"Sniff","steam_id":76561198010270922,"connected_time":2114000000000,"state":"active","ping":45},{"user_id":864,"name":"4lorist LFT FROTTING","steam_id":76561198009121060,"connected_time":2874000000000,"state":"active","ping":46},{"user_id":877,"name":"doopsies","steam_id":76561198083000867,"connected_time":1530000000000,"state":"active","ping":49},{"user_id":878,"name":"Moffein","steam_id":76561198016739296,"connected_time":1487000000000,"state":"active","ping":67},{"user_id":866,"name":"fadeaway backshots","steam_id":76561198086878595,"connected_time":2856000000000,"state":"active","ping":75},{"user_id":894,"name":"Canned Lobster","steam_id":76561198110847328,"connected_time":65000000000,"state":"active","ping":83},{"user_id":805,"name":"blinkerton city","steam_id":76561198054270410,"connected_time":4535000000000,"state":"active","ping":54},{"user_id":870,"name":"rorywashere /ᐠ - ˕ -マ Ⳋ","steam_id":76561198065825165,"connected_time":2562000000000,"state":"active","ping":106},{"user_id":889,"name":"taco bell jizz balls","steam_id":76561199041179985,"connected_time":550000000000,"state":"active","ping":46},{"user_id":796,"name":"Cheezbeargur","steam_id":76561198164702899,"connected_time":4818000000000,"state":"active","ping":71}]},{"server_id":119,"name":"Uncletopia | Seattle | 2 | All Maps","name_short":"sea-2","host":"sea-1.us.uncletopia.com","port":27025,"enabled":true,"region":"us-west","cc":"us","latitude":47.608013,"longitude":-122.33517,"reserved":0,"last_update":"0001-01-01T00:00:00Z","name_a2s":"Uncletopia | Seattle | 2 | All Maps","protocol":17,"map":"koth_suijin","folder":"tf","game":"Team Fortress","app_id":440,"player_count":24,"max_players":24,"Bots":0,"server_type":"Dedicated","server_os":"Linux","password":true,"vac":true,"version":"7961495","steam_id":85568392924469998,"keywords":["cp","nocrits","nodmgspread","uncletopia"],"game_id":440,"stv_port":27026,"stv_name":"Uncletopia | Seattle | 2 | All Maps | STV","players":[{"user_id":599,"name":"TTV/ZenmanTTV","steam_id":76561198110651094,"connected_time":3132000000000,"state":"active","ping":131},{"user_id":620,"name":"lukamine","steam_id":76561198166827208,"connected_time":47000000000,"state":"active","ping":45},{"user_id":570,"name":"Caramel_Chalice","steam_id":76561198307609692,"connected_time":5852000000000,"state":"active","ping":56},{"user_id":604,"name":"Mr. Pine","steam_id":76561198112203861,"connected_time":2136000000000,"state":"active","ping":65},{"user_id":605,"name":"smoking spy","steam_id":76561198329096986,"connected_time":2089000000000,"state":"active","ping":84},{"user_id":619,"name":"Stev the Hypergamous Pebble","steam_id":76561197999442625,"connected_time":450000000000,"state":"active","ping":62},{"user_id":614,"name":"self sufficient kitten ♥","steam_id":76561197960592612,"connected_time":986000000000,"state":"active","ping":47},{"user_id":607,"name":"Comradical","steam_id":76561197990808285,"connected_time":1684000000000,"state":"active","ping":124},{"user_id":615,"name":"hungry kibten","steam_id":76561198184099558,"connected_time":970000000000,"state":"active","ping":48},{"user_id":592,"name":"Optimore","steam_id":76561198047662990,"connected_time":4690000000000,"state":"active","ping":75},{"user_id":616,"name":"2 Point Tom","steam_id":76561198087617008,"connected_time":937000000000,"state":"active","ping":58},{"user_id":618,"name":"superweedprincess4000","steam_id":76561198049258493,"connected_time":657000000000,"state":"active","ping":61},{"user_id":571,"name":"Violet K.","steam_id":76561198062963842,"connected_time":5832000000000,"state":"active","ping":72},{"user_id":578,"name":"CabezaGrande","steam_id":76561197972555502,"connected_time":5436000000000,"state":"active","ping":94},{"user_id":582,"name":"Kronk","steam_id":76561198267956028,"connected_time":5301000000000,"state":"active","ping":47},{"user_id":608,"name":"Day Man","steam_id":76561198067154807,"connected_time":1674000000000,"state":"active","ping":48},{"user_id":579,"name":"Invictus","steam_id":76561198079517075,"connected_time":5434000000000,"state":"active","ping":128},{"user_id":603,"name":"Donny Q","steam_id":76561198020901703,"connected_time":2164000000000,"state":"active","ping":43},{"user_id":581,"name":"Antzen","steam_id":76561198041343470,"connected_time":5419000000000,"state":"active","ping":65},{"user_id":590,"name":"American Dad Funny Moments #32","steam_id":76561198254874328,"connected_time":4853000000000,"state":"active","ping":55},{"user_id":530,"name":"Clagger","steam_id":76561198066701092,"connected_time":8634000000000,"state":"active","ping":44},{"user_id":610,"name":"Dongus","steam_id":76561197979056451,"connected_time":1455000000000,"state":"active","ping":51},{"user_id":617,"name":"paws :3","steam_id":76561199371694361,"connected_time":805000000000,"state":"active","ping":86},{"user_id":594,"name":"Dogg wader","steam_id":76561199090314340,"connected_time":4250000000000,"state":"active","ping":94}]},{"server_id":406,"name":"Uncletopia | Seattle | 3 | Stopwatch","name_short":"sea-3","host":"sea-1.us.uncletopia.com","port":27035,"enabled":true,"region":"us-west","cc":"us","latitude":47.608013,"longitude":-122.33517,"reserved":0,"last_update":"0001-01-01T00:00:00Z","name_a2s":"Uncletopia | Seattle | 3 | Stopwatch","protocol":17,"map":"pl_upward","folder":"tf","game":"Team Fortress","app_id":440,"player_count":0,"max_players":24,"Bots":0,"server_type":"Dedicated","server_os":"Linux","password":true,"vac":true,"version":"7961495","steam_id":85568392924515217,"keywords":["nocrits","nodmgspread","payload","uncletopia"],"game_id":440,"stv_port":27036,"stv_name":"Uncletopia | Seattle | 3 | Stopwatch | STV","players":null},{"server_id":17,"name":"Uncletopia | San Francisco | 1 | All Maps","name_short":"sfo-1","host":"sfo-1.us.uncletopia.com","port":27015,"enabled":true,"region":"us-west","cc":"us","latitude":37.77397,"longitude":-122.4313,"reserved":0,"last_update":"0001-01-01T00:00:00Z","name_a2s":"Uncletopia | San Francisco | 1 | All Maps","protocol":17,"map":"pl_borneo","folder":"tf","game":"Team Fortress","app_id":440,"player_count":0,"max_players":24,"Bots":0,"server_type":"Dedicated","server_os":"Linux","password":true,"vac":true,"version":"7961495","steam_id":85568392924469999,"keywords":["nocrits","nodmgspread","payload","uncletopia"],"game_id":440,"stv_port":27016,"stv_name":"Uncletopia | San Francisco | 1 | All Maps | STV","players":null},{"server_id":18,"name":"Uncletopia | San Francisco | 2 | All Maps","name_short":"sfo-2","host":"sfo-1.us.uncletopia.com","port":27025,"enabled":true,"region":"us-west","cc":"us","latitude":37.77397,"longitude":-122.4313,"reserved":0,"last_update":"0001-01-01T00:00:00Z","name_a2s":"Uncletopia | San Francisco | 2 | All Maps","protocol":17,"map":"cp_steel","folder":"tf","game":"Team Fortress","app_id":440,"player_count":21,"max_players":24,"Bots":0,"server_type":"Dedicated","server_os":"Linux","password":true,"vac":true,"version":"7961495","steam_id":85568392924470000,"keywords":["cp","nocrits","nodmgspread","uncletopia"],"game_id":440,"stv_port":27026,"stv_name":"Uncletopia | San Francisco | 2 | All Maps | STV","players":[{"user_id":110,"name":"Natural Crowe","steam_id":76561198256909706,"connected_time":458000000000,"state":"active","ping":117},{"user_id":88,"name":"Mirce","steam_id":76561198100889621,"connected_time":1984000000000,"state":"active","ping":100},{"user_id":112,"name":"b etween d","steam_id":76561198802099686,"connected_time":196000000000,"state":"active","ping":172},{"user_id":26,"name":"DrippySpiffy","steam_id":76561199233974512,"connected_time":7064000000000,"state":"active","ping":122},{"user_id":100,"name":"pyroclastic flow","steam_id":76561198095121758,"connected_time":943000000000,"state":"active","ping":58},{"user_id":55,"name":"pablo.rodriguez2006","steam_id":76561198059740184,"connected_time":5046000000000,"state":"active","ping":61},{"user_id":93,"name":"ItJesusMan","steam_id":76561198872305011,"connected_time":1480000000000,"state":"active","ping":97},{"user_id":89,"name":"milk","steam_id":76561198053410877,"connected_time":1817000000000,"state":"active","ping":60},{"user_id":85,"name":"i could do it right now","steam_id":76561198067015101,"connected_time":2645000000000,"state":"active","ping":105},{"user_id":106,"name":"World's Biggest Sniper Hater","steam_id":76561198209153291,"connected_time":568000000000,"state":"active","ping":70},{"user_id":90,"name":"Golden Darkness","steam_id":76561198399018335,"connected_time":1794000000000,"state":"active","ping":110},{"user_id":111,"name":"Spy Kart 2","steam_id":76561199486212244,"connected_time":309000000000,"state":"active","ping":143},{"user_id":86,"name":"Soda Popinski","steam_id":76561198045209288,"connected_time":2557000000000,"state":"active","ping":47},{"user_id":103,"name":"fm","steam_id":76561198044703428,"connected_time":611000000000,"state":"active","ping":47},{"user_id":58,"name":"spirit","steam_id":76561198102040731,"connected_time":4938000000000,"state":"active","ping":106},{"user_id":50,"name":"Profile Name","steam_id":76561198404517128,"connected_time":5160000000000,"state":"active","ping":108},{"user_id":102,"name":"FrostyBoiGrim","steam_id":76561198114335037,"connected_time":710000000000,"state":"active","ping":45},{"user_id":59,"name":"bladee tf2","steam_id":76561198402943433,"connected_time":4937000000000,"state":"active","ping":54},{"user_id":54,"name":"Viewie","steam_id":76561198280108853,"connected_time":5074000000000,"state":"active","ping":129},{"user_id":64,"name":"kiwi","steam_id":76561198052177917,"connected_time":4706000000000,"state":"active","ping":67},{"user_id":101,"name":"the pizza","steam_id":76561198221331476,"connected_time":927000000000,"state":"active","ping":40}]},{"server_id":19,"name":"Uncletopia | San Francisco | 3 | Stopwatch","name_short":"sfo-3","host":"sfo-1.us.uncletopia.com","port":27035,"enabled":true,"region":"us-west","cc":"us","latitude":37.77397,"longitude":-122.4313,"reserved":0,"last_update":"0001-01-01T00:00:00Z","name_a2s":"Uncletopia | San Francisco | 3 | Stopwatch","protocol":17,"map":"workshop/pl_barnblitz_pro7.ugc582280235","folder":"tf","game":"Team Fortress","app_id":440,"player_count":0,"max_players":24,"Bots":0,"server_type":"Dedicated","server_os":"Linux","password":true,"vac":true,"version":"7961495","steam_id":85568392924742824,"keywords":["nocrits","nodmgspread","payload","uncletopia"],"game_id":440,"stv_port":27036,"stv_name":"Uncletopia | San Francisco | 3 | Stopwatch | STV","players":null},{"server_id":20,"name":"Uncletopia | San Francisco | 4 | Community","name_short":"sfo-4","host":"sfo-1.us.uncletopia.com","port":27045,"enabled":true,"region":"us-west","cc":"us","latitude":37.77397,"longitude":-122.4313,"reserved":0,"last_update":"0001-01-01T00:00:00Z","name_a2s":"Uncletopia | San Francisco | 4 | Community","protocol":17,"map":"workshop/koth_bagel_rc6.ugc2514036946","folder":"tf","game":"Team Fortress","app_id":440,"player_count":0,"max_players":24,"Bots":0,"server_type":"Dedicated","server_os":"Linux","password":true,"vac":true,"version":"7961495","steam_id":85568392924742826,"keywords":["cp","nocrits","nodmgspread","uncletopia"],"game_id":440,"stv_port":27046,"stv_name":"Uncletopia | San Francisco | 4 | Community | STV","players":null},{"server_id":141,"name":"Uncletopia | Sydney | 1 | All Maps","name_short":"syd-1","host":"syd-1.au.uncletopia.com","port":27015,"enabled":true,"region":"au","cc":"au","latitude":-33.865143,"longitude":151.2099,"reserved":0,"last_update":"0001-01-01T00:00:00Z","name_a2s":"Uncletopia | Sydney | 1 | All Maps","protocol":17,"map":"cp_egypt_final","folder":"tf","game":"Team Fortress","app_id":440,"player_count":24,"max_players":24,"Bots":0,"server_type":"Dedicated","server_os":"Linux","password":true,"vac":true,"version":"7961495","steam_id":85568392924470001,"keywords":["cp","nocrits","nodmgspread","uncletopia"],"game_id":440,"stv_port":27016,"stv_name":"Uncletopia | Sydney | 1 | All Maps | STV","players":[{"user_id":291,"name":"invert.","steam_id":76561198049619174,"connected_time":1639000000000,"state":"active","ping":66},{"user_id":289,"name":"carrot monster","steam_id":76561199056025092,"connected_time":2053000000000,"state":"active","ping":46},{"user_id":292,"name":"Editor_Billy","steam_id":76561199165608946,"connected_time":1587000000000,"state":"active","ping":61},{"user_id":287,"name":"papa","steam_id":76561198163034070,"connected_time":2138000000000,"state":"active","ping":42},{"user_id":245,"name":"MAYHEM","steam_id":76561199323730865,"connected_time":6240000000000,"state":"active","ping":32},{"user_id":297,"name":"FascismSalad","steam_id":76561198262410973,"connected_time":876000000000,"state":"active","ping":45},{"user_id":257,"name":"Dot","steam_id":76561198064534661,"connected_time":4900000000000,"state":"active","ping":57},{"user_id":290,"name":"COLLINSct","steam_id":76561198045395403,"connected_time":1884000000000,"state":"active","ping":47},{"user_id":295,"name":"Plastic_Wrapp","steam_id":76561198817560659,"connected_time":1172000000000,"state":"active","ping":76},{"user_id":201,"name":"Marzell","steam_id":76561198151276153,"connected_time":9781000000000,"state":"active","ping":86},{"user_id":260,"name":"Glockenspe (She/Her)","steam_id":76561199184115241,"connected_time":4589000000000,"state":"active","ping":44},{"user_id":304,"name":"Franky 'Fist Me' Farnsworth","steam_id":76561198059546358,"connected_time":365000000000,"state":"active","ping":53},{"user_id":296,"name":"GattlingGoose","steam_id":76561199021498300,"connected_time":981000000000,"state":"active","ping":62},{"user_id":271,"name":"Eddie","steam_id":76561198081031350,"connected_time":3084000000000,"state":"active","ping":45},{"user_id":278,"name":"ChickenHatMan","steam_id":76561198119527347,"connected_time":2781000000000,"state":"active","ping":56},{"user_id":301,"name":"meathead","steam_id":76561197963031728,"connected_time":398000000000,"state":"active","ping":47},{"user_id":302,"name":"Chrisy","steam_id":76561198092382473,"connected_time":388000000000,"state":"active","ping":88},{"user_id":303,"name":"shnobie5","steam_id":76561199094198048,"connected_time":384000000000,"state":"active","ping":63},{"user_id":282,"name":"calvin","steam_id":76561198121939699,"connected_time":2358000000000,"state":"active","ping":99},{"user_id":299,"name":"Chooka","steam_id":76561197992307814,"connected_time":711000000000,"state":"active","ping":67},{"user_id":251,"name":"noXy","steam_id":76561198032671657,"connected_time":5591000000000,"state":"active","ping":57},{"user_id":270,"name":"🔧Wrench✨","steam_id":76561198329689458,"connected_time":3095000000000,"state":"active","ping":79},{"user_id":268,"name":"ANDY64","steam_id":76561198049447026,"connected_time":3328000000000,"state":"active","ping":76},{"user_id":305,"name":"manymangoes","steam_id":76561198011919569,"connected_time":18000000000,"state":"active","ping":59}]},{"server_id":123,"name":"Uncletopia | Sydney | 2 | All Maps","name_short":"syd-2","host":"syd-1.au.uncletopia.com","port":27025,"enabled":true,"region":"au","cc":"au","latitude":-33.865143,"longitude":151.2099,"reserved":0,"last_update":"0001-01-01T00:00:00Z","name_a2s":"Uncletopia | Sydney | 2 | All Maps","protocol":17,"map":"pl_upward","folder":"tf","game":"Team Fortress","app_id":440,"player_count":24,"max_players":24,"Bots":0,"server_type":"Dedicated","server_os":"Linux","password":true,"vac":true,"version":"7961495","steam_id":85568392924470002,"keywords":["nocrits","nodmgspread","payload","uncletopia"],"game_id":440,"stv_port":27026,"stv_name":"Uncletopia | Sydney | 2 | All Maps | STV","players":[{"user_id":32,"name":"POLSKA","steam_id":76561199090168813,"connected_time":3285000000000,"state":"active","ping":47},{"user_id":57,"name":"BilboSwaggins","steam_id":76561198984446872,"connected_time":804000000000,"state":"active","ping":58},{"user_id":56,"name":"noguchi sensei","steam_id":76561198115314385,"connected_time":888000000000,"state":"active","ping":173},{"user_id":44,"name":"N0thing_but_pure_lag_and_luck","steam_id":76561199002102933,"connected_time":2305000000000,"state":"active","ping":93},{"user_id":72,"name":"cunning chris","steam_id":76561197972510204,"connected_time":306000000000,"state":"active","ping":58},{"user_id":58,"name":"doctor morbin' (official)","steam_id":76561199365241695,"connected_time":733000000000,"state":"active","ping":130},{"user_id":67,"name":"El","steam_id":76561198095659550,"connected_time":403000000000,"state":"active","ping":95},{"user_id":59,"name":"dark modus","steam_id":76561198000568803,"connected_time":627000000000,"state":"active","ping":54},{"user_id":52,"name":"better safe than Gregory","steam_id":76561198301282416,"connected_time":1062000000000,"state":"active","ping":54},{"user_id":53,"name":"Livid","steam_id":76561198060024585,"connected_time":1056000000000,"state":"active","ping":37},{"user_id":73,"name":"\u003e:FrozenDragon:\u003c","steam_id":76561198227960928,"connected_time":297000000000,"state":"active","ping":91},{"user_id":55,"name":"...","steam_id":76561198309750355,"connected_time":978000000000,"state":"active","ping":46},{"user_id":61,"name":"4LOW","steam_id":76561199156942316,"connected_time":620000000000,"state":"active","ping":77},{"user_id":62,"name":"アリス","steam_id":76561198041318894,"connected_time":608000000000,"state":"active","ping":45},{"user_id":63,"name":"monkey (with spoon)","steam_id":76561198301254663,"connected_time":604000000000,"state":"active","ping":68},{"user_id":64,"name":"tuxy","steam_id":76561198996816684,"connected_time":553000000000,"state":"active","ping":70},{"user_id":66,"name":"Huz","steam_id":76561198039231303,"connected_time":420000000000,"state":"active","ping":85},{"user_id":68,"name":"piss missile","steam_id":76561198007947876,"connected_time":381000000000,"state":"active","ping":73},{"user_id":69,"name":"Frøken Ferje","steam_id":76561198948183007,"connected_time":373000000000,"state":"active","ping":48},{"user_id":70,"name":"Milk Boi","steam_id":76561198238708000,"connected_time":363000000000,"state":"active","ping":90},{"user_id":71,"name":"young thug disciple","steam_id":76561198046239819,"connected_time":339000000000,"state":"active","ping":83},{"user_id":74,"name":"Notorious","steam_id":76561198042197894,"connected_time":202000000000,"state":"active","ping":62},{"user_id":76,"name":"bangs","steam_id":76561198041334029,"connected_time":83000000000,"state":"active","ping":92},{"user_id":77,"name":"T-10a","steam_id":76561198054765522,"connected_time":59000000000,"state":"active","ping":49}]},{"server_id":395,"name":"Uncletopia | Sydney | 3 | All Maps","name_short":"syd-3","host":"syd-1.au.uncletopia.com","port":27035,"enabled":true,"region":"au","cc":"au","latitude":-33.865143,"longitude":151.2099,"reserved":0,"last_update":"0001-01-01T00:00:00Z","name_a2s":"Uncletopia | Sydney | 3 | All Maps","protocol":17,"map":"koth_brazil","folder":"tf","game":"Team Fortress","app_id":440,"player_count":0,"max_players":24,"Bots":0,"server_type":"Dedicated","server_os":"Linux","password":true,"vac":true,"version":"7961495","steam_id":85568392925194467,"keywords":["cp","nocrits","nodmgspread","uncletopia"],"game_id":440,"stv_port":27036,"stv_name":"Uncletopia | Sydney | 3 | All Maps | STV","players":null},{"server_id":396,"name":"Uncletopia | Sydney | 4 | All Maps","name_short":"syd-4","host":"syd-1.au.uncletopia.com","port":27045,"enabled":true,"region":"au","cc":"au","latitude":-33.865143,"longitude":151.2099,"reserved":0,"last_update":"0001-01-01T00:00:00Z","name_a2s":"Uncletopia | Sydney | 4 | All Maps","protocol":17,"map":"pl_upward","folder":"tf","game":"Team Fortress","app_id":440,"player_count":0,"max_players":24,"Bots":0,"server_type":"Dedicated","server_os":"Linux","password":true,"vac":true,"version":"7961495","steam_id":85568392925397958,"keywords":["nocrits","nodmgspread","payload","uncletopia"],"game_id":440,"stv_port":27046,"stv_name":"Uncletopia | Sydney | 4 | All Maps | STV","players":null},{"server_id":58,"name":"Uncletopia | Sydney | 5 | Stopwatch","name_short":"syd-5","host":"syd-1.au.uncletopia.com","port":27055,"enabled":true,"region":"au","cc":"au","latitude":-33.865143,"longitude":151.2099,"reserved":0,"last_update":"0001-01-01T00:00:00Z","name_a2s":"Uncletopia | Sydney | 5 | Stopwatch","protocol":17,"map":"koth_highpass","folder":"tf","game":"Team Fortress","app_id":440,"player_count":0,"max_players":24,"Bots":0,"server_type":"Dedicated","server_os":"Linux","password":true,"vac":true,"version":"7961495","steam_id":85568392925397959,"keywords":["cp","nocrits","nodmgspread","uncletopia"],"game_id":440,"stv_port":27056,"stv_name":"Uncletopia | Sydney | 5 | Stopwatch | STV","players":null},{"server_id":59,"name":"Uncletopia | Sydney | 6 | Community","name_short":"syd-6","host":"syd-1.au.uncletopia.com","port":27065,"enabled":true,"region":"au","cc":"au","latitude":-33.865143,"longitude":151.2099,"reserved":0,"last_update":"0001-01-01T00:00:00Z","name_a2s":"Uncletopia | Sydney | 6 | Community","protocol":17,"map":"workshop/cp_mannbase_rc2a.ugc1900737467","folder":"tf","game":"Team Fortress","app_id":440,"player_count":0,"max_players":24,"Bots":0,"server_type":"Dedicated","server_os":"Linux","password":true,"vac":true,"version":"7961495","steam_id":85568392925397960,"keywords":["cp","nocrits","nodmgspread","uncletopia"],"game_id":440,"stv_port":27066,"stv_name":"Uncletopia | Sydney | 6 | Community | STV","players":null},{"server_id":49,"name":"Uncletopia | Warsaw | 1 | One Thousand Uncles","name_short":"waw-1","host":"waw-1.pl.uncletopia.com","port":27015,"enabled":true,"region":"eu","cc":"pl","latitude":52.2297,"longitude":21.017532,"reserved":0,"last_update":"0001-01-01T00:00:00Z","name_a2s":"Uncletopia | Warsaw | 1 | One Thousand Uncles","protocol":17,"map":"cp_egypt_final","folder":"tf","game":"Team Fortress","app_id":440,"player_count":0,"max_players":32,"Bots":0,"server_type":"Dedicated","server_os":"Linux","password":true,"vac":true,"version":"7961495","steam_id":85568392925397850,"keywords":["alltalk","cp","danepve","increased_maxplayers","norespawntime","uncletopia"],"game_id":440,"stv_port":0,"stv_name":"","players":null},{"server_id":50,"name":"Uncletopia | Warsaw | 2 | One Thousand Uncles","name_short":"waw-2","host":"waw-1.pl.uncletopia.com","port":27025,"enabled":true,"region":"eu","cc":"pl","latitude":52.2297,"longitude":21.017532,"reserved":0,"last_update":"0001-01-01T00:00:00Z","name_a2s":"Uncletopia | Warsaw | 2 | One Thousand Uncles","protocol":17,"map":"pl_pier","folder":"tf","game":"Team Fortress","app_id":440,"player_count":26,"max_players":32,"Bots":20,"server_type":"Dedicated","server_os":"Linux","password":true,"vac":true,"version":"7961495","steam_id":85568392925397851,"keywords":["alltalk","bots","danepve","increased_maxplayers","norespawntime","payload","uncletopia"],"game_id":440,"stv_port":0,"stv_name":"","players":[{"user_id":23,"name":"Little Spy","steam_id":76561199238736286,"connected_time":2884000000000,"state":"active","ping":73},{"user_id":44,"name":"Tvx","steam_id":76561198983247585,"connected_time":2764000000000,"state":"active","ping":118},{"user_id":53,"name":"GrimZz","steam_id":76561198264228678,"connected_time":517000000000,"state":"active","ping":128},{"user_id":46,"name":"Iron Man","steam_id":76561199072364251,"connected_time":1953000000000,"state":"active","ping":62},{"user_id":54,"name":"durzymurzyn","steam_id":76561199084680369,"connected_time":38000000000,"state":"active","ping":36},{"user_id":49,"name":"Draugluin","steam_id":76561199219965276,"connected_time":913000000000,"state":"active","ping":75}]},{"server_id":51,"name":"Uncletopia | Warsaw | 3 | All Maps","name_short":"waw-3","host":"waw-1.pl.uncletopia.com","port":27035,"enabled":true,"region":"eu","cc":"pl","latitude":52.2297,"longitude":21.017532,"reserved":0,"last_update":"0001-01-01T00:00:00Z","name_a2s":"Uncletopia | Warsaw | 3 | All Maps","protocol":17,"map":"pl_frontier_final","folder":"tf","game":"Team Fortress","app_id":440,"player_count":0,"max_players":24,"Bots":0,"server_type":"Dedicated","server_os":"Linux","password":true,"vac":true,"version":"7961495","steam_id":85568392925397852,"keywords":["nocrits","nodmgspread","payload","uncletopia"],"game_id":440,"stv_port":27036,"stv_name":"Uncletopia | Warsaw | 3 | All Maps | STV","players":null},{"server_id":52,"name":"Uncletopia | Warsaw | 4 | All Maps","name_short":"waw-4","host":"waw-1.pl.uncletopia.com","port":27045,"enabled":true,"region":"eu","cc":"pl","latitude":52.2297,"longitude":21.017532,"reserved":0,"last_update":"0001-01-01T00:00:00Z","name_a2s":"Uncletopia | Warsaw | 4 | All Maps","protocol":17,"map":"ctf_turbine","folder":"tf","game":"Team Fortress","app_id":440,"player_count":0,"max_players":24,"Bots":0,"server_type":"Dedicated","server_os":"Linux","password":true,"vac":true,"version":"7961495","steam_id":85568392925397853,"keywords":["ctf","nocrits","nodmgspread","uncletopia"],"game_id":440,"stv_port":27046,"stv_name":"Uncletopia | Warsaw | 4 | All Maps | STV","players":null},{"server_id":53,"name":"Uncletopia | Warsaw | 5 | Stopwatch","name_short":"waw-5","host":"waw-1.pl.uncletopia.com","port":27055,"enabled":true,"region":"eu","cc":"pl","latitude":52.2297,"longitude":21.017532,"reserved":0,"last_update":"0001-01-01T00:00:00Z","name_a2s":"Uncletopia | Warsaw | 5 | Stopwatch","protocol":17,"map":"workshop/koth_clearcut_b15.ugc2107050255","folder":"tf","game":"Team Fortress","app_id":440,"player_count":0,"max_players":24,"Bots":0,"server_type":"Dedicated","server_os":"Linux","password":true,"vac":true,"version":"7961495","steam_id":85568392925397854,"keywords":["cp","nocrits","nodmgspread","uncletopia"],"game_id":440,"stv_port":27056,"stv_name":"Uncletopia | Warsaw | 5 | Stopwatch | STV","players":null},{"server_id":54,"name":"Uncletopia | Warsaw | 6 | Community","name_short":"waw-6","host":"waw-1.pl.uncletopia.com","port":27065,"enabled":true,"region":"eu","cc":"pl","latitude":52.2297,"longitude":21.017532,"reserved":0,"last_update":"0001-01-01T00:00:00Z","name_a2s":"Uncletopia | Warsaw | 6 | Community","protocol":17,"map":"workshop/pl_highwood_b19.ugc1769496557","folder":"tf","game":"Team Fortress","app_id":440,"player_count":0,"max_players":24,"Bots":0,"server_type":"Dedicated","server_os":"Linux","password":true,"vac":true,"version":"7961495","steam_id":85568392925397856,"keywords":["nocrits","nodmgspread","payload","uncletopia"],"game_id":440,"stv_port":27066,"stv_name":"Uncletopia | Warsaw | 6 | Community | STV","players":null}]}