{"status":true,"message":"","result":[{"server_id":9,"name":"Uncletopia | Atlanta | 1 | All Maps","name_short":"atl-1","host":"atl-1.us.uncletopia.com","port":27015,"enabled":true,"region":"us-east","cc":"us","latitude":33.753746,"longitude":-84.38633,"reserved":0,"last_update":"0001-01-01T00:00:00Z","name_a2s":"Uncletopia | Atlanta | 1 | All Maps","protocol":17,"map":"pl_pier","folder":"tf","game":"Team Fortress","app_id":440,"player_count":24,"max_players":24,"Bots":0,"server_type":"Dedicated","server_os":"Linux","password":true,"vac":true,"version":"7757534","steam_id":85568392924469982,"keywords":["nocrits","nodmgspread","payload","uncletopia"],"game_id":440,"stv_port":27016,"stv_name":"Uncletopia | Atlanta | 1 | All Maps | STV","players":[{"user_id":182,"name":"David De Bergerac","steam_id":76561198010306294,"connected_time":2526000000000,"state":"active","ping":76},{"user_id":183,"name":"Eins","steam_id":76561199030343810,"connected_time":2523000000000,"state":"active","ping":45},{"user_id":171,"name":"Notation","steam_id":76561198119509319,"connected_time":2854000000000,"state":"active","ping":44},{"user_id":194,"name":"O'Keearns","steam_id":76561198042213797,"connected_time":1644000000000,"state":"active","ping":44},{"user_id":206,"name":"Mads Mikkelsen","steam_id":76561198083482001,"connected_time":225000000000,"state":"active","ping":166},{"user_id":181,"name":"ash","steam_id":76561198127890645,"connected_time":2538000000000,"state":"active","ping":68},{"user_id":150,"name":"Waffle Wannabe","steam_id":76561198064510650,"connected_time":4606000000000,"state":"active","ping":66},{"user_id":202,"name":"PerpetuaForever","steam_id":76561198347444353,"connected_time":1495000000000,"state":"active","ping":68},{"user_id":203,"name":"Broadsword","steam_id":76561198011160411,"connected_time":1469000000000,"state":"active","ping":61},{"user_id":204,"name":"ATL1 | Avo","steam_id":76561197993340494,"connected_time":1372000000000,"state":"active","ping":60},{"user_id":178,"name":"Bali","steam_id":76561198038693845,"connected_time":2696000000000,"state":"active","ping":74},{"user_id":170,"name":"atl1lonelyy","steam_id":76561198968001329,"connected_time":2901000000000,"state":"active","ping":46},{"user_id":207,"name":"cultmechanicus4","steam_id":76561199472574539,"connected_time":225000000000,"state":"active","ping":75},{"user_id":161,"name":"Poo","steam_id":76561198265144507,"connected_time":3895000000000,"state":"active","ping":79},{"user_id":200,"name":"Brown_Dream","steam_id":76561198975766145,"connected_time":1507000000000,"state":"active","ping":65},{"user_id":158,"name":"Fedsmoker","steam_id":76561198047372130,"connected_time":3999000000000,"state":"active","ping":87},{"user_id":153,"name":"Monkey Mode","steam_id":76561197961267543,"connected_time":4168000000000,"state":"active","ping":60},{"user_id":130,"name":"halfpint","steam_id":76561198148217618,"connected_time":6881000000000,"state":"active","ping":55},{"user_id":162,"name":"MaybeMars","steam_id":76561198084736804,"connected_time":3885000000000,"state":"active","ping":68},{"user_id":53,"name":"scuba doo warfare","steam_id":76561198018761740,"connected_time":12100000000000,"state":"active","ping":78},{"user_id":119,"name":"lil hog","steam_id":76561199230929836,"connected_time":8082000000000,"state":"active","ping":85},{"user_id":192,"name":"Motorol¬™","steam_id":76561198358119669,"connected_time":1834000000000,"state":"active","ping":135},{"user_id":166,"name":"Kiso ÁÅ´","steam_id":76561198141026844,"connected_time":3549000000000,"state":"active","ping":119},{"user_id":201,"name":"Dr. drips","steam_id":76561198209380493,"connected_time":1506000000000,"state":"active","ping":73}]},{"server_id":104,"name":"Uncletopia | Atlanta | 2 | All Maps","name_short":"atl-2","host":"atl-1.us.uncletopia.com","port":27025,"enabled":true,"region":"us-east","cc":"us","latitude":33.753746,"longitude":-84.38633,"reserved":0,"last_update":"0001-01-01T00:00:00Z","name_a2s":"Uncletopia | Atlanta | 2 | All Maps","protocol":17,"map":"cp_sunshine","folder":"tf","game":"Team Fortress","app_id":440,"player_count":20,"max_players":24,"Bots":0,"server_type":"Dedicated","server_os":"Linux","password":true,"vac":true,"version":"7757534","steam_id":85568392924469983,"keywords":["cp","nocrits","nodmgspread","uncletopia"],"game_id":440,"stv_port":27026,"stv_name":"Uncletopia | Atlanta | 2 | All Maps | STV","players":[{"user_id":22,"name":"the piss maker","steam_id":76561199338113724,"connected_time":1321000000000,"state":"active","ping":102},{"user_id":35,"name":"uhooter","steam_id":76561198007829078,"connected_time":876000000000,"state":"active","ping":64},{"user_id":24,"name":"box","steam_id":76561198985635309,"connected_time":1133000000000,"state":"active","ping":85},{"user_id":41,"name":"jeremimi","steam_id":76561198818225102,"connected_time":514000000000,"state":"active","ping":110},{"user_id":26,"name":"grillbyssisoloeso","steam_id":76561199105132740,"connected_time":1079000000000,"state":"active","ping":123},{"user_id":42,"name":"POOTIS_OVERLORD","steam_id":76561198063850303,"connected_time":488000000000,"state":"active","ping":87},{"user_id":28,"name":"William Afton","steam_id":76561198819442173,"connected_time":1061000000000,"state":"active","ping":142},{"user_id":40,"name":"Animal Slices","steam_id":76561198137545511,"connected_time":563000000000,"state":"active","ping":73},{"user_id":37,"name":"VOY BOT","steam_id":76561199094836444,"connected_time":659000000000,"state":"active","ping":140},{"user_id":34,"name":"Zee","steam_id":76561199229870438,"connected_time":888000000000,"state":"active","ping":79},{"user_id":43,"name":"nhbiker","steam_id":76561198081277675,"connected_time":458000000000,"state":"active","ping":60},{"user_id":39,"name":"exotic fishes","steam_id":76561199046490785,"connected_time":614000000000,"state":"active","ping":85},{"user_id":44,"name":"Microsoft Excel","steam_id":76561198036504161,"connected_time":394000000000,"state":"active","ping":165},{"user_id":45,"name":"Path","steam_id":76561198106831514,"connected_time":379000000000,"state":"active","ping":72},{"user_id":46,"name":"bobbyreinman2009","steam_id":76561198804763186,"connected_time":332000000000,"state":"active","ping":67},{"user_id":47,"name":"FHC | Nyle","steam_id":76561198045652639,"connected_time":208000000000,"state":"active","ping":116},{"user_id":48,"name":"BeanBag‚ô•‚ô´","steam_id":76561198167002197,"connected_time":198000000000,"state":"active","ping":145},{"user_id":49,"name":"ib88","steam_id":76561198364967316,"connected_time":118000000000,"state":"active","ping":179},{"user_id":50,"name":"Pizzaguy108","steam_id":76561198972791353,"connected_time":117000000000,"state":"active","ping":88},{"user_id":51,"name":"Xano","steam_id":76561198410316001,"connected_time":98000000000,"state":"active","ping":106}]},{"server_id":400,"name":"Uncletopia | Atlanta | 3 | Community","name_short":"atl-3","host":"atl-1.us.uncletopia.com","port":27035,"enabled":true,"region":"us-east","cc":"us","latitude":33.753746,"longitude":-84.38633,"reserved":0,"last_update":"0001-01-01T00:00:00Z","name_a2s":"Uncletopia | Atlanta | 3 | Community","protocol":17,"map":"workshop/cp_caldera_rc2.ugc2834196889","folder":"tf","game":"Team Fortress","app_id":440,"player_count":0,"max_players":24,"Bots":0,"server_type":"Dedicated","server_os":"Linux","password":true,"vac":true,"version":"7757534","steam_id":85568392924515187,"keywords":["cp","nocrits","nodmgspread","uncletopia"],"game_id":440,"stv_port":27036,"stv_name":"Uncletopia | Atlanta | 3 | Community | STV","players":null},{"server_id":401,"name":"Uncletopia | Atlanta | 4 | No Payload","name_short":"atl-4","host":"atl-1.us.uncletopia.com","port":27045,"enabled":true,"region":"us-east","cc":"us","latitude":33.753746,"longitude":-84.38633,"reserved":0,"last_update":"0001-01-01T00:00:00Z","name_a2s":"","protocol":0,"map":"","folder":"","game":"","app_id":0,"player_count":0,"max_players":0,"Bots":0,"server_type":"","server_os":"","password":false,"vac":false,"version":"","steam_id":0,"keywords":null,"game_id":0,"stv_port":0,"stv_name":"","players":null},{"server_id":2,"name":"Uncletopia | Chicago | 1 | All Maps","name_short":"chi-1","host":"chi-1.us.uncletopia.com","port":27015,"enabled":true,"region":"us-central","cc":"us","latitude":41.881832,"longitude":-87.62318,"reserved":0,"last_update":"0001-01-01T00:00:00Z","name_a2s":"Uncletopia | Chicago | 1 | All Maps","protocol":17,"map":"pl_badwater","folder":"tf","game":"Team Fortress","app_id":440,"player_count":24,"max_players":24,"Bots":0,"server_type":"Dedicated","server_os":"Linux","password":true,"vac":true,"version":"7757534","steam_id":85568392924469984,"keywords":["nocrits","nodmgspread","payload","uncletopia"],"game_id":440,"stv_port":27016,"stv_name":"Uncletopia | Chicago | 1 | All Maps | STV","players":[{"user_id":257,"name":"Yarn","steam_id":76561199227148369,"connected_time":1269000000000,"state":"active","ping":85},{"user_id":265,"name":"Tobo","steam_id":76561198085846393,"connected_time":370000000000,"state":"active","ping":85},{"user_id":269,"name":"Howard Hamlin","steam_id":76561198881039861,"connected_time":71000000000,"state":"active","ping":49},{"user_id":206,"name":"coyne","steam_id":76561197997350766,"connected_time":4908000000000,"state":"active","ping":58},{"user_id":270,"name":"Pohnut","steam_id":76561198087831690,"connected_time":47000000000,"state":"active","ping":134},{"user_id":215,"name":"[DEEP] Danmar33","steam_id":76561198056453091,"connected_time":3898000000000,"state":"active","ping":49},{"user_id":211,"name":"NovaSc6ut","steam_id":76561198277163301,"connected_time":4292000000000,"state":"active","ping":64},{"user_id":259,"name":"sensitize","steam_id":76561198350134869,"connected_time":1083000000000,"state":"active","ping":45},{"user_id":232,"name":"‚ãÜ‚ú∞ùíÆùìÉùí∂ùíæùìÅùìà","steam_id":76561198102045762,"connected_time":3539000000000,"state":"active","ping":73},{"user_id":237,"name":"DrSnickers","steam_id":76561198094050751,"connected_time":3238000000000,"state":"active","ping":86},{"user_id":246,"name":"4 life","steam_id":76561198175961598,"connected_time":2064000000000,"state":"active","ping":118},{"user_id":252,"name":"Discourse","steam_id":76561198984286678,"connected_time":1691000000000,"state":"active","ping":53},{"user_id":268,"name":"Mike Charlie","steam_id":76561199470538309,"connected_time":114000000000,"state":"active","ping":60},{"user_id":260,"name":"TheCakeisNotAlie","steam_id":76561198943993307,"connected_time":943000000000,"state":"active","ping":59},{"user_id":247,"name":"Oceans","steam_id":76561198039030992,"connected_time":1742000000000,"state":"active","ping":47},{"user_id":225,"name":"Boba T","steam_id":76561198012278650,"connected_time":3643000000000,"state":"active","ping":103},{"user_id":226,"name":"test","steam_id":76561198197388678,"connected_time":3641000000000,"state":"active","ping":75},{"user_id":227,"name":"Yam Jazzy Jim","steam_id":76561198000788950,"connected_time":3626000000000,"state":"active","ping":60},{"user_id":245,"name":"Monster","steam_id":76561198189429665,"connected_time":2136000000000,"state":"active","ping":75},{"user_id":267,"name":"6t26j","steam_id":76561198278282836,"connected_time":179000000000,"state":"active","ping":45},{"user_id":266,"name":"jema","steam_id":76561198276513608,"connected_time":347000000000,"state":"active","ping":165},{"user_id":253,"name":"Rich Kitten","steam_id":76561199152388008,"connected_time":1690000000000,"state":"active","ping":55},{"user_id":262,"name":"Ras","steam_id":76561198123546775,"connected_time":765000000000,"state":"active","ping":63},{"user_id":271,"name":"h20verdrive","steam_id":76561198115957085,"connected_time":25000000000,"state":"active","ping":90}]},{"server_id":106,"name":"Uncletopia | Chicago | 2 | All Maps","name_short":"chi-2","host":"chi-1.us.uncletopia.com","port":27025,"enabled":true,"region":"us-central","cc":"us","latitude":41.881832,"longitude":-87.62318,"reserved":0,"last_update":"0001-01-01T00:00:00Z","name_a2s":"Uncletopia | Chicago | 2 | All Maps","protocol":17,"map":"koth_nucleus","folder":"tf","game":"Team Fortress","app_id":440,"player_count":0,"max_players":24,"Bots":0,"server_type":"Dedicated","server_os":"Linux","password":true,"vac":true,"version":"7757534","steam_id":85568392924469985,"keywords":["cp","nocrits","nodmgspread","uncletopia"],"game_id":440,"stv_port":27026,"stv_name":"Uncletopia | Chicago | 2 | All Maps | STV","players":null},{"server_id":402,"name":"Uncletopia | Chicago | 3 | All Maps","name_short":"chi-3","host":"chi-1.us.uncletopia.com","port":27035,"enabled":true,"region":"us-central","cc":"us","latitude":41.881832,"longitude":-87.62318,"reserved":0,"last_update":"0001-01-01T00:00:00Z","name_a2s":"Uncletopia | Chicago | 3 | All Maps","protocol":17,"map":"plr_bananabay","folder":"tf","game":"Team Fortress","app_id":440,"player_count":22,"max_players":24,"Bots":0,"server_type":"Dedicated","server_os":"Linux","password":true,"vac":true,"version":"7757534","steam_id":85568392924515191,"keywords":["nocrits","nodmgspread","payload","uncletopia"],"game_id":440,"stv_port":27036,"stv_name":"Uncletopia | Chicago | 3 | All Maps | STV","players":[{"user_id":311,"name":"N√©oGothiqueüïØ","steam_id":76561198003467269,"connected_time":1361000000000,"state":"active","ping":68},{"user_id":336,"name":"Sir Iasis","steam_id":76561198035666760,"connected_time":4000000000,"state":"spawning","ping":45},{"user_id":323,"name":"uufyfuu","steam_id":76561198142787212,"connected_time":483000000000,"state":"active","ping":75},{"user_id":275,"name":"Jill the Owl","steam_id":76561197999210583,"connected_time":3039000000000,"state":"active","ping":75},{"user_id":304,"name":"gNarNar","steam_id":76561197994505205,"connected_time":1625000000000,"state":"active","ping":63},{"user_id":333,"name":"you need to leave","steam_id":76561198337692867,"connected_time":142000000000,"state":"active","ping":74},{"user_id":334,"name":"SunnySideDown","steam_id":76561199259111611,"connected_time":96000000000,"state":"active","ping":97},{"user_id":312,"name":"El-niix","steam_id":76561198044253373,"connected_time":1313000000000,"state":"active","ping":204},{"user_id":313,"name":"noellemeow","steam_id":76561198159622003,"connected_time":1311000000000,"state":"active","ping":72},{"user_id":295,"name":"Hemiphix","steam_id":76561198329316429,"connected_time":1994000000000,"state":"active","ping":69},{"user_id":330,"name":"1kastaco","steam_id":76561199126110915,"connected_time":359000000000,"state":"active","ping":81},{"user_id":321,"name":"Masotan","steam_id":76561199047187302,"connected_time":520000000000,"state":"active","ping":54},{"user_id":327,"name":"ChocoCrispChunks","steam_id":76561198881926539,"connected_time":398000000000,"state":"active","ping":110},{"user_id":317,"name":"Business skeleton","steam_id":76561198840648058,"connected_time":622000000000,"state":"active","ping":56},{"user_id":259,"name":"The Power","steam_id":76561198060566884,"connected_time":3724000000000,"state":"active","ping":125},{"user_id":316,"name":"Nick","steam_id":76561198101419860,"connected_time":763000000000,"state":"active","ping":44},{"user_id":328,"name":"Henry Ota-Clay","steam_id":76561198053232470,"connected_time":396000000000,"state":"active","ping":57},{"user_id":332,"name":"Orca?","steam_id":76561198164341099,"connected_time":253000000000,"state":"active","ping":83},{"user_id":329,"name":"ManOfManyBeans","steam_id":76561199213349938,"connected_time":382000000000,"state":"active","ping":71},{"user_id":263,"name":"Bread Baker","steam_id":76561198185335103,"connected_time":3344000000000,"state":"active","ping":74},{"user_id":331,"name":"(‚óî) Neville","steam_id":76561198025637970,"connected_time":320000000000,"state":"active","ping":73},{"user_id":335,"name":"MeatShield 2000","steam_id":76561199375192850,"connected_time":65000000000,"state":"active","ping":76}]},{"server_id":403,"name":"Uncletopia | Chicago | 4 | All Maps","name_short":"chi-4","host":"chi-1.us.uncletopia.com","port":27045,"enabled":true,"region":"us-central","cc":"us","latitude":41.881832,"longitude":-87.62318,"reserved":0,"last_update":"0001-01-01T00:00:00Z","name_a2s":"Uncletopia | Chicago | 4 | All Maps","protocol":17,"map":"pl_barnblitz","folder":"tf","game":"Team Fortress","app_id":440,"player_count":24,"max_players":24,"Bots":0,"server_type":"Dedicated","server_os":"Linux","password":true,"vac":true,"version":"7757534","steam_id":85568392924515193,"keywords":["nocrits","nodmgspread","payload","uncletopia"],"game_id":440,"stv_port":27046,"stv_name":"Uncletopia | Chicago | 4 | All Maps | STV","players":[{"user_id":469,"name":"dahperson","steam_id":76561198067207467,"connected_time":1521000000000,"state":"active","ping":47},{"user_id":448,"name":"Rec","steam_id":76561198022813906,"connected_time":2921000000000,"state":"active","ping":57},{"user_id":457,"name":"aiden","steam_id":76561198449527009,"connected_time":1968000000000,"state":"active","ping":67},{"user_id":464,"name":"square-","steam_id":76561198058143770,"connected_time":1714000000000,"state":"active","ping":55},{"user_id":459,"name":"Proof by close enough","steam_id":76561198083345384,"connected_time":1803000000000,"state":"active","ping":88},{"user_id":436,"name":"wack","steam_id":76561198095697330,"connected_time":4471000000000,"state":"active","ping":80},{"user_id":480,"name":"poe","steam_id":76561198155720118,"connected_time":375000000000,"state":"active","ping":53},{"user_id":477,"name":"Mindset","steam_id":76561198107074449,"connected_time":390000000000,"state":"active","ping":51},{"user_id":481,"name":"somedudenamedgeff","steam_id":76561199063414911,"connected_time":347000000000,"state":"active","ping":75},{"user_id":458,"name":"B.","steam_id":76561198040445907,"connected_time":1892000000000,"state":"active","ping":74},{"user_id":460,"name":"Toottoot","steam_id":76561197992404836,"connected_time":1792000000000,"state":"active","ping":45},{"user_id":470,"name":"Theodore Roosevelt","steam_id":76561197993295656,"connected_time":1506000000000,"state":"active","ping":46},{"user_id":484,"name":"JelloMotion","steam_id":76561198045892038,"connected_time":256000000000,"state":"active","ping":64},{"user_id":476,"name":"TransSammie","steam_id":76561198046331930,"connected_time":765000000000,"state":"active","ping":103},{"user_id":488,"name":"Felipe Ramirez 2013","steam_id":76561198150497397,"connected_time":195000000000,"state":"active","ping":59},{"user_id":485,"name":"Ginger Jesus","steam_id":76561198052386458,"connected_time":243000000000,"state":"active","ping":61},{"user_id":454,"name":"Jak(i)","steam_id":76561198076823144,"connected_time":2393000000000,"state":"active","ping":62},{"user_id":474,"name":"Slurpsie","steam_id":76561199059342667,"connected_time":1123000000000,"state":"active","ping":61},{"user_id":472,"name":"jubb","steam_id":76561198186865526,"connected_time":1459000000000,"state":"active","ping":115},{"user_id":486,"name":"matt fong","steam_id":76561198271946754,"connected_time":236000000000,"state":"active","ping":73},{"user_id":487,"name":"//Shiiben;","steam_id":76561197995505767,"connected_time":229000000000,"state":"active","ping":60},{"user_id":450,"name":"b√ºddeh","steam_id":76561198070735936,"connected_time":2775000000000,"state":"active","ping":60},{"user_id":475,"name":"pepsibobby","steam_id":76561198853864511,"connected_time":975000000000,"state":"active","ping":82},{"user_id":490,"name":"primordialheath","steam_id":76561199386942638,"connected_time":141000000000,"state":"active","ping":70}]},{"server_id":36,"name":"Uncletopia | Chicago | 5 | All Maps","name_short":"chi-5","host":"chi-2.us.uncletopia.com","port":27015,"enabled":true,"region":"us-central","cc":"us","latitude":41.881832,"longitude":-87.62318,"reserved":0,"last_update":"0001-01-01T00:00:00Z","name_a2s":"Uncletopia | Chicago | 5 | All Maps","protocol":17,"map":"koth_cascade","folder":"tf","game":"Team Fortress","app_id":440,"player_count":0,"max_players":24,"Bots":0,"server_type":"Dedicated","server_os":"Linux","password":true,"vac":true,"version":"7757534","steam_id":85568392924866362,"keywords":["cp","nocrits","nodmgspread","uncletopia"],"game_id":440,"stv_port":27016,"stv_name":"Uncletopia | Chicago | 5 | All Maps | STV","players":null},{"server_id":37,"name":"Uncletopia | Chicago | 6 | All Maps","name_short":"chi-6","host":"chi-2.us.uncletopia.com","port":27025,"enabled":true,"region":"us-central","cc":"us","latitude":41.881832,"longitude":-87.62318,"reserved":0,"last_update":"0001-01-01T00:00:00Z","name_a2s":"Uncletopia | Chicago | 6 | All Maps","protocol":17,"map":"pl_barnblitz","folder":"tf","game":"Team Fortress","app_id":440,"player_count":24,"max_players":24,"Bots":0,"server_type":"Dedicated","server_os":"Linux","password":true,"vac":true,"version":"7757534","steam_id":85568392924866363,"keywords":["nocrits","nodmgspread","payload","uncletopia"],"game_id":440,"stv_port":27026,"stv_name":"Uncletopia | Chicago | 6 | All Maps | STV","players":[{"user_id":329,"name":"proon","steam_id":76561198155983535,"connected_time":2437000000000,"state":"active","ping":45},{"user_id":349,"name":"Verschlimmbesserung","steam_id":76561198024991137,"connected_time":1175000000000,"state":"active","ping":81},{"user_id":369,"name":"Alice in Rubberland","steam_id":76561198087328346,"connected_time":501000000000,"state":"active","ping":44},{"user_id":342,"name":"Vittorio Veneto","steam_id":76561199006388533,"connected_time":1896000000000,"state":"active","ping":76},{"user_id":371,"name":"AuzzieJZ","steam_id":76561198134430439,"connected_time":276000000000,"state":"active","ping":72},{"user_id":357,"name":"Squatchamo","steam_id":76561198012968239,"connected_time":838000000000,"state":"active","ping":65},{"user_id":354,"name":"Hipster Killer","steam_id":76561198068569249,"connected_time":964000000000,"state":"active","ping":90},{"user_id":337,"name":"B0otstrut beel","steam_id":76561198202457221,"connected_time":2054000000000,"state":"active","ping":72},{"user_id":348,"name":"runescape sea_shanty2","steam_id":76561198397662124,"connected_time":1206000000000,"state":"active","ping":85},{"user_id":362,"name":"a mass hallucination","steam_id":76561198259092181,"connected_time":775000000000,"state":"active","ping":61},{"user_id":301,"name":"cotton candy thief","steam_id":76561198058998371,"connected_time":3732000000000,"state":"active","ping":66},{"user_id":370,"name":"Soul_Intern","steam_id":76561198310238109,"connected_time":476000000000,"state":"active","ping":105},{"user_id":345,"name":"Rein","steam_id":76561198300340427,"connected_time":1756000000000,"state":"active","ping":60},{"user_id":355,"name":"Bot Karma","steam_id":76561198422386331,"connected_time":869000000000,"state":"active","ping":146},{"user_id":368,"name":"Ejaculation Zach","steam_id":76561198203765200,"connected_time":517000000000,"state":"active","ping":62},{"user_id":366,"name":"Natascha Gaming","steam_id":76561198400058665,"connected_time":559000000000,"state":"active","ping":75},{"user_id":344,"name":"Roma","steam_id":76561198445634626,"connected_time":1833000000000,"state":"active","ping":87},{"user_id":343,"name":"Shaquille Oatmeal","steam_id":76561198283213819,"connected_time":1869000000000,"state":"active","ping":77},{"user_id":360,"name":"Brother Seamus","steam_id":76561197970450546,"connected_time":828000000000,"state":"active","ping":115},{"user_id":306,"name":"Highphin","steam_id":76561198986584680,"connected_time":3290000000000,"state":"active","ping":65},{"user_id":353,"name":"Stoa","steam_id":76561198332519926,"connected_time":1012000000000,"state":"active","ping":86},{"user_id":334,"name":"CreativeCoffeeCake","steam_id":76561198323542875,"connected_time":2156000000000,"state":"active","ping":96},{"user_id":340,"name":"Shmurg","steam_id":76561199368485421,"connected_time":2018000000000,"state":"active","ping":47},{"user_id":364,"name":"Recursive Gamer","steam_id":76561198042102952,"connected_time":750000000000,"state":"active","ping":83}]},{"server_id":38,"name":"Uncletopia | Chicago | 7 | Stopwatch Beta","name_short":"chi-7","host":"chi-2.us.uncletopia.com","port":27035,"enabled":true,"region":"us-central","cc":"us","latitude":41.881832,"longitude":-87.62318,"reserved":0,"last_update":"0001-01-01T00:00:00Z","name_a2s":"Uncletopia | Chicago | 7 | Stopwatch Beta","protocol":17,"map":"pl_barnblitz","folder":"tf","game":"Team Fortress","app_id":440,"player_count":0,"max_players":24,"Bots":0,"server_type":"Dedicated","server_os":"Linux","password":true,"vac":true,"version":"7757534","steam_id":85568392924866364,"keywords":["nocrits","nodmgspread","payload","uncletopia"],"game_id":440,"stv_port":27036,"stv_name":"Uncletopia | Chicago | 7 | Stopwatch Beta | STV","players":null},{"server_id":39,"name":"Uncletopia | Chicago | 8 | Community","name_short":"chi-8","host":"chi-2.us.uncletopia.com","port":27045,"enabled":true,"region":"us-central","cc":"us","latitude":41.881832,"longitude":-87.62318,"reserved":0,"last_update":"0001-01-01T00:00:00Z","name_a2s":"Uncletopia | Chicago | 8 | Community","protocol":17,"map":"koth_cascade","folder":"tf","game":"Team Fortress","app_id":440,"player_count":0,"max_players":24,"Bots":0,"server_type":"Dedicated","server_os":"Linux","password":true,"vac":true,"version":"7757534","steam_id":85568392924866365,"keywords":["cp","nocrits","nodmgspread","uncletopia"],"game_id":440,"stv_port":27046,"stv_name":"Uncletopia | Chicago | 8 | Community | STV","players":null},{"server_id":8,"name":"Uncletopia | Dallas | 1 | All Maps","name_short":"dal-1","host":"dal-1.us.uncletopia.com","port":27015,"enabled":true,"region":"us-central","cc":"us","latitude":32.779167,"longitude":-96.80889,"reserved":0,"last_update":"0001-01-01T00:00:00Z","name_a2s":"Uncletopia | Dallas | 1 | All Maps","protocol":17,"map":"pl_frontier_final","folder":"tf","game":"Team Fortress","app_id":440,"player_count":24,"max_players":24,"Bots":0,"server_type":"Dedicated","server_os":"Linux","password":true,"vac":true,"version":"7757534","steam_id":85568392924469986,"keywords":["nocrits","nodmgspread","payload","uncletopia"],"game_id":440,"stv_port":27016,"stv_name":"Uncletopia | Dallas | 1 | All Maps | STV","players":[{"user_id":133,"name":"Wolverine Fingerblaster","steam_id":76561198095394582,"connected_time":475000000000,"state":"active","ping":61},{"user_id":124,"name":"Romo","steam_id":76561198243101572,"connected_time":1793000000000,"state":"active","ping":77},{"user_id":116,"name":"MiKE","steam_id":76561198115112269,"connected_time":2241000000000,"state":"active","ping":79},{"user_id":131,"name":"Bogey","steam_id":76561198096227944,"connected_time":500000000000,"state":"active","ping":45},{"user_id":138,"name":"Markz","steam_id":76561197996278159,"connected_time":324000000000,"state":"active","ping":92},{"user_id":134,"name":"SeanEee","steam_id":76561198217227232,"connected_time":460000000000,"state":"active","ping":69},{"user_id":119,"name":"fart","steam_id":76561199456639473,"connected_time":1978000000000,"state":"active","ping":56},{"user_id":129,"name":"FluttyPutty","steam_id":76561198218446556,"connected_time":672000000000,"state":"active","ping":69},{"user_id":135,"name":"Dr. Ludwig","steam_id":76561198110246392,"connected_time":401000000000,"state":"active","ping":71},{"user_id":132,"name":"ShinGojirabrYT","steam_id":76561199199037141,"connected_time":497000000000,"state":"active","ping":162},{"user_id":126,"name":"Piss Champion","steam_id":76561198059362878,"connected_time":1674000000000,"state":"active","ping":75},{"user_id":136,"name":"Aimainiac","steam_id":76561199099640358,"connected_time":391000000000,"state":"active","ping":89},{"user_id":120,"name":"dicksnip","steam_id":76561198356515396,"connected_time":1946000000000,"state":"active","ping":54},{"user_id":137,"name":"Doomagedden","steam_id":76561198272589475,"connected_time":390000000000,"state":"active","ping":61},{"user_id":117,"name":"Deewey","steam_id":76561198084768933,"connected_time":2211000000000,"state":"active","ping":52},{"user_id":86,"name":"Draco6257","steam_id":76561199147322448,"connected_time":3367000000000,"state":"active","ping":70},{"user_id":107,"name":"Outlander","steam_id":76561197998995746,"connected_time":2628000000000,"state":"active","ping":74},{"user_id":118,"name":"plink","steam_id":76561198057829889,"connected_time":2152000000000,"state":"active","ping":112},{"user_id":139,"name":"Dell Conagher (real)","steam_id":76561198220120368,"connected_time":322000000000,"state":"active","ping":37},{"user_id":106,"name":"Apricot","steam_id":76561198355699935,"connected_time":2694000000000,"state":"active","ping":82},{"user_id":140,"name":"mineblast99","steam_id":76561199065648954,"connected_time":308000000000,"state":"active","ping":81},{"user_id":141,"name":"KyleBlack","steam_id":76561198139932550,"connected_time":288000000000,"state":"active","ping":46},{"user_id":144,"name":"floppy muppet","steam_id":76561198003076261,"connected_time":203000000000,"state":"active","ping":86},{"user_id":143,"name":"Shalom","steam_id":76561198410005222,"connected_time":277000000000,"state":"active","ping":62}]},{"server_id":108,"name":"Uncletopia | Dallas | 2 | All Maps","name_short":"dal-2","host":"dal-1.us.uncletopia.com","port":27025,"enabled":true,"region":"us-central","cc":"us","latitude":32.779167,"longitude":-96.80889,"reserved":0,"last_update":"0001-01-01T00:00:00Z","name_a2s":"Uncletopia | Dallas | 2 | All Maps","protocol":17,"map":"pl_swiftwater_final1","folder":"tf","game":"Team Fortress","app_id":440,"player_count":17,"max_players":24,"Bots":0,"server_type":"Dedicated","server_os":"Linux","password":true,"vac":true,"version":"7757534","steam_id":85568392924469988,"keywords":["nocrits","nodmgspread","payload","uncletopia"],"game_id":440,"stv_port":27026,"stv_name":"Uncletopia | Dallas | 2 | All Maps | STV","players":[{"user_id":378,"name":"Jib","steam_id":76561198328210524,"connected_time":1300000000000,"state":"active","ping":75},{"user_id":404,"name":"Niche internet microcelebrity","steam_id":76561198850475407,"connected_time":352000000000,"state":"active","ping":83},{"user_id":414,"name":"LF Collectors Market Gardener","steam_id":76561199192132061,"connected_time":31000000000,"state":"active","ping":81},{"user_id":391,"name":"Nighthawk","steam_id":76561198996342192,"connected_time":867000000000,"state":"active","ping":59},{"user_id":415,"name":"ViperX","steam_id":76561197960460023,"connected_time":2000000000,"state":"spawning","ping":58},{"user_id":408,"name":"VanillaPooty","steam_id":76561198105324008,"connected_time":109000000000,"state":"active","ping":67},{"user_id":409,"name":"hammond the blithering idiot","steam_id":76561199263384620,"connected_time":71000000000,"state":"active","ping":191},{"user_id":410,"name":"Normalux","steam_id":76561198293891426,"connected_time":61000000000,"state":"active","ping":111},{"user_id":411,"name":"Chubby Monarch","steam_id":76561198027487285,"connected_time":58000000000,"state":"active","ping":264},{"user_id":379,"name":"fac","steam_id":76561198009818412,"connected_time":1298000000000,"state":"active","ping":71},{"user_id":392,"name":"Dr. Sex","steam_id":76561198037795265,"connected_time":864000000000,"state":"active","ping":75},{"user_id":380,"name":"Cepheid","steam_id":76561198093333511,"connected_time":1293000000000,"state":"active","ping":79},{"user_id":412,"name":"ShukSama","steam_id":76561198322357608,"connected_time":45000000000,"state":"active","ping":75},{"user_id":401,"name":"BoxTrox Requiem","steam_id":76561199084781818,"connected_time":552000000000,"state":"active","ping":75},{"user_id":353,"name":"Gundam Guy","steam_id":76561198178453993,"connected_time":3841000000000,"state":"active","ping":79},{"user_id":389,"name":"Lane","steam_id":76561197965828506,"connected_time":1109000000000,"state":"active","ping":46},{"user_id":403,"name":"DesolateScorch","steam_id":76561199123625583,"connected_time":513000000000,"state":"active","ping":102}]},{"server_id":5,"name":"Uncletopia | Frankfurt | 1 | All Maps","name_short":"frk-1","host":"frk-1.de.uncletopia.com","port":27015,"enabled":true,"region":"eu","cc":"de","latitude":50.110924,"longitude":8.682127,"reserved":0,"last_update":"0001-01-01T00:00:00Z","name_a2s":"Uncletopia | Frankfurt | 1 | All Maps","protocol":17,"map":"cp_sunshine","folder":"tf","game":"Team Fortress","app_id":440,"player_count":18,"max_players":24,"Bots":0,"server_type":"Dedicated","server_os":"Linux","password":true,"vac":true,"version":"7757534","steam_id":85568392924469989,"keywords":["cp","nocrits","nodmgspread","uncletopia"],"game_id":440,"stv_port":27016,"stv_name":"Uncletopia | Frankfurt | 1 | All Maps | STV","players":[{"user_id":812,"name":"doop","steam_id":76561198079814560,"connected_time":164000000000,"state":"active","ping":45},{"user_id":775,"name":"rata","steam_id":76561198183949987,"connected_time":3962000000000,"state":"active","ping":66},{"user_id":798,"name":"Ecton","steam_id":76561198025103720,"connected_time":1860000000000,"state":"active","ping":59},{"user_id":780,"name":"Burger King Dante","steam_id":76561198390314734,"connected_time":3463000000000,"state":"active","ping":60},{"user_id":816,"name":"cr #pizdaaim","steam_id":76561197993508562,"connected_time":32000000000,"state":"active","ping":141},{"user_id":811,"name":"limonadas","steam_id":76561198984570174,"connected_time":204000000000,"state":"active","ping":83},{"user_id":813,"name":"Johan","steam_id":76561199380849468,"connected_time":118000000000,"state":"active","ping":63},{"user_id":794,"name":"0","steam_id":76561198267909207,"connected_time":2064000000000,"state":"active","ping":77},{"user_id":817,"name":"penis gnome","steam_id":76561198097612561,"connected_time":11000000000,"state":"spawning","ping":55},{"user_id":777,"name":"Comrade Sprinkles","steam_id":76561198035672576,"connected_time":3604000000000,"state":"active","ping":64},{"user_id":763,"name":"Man Made Mad","steam_id":76561198808819694,"connected_time":5167000000000,"state":"active","ping":45},{"user_id":412,"name":"grandpa's post-mortem photo","steam_id":76561198130116078,"connected_time":29711000000000,"state":"active","ping":91},{"user_id":818,"name":"CAPTAIN DUCK","steam_id":76561198374950712,"connected_time":0,"state":"spawning","ping":0},{"user_id":796,"name":"Saint","steam_id":76561198003296382,"connected_time":2054000000000,"state":"active","ping":64},{"user_id":806,"name":"JeanCorben","steam_id":76561197965133561,"connected_time":849000000000,"state":"active","ping":46},{"user_id":808,"name":"JorapAt","steam_id":76561199244749887,"connected_time":667000000000,"state":"active","ping":101},{"user_id":807,"name":"washed up","steam_id":76561198275742101,"connected_time":821000000000,"state":"active","ping":56},{"user_id":799,"name":"ScarredPixel123","steam_id":76561199165112703,"connected_time":1822000000000,"state":"active","ping":81}]},{"server_id":110,"name":"Uncletopia | Frankfurt | 2 | All Maps","name_short":"frk-2","host":"frk-1.de.uncletopia.com","port":27025,"enabled":true,"region":"eu","cc":"de","latitude":50.110924,"longitude":8.682127,"reserved":0,"last_update":"0001-01-01T00:00:00Z","name_a2s":"Uncletopia | Frankfurt | 2 | All Maps","protocol":17,"map":"pl_barnblitz","folder":"tf","game":"Team Fortress","app_id":440,"player_count":24,"max_players":24,"Bots":0,"server_type":"Dedicated","server_os":"Linux","password":true,"vac":true,"version":"7757534","steam_id":85568392924469990,"keywords":["nocrits","nodmgspread","payload","uncletopia"],"game_id":440,"stv_port":27026,"stv_name":"Uncletopia | Frankfurt | 2 | All Maps | STV","players":[{"user_id":514,"name":"Vene","steam_id":76561198018116338,"connected_time":1985000000000,"state":"active","ping":77},{"user_id":533,"name":"wiping theorist","steam_id":76561198058012525,"connected_time":561000000000,"state":"active","ping":73},{"user_id":509,"name":"CarBombEnthusiast","steam_id":76561199448185434,"connected_time":2139000000000,"state":"active","ping":65},{"user_id":503,"name":"tanyathsus","steam_id":76561198089522447,"connected_time":2744000000000,"state":"active","ping":63},{"user_id":511,"name":"sam-","steam_id":76561198013770973,"connected_time":2051000000000,"state":"active","ping":73},{"user_id":539,"name":"Average Zoboomafoo Enjoyer","steam_id":76561198084891833,"connected_time":507000000000,"state":"active","ping":60},{"user_id":536,"name":"Francis Crabb","steam_id":76561198259082154,"connected_time":549000000000,"state":"active","ping":89},{"user_id":534,"name":"John Noob","steam_id":76561197999170026,"connected_time":561000000000,"state":"active","ping":100},{"user_id":517,"name":"meatsoupcube","steam_id":76561198276802249,"connected_time":1937000000000,"state":"active","ping":107},{"user_id":537,"name":"Tywhip","steam_id":76561199207545191,"connected_time":548000000000,"state":"active","ping":58},{"user_id":544,"name":"Aesthetic Alcoholism","steam_id":76561198044418968,"connected_time":372000000000,"state":"active","ping":48},{"user_id":545,"name":"lol.com","steam_id":76561198231764164,"connected_time":368000000000,"state":"active","ping":47},{"user_id":538,"name":"Feeli","steam_id":76561198026923585,"connected_time":542000000000,"state":"active","ping":63},{"user_id":531,"name":".javaw","steam_id":76561198165955030,"connected_time":605000000000,"state":"active","ping":107},{"user_id":546,"name":"heavy sings (real)","steam_id":76561199023804405,"connected_time":307000000000,"state":"active","ping":73},{"user_id":528,"name":"george B","steam_id":76561198104933135,"connected_time":1041000000000,"state":"active","ping":83},{"user_id":504,"name":"Jampine","steam_id":76561198040419080,"connected_time":2729000000000,"state":"active","ping":83},{"user_id":548,"name":"ja","steam_id":76561199228540618,"connected_time":176000000000,"state":"active","ping":76},{"user_id":532,"name":"litle snek","steam_id":76561198162798303,"connected_time":604000000000,"state":"active","ping":96},{"user_id":525,"name":"memeku","steam_id":76561199194985181,"connected_time":1540000000000,"state":"active","ping":173},{"user_id":523,"name":"Cranto","steam_id":76561198101745576,"connected_time":1787000000000,"state":"active","ping":61},{"user_id":541,"name":"cez","steam_id":76561198361380956,"connected_time":482000000000,"state":"active","ping":70},{"user_id":542,"name":"tom riddle","steam_id":76561198257836694,"connected_time":471000000000,"state":"active","ping":53},{"user_id":543,"name":"S_ApplePie","steam_id":76561198106947669,"connected_time":417000000000,"state":"active","ping":90}]},{"server_id":308,"name":"Uncletopia | Frankfurt | 3 | All Maps","name_short":"frk-3","host":"frk-1.de.uncletopia.com","port":27035,"enabled":true,"region":"eu","cc":"de","latitude":50.110924,"longitude":8.682127,"reserved":0,"last_update":"0001-01-01T00:00:00Z","name_a2s":"Uncletopia | Frankfurt | 3 | All Maps","protocol":17,"map":"koth_highpass","folder":"tf","game":"Team Fortress","app_id":440,"player_count":0,"max_players":24,"Bots":0,"server_type":"Dedicated","server_os":"Linux","password":true,"vac":true,"version":"7757534","steam_id":85568392924504274,"keywords":["cp","nocrits","nodmgspread","uncletopia"],"game_id":440,"stv_port":27036,"stv_name":"Uncletopia | Frankfurt | 3 | All Maps | STV","players":null},{"server_id":309,"name":"Uncletopia | Frankfurt | 4 | All Maps","name_short":"frk-4","host":"frk-1.de.uncletopia.com","port":27045,"enabled":true,"region":"eu","cc":"de","latitude":50.110924,"longitude":8.682127,"reserved":0,"last_update":"0001-01-01T00:00:00Z","name_a2s":"Uncletopia | Frankfurt | 4 | All Maps","protocol":17,"map":"cp_sunshine","folder":"tf","game":"Team Fortress","app_id":440,"player_count":24,"max_players":24,"Bots":0,"server_type":"Dedicated","server_os":"Linux","password":true,"vac":true,"version":"7757534","steam_id":85568392924504275,"keywords":["cp","nocrits","nodmgspread","uncletopia"],"game_id":440,"stv_port":27046,"stv_name":"Uncletopia | Frankfurt | 4 | All Maps | STV","players":[{"user_id":431,"name":"Nugget the nuggeteer","steam_id":76561198136966535,"connected_time":667000000000,"state":"active","ping":80},{"user_id":430,"name":"The Boogieman","steam_id":76561198154512305,"connected_time":720000000000,"state":"active","ping":58},{"user_id":443,"name":"‚ô•ImWithMilk","steam_id":76561198269577569,"connected_time":367000000000,"state":"active","ping":84},{"user_id":433,"name":"SPONGE","steam_id":76561198040933472,"connected_time":593000000000,"state":"active","ping":60},{"user_id":393,"name":"Kirvis","steam_id":76561198027831643,"connected_time":3343000000000,"state":"active","ping":81},{"user_id":434,"name":"kotamine","steam_id":76561198068907991,"connected_time":571000000000,"state":"active","ping":60},{"user_id":435,"name":"scott steiners strongest warrio","steam_id":76561198148888622,"connected_time":554000000000,"state":"active","ping":68},{"user_id":421,"name":"etc","steam_id":76561197998394797,"connected_time":1714000000000,"state":"active","ping":60},{"user_id":449,"name":"Enforcer02","steam_id":76561197966045944,"connected_time":61000000000,"state":"active","ping":50},{"user_id":368,"name":"Behind you","steam_id":76561198410598772,"connected_time":4886000000000,"state":"active","ping":56},{"user_id":436,"name":"!?","steam_id":76561198420531228,"connected_time":526000000000,"state":"active","ping":53},{"user_id":437,"name":"cherry","steam_id":76561199006915718,"connected_time":525000000000,"state":"active","ping":60},{"user_id":428,"name":"nyanezt","steam_id":76561198253734265,"connected_time":1097000000000,"state":"active","ping":107},{"user_id":440,"name":"wren","steam_id":76561197996645029,"connected_time":448000000000,"state":"active","ping":88},{"user_id":441,"name":"Oak","steam_id":76561198412507725,"connected_time":432000000000,"state":"active","ping":104},{"user_id":442,"name":"Proud Jojo Fan #TF2SP","steam_id":76561198847327216,"connected_time":383000000000,"state":"active","ping":62},{"user_id":444,"name":"Larso","steam_id":76561198996464912,"connected_time":364000000000,"state":"active","ping":75},{"user_id":445,"name":"One Good Match Please","steam_id":76561198263260743,"connected_time":349000000000,"state":"active","ping":90},{"user_id":446,"name":"Stabbyratbag","steam_id":76561198119531916,"connected_time":252000000000,"state":"active","ping":60},{"user_id":447,"name":"ÎãπÏã†Ïùò ÏóÑÎßàÎ•ºÌñàÎã§","steam_id":76561198017114970,"connected_time":252000000000,"state":"active","ping":59},{"user_id":448,"name":"Charles Darwin","steam_id":76561197973496139,"connected_time":107000000000,"state":"active","ping":64},{"user_id":397,"name":"Meta","steam_id":76561198413073432,"connected_time":3305000000000,"state":"active","ping":67},{"user_id":450,"name":"PROFILE NAME","steam_id":76561198180056982,"connected_time":59000000000,"state":"active","ping":71},{"user_id":451,"name":"7cr","steam_id":76561198044766573,"connected_time":50000000000,"state":"active","ping":75}]},{"server_id":310,"name":"Uncletopia | Frankfurt | 5 | All Maps","name_short":"frk-5","host":"frk-1.de.uncletopia.com","port":27055,"enabled":true,"region":"eu","cc":"de","latitude":50.110924,"longitude":8.682127,"reserved":0,"last_update":"0001-01-01T00:00:00Z","name_a2s":"Uncletopia | Frankfurt | 5 | All Maps","protocol":17,"map":"pl_goldrush","folder":"tf","game":"Team Fortress","app_id":440,"player_count":8,"max_players":24,"Bots":0,"server_type":"Dedicated","server_os":"Linux","password":true,"vac":true,"version":"7757534","steam_id":85568392924504277,"keywords":["nocrits","nodmgspread","payload","uncletopia"],"game_id":440,"stv_port":27056,"stv_name":"Uncletopia | Frankfurt | 5 | All Maps | STV","players":[{"user_id":242,"name":"eldaou2009","steam_id":76561198966358094,"connected_time":312000000000,"state":"active","ping":58},{"user_id":248,"name":"Bond","steam_id":76561198070654906,"connected_time":101000000000,"state":"active","ping":44},{"user_id":240,"name":"maxi opossum","steam_id":76561198800637336,"connected_time":343000000000,"state":"active","ping":58},{"user_id":212,"name":"FoxyTheFish","steam_id":76561199074190919,"connected_time":3031000000000,"state":"active","ping":57},{"user_id":191,"name":"nytronytronytro","steam_id":76561198080496833,"connected_time":4362000000000,"state":"active","ping":77},{"user_id":194,"name":"‚òÖpoyo‚òÖ","steam_id":76561198150078959,"connected_time":4287000000000,"state":"active","ping":59},{"user_id":237,"name":"owl","steam_id":76561197998066985,"connected_time":1545000000000,"state":"active","ping":104},{"user_id":202,"name":"Gordon","steam_id":76561198088042034,"connected_time":3845000000000,"state":"active","ping":103}]},{"server_id":311,"name":"Uncletopia | Frankfurt | 6 | All Maps","name_short":"frk-6","host":"frk-1.de.uncletopia.com","port":27065,"enabled":true,"region":"eu","cc":"de","latitude":50.110924,"longitude":8.682127,"reserved":0,"last_update":"0001-01-01T00:00:00Z","name_a2s":"Uncletopia | Frankfurt | 6 | All Maps","protocol":17,"map":"plr_nightfall_final","folder":"tf","game":"Team Fortress","app_id":440,"player_count":0,"max_players":24,"Bots":0,"server_type":"Dedicated","server_os":"Linux","password":true,"vac":true,"version":"7757534","steam_id":85568392924504278,"keywords":["nocrits","nodmgspread","payload","uncletopia"],"game_id":440,"stv_port":27066,"stv_name":"Uncletopia | Frankfurt | 6 | All Maps | STV","players":null},{"server_id":23,"name":"Uncletopia | Frankfurt | 7 | Stopwatch Beta","name_short":"frk-7","host":"frk-1.de.uncletopia.com","port":27075,"enabled":true,"region":"eu","cc":"de","latitude":50.110924,"longitude":8.682127,"reserved":0,"last_update":"0001-01-01T00:00:00Z","name_a2s":"Uncletopia | Frankfurt | 7 | Stopwatch Beta","protocol":17,"map":"workshop/koth_clearcut_b15.ugc2107050255","folder":"tf","game":"Team Fortress","app_id":440,"player_count":0,"max_players":24,"Bots":0,"server_type":"Dedicated","server_os":"Linux","password":true,"vac":true,"version":"7757534","steam_id":85568392924742827,"keywords":["cp","nocrits","nodmgspread","uncletopia"],"game_id":440,"stv_port":27076,"stv_name":"Uncletopia | Frankfurt | 7 | Stopwatch Beta | STV","players":null},{"server_id":24,"name":"Uncletopia | Frankfurt | 8 | Community","name_short":"frk-8","host":"frk-1.de.uncletopia.com","port":27085,"enabled":true,"region":"eu","cc":"de","latitude":50.110924,"longitude":8.682127,"reserved":0,"last_update":"0001-01-01T00:00:00Z","name_a2s":"Uncletopia | Frankfurt | 8 | Community","protocol":17,"map":"workshop/cp_kalinka_rc6a.ugc1272700588","folder":"tf","game":"Team Fortress","app_id":440,"player_count":0,"max_players":24,"Bots":0,"server_type":"Dedicated","server_os":"Linux","password":true,"vac":true,"version":"7757534","steam_id":85568392924742828,"keywords":["cp","nocrits","nodmgspread","uncletopia"],"game_id":440,"stv_port":27086,"stv_name":"Uncletopia | Frankfurt | 8 | Community | STV","players":null},{"server_id":202,"name":"Uncletopia | Hong Kong | 1 | All Maps","name_short":"hgk-1","host":"hgk-1.hk.uncletopia.com","port":27015,"enabled":true,"region":"asia","cc":"hk","latitude":22.302711,"longitude":114.177216,"reserved":0,"last_update":"0001-01-01T00:00:00Z","name_a2s":"Uncletopia | Hong Kong | 1 | All Maps","protocol":17,"map":"pl_borneo","folder":"tf","game":"Team Fortress","app_id":440,"player_count":0,"max_players":24,"Bots":0,"server_type":"Dedicated","server_os":"Linux","password":true,"vac":true,"version":"7757534","steam_id":85568392924494504,"keywords":["nocrits","nodmgspread","payload","uncletopia"],"game_id":440,"stv_port":27016,"stv_name":"Uncletopia | Hong Kong | 1 | All Maps | STV","players":null},{"server_id":1,"name":"Uncletopia | Los Angeles | 1 | All Maps","name_short":"lax-1","host":"lax-1.us.uncletopia.com","port":27015,"enabled":true,"region":"us-west","cc":"us","latitude":33.94279,"longitude":-118.41004,"reserved":0,"last_update":"0001-01-01T00:00:00Z","name_a2s":"Uncletopia | Los Angeles | 1 | All Maps","protocol":17,"map":"koth_lakeside_final","folder":"tf","game":"Team Fortress","app_id":440,"player_count":0,"max_players":24,"Bots":0,"server_type":"Dedicated","server_os":"Linux","password":true,"vac":true,"version":"7757534","steam_id":85568392924469991,"keywords":["cp","nocrits","nodmgspread","uncletopia"],"game_id":440,"stv_port":27016,"stv_name":"Uncletopia | Los Angeles | 1 | All Maps | STV","players":null},{"server_id":112,"name":"Uncletopia | Los Angeles | 2 | All Maps","name_short":"lax-2","host":"lax-1.us.uncletopia.com","port":27025,"enabled":true,"region":"us-west","cc":"us","latitude":33.94279,"longitude":-118.41004,"reserved":0,"last_update":"0001-01-01T00:00:00Z","name_a2s":"Uncletopia | Los Angeles | 2 | All Maps","protocol":17,"map":"pl_badwater","folder":"tf","game":"Team Fortress","app_id":440,"player_count":0,"max_players":24,"Bots":0,"server_type":"Dedicated","server_os":"Linux","password":true,"vac":true,"version":"7757534","steam_id":85568392924469992,"keywords":["nocrits","nodmgspread","payload","uncletopia"],"game_id":440,"stv_port":27026,"stv_name":"Uncletopia | Los Angeles | 2 | All Maps | STV","players":null},{"server_id":324,"name":"Uncletopia | Los Angeles | 3 | All Maps","name_short":"lax-3","host":"lax-1.us.uncletopia.com","port":27035,"enabled":true,"region":"us-west","cc":"us","latitude":33.94279,"longitude":-118.41004,"reserved":0,"last_update":"0001-01-01T00:00:00Z","name_a2s":"Uncletopia | Los Angeles | 3 | All Maps","protocol":17,"map":"pl_barnblitz","folder":"tf","game":"Team Fortress","app_id":440,"player_count":0,"max_players":24,"Bots":0,"server_type":"Dedicated","server_os":"Linux","password":true,"vac":true,"version":"7757534","steam_id":85568392924510198,"keywords":["nocrits","nodmgspread","payload","uncletopia"],"game_id":440,"stv_port":27036,"stv_name":"Uncletopia | Los Angeles | 3 | All Maps | STV","players":null},{"server_id":25,"name":"Uncletopia | Los Angeles | 4 | Stopwatch Beta","name_short":"lax-4","host":"lax-1.us.uncletopia.com","port":27045,"enabled":true,"region":"us-west","cc":"us","latitude":33.94279,"longitude":-118.41004,"reserved":0,"last_update":"0001-01-01T00:00:00Z","name_a2s":"Uncletopia | Los Angeles | 4 | Stopwatch Beta","protocol":17,"map":"pl_swiftwater_final1","folder":"tf","game":"Team Fortress","app_id":440,"player_count":0,"max_players":24,"Bots":0,"server_type":"Dedicated","server_os":"Linux","password":true,"vac":true,"version":"7757534","steam_id":85568392924510199,"keywords":["nocrits","nodmgspread","payload","uncletopia"],"game_id":440,"stv_port":27046,"stv_name":"Uncletopia | Los Angeles | 4 | Stopwatch Beta | STV","players":null},{"server_id":11,"name":"Uncletopia | London | 1 | All Maps","name_short":"lon-1","host":"lon-1.uk.uncletopia.com","port":27015,"enabled":true,"region":"eu","cc":"gb","latitude":51.509865,"longitude":-0.118092,"reserved":0,"last_update":"0001-01-01T00:00:00Z","name_a2s":"Uncletopia | London | 1 | All Maps","protocol":17,"map":"pl_badwater","folder":"tf","game":"Team Fortress","app_id":440,"player_count":24,"max_players":24,"Bots":0,"server_type":"Dedicated","server_os":"Linux","password":true,"vac":true,"version":"7757534","steam_id":85568392924367362,"keywords":["nocrits","nodmgspread","payload","uncletopia"],"game_id":440,"stv_port":27016,"stv_name":"Uncletopia | London | 1 | All Maps | STV","players":[{"user_id":612,"name":"Wedgeridoo","steam_id":76561198082813907,"connected_time":586000000000,"state":"active","ping":119},{"user_id":610,"name":"outin","steam_id":76561198137734730,"connected_time":1317000000000,"state":"active","ping":67},{"user_id":551,"name":"thespe","steam_id":76561198088225107,"connected_time":7384000000000,"state":"active","ping":66},{"user_id":611,"name":"CrusherUK","steam_id":76561198153173185,"connected_time":1108000000000,"state":"active","ping":54},{"user_id":601,"name":"Son Goku","steam_id":76561199383437138,"connected_time":1787000000000,"state":"active","ping":118},{"user_id":575,"name":"BreadBubbles","steam_id":76561198174332826,"connected_time":4921000000000,"state":"active","ping":57},{"user_id":587,"name":"It's a me Malario","steam_id":76561198176546013,"connected_time":3734000000000,"state":"active","ping":51},{"user_id":592,"name":"shooer","steam_id":76561198110531281,"connected_time":3065000000000,"state":"active","ping":95},{"user_id":578,"name":"Baki ‡∂û","steam_id":76561198193615529,"connected_time":4741000000000,"state":"active","ping":64},{"user_id":582,"name":"SOPHIIEE","steam_id":76561198443798981,"connected_time":4135000000000,"state":"active","ping":56},{"user_id":597,"name":"trite","steam_id":76561197983765323,"connected_time":2214000000000,"state":"active","ping":48},{"user_id":615,"name":"Kraiti","steam_id":76561198847296908,"connected_time":119000000000,"state":"active","ping":84},{"user_id":558,"name":"SirSangoor","steam_id":76561198044462559,"connected_time":6166000000000,"state":"active","ping":120},{"user_id":608,"name":"Camo Leaf","steam_id":76561197999456575,"connected_time":1436000000000,"state":"active","ping":45},{"user_id":599,"name":"nedilya","steam_id":76561198039692077,"connected_time":1908000000000,"state":"active","ping":64},{"user_id":556,"name":"gnarly business","steam_id":76561198832688767,"connected_time":6177000000000,"state":"active","ping":57},{"user_id":538,"name":"dec","steam_id":76561198009660168,"connected_time":9001000000000,"state":"active","ping":51},{"user_id":602,"name":"Ooze","steam_id":76561198039642637,"connected_time":1764000000000,"state":"active","ping":75},{"user_id":604,"name":"Pinkchup","steam_id":76561198106802803,"connected_time":1677000000000,"state":"active","ping":76},{"user_id":600,"name":"Aaron","steam_id":76561197990046953,"connected_time":1858000000000,"state":"active","ping":68},{"user_id":588,"name":"Minimi","steam_id":76561198873850443,"connected_time":3480000000000,"state":"active","ping":41},{"user_id":557,"name":"regimiro","steam_id":76561198120457008,"connected_time":6177000000000,"state":"active","ping":57},{"user_id":613,"name":"shenanigan","steam_id":76561198043452925,"connected_time":148000000000,"state":"active","ping":99},{"user_id":614,"name":"feed and seed","steam_id":76561199088046420,"connected_time":132000000000,"state":"active","ping":50}]},{"server_id":114,"name":"Uncletopia | London | 2 | All Maps","name_short":"lon-2","host":"lon-1.uk.uncletopia.com","port":27025,"enabled":true,"region":"eu","cc":"gb","latitude":51.509865,"longitude":-0.118092,"reserved":0,"last_update":"0001-01-01T00:00:00Z","name_a2s":"Uncletopia | London | 2 | All Maps","protocol":17,"map":"koth_badlands","folder":"tf","game":"Team Fortress","app_id":440,"player_count":18,"max_players":24,"Bots":0,"server_type":"Dedicated","server_os":"Linux","password":true,"vac":true,"version":"7757534","steam_id":85568392924470941,"keywords":["cp","nocrits","nodmgspread","uncletopia"],"game_id":440,"stv_port":27026,"stv_name":"Uncletopia | London | 2 | All Maps | STV","players":[{"user_id":204,"name":"Saken","steam_id":76561198049075295,"connected_time":511000000000,"state":"active","ping":71},{"user_id":208,"name":"Arti","steam_id":76561197983352845,"connected_time":80000000000,"state":"active","ping":41},{"user_id":203,"name":"bushman","steam_id":76561197996548146,"connected_time":745000000000,"state":"active","ping":148},{"user_id":209,"name":"Mr. House (Real)","steam_id":76561198162554213,"connected_time":68000000000,"state":"active","ping":75},{"user_id":190,"name":"NitPig","steam_id":76561198212991935,"connected_time":1983000000000,"state":"active","ping":89},{"user_id":183,"name":"goblin","steam_id":76561199010825303,"connected_time":2242000000000,"state":"active","ping":77},{"user_id":206,"name":"HilldogGaming","steam_id":76561198082209322,"connected_time":321000000000,"state":"active","ping":76},{"user_id":167,"name":"WiiSportKing","steam_id":76561198114139081,"connected_time":3783000000000,"state":"active","ping":56},{"user_id":207,"name":"Trexican","steam_id":76561198164129603,"connected_time":297000000000,"state":"active","ping":40},{"user_id":200,"name":"Shovelhalfrusty","steam_id":76561198346447513,"connected_time":1434000000000,"state":"active","ping":77},{"user_id":165,"name":"plepek","steam_id":76561198042959598,"connected_time":3967000000000,"state":"active","ping":76},{"user_id":210,"name":"[T]aKer","steam_id":76561198001778013,"connected_time":19000000000,"state":"active","ping":48},{"user_id":186,"name":"Regan","steam_id":76561198100631086,"connected_time":2176000000000,"state":"active","ping":55},{"user_id":173,"name":"eeeeee","steam_id":76561198017786875,"connected_time":2611000000000,"state":"active","ping":69},{"user_id":169,"name":"Wiki","steam_id":76561198106666604,"connected_time":2670000000000,"state":"active","ping":79},{"user_id":123,"name":"Carrotcracker","steam_id":76561198034862396,"connected_time":8770000000000,"state":"active","ping":81},{"user_id":202,"name":"Seneron4","steam_id":76561198107658391,"connected_time":1351000000000,"state":"active","ping":88},{"user_id":177,"name":"\u003cCH\u003e Œª T T O S Z","steam_id":76561198043438734,"connected_time":2523000000000,"state":"active","ping":65}]},{"server_id":320,"name":"Uncletopia | London | 3 | All Maps","name_short":"lon-3","host":"lon-1.uk.uncletopia.com","port":27035,"enabled":true,"region":"eu","cc":"gb","latitude":51.509865,"longitude":-0.118092,"reserved":0,"last_update":"0001-01-01T00:00:00Z","name_a2s":"Uncletopia | London | 3 | All Maps","protocol":17,"map":"pl_barnblitz","folder":"tf","game":"Team Fortress","app_id":440,"player_count":23,"max_players":24,"Bots":0,"server_type":"Dedicated","server_os":"Linux","password":true,"vac":true,"version":"7757534","steam_id":85568392924510192,"keywords":["nocrits","nodmgspread","payload","uncletopia"],"game_id":440,"stv_port":27036,"stv_name":"Uncletopia | London | 3 | All Maps | STV","players":[{"user_id":596,"name":"dr. coom","steam_id":76561198172193711,"connected_time":1980000000000,"state":"active","ping":44},{"user_id":569,"name":"gofdrey","steam_id":76561198121941052,"connected_time":4639000000000,"state":"active","ping":55},{"user_id":609,"name":"Purps","steam_id":76561198053886680,"connected_time":13000000000,"state":"active","ping":117},{"user_id":555,"name":"Welder","steam_id":76561198355300561,"connected_time":5830000000000,"state":"active","ping":68},{"user_id":554,"name":"MAKENTAKEN","steam_id":76561199127359587,"connected_time":5982000000000,"state":"active","ping":99},{"user_id":610,"name":"flan","steam_id":76561198271900816,"connected_time":7000000000,"state":"spawning","ping":49},{"user_id":587,"name":"Seail_M","steam_id":76561198002405605,"connected_time":2791000000000,"state":"active","ping":62},{"user_id":543,"name":"LarsInABox","steam_id":76561198028329262,"connected_time":6496000000000,"state":"active","ping":71},{"user_id":604,"name":"Steen","steam_id":76561198122992510,"connected_time":1760000000000,"state":"active","ping":56},{"user_id":568,"name":"Serton‚ôù","steam_id":76561198011061126,"connected_time":4722000000000,"state":"active","ping":71},{"user_id":593,"name":"8 Ball","steam_id":76561197960988736,"connected_time":2061000000000,"state":"active","ping":45},{"user_id":527,"name":"nirakya","steam_id":76561198024488584,"connected_time":7538000000000,"state":"active","ping":45},{"user_id":588,"name":"Tom","steam_id":76561198008519979,"connected_time":2747000000000,"state":"active","ping":69},{"user_id":608,"name":"Mor'du","steam_id":76561198274105878,"connected_time":17000000000,"state":"active","ping":98},{"user_id":607,"name":"KnorbertD","steam_id":76561198175745541,"connected_time":307000000000,"state":"active","ping":87},{"user_id":605,"name":"sasharudzik","steam_id":76561199126617781,"connected_time":1230000000000,"state":"active","ping":139},{"user_id":601,"name":"tapeworms!","steam_id":76561198069649097,"connected_time":1950000000000,"state":"active","ping":49},{"user_id":581,"name":"‚ù§ shrimpee‚ù§ | [she/they]","steam_id":76561198303128670,"connected_time":3245000000000,"state":"active","ping":44},{"user_id":582,"name":"addicted","steam_id":76561199129801006,"connected_time":3242000000000,"state":"active","ping":58},{"user_id":591,"name":"NotFionn","steam_id":76561198890525176,"connected_time":2164000000000,"state":"active","ping":76},{"user_id":592,"name":"PizzaPete123","steam_id":76561198089478290,"connected_time":2163000000000,"state":"active","ping":38},{"user_id":500,"name":"Fat Pigeon","steam_id":76561198817940142,"connected_time":8239000000000,"state":"active","ping":45},{"user_id":567,"name":"Udinese Dion","steam_id":76561198067931573,"connected_time":4990000000000,"state":"active","ping":91}]},{"server_id":321,"name":"Uncletopia | London | 4 | All Maps","name_short":"lon-4","host":"lon-1.uk.uncletopia.com","port":27045,"enabled":true,"region":"eu","cc":"gb","latitude":51.509865,"longitude":-0.118092,"reserved":0,"last_update":"0001-01-01T00:00:00Z","name_a2s":"Uncletopia | London | 4 | All Maps","protocol":17,"map":"cp_steel","folder":"tf","game":"Team Fortress","app_id":440,"player_count":16,"max_players":24,"Bots":0,"server_type":"Dedicated","server_os":"Linux","password":true,"vac":true,"version":"7757534","steam_id":85568392924510193,"keywords":["cp","nocrits","nodmgspread","uncletopia"],"game_id":440,"stv_port":27046,"stv_name":"Uncletopia | London | 4 | All Maps | STV","players":[{"user_id":171,"name":"Locke","steam_id":76561198339408300,"connected_time":232000000000,"state":"active","ping":54},{"user_id":173,"name":"Toodlesnoot","steam_id":76561198036543689,"connected_time":189000000000,"state":"active","ping":55},{"user_id":174,"name":"Bezoyalapolla","steam_id":76561198236833426,"connected_time":158000000000,"state":"active","ping":82},{"user_id":111,"name":"UltimateSlayer","steam_id":76561198384109309,"connected_time":3732000000000,"state":"active","ping":46},{"user_id":119,"name":"Dr. Sex","steam_id":76561198078559771,"connected_time":3569000000000,"state":"active","ping":82},{"user_id":177,"name":"H2n9","steam_id":76561198055811259,"connected_time":57000000000,"state":"active","ping":54},{"user_id":165,"name":"sork","steam_id":76561198082446459,"connected_time":767000000000,"state":"active","ping":76},{"user_id":114,"name":"Husk","steam_id":76561198271808519,"connected_time":3662000000000,"state":"active","ping":55},{"user_id":178,"name":"Juiceydough","steam_id":76561197997323419,"connected_time":26000000000,"state":"active","ping":79},{"user_id":62,"name":"Intruder","steam_id":76561198156128173,"connected_time":6721000000000,"state":"active","ping":64},{"user_id":61,"name":"Illegally Legal","steam_id":76561198982674420,"connected_time":6858000000000,"state":"active","ping":45},{"user_id":155,"name":"UltimateAura","steam_id":76561198338361324,"connected_time":2075000000000,"state":"active","ping":44},{"user_id":169,"name":"DDO1","steam_id":76561198348234399,"connected_time":535000000000,"state":"active","ping":54},{"user_id":132,"name":"Mr.B","steam_id":76561199204478925,"connected_time":2708000000000,"state":"active","ping":110},{"user_id":168,"name":"Adopted?","steam_id":76561198118667043,"connected_time":624000000000,"state":"active","ping":65},{"user_id":131,"name":"ike","steam_id":76561198039845647,"connected_time":2874000000000,"state":"active","ping":62}]},{"server_id":21,"name":"Uncletopia | London | 5 | All Maps","name_short":"lon-5","host":"lon-1.uk.uncletopia.com","port":27055,"enabled":true,"region":"eu","cc":"gb","latitude":51.509865,"longitude":-0.118092,"reserved":0,"last_update":"0001-01-01T00:00:00Z","name_a2s":"Uncletopia | London | 5 | All Maps","protocol":17,"map":"pl_snowycoast","folder":"tf","game":"Team Fortress","app_id":440,"player_count":24,"max_players":24,"Bots":0,"server_type":"Dedicated","server_os":"Linux","password":true,"vac":true,"version":"7757534","steam_id":85568392924742829,"keywords":["nocrits","nodmgspread","payload","uncletopia"],"game_id":440,"stv_port":27056,"stv_name":"Uncletopia | London | 5 | All Maps | STV","players":[{"user_id":315,"name":"R@DIO","steam_id":76561197995533046,"connected_time":1239000000000,"state":"active","ping":80},{"user_id":320,"name":"Mr.killer","steam_id":76561198290584189,"connected_time":730000000000,"state":"active","ping":81},{"user_id":310,"name":"Night Fury","steam_id":76561197995207032,"connected_time":1773000000000,"state":"active","ping":86},{"user_id":312,"name":"1 rayteon fan","steam_id":76561198393698349,"connected_time":1348000000000,"state":"active","ping":31},{"user_id":307,"name":"jonbob","steam_id":76561197963506620,"connected_time":2227000000000,"state":"active","ping":61},{"user_id":291,"name":"BunkerBoy","steam_id":76561198859439313,"connected_time":3838000000000,"state":"active","ping":88},{"user_id":293,"name":"Hampter","steam_id":76561198012351470,"connected_time":3310000000000,"state":"active","ping":38},{"user_id":300,"name":"Majima Gaming HD","steam_id":76561198365750503,"connected_time":2433000000000,"state":"active","ping":38},{"user_id":321,"name":"Misctek","steam_id":76561199037541925,"connected_time":373000000000,"state":"active","ping":62},{"user_id":296,"name":"sebciosz","steam_id":76561198275906734,"connected_time":2481000000000,"state":"active","ping":86},{"user_id":322,"name":"ldshwt","steam_id":76561198090364357,"connected_time":85000000000,"state":"active","ping":60},{"user_id":277,"name":"quickfast","steam_id":76561199438900919,"connected_time":4310000000000,"state":"active","ping":41},{"user_id":295,"name":"jones","steam_id":76561198044434971,"connected_time":2620000000000,"state":"active","ping":66},{"user_id":302,"name":"Lynceus","steam_id":76561198131209426,"connected_time":2416000000000,"state":"active","ping":57},{"user_id":318,"name":"‚ù§ Sparx ‚ù§","steam_id":76561198095009261,"connected_time":1005000000000,"state":"active","ping":64},{"user_id":267,"name":"Sinny","steam_id":76561197999598422,"connected_time":4646000000000,"state":"active","ping":84},{"user_id":280,"name":"Alibi","steam_id":76561198061845595,"connected_time":4273000000000,"state":"active","ping":88},{"user_id":275,"name":"beheading video from 2009","steam_id":76561198834897089,"connected_time":4534000000000,"state":"active","ping":73},{"user_id":270,"name":"Mayor Wank from Wanker Town","steam_id":76561197998253588,"connected_time":4606000000000,"state":"active","ping":60},{"user_id":285,"name":"pedestrianise gloucester rd","steam_id":76561198126022039,"connected_time":4123000000000,"state":"active","ping":48},{"user_id":311,"name":"ruskie (fake)","steam_id":76561199106215999,"connected_time":1428000000000,"state":"active","ping":129},{"user_id":274,"name":"rz-/Atomic Punch","steam_id":76561199195508541,"connected_time":4572000000000,"state":"active","ping":78},{"user_id":313,"name":"stoppen","steam_id":76561197960281482,"connected_time":1344000000000,"state":"active","ping":75},{"user_id":309,"name":"Bonca","steam_id":76561198137503531,"connected_time":2082000000000,"state":"active","ping":76}]},{"server_id":22,"name":"Uncletopia | London | 6 | All Maps","name_short":"lon-6","host":"lon-1.uk.uncletopia.com","port":27065,"enabled":true,"region":"eu","cc":"gb","latitude":51.509865,"longitude":-0.118092,"reserved":0,"last_update":"0001-01-01T00:00:00Z","name_a2s":"Uncletopia | London | 6 | All Maps","protocol":17,"map":"koth_highpass","folder":"tf","game":"Team Fortress","app_id":440,"player_count":0,"max_players":24,"Bots":0,"server_type":"Dedicated","server_os":"Linux","password":true,"vac":true,"version":"7757534","steam_id":85568392924742830,"keywords":["cp","nocrits","nodmgspread","uncletopia"],"game_id":440,"stv_port":27066,"stv_name":"Uncletopia | London | 6 | All Maps | STV","players":null},{"server_id":40,"name":"Uncletopia | London | 7 | No Payload","name_short":"lon-7","host":"lon-1.uk.uncletopia.com","port":27075,"enabled":true,"region":"eu","cc":"gb","latitude":51.509865,"longitude":-0.118092,"reserved":0,"last_update":"0001-01-01T00:00:00Z","name_a2s":"Uncletopia | London | 7 | No Payload","protocol":17,"map":"cp_process_final","folder":"tf","game":"Team Fortress","app_id":440,"player_count":0,"max_players":24,"Bots":0,"server_type":"Dedicated","server_os":"Linux","password":true,"vac":true,"version":"7757534","steam_id":85568392924964314,"keywords":["cp","nocrits","nodmgspread","uncletopia"],"game_id":440,"stv_port":27076,"stv_name":"Uncletopia | London | 7 | No Payload | STV","players":null},{"server_id":41,"name":"Uncletopia | London | 8 | Community","name_short":"lon-8","host":"lon-1.uk.uncletopia.com","port":27085,"enabled":true,"region":"eu","cc":"gb","latitude":51.509865,"longitude":-0.118092,"reserved":0,"last_update":"0001-01-01T00:00:00Z","name_a2s":"Uncletopia | London | 8 | Community","protocol":17,"map":"workshop/cp_propaganda_b18.ugc1603743849","folder":"tf","game":"Team Fortress","app_id":440,"player_count":2,"max_players":24,"Bots":0,"server_type":"Dedicated","server_os":"Linux","password":true,"vac":true,"version":"7757534","steam_id":85568392924964315,"keywords":["cp","nocrits","nodmgspread","uncletopia"],"game_id":440,"stv_port":27086,"stv_name":"Uncletopia | London | 8 | Community | STV","players":[{"user_id":47,"name":"lipaul777","steam_id":76561199090751367,"connected_time":3005000000000,"state":"active","ping":71},{"user_id":67,"name":"BlueSour","steam_id":76561198057419111,"connected_time":456000000000,"state":"active","ping":75}]},{"server_id":300,"name":"Uncletopia | Montr√©al | 1 | All Maps","name_short":"mtl-1","host":"mtl-1.ca.uncletopia.com","port":27015,"enabled":true,"region":"us-east","cc":"ca","latitude":45.50889,"longitude":-73.56167,"reserved":0,"last_update":"0001-01-01T00:00:00Z","name_a2s":"Uncletopia | Montr√©al | 1 | All Maps","protocol":17,"map":"koth_cascade","folder":"tf","game":"Team Fortress","app_id":440,"player_count":0,"max_players":24,"Bots":0,"server_type":"Dedicated","server_os":"Linux","password":true,"vac":true,"version":"7757534","steam_id":85568392924500087,"keywords":["cp","nocrits","nodmgspread","uncletopia"],"game_id":440,"stv_port":27016,"stv_name":"Uncletopia | Montr√©al | 1 | All Maps | STV","players":null},{"server_id":301,"name":"Uncletopia | Montr√©al | 2 | All Maps","name_short":"mtl-2","host":"mtl-1.ca.uncletopia.com","port":27025,"enabled":true,"region":"us-east","cc":"ca","latitude":45.50889,"longitude":-73.56167,"reserved":0,"last_update":"0001-01-01T00:00:00Z","name_a2s":"Uncletopia | Montr√©al | 2 | All Maps","protocol":17,"map":"pl_snowycoast","folder":"tf","game":"Team Fortress","app_id":440,"player_count":0,"max_players":24,"Bots":0,"server_type":"Dedicated","server_os":"Linux","password":true,"vac":true,"version":"7757534","steam_id":85568392924500088,"keywords":["nocrits","nodmgspread","payload","uncletopia"],"game_id":440,"stv_port":27026,"stv_name":"Uncletopia | Montr√©al | 2 | All Maps | STV","players":null},{"server_id":302,"name":"Uncletopia | Montr√©al | 3 | All Maps","name_short":"mtl-3","host":"mtl-1.ca.uncletopia.com","port":27035,"enabled":true,"region":"us-east","cc":"ca","latitude":45.50889,"longitude":-73.56167,"reserved":0,"last_update":"0001-01-01T00:00:00Z","name_a2s":"Uncletopia | Montr√©al | 3 | All Maps","protocol":17,"map":"pl_swiftwater_final1","folder":"tf","game":"Team Fortress","app_id":440,"player_count":0,"max_players":24,"Bots":0,"server_type":"Dedicated","server_os":"Linux","password":true,"vac":true,"version":"7757534","steam_id":85568392924500089,"keywords":["nocrits","nodmgspread","payload","uncletopia"],"game_id":440,"stv_port":27036,"stv_name":"Uncletopia | Montr√©al | 3 | All Maps | STV","players":null},{"server_id":303,"name":"Uncletopia | Montr√©al | 4 | No Payload","name_short":"mtl-4","host":"mtl-1.ca.uncletopia.com","port":27045,"enabled":true,"region":"us-east","cc":"ca","latitude":45.50889,"longitude":-73.56167,"reserved":0,"last_update":"0001-01-01T00:00:00Z","name_a2s":"Uncletopia | Montr√©al | 4 | No Payload","protocol":17,"map":"cp_mercenarypark","folder":"tf","game":"Team Fortress","app_id":440,"player_count":0,"max_players":24,"Bots":0,"server_type":"Dedicated","server_os":"Linux","password":true,"vac":true,"version":"7757534","steam_id":85568392924500090,"keywords":["cp","nocrits","nodmgspread","uncletopia"],"game_id":440,"stv_port":27046,"stv_name":"Uncletopia | Montr√©al | 4 | No Payload | STV","players":null},{"server_id":13,"name":"Uncletopia | New York City | 1 | All Maps","name_short":"nyc-1","host":"nyc-1.us.uncletopia.com","port":27015,"enabled":true,"region":"us-east","cc":"us","latitude":40.73061,"longitude":-73.93524,"reserved":0,"last_update":"0001-01-01T00:00:00Z","name_a2s":"Uncletopia | New York City | 1 | All Maps","protocol":17,"map":"pl_swiftwater_final1","folder":"tf","game":"Team Fortress","app_id":440,"player_count":24,"max_players":24,"Bots":0,"server_type":"Dedicated","server_os":"Linux","password":true,"vac":true,"version":"7757534","steam_id":85568392924469993,"keywords":["nocrits","nodmgspread","payload","uncletopia"],"game_id":440,"stv_port":27016,"stv_name":"Uncletopia | New York City | 1 | All Maps | STV","players":[{"user_id":18,"name":"Agent Hugh Jass","steam_id":76561199097744991,"connected_time":2508000000000,"state":"active","ping":65},{"user_id":54,"name":"clack","steam_id":76561198966980576,"connected_time":414000000000,"state":"active","ping":41},{"user_id":20,"name":"Hook, Line, and Sphincter","steam_id":76561198078207743,"connected_time":2397000000000,"state":"active","ping":44},{"user_id":46,"name":"Geloman","steam_id":76561198005501322,"connected_time":1146000000000,"state":"active","ping":60},{"user_id":56,"name":"Super D Duper","steam_id":76561198078203677,"connected_time":316000000000,"state":"active","ping":51},{"user_id":23,"name":"Mimt1111","steam_id":76561198392370897,"connected_time":1999000000000,"state":"active","ping":74},{"user_id":57,"name":"Doost","steam_id":76561198115785902,"connected_time":29000000000,"state":"active","ping":82},{"user_id":25,"name":"Cicada_Man","steam_id":76561199130601341,"connected_time":1933000000000,"state":"active","ping":53},{"user_id":27,"name":"BIGGEST MAC","steam_id":76561198847517098,"connected_time":1734000000000,"state":"active","ping":81},{"user_id":29,"name":"Aegis","steam_id":76561198272052750,"connected_time":1725000000000,"state":"active","ping":66},{"user_id":50,"name":"Pourpel","steam_id":76561198059125470,"connected_time":741000000000,"state":"active","ping":76},{"user_id":51,"name":"Buttons :)","steam_id":76561198139478534,"connected_time":739000000000,"state":"active","ping":128},{"user_id":32,"name":"ArnoldGamingÔæ†Ÿ¥","steam_id":76561198040140247,"connected_time":1606000000000,"state":"active","ping":115},{"user_id":33,"name":"TaBunnie","steam_id":76561198197894178,"connected_time":1533000000000,"state":"active","ping":70},{"user_id":53,"name":"hobbiebobbie","steam_id":76561199168320895,"connected_time":558000000000,"state":"active","ping":96},{"user_id":35,"name":"im here to frag","steam_id":76561198392539722,"connected_time":1473000000000,"state":"active","ping":81},{"user_id":55,"name":"Minnie","steam_id":76561198091052019,"connected_time":367000000000,"state":"active","ping":47},{"user_id":37,"name":"Pig","steam_id":76561198276179693,"connected_time":1441000000000,"state":"active","ping":75},{"user_id":49,"name":"something smells foul","steam_id":76561198098781227,"connected_time":792000000000,"state":"active","ping":94},{"user_id":47,"name":"Icaras","steam_id":76561198416724843,"connected_time":1071000000000,"state":"active","ping":118},{"user_id":40,"name":"Orbs","steam_id":76561198075938744,"connected_time":1394000000000,"state":"active","ping":109},{"user_id":48,"name":"robbzura","steam_id":76561198196737559,"connected_time":997000000000,"state":"active","ping":103},{"user_id":52,"name":"Indigolake","steam_id":76561198202215807,"connected_time":709000000000,"state":"active","ping":65},{"user_id":43,"name":"Hipp-Dip","steam_id":76561199027874633,"connected_time":1363000000000,"state":"active","ping":44}]},{"server_id":14,"name":"Uncletopia | New York City | 2 | All Maps","name_short":"nyc-2","host":"nyc-1.us.uncletopia.com","port":27025,"enabled":true,"region":"us-east","cc":"us","latitude":40.73061,"longitude":-73.93524,"reserved":0,"last_update":"0001-01-01T00:00:00Z","name_a2s":"Uncletopia | New York City | 2 | All Maps","protocol":17,"map":"koth_lakeside_final","folder":"tf","game":"Team Fortress","app_id":440,"player_count":0,"max_players":24,"Bots":0,"server_type":"Dedicated","server_os":"Linux","password":true,"vac":true,"version":"7757534","steam_id":85568392924469994,"keywords":["cp","nocrits","nodmgspread","uncletopia"],"game_id":440,"stv_port":27026,"stv_name":"Uncletopia | New York City | 2 | All Maps | STV","players":null},{"server_id":15,"name":"Uncletopia | New York City | 3 | Stopwatch Beta","name_short":"nyc-3","host":"nyc-1.us.uncletopia.com","port":27035,"enabled":true,"region":"us-east","cc":"us","latitude":40.73061,"longitude":-73.93524,"reserved":0,"last_update":"0001-01-01T00:00:00Z","name_a2s":"Uncletopia | New York City | 3 | Stopwatch Beta","protocol":17,"map":"pl_upward","folder":"tf","game":"Team Fortress","app_id":440,"player_count":0,"max_players":24,"Bots":0,"server_type":"Dedicated","server_os":"Linux","password":true,"vac":true,"version":"7757534","steam_id":85568392924742820,"keywords":["nocrits","nodmgspread","payload","uncletopia"],"game_id":440,"stv_port":27036,"stv_name":"Uncletopia | New York City | 3 | Stopwatch Beta | STV","players":null},{"server_id":16,"name":"Uncletopia | New York City | 4 | Community","name_short":"nyc-4","host":"nyc-1.us.uncletopia.com","port":27045,"enabled":true,"region":"us-east","cc":"us","latitude":40.73061,"longitude":-73.93524,"reserved":0,"last_update":"0001-01-01T00:00:00Z","name_a2s":"Uncletopia | New York City | 4 | Community","protocol":17,"map":"workshop/pl_eruption_b9a.ugc2807898013","folder":"tf","game":"Team Fortress","app_id":440,"player_count":0,"max_players":24,"Bots":0,"server_type":"Dedicated","server_os":"Linux","password":true,"vac":true,"version":"7757534","steam_id":85568392924742821,"keywords":["nocrits","nodmgspread","payload","uncletopia"],"game_id":440,"stv_port":27046,"stv_name":"Uncletopia | New York City | 4 | Community | STV","players":null},{"server_id":142,"name":"Uncletopia | S√£o Paulo | 1 | All Maps","name_short":"sao-1","host":"sao-1.br.uncletopia.com","port":27015,"enabled":true,"region":"sa","cc":"br","latitude":-23.533773,"longitude":-46.62529,"reserved":0,"last_update":"0001-01-01T00:00:00Z","name_a2s":"Uncletopia | S√£o Paulo | 1 | All Maps","protocol":17,"map":"pl_barnblitz","folder":"tf","game":"Team Fortress","app_id":440,"player_count":12,"max_players":24,"Bots":0,"server_type":"Dedicated","server_os":"Linux","password":true,"vac":true,"version":"7757534","steam_id":85568392924469996,"keywords":["nocrits","nodmgspread","payload","uncletopia"],"game_id":440,"stv_port":27016,"stv_name":"Uncletopia | S√£o Paulo | 1 | All Maps | STV","players":[{"user_id":8,"name":"ailuros","steam_id":76561198171349369,"connected_time":4528000000000,"state":"active","ping":38},{"user_id":31,"name":"Copa Pist√£o","steam_id":76561199240099576,"connected_time":955000000000,"state":"active","ping":37},{"user_id":14,"name":"FutanariGirl","steam_id":76561199479462702,"connected_time":3691000000000,"state":"active","ping":45},{"user_id":39,"name":"Luna","steam_id":76561198865085145,"connected_time":36000000000,"state":"spawning","ping":54},{"user_id":38,"name":"jr_rusty","steam_id":76561198313937899,"connected_time":74000000000,"state":"active","ping":40},{"user_id":17,"name":"Kaiser","steam_id":76561199168194896,"connected_time":2508000000000,"state":"active","ping":64},{"user_id":22,"name":"kaoru mitoma","steam_id":76561198143438576,"connected_time":2039000000000,"state":"active","ping":31},{"user_id":35,"name":"sunrise","steam_id":76561198097431370,"connected_time":514000000000,"state":"active","ping":75},{"user_id":24,"name":"Stoopid","steam_id":76561198126485401,"connected_time":1845000000000,"state":"active","ping":59},{"user_id":30,"name":"Guns Blazing","steam_id":76561198379461118,"connected_time":1233000000000,"state":"active","ping":177},{"user_id":33,"name":"ramax","steam_id":76561199476121380,"connected_time":725000000000,"state":"active","ping":106},{"user_id":28,"name":"castelo_45#SAVE tf2","steam_id":76561199078529501,"connected_time":1666000000000,"state":"active","ping":32}]},{"server_id":143,"name":"Uncletopia | S√£o Paulo | 2 | All Maps","name_short":"sao-2","host":"sao-2.br.uncletopia.com","port":27015,"enabled":true,"region":"sa","cc":"br","latitude":-23.533773,"longitude":-46.62529,"reserved":0,"last_update":"0001-01-01T00:00:00Z","name_a2s":"Uncletopia | S√£o Paulo | 2 | All Maps","protocol":17,"map":"koth_viaduct","folder":"tf","game":"Team Fortress","app_id":440,"player_count":0,"max_players":24,"Bots":0,"server_type":"Dedicated","server_os":"Linux","password":true,"vac":true,"version":"7757534","steam_id":85568392924485349,"keywords":["cp","nocrits","nodmgspread","uncletopia"],"game_id":440,"stv_port":27016,"stv_name":"Uncletopia | S√£o Paulo | 2 | All Maps | STV","players":null},{"server_id":7,"name":"Uncletopia | Seattle | 1 | All Maps","name_short":"sea-1","host":"sea-1.us.uncletopia.com","port":27015,"enabled":true,"region":"us-west","cc":"us","latitude":47.608013,"longitude":-122.33517,"reserved":0,"last_update":"0001-01-01T00:00:00Z","name_a2s":"Uncletopia | Seattle | 1 | All Maps","protocol":17,"map":"pl_barnblitz","folder":"tf","game":"Team Fortress","app_id":440,"player_count":24,"max_players":24,"Bots":0,"server_type":"Dedicated","server_os":"Linux","password":true,"vac":true,"version":"7757534","steam_id":85568392924469997,"keywords":["nocrits","nodmgspread","payload","uncletopia"],"game_id":440,"stv_port":27016,"stv_name":"Uncletopia | Seattle | 1 | All Maps | STV","players":[{"user_id":509,"name":"Captain Demytri","steam_id":76561198097998607,"connected_time":501000000000,"state":"active","ping":88},{"user_id":504,"name":"shy guy","steam_id":76561198151246059,"connected_time":1413000000000,"state":"active","ping":63},{"user_id":500,"name":"Cottontail","steam_id":76561198213634567,"connected_time":1584000000000,"state":"active","ping":117},{"user_id":511,"name":"Blank_Sicon","steam_id":76561198887041407,"connected_time":392000000000,"state":"active","ping":87},{"user_id":417,"name":"Thexx ‚ù§","steam_id":76561198113823050,"connected_time":3046000000000,"state":"active","ping":48},{"user_id":485,"name":"bobo","steam_id":76561198020268561,"connected_time":1809000000000,"state":"active","ping":112},{"user_id":507,"name":"god approaches","steam_id":76561198081617990,"connected_time":754000000000,"state":"active","ping":118},{"user_id":501,"name":"Fh","steam_id":76561198000903511,"connected_time":1437000000000,"state":"active","ping":65},{"user_id":506,"name":"Confirmed Bachelor","steam_id":76561198441041496,"connected_time":1050000000000,"state":"active","ping":60},{"user_id":457,"name":"Smiles","steam_id":76561198107197973,"connected_time":2237000000000,"state":"active","ping":73},{"user_id":363,"name":"Blitzy","steam_id":76561198149472890,"connected_time":6121000000000,"state":"active","ping":64},{"user_id":466,"name":"Cringe Guillotine User","steam_id":76561198997067030,"connected_time":2124000000000,"state":"active","ping":111},{"user_id":381,"name":"üÖúüÖîüÖîüÖöüÖ¢üÖ£üÖî\ufffd\ufffd\ufffd","steam_id":76561197999748343,"connected_time":5089000000000,"state":"active","ping":90},{"user_id":436,"name":"June","steam_id":76561198141803658,"connected_time":2685000000000,"state":"active","ping":75},{"user_id":503,"name":"Cleetus","steam_id":76561198334734408,"connected_time":1424000000000,"state":"active","ping":52},{"user_id":513,"name":"dance moon","steam_id":76561198110152060,"connected_time":232000000000,"state":"active","ping":45},{"user_id":414,"name":"Mediarch","steam_id":76561198050765729,"connected_time":3132000000000,"state":"active","ping":59},{"user_id":508,"name":"ed","steam_id":76561198080475712,"connected_time":538000000000,"state":"active","ping":68},{"user_id":510,"name":"DoomoPelota","steam_id":76561198326462587,"connected_time":419000000000,"state":"active","ping":130},{"user_id":321,"name":"ratie","steam_id":76561198059399661,"connected_time":9095000000000,"state":"active","ping":85},{"user_id":428,"name":"evilOlive","steam_id":76561198106222025,"connected_time":2913000000000,"state":"active","ping":90},{"user_id":456,"name":"5392vin","steam_id":76561198880493511,"connected_time":2250000000000,"state":"active","ping":62},{"user_id":483,"name":"SirJellyRolls","steam_id":76561198119277244,"connected_time":1834000000000,"state":"active","ping":71},{"user_id":432,"name":"jayeskae","steam_id":76561198144220801,"connected_time":2815000000000,"state":"active","ping":51}]},{"server_id":119,"name":"Uncletopia | Seattle | 2 | All Maps","name_short":"sea-2","host":"sea-1.us.uncletopia.com","port":27025,"enabled":true,"region":"us-west","cc":"us","latitude":47.608013,"longitude":-122.33517,"reserved":0,"last_update":"0001-01-01T00:00:00Z","name_a2s":"Uncletopia | Seattle | 2 | All Maps","protocol":17,"map":"cp_badlands","folder":"tf","game":"Team Fortress","app_id":440,"player_count":22,"max_players":24,"Bots":0,"server_type":"Dedicated","server_os":"Linux","password":true,"vac":true,"version":"7757534","steam_id":85568392924469998,"keywords":["cp","nocrits","nodmgspread","uncletopia"],"game_id":440,"stv_port":27026,"stv_name":"Uncletopia | Seattle | 2 | All Maps | STV","players":[{"user_id":163,"name":"doctor large","steam_id":76561199195836752,"connected_time":1826000000000,"state":"active","ping":105},{"user_id":125,"name":"Deryn Sharp","steam_id":76561198047017346,"connected_time":4076000000000,"state":"active","ping":76},{"user_id":150,"name":"Wavelengths (they/it)","steam_id":76561197997621320,"connected_time":2522000000000,"state":"active","ping":89},{"user_id":148,"name":"Sev","steam_id":76561198053971248,"connected_time":2614000000000,"state":"active","ping":46},{"user_id":134,"name":"Training Arc","steam_id":76561198038832034,"connected_time":3409000000000,"state":"active","ping":59},{"user_id":168,"name":"The Pepsi¬Æ Superbowl¬Æ!","steam_id":76561198080828981,"connected_time":964000000000,"state":"active","ping":78},{"user_id":67,"name":"roanoke‚Ä∫","steam_id":76561198048007844,"connected_time":8081000000000,"state":"active","ping":75},{"user_id":149,"name":"Yosh","steam_id":76561198027078899,"connected_time":2604000000000,"state":"active","ping":89},{"user_id":173,"name":"gloobern","steam_id":76561198341190679,"connected_time":532000000000,"state":"active","ping":61},{"user_id":174,"name":"VixianUwU","steam_id":76561198948815060,"connected_time":525000000000,"state":"active","ping":81},{"user_id":159,"name":"Resident Thrussy Lender","steam_id":76561198071790583,"connected_time":2238000000000,"state":"active","ping":107},{"user_id":167,"name":"ThatGamingKiwi","steam_id":76561199170522237,"connected_time":1261000000000,"state":"active","ping":130},{"user_id":126,"name":"RaidersFan34","steam_id":76561198269369893,"connected_time":4061000000000,"state":"active","ping":55},{"user_id":162,"name":"Zero","steam_id":76561199383267408,"connected_time":2134000000000,"state":"active","ping":109},{"user_id":155,"name":"Z71Jeffrey05","steam_id":76561198045992418,"connected_time":2279000000000,"state":"active","ping":51},{"user_id":165,"name":"jordanddean2016","steam_id":76561198323772677,"connected_time":1544000000000,"state":"active","ping":54},{"user_id":157,"name":"89","steam_id":76561198106308056,"connected_time":2269000000000,"state":"active","ping":162},{"user_id":177,"name":"Icy","steam_id":76561198125015366,"connected_time":60000000000,"state":"active","ping":114},{"user_id":154,"name":"Vlasic_Garlic_Dills99","steam_id":76561198030052564,"connected_time":2358000000000,"state":"active","ping":57},{"user_id":156,"name":"tocka","steam_id":76561198106917662,"connected_time":2279000000000,"state":"active","ping":144},{"user_id":169,"name":"captjosh22","steam_id":76561199092650499,"connected_time":915000000000,"state":"active","ping":133},{"user_id":170,"name":"LemonZest","steam_id":76561199196369249,"connected_time":909000000000,"state":"active","ping":129}]},{"server_id":406,"name":"Uncletopia | Seattle | 3 | Stopwatch Beta","name_short":"sea-3","host":"sea-1.us.uncletopia.com","port":27035,"enabled":true,"region":"us-west","cc":"us","latitude":47.608013,"longitude":-122.33517,"reserved":0,"last_update":"0001-01-01T00:00:00Z","name_a2s":"Uncletopia | Seattle | 3 | Stopwatch Beta","protocol":17,"map":"cp_dustbowl","folder":"tf","game":"Team Fortress","app_id":440,"player_count":2,"max_players":24,"Bots":0,"server_type":"Dedicated","server_os":"Linux","password":true,"vac":true,"version":"7757534","steam_id":85568392924515217,"keywords":["cp","nocrits","nodmgspread","uncletopia"],"game_id":440,"stv_port":27036,"stv_name":"Uncletopia | Seattle | 3 | Stopwatch Beta | STV","players":[{"user_id":5,"name":"angeloculmone99","steam_id":76561199477114635,"connected_time":565000000000,"state":"active","ping":113},{"user_id":6,"name":"angeloculmone5","steam_id":76561199219952677,"connected_time":551000000000,"state":"active","ping":129}]},{"server_id":17,"name":"Uncletopia | San Francisco | 1 | All Maps","name_short":"sfo-1","host":"sfo-1.us.uncletopia.com","port":27015,"enabled":true,"region":"us-west","cc":"us","latitude":37.77397,"longitude":-122.4313,"reserved":0,"last_update":"0001-01-01T00:00:00Z","name_a2s":"Uncletopia | San Francisco | 1 | All Maps","protocol":17,"map":"cp_dustbowl","folder":"tf","game":"Team Fortress","app_id":440,"player_count":0,"max_players":24,"Bots":0,"server_type":"Dedicated","server_os":"Linux","password":true,"vac":true,"version":"7757534","steam_id":85568392924469999,"keywords":["cp","nocrits","nodmgspread","uncletopia"],"game_id":440,"stv_port":27016,"stv_name":"Uncletopia | San Francisco | 1 | All Maps | STV","players":null},{"server_id":18,"name":"Uncletopia | San Francisco | 2 | All Maps","name_short":"sfo-2","host":"sfo-1.us.uncletopia.com","port":27025,"enabled":true,"region":"us-west","cc":"us","latitude":37.77397,"longitude":-122.4313,"reserved":0,"last_update":"0001-01-01T00:00:00Z","name_a2s":"Uncletopia | San Francisco | 2 | All Maps","protocol":17,"map":"pl_barnblitz","folder":"tf","game":"Team Fortress","app_id":440,"player_count":17,"max_players":24,"Bots":0,"server_type":"Dedicated","server_os":"Linux","password":true,"vac":true,"version":"7757534","steam_id":85568392924470000,"keywords":["nocrits","nodmgspread","payload","uncletopia"],"game_id":440,"stv_port":27026,"stv_name":"Uncletopia | San Francisco | 2 | All Maps | STV","players":[{"user_id":151,"name":"[chef] iron","steam_id":76561197970888616,"connected_time":240000000000,"state":"active","ping":103},{"user_id":153,"name":"Dr. B Busta","steam_id":76561198206387303,"connected_time":98000000000,"state":"active","ping":45},{"user_id":154,"name":"Big Jack Horner","steam_id":76561198847690613,"connected_time":52000000000,"state":"active","ping":127},{"user_id":134,"name":"Swigs","steam_id":76561198392239212,"connected_time":1065000000000,"state":"active","ping":57},{"user_id":149,"name":"Rust","steam_id":76561198063959574,"connected_time":412000000000,"state":"active","ping":129},{"user_id":100,"name":"DD_440","steam_id":76561199135978082,"connected_time":4183000000000,"state":"active","ping":121},{"user_id":140,"name":"darktheif54","steam_id":76561198043650119,"connected_time":932000000000,"state":"active","ping":63},{"user_id":121,"name":"snowcap","steam_id":76561198344164944,"connected_time":2064000000000,"state":"active","ping":58},{"user_id":74,"name":"advent","steam_id":76561198136475311,"connected_time":5331000000000,"state":"active","ping":100},{"user_id":136,"name":"matchmatch                     ","steam_id":76561198048925904,"connected_time":1029000000000,"state":"active","ping":70},{"user_id":126,"name":"vanillain","steam_id":76561198058617608,"connected_time":1717000000000,"state":"active","ping":61},{"user_id":137,"name":"Dad","steam_id":76561199091290729,"connected_time":1019000000000,"state":"active","ping":101},{"user_id":150,"name":"Happy whale","steam_id":76561199026039153,"connected_time":391000000000,"state":"active","ping":114},{"user_id":145,"name":"loppy","steam_id":76561198081870327,"connected_time":672000000000,"state":"active","ping":45},{"user_id":138,"name":"Da Bird","steam_id":76561198215677985,"connected_time":1014000000000,"state":"active","ping":62},{"user_id":148,"name":"1 Great Wooden Dad","steam_id":76561198377126974,"connected_time":465000000000,"state":"active","ping":112},{"user_id":143,"name":"Whoplops","steam_id":76561197977188933,"connected_time":814000000000,"state":"active","ping":125}]},{"server_id":19,"name":"Uncletopia | San Francisco | 3 | Stopwatch Beta","name_short":"sfo-3","host":"sfo-1.us.uncletopia.com","port":27035,"enabled":true,"region":"us-west","cc":"us","latitude":37.77397,"longitude":-122.4313,"reserved":0,"last_update":"0001-01-01T00:00:00Z","name_a2s":"Uncletopia | San Francisco | 3 | Stopwatch Beta","protocol":17,"map":"koth_lakeside_final","folder":"tf","game":"Team Fortress","app_id":440,"player_count":0,"max_players":24,"Bots":0,"server_type":"Dedicated","server_os":"Linux","password":true,"vac":true,"version":"7757534","steam_id":85568392924742824,"keywords":["cp","nocrits","nodmgspread","uncletopia"],"game_id":440,"stv_port":27036,"stv_name":"Uncletopia | San Francisco | 3 | Stopwatch Beta | STV","players":null},{"server_id":20,"name":"Uncletopia | San Francisco | 4 | Community","name_short":"sfo-4","host":"sfo-1.us.uncletopia.com","port":27045,"enabled":true,"region":"us-west","cc":"us","latitude":37.77397,"longitude":-122.4313,"reserved":0,"last_update":"0001-01-01T00:00:00Z","name_a2s":"Uncletopia | San Francisco | 4 | Community","protocol":17,"map":"workshop/pl_vigil_rc9.ugc1266210012","folder":"tf","game":"Team Fortress","app_id":440,"player_count":24,"max_players":24,"Bots":0,"server_type":"Dedicated","server_os":"Linux","password":true,"vac":true,"version":"7757534","steam_id":85568392924742826,"keywords":["nocrits","nodmgspread","payload","uncletopia"],"game_id":440,"stv_port":27046,"stv_name":"Uncletopia | San Francisco | 4 | Community | STV","players":[{"user_id":123,"name":"terrorism? boy howdy","steam_id":76561198844003641,"connected_time":1454000000000,"state":"active","ping":128},{"user_id":129,"name":"Shark Sandwich","steam_id":76561198025007938,"connected_time":1038000000000,"state":"active","ping":82},{"user_id":132,"name":"Reaper","steam_id":76561198435826103,"connected_time":865000000000,"state":"active","ping":90},{"user_id":81,"name":"dP | I'm in a Wookie Suit","steam_id":76561198083307644,"connected_time":5054000000000,"state":"active","ping":77},{"user_id":59,"name":"Paul Blart","steam_id":76561198068110623,"connected_time":6024000000000,"state":"active","ping":68},{"user_id":119,"name":"‡∏∏","steam_id":76561198084134025,"connected_time":1708000000000,"state":"active","ping":77},{"user_id":140,"name":"!","steam_id":76561198298645133,"connected_time":182000000000,"state":"active","ping":72},{"user_id":120,"name":"gustavo fring","steam_id":76561198845291201,"connected_time":1697000000000,"state":"active","ping":102},{"user_id":137,"name":"Cave Dweller","steam_id":76561198374825685,"connected_time":306000000000,"state":"active","ping":55},{"user_id":92,"name":"brea?","steam_id":76561198025130409,"connected_time":4295000000000,"state":"active","ping":100},{"user_id":75,"name":"dog","steam_id":76561198090737207,"connected_time":5454000000000,"state":"active","ping":59},{"user_id":138,"name":"QueenPinharam","steam_id":76561199015626409,"connected_time":229000000000,"state":"active","ping":95},{"user_id":131,"name":"dml xstephx","steam_id":76561197981939331,"connected_time":928000000000,"state":"active","ping":47},{"user_id":121,"name":"bowl.of.cereal","steam_id":76561199096006276,"connected_time":1689000000000,"state":"active","ping":75},{"user_id":139,"name":"john.mcarthur1016","steam_id":76561199465502456,"connected_time":210000000000,"state":"active","ping":173},{"user_id":122,"name":"Queen Chrystaliana","steam_id":76561198312198313,"connected_time":1495000000000,"state":"active","ping":91},{"user_id":113,"name":"Thunderchief","steam_id":76561198022802780,"connected_time":2051000000000,"state":"active","ping":79},{"user_id":96,"name":"BrightOrangeMango","steam_id":76561198023144607,"connected_time":3863000000000,"state":"active","ping":74},{"user_id":125,"name":"JawnyMac","steam_id":76561198179529599,"connected_time":1413000000000,"state":"active","ping":54},{"user_id":141,"name":"Marie","steam_id":76561198056104899,"connected_time":140000000000,"state":"active","ping":115},{"user_id":134,"name":"SomeFuckingGuy #SAVETF2","steam_id":76561199239165015,"connected_time":717000000000,"state":"active","ping":74},{"user_id":142,"name":"Reisen","steam_id":76561199174579733,"connected_time":115000000000,"state":"active","ping":116},{"user_id":143,"name":"the meta","steam_id":76561199071495058,"connected_time":46000000000,"state":"spawning","ping":242},{"user_id":73,"name":"Rickysuper_52","steam_id":76561198067865179,"connected_time":5495000000000,"state":"active","ping":76}]},{"server_id":141,"name":"Uncletopia | Sydney | 1 | All Maps","name_short":"syd-1","host":"syd-1.au.uncletopia.com","port":27015,"enabled":true,"region":"au","cc":"au","latitude":-33.865143,"longitude":151.2099,"reserved":0,"last_update":"0001-01-01T00:00:00Z","name_a2s":"Uncletopia | Sydney | 1 | All Maps","protocol":17,"map":"koth_viaduct","folder":"tf","game":"Team Fortress","app_id":440,"player_count":0,"max_players":24,"Bots":0,"server_type":"Dedicated","server_os":"Linux","password":true,"vac":true,"version":"7757534","steam_id":85568392924470001,"keywords":["cp","nocrits","nodmgspread","uncletopia"],"game_id":440,"stv_port":27016,"stv_name":"Uncletopia | Sydney | 1 | All Maps | STV","players":null},{"server_id":123,"name":"Uncletopia | Sydney | 2 | All Maps","name_short":"syd-2","host":"syd-1.au.uncletopia.com","port":27025,"enabled":true,"region":"au","cc":"au","latitude":-33.865143,"longitude":151.2099,"reserved":0,"last_update":"0001-01-01T00:00:00Z","name_a2s":"Uncletopia | Sydney | 2 | All Maps","protocol":17,"map":"cp_process_final","folder":"tf","game":"Team Fortress","app_id":440,"player_count":0,"max_players":24,"Bots":0,"server_type":"Dedicated","server_os":"Linux","password":true,"vac":true,"version":"7757534","steam_id":85568392924470002,"keywords":["cp","nocrits","nodmgspread","uncletopia"],"game_id":440,"stv_port":27026,"stv_name":"Uncletopia | Sydney | 2 | All Maps | STV","players":null},{"server_id":395,"name":"Uncletopia | Sydney | 3 | All Maps","name_short":"syd-3","host":"syd-1.au.uncletopia.com","port":27035,"enabled":true,"region":"au","cc":"au","latitude":-33.865143,"longitude":151.2099,"reserved":0,"last_update":"0001-01-01T00:00:00Z","name_a2s":"Uncletopia | Sydney | 3 | All Maps","protocol":17,"map":"pl_swiftwater_final1","folder":"tf","game":"Team Fortress","app_id":440,"player_count":0,"max_players":24,"Bots":0,"server_type":"Dedicated","server_os":"Linux","password":true,"vac":true,"version":"7757534","steam_id":85568392925194467,"keywords":["nocrits","nodmgspread","payload","uncletopia"],"game_id":440,"stv_port":27036,"stv_name":"Uncletopia | Sydney | 3 | All Maps | STV","players":null},{"server_id":396,"name":"Uncletopia | Sydney | 4 | All Maps","name_short":"syd-4","host":"syd-1.au.uncletopia.com","port":27045,"enabled":true,"region":"au","cc":"au","latitude":-33.865143,"longitude":151.2099,"reserved":0,"last_update":"0001-01-01T00:00:00Z","name_a2s":"Uncletopia | Sydney | 4 | All Maps","protocol":17,"map":"koth_highpass","folder":"tf","game":"Team Fortress","app_id":440,"player_count":0,"max_players":24,"Bots":0,"server_type":"Dedicated","server_os":"Linux","password":true,"vac":true,"version":"7757534","steam_id":85568392925397958,"keywords":["cp","nocrits","nodmgspread","uncletopia"],"game_id":440,"stv_port":27046,"stv_name":"Uncletopia | Sydney | 4 | All Maps | STV","players":null},{"server_id":58,"name":"Uncletopia | Sydney | 5 | Stopwatch Beta","name_short":"syd-5","host":"syd-1.au.uncletopia.com","port":27055,"enabled":true,"region":"au","cc":"au","latitude":-33.865143,"longitude":151.2099,"reserved":0,"last_update":"0001-01-01T00:00:00Z","name_a2s":"Uncletopia | Sydney | 5 | Stopwatch Beta","protocol":17,"map":"koth_cascade","folder":"tf","game":"Team Fortress","app_id":440,"player_count":0,"max_players":24,"Bots":0,"server_type":"Dedicated","server_os":"Linux","password":true,"vac":true,"version":"7757534","steam_id":85568392925397959,"keywords":["cp","nocrits","nodmgspread","uncletopia"],"game_id":440,"stv_port":27056,"stv_name":"Uncletopia | Sydney | 5 | Stopwatch Beta | STV","players":null},{"server_id":59,"name":"Uncletopia | Sydney | 6 | Community","name_short":"syd-6","host":"syd-1.au.uncletopia.com","port":27065,"enabled":true,"region":"au","cc":"au","latitude":-33.865143,"longitude":151.2099,"reserved":0,"last_update":"0001-01-01T00:00:00Z","name_a2s":"Uncletopia | Sydney | 6 | Community","protocol":17,"map":"cp_snakewater_final1","folder":"tf","game":"Team Fortress","app_id":440,"player_count":0,"max_players":24,"Bots":0,"server_type":"Dedicated","server_os":"Linux","password":true,"vac":true,"version":"7757534","steam_id":85568392925397960,"keywords":["cp","nocrits","nodmgspread","uncletopia"],"game_id":440,"stv_port":27066,"stv_name":"Uncletopia | Sydney | 6 | Community | STV","players":null},{"server_id":49,"name":"Uncletopia | Warsaw | 1 | All Maps","name_short":"waw-1","host":"waw-1.pl.uncletopia.com","port":27015,"enabled":true,"region":"eu","cc":"pl","latitude":52.2297,"longitude":21.017532,"reserved":0,"last_update":"0001-01-01T00:00:00Z","name_a2s":"","protocol":0,"map":"","folder":"","game":"","app_id":0,"player_count":0,"max_players":0,"Bots":0,"server_type":"","server_os":"","password":false,"vac":false,"version":"","steam_id":0,"keywords":null,"game_id":0,"stv_port":0,"stv_name":"","players":null},{"server_id":50,"name":"Uncletopia | Warsaw | 2 | All Maps","name_short":"waw-2","host":"waw-1.pl.uncletopia.com","port":27025,"enabled":true,"region":"eu","cc":"pl","latitude":52.2297,"longitude":21.017532,"reserved":0,"last_update":"0001-01-01T00:00:00Z","name_a2s":"Uncletopia | Warsaw | 2 | All Maps","protocol":17,"map":"pl_barnblitz","folder":"tf","game":"Team Fortress","app_id":440,"player_count":0,"max_players":24,"Bots":0,"server_type":"Dedicated","server_os":"Linux","password":true,"vac":true,"version":"7757534","steam_id":85568392925397851,"keywords":["nocrits","nodmgspread","payload","uncletopia"],"game_id":440,"stv_port":27026,"stv_name":"Uncletopia | Warsaw | 2 | All Maps | STV","players":null},{"server_id":51,"name":"Uncletopia | Warsaw | 3 | All Maps","name_short":"waw-3","host":"waw-1.pl.uncletopia.com","port":27035,"enabled":true,"region":"eu","cc":"pl","latitude":52.2297,"longitude":21.017532,"reserved":0,"last_update":"0001-01-01T00:00:00Z","name_a2s":"Uncletopia | Warsaw | 3 | All Maps","protocol":17,"map":"koth_lakeside_final","folder":"tf","game":"Team Fortress","app_id":440,"player_count":0,"max_players":24,"Bots":0,"server_type":"Dedicated","server_os":"Linux","password":true,"vac":true,"version":"7757534","steam_id":85568392925397852,"keywords":["cp","nocrits","nodmgspread","uncletopia"],"game_id":440,"stv_port":27036,"stv_name":"Uncletopia | Warsaw | 3 | All Maps | STV","players":null},{"server_id":52,"name":"Uncletopia | Warsaw | 4 | All Maps","name_short":"waw-4","host":"waw-1.pl.uncletopia.com","port":27045,"enabled":true,"region":"eu","cc":"pl","latitude":52.2297,"longitude":21.017532,"reserved":0,"last_update":"0001-01-01T00:00:00Z","name_a2s":"Uncletopia | Warsaw | 4 | All Maps","protocol":17,"map":"koth_lakeside_final","folder":"tf","game":"Team Fortress","app_id":440,"player_count":0,"max_players":24,"Bots":0,"server_type":"Dedicated","server_os":"Linux","password":true,"vac":true,"version":"7757534","steam_id":85568392925397853,"keywords":["cp","nocrits","nodmgspread","uncletopia"],"game_id":440,"stv_port":27046,"stv_name":"Uncletopia | Warsaw | 4 | All Maps | STV","players":null},{"server_id":53,"name":"Uncletopia | Warsaw | 5 | Stopwatch Beta","name_short":"waw-5","host":"waw-1.pl.uncletopia.com","port":27055,"enabled":true,"region":"eu","cc":"pl","latitude":52.2297,"longitude":21.017532,"reserved":0,"last_update":"0001-01-01T00:00:00Z","name_a2s":"Uncletopia | Warsaw | 5 | Stopwatch Beta","protocol":17,"map":"pl_borneo","folder":"tf","game":"Team Fortress","app_id":440,"player_count":0,"max_players":24,"Bots":0,"server_type":"Dedicated","server_os":"Linux","password":true,"vac":true,"version":"7757534","steam_id":85568392925397854,"keywords":["nocrits","nodmgspread","payload","uncletopia"],"game_id":440,"stv_port":27056,"stv_name":"Uncletopia | Warsaw | 5 | Stopwatch Beta | STV","players":null},{"server_id":54,"name":"Uncletopia | Warsaw | 6 | Community","name_short":"waw-6","host":"waw-1.pl.uncletopia.com","port":27065,"enabled":true,"region":"eu","cc":"pl","latitude":52.2297,"longitude":21.017532,"reserved":0,"last_update":"0001-01-01T00:00:00Z","name_a2s":"Uncletopia | Warsaw | 6 | Community","protocol":17,"map":"koth_lakeside_final","folder":"tf","game":"Team Fortress","app_id":440,"player_count":0,"max_players":24,"Bots":0,"server_type":"Dedicated","server_os":"Linux","password":true,"vac":true,"version":"7757534","steam_id":85568392925397856,"keywords":["cp","nocrits","nodmgspread","uncletopia"],"game_id":440,"stv_port":27066,"stv_name":"Uncletopia | Warsaw | 6 | Community | STV","players":null}]}