{"status":true,"message":"","result":[{"server_id":9,"name":"Uncletopia | Atlanta | 1 | All Maps","name_short":"atl-1","host":"atl-1.us.uncletopia.com","port":27015,"enabled":true,"region":"us-east","cc":"us","latitude":33.753746,"longitude":-84.38633,"reserved":0,"last_update":"0001-01-01T00:00:00Z","name_a2s":"Uncletopia | Atlanta | 1 | All Maps","protocol":17,"map":"pl_frontier_final","folder":"tf","game":"Team Fortress","app_id":440,"player_count":0,"max_players":24,"Bots":0,"server_type":"Dedicated","server_os":"Linux","password":true,"vac":true,"version":"7757534","steam_id":85568392924469982,"keywords":["nocrits","nodmgspread","payload","uncletopia"],"game_id":440,"stv_port":27016,"stv_name":"Uncletopia | Atlanta | 1 | All Maps | STV","players":null},{"server_id":400,"name":"Uncletopia | Atlanta | 3 | Community","name_short":"atl-3","host":"atl-1.us.uncletopia.com","port":27035,"enabled":true,"region":"us-east","cc":"us","latitude":33.753746,"longitude":-84.38633,"reserved":0,"last_update":"0001-01-01T00:00:00Z","name_a2s":"Uncletopia | Atlanta | 3 | Community","protocol":17,"map":"pl_swiftwater_final1","folder":"tf","game":"Team Fortress","app_id":440,"player_count":0,"max_players":24,"Bots":0,"server_type":"Dedicated","server_os":"Linux","password":true,"vac":true,"version":"7757534","steam_id":85568392924515187,"keywords":["nocrits","nodmgspread","payload","uncletopia"],"game_id":440,"stv_port":27036,"stv_name":"Uncletopia | Atlanta | 3 | Community | STV","players":null},{"server_id":401,"name":"Uncletopia | Atlanta | 4 | No Payload","name_short":"atl-4","host":"atl-1.us.uncletopia.com","port":27045,"enabled":true,"region":"us-east","cc":"us","latitude":33.753746,"longitude":-84.38633,"reserved":0,"last_update":"0001-01-01T00:00:00Z","name_a2s":"","protocol":0,"map":"","folder":"","game":"","app_id":0,"player_count":0,"max_players":0,"Bots":0,"server_type":"","server_os":"","password":false,"vac":false,"version":"","steam_id":0,"keywords":null,"game_id":0,"stv_port":0,"stv_name":"","players":null},{"server_id":2,"name":"Uncletopia | Chicago | 1 | All Maps","name_short":"chi-1","host":"chi-1.us.uncletopia.com","port":27015,"enabled":true,"region":"us-central","cc":"us","latitude":41.881832,"longitude":-87.62318,"reserved":0,"last_update":"0001-01-01T00:00:00Z","name_a2s":"Uncletopia | Chicago | 1 | All Maps","protocol":17,"map":"pl_upward","folder":"tf","game":"Team Fortress","app_id":440,"player_count":23,"max_players":24,"Bots":0,"server_type":"Dedicated","server_os":"Linux","password":true,"vac":true,"version":"7757534","steam_id":85568392924469984,"keywords":["nocrits","nodmgspread","payload","uncletopia"],"game_id":440,"stv_port":27016,"stv_name":"Uncletopia | Chicago | 1 | All Maps | STV","players":[{"user_id":58,"name":"Fuel","steam_id":76561198115269587,"connected_time":7276000000000,"state":"active","ping":66},{"user_id":129,"name":"shinon","steam_id":76561198373626848,"connected_time":1456000000000,"state":"active","ping":75},{"user_id":145,"name":"a Hippobottomus","steam_id":76561198126853441,"connected_time":158000000000,"state":"active","ping":54},{"user_id":121,"name":"Gary Budussy","steam_id":76561197969793969,"connected_time":1994000000000,"state":"active","ping":51},{"user_id":45,"name":"Tabby!!!!","steam_id":76561198018288153,"connected_time":8400000000000,"state":"active","ping":48},{"user_id":140,"name":"Coffee with a Stranger","steam_id":76561198307422313,"connected_time":690000000000,"state":"active","ping":66},{"user_id":144,"name":"god approaches","steam_id":76561198081617990,"connected_time":435000000000,"state":"active","ping":98},{"user_id":105,"name":"Heart Attack Spell๑ﭥ","steam_id":76561198109735665,"connected_time":3571000000000,"state":"active","ping":82},{"user_id":134,"name":"ExtraSoap","steam_id":76561198008712409,"connected_time":1000000000000,"state":"active","ping":65},{"user_id":137,"name":"Kitty Kisses","steam_id":76561198055368938,"connected_time":814000000000,"state":"active","ping":98},{"user_id":143,"name":"yomommasabitch","steam_id":76561198323217150,"connected_time":586000000000,"state":"active","ping":61},{"user_id":131,"name":"Maxx","steam_id":76561198045405304,"connected_time":1454000000000,"state":"active","ping":88},{"user_id":135,"name":"Mythikal ツ","steam_id":76561198032883071,"connected_time":946000000000,"state":"active","ping":86},{"user_id":125,"name":"Chompy115","steam_id":76561199094920380,"connected_time":1936000000000,"state":"active","ping":165},{"user_id":147,"name":"NETTASTINI","steam_id":76561199135904313,"connected_time":51000000000,"state":"active","ping":88},{"user_id":146,"name":"ash monte","steam_id":76561198382343820,"connected_time":95000000000,"state":"active","ping":55},{"user_id":148,"name":"PadrePockets","steam_id":76561197993251606,"connected_time":45000000000,"state":"active","ping":67},{"user_id":149,"name":"nigward_TTV","steam_id":76561198104312009,"connected_time":27000000000,"state":"active","ping":83},{"user_id":130,"name":"HorseCooker","steam_id":76561198076588370,"connected_time":1455000000000,"state":"active","ping":76},{"user_id":111,"name":"starfungus","steam_id":76561198158312789,"connected_time":3048000000000,"state":"active","ping":76},{"user_id":113,"name":"moose","steam_id":76561198036074297,"connected_time":2832000000000,"state":"active","ping":91},{"user_id":94,"name":"SCARY MONSTERS","steam_id":76561198042034176,"connected_time":4212000000000,"state":"active","ping":65},{"user_id":142,"name":"Phat Ass","steam_id":76561198300865208,"connected_time":687000000000,"state":"active","ping":57}]},{"server_id":106,"name":"Uncletopia | Chicago | 2 | All Maps","name_short":"chi-2","host":"chi-1.us.uncletopia.com","port":27025,"enabled":true,"region":"us-central","cc":"us","latitude":41.881832,"longitude":-87.62318,"reserved":0,"last_update":"0001-01-01T00:00:00Z","name_a2s":"Uncletopia | Chicago | 2 | All Maps","protocol":17,"map":"koth_viaduct","folder":"tf","game":"Team Fortress","app_id":440,"player_count":0,"max_players":24,"Bots":0,"server_type":"Dedicated","server_os":"Linux","password":true,"vac":true,"version":"7757534","steam_id":85568392924469985,"keywords":["cp","nocrits","nodmgspread","uncletopia"],"game_id":440,"stv_port":27026,"stv_name":"Uncletopia | Chicago | 2 | All Maps | STV","players":null},{"server_id":402,"name":"Uncletopia | Chicago | 3 | All Maps","name_short":"chi-3","host":"chi-1.us.uncletopia.com","port":27035,"enabled":true,"region":"us-central","cc":"us","latitude":41.881832,"longitude":-87.62318,"reserved":0,"last_update":"0001-01-01T00:00:00Z","name_a2s":"Uncletopia | Chicago | 3 | All Maps","protocol":17,"map":"koth_lakeside_final","folder":"tf","game":"Team Fortress","app_id":440,"player_count":0,"max_players":24,"Bots":0,"server_type":"Dedicated","server_os":"Linux","password":true,"vac":true,"version":"7757534","steam_id":85568392924515191,"keywords":["cp","nocrits","nodmgspread","uncletopia"],"game_id":440,"stv_port":27036,"stv_name":"Uncletopia | Chicago | 3 | All Maps | STV","players":null},{"server_id":403,"name":"Uncletopia | Chicago | 4 | All Maps","name_short":"chi-4","host":"chi-1.us.uncletopia.com","port":27045,"enabled":true,"region":"us-central","cc":"us","latitude":41.881832,"longitude":-87.62318,"reserved":0,"last_update":"0001-01-01T00:00:00Z","name_a2s":"Uncletopia | Chicago | 4 | All Maps","protocol":17,"map":"pl_badwater","folder":"tf","game":"Team Fortress","app_id":440,"player_count":20,"max_players":24,"Bots":0,"server_type":"Dedicated","server_os":"Linux","password":true,"vac":true,"version":"7757534","steam_id":85568392924515193,"keywords":["nocrits","nodmgspread","payload","uncletopia"],"game_id":440,"stv_port":27046,"stv_name":"Uncletopia | Chicago | 4 | All Maps | STV","players":[{"user_id":3,"name":"Sparky","steam_id":76561198086845464,"connected_time":1571000000000,"state":"active","ping":50},{"user_id":4,"name":"Kirsk","steam_id":76561198084397649,"connected_time":1493000000000,"state":"active","ping":60},{"user_id":5,"name":"Pidgeon Milk","steam_id":76561198028617381,"connected_time":1208000000000,"state":"active","ping":70},{"user_id":6,"name":"Pringles Sour Cream and Ohio","steam_id":76561199126265805,"connected_time":1179000000000,"state":"active","ping":77},{"user_id":11,"name":"puffy","steam_id":76561198411347037,"connected_time":674000000000,"state":"active","ping":70},{"user_id":9,"name":"CC-Crazy","steam_id":76561198805238059,"connected_time":868000000000,"state":"active","ping":55},{"user_id":14,"name":"Fanthxm177","steam_id":76561198831301188,"connected_time":390000000000,"state":"active","ping":75},{"user_id":12,"name":"Sarah","steam_id":76561199013702818,"connected_time":551000000000,"state":"active","ping":151},{"user_id":13,"name":"YNSxii","steam_id":76561198246975252,"connected_time":460000000000,"state":"active","ping":71},{"user_id":15,"name":"CrackedSanity","steam_id":76561198279841251,"connected_time":368000000000,"state":"active","ping":87},{"user_id":21,"name":"SHADOW WIZARD MONEY GNG GNG GNG","steam_id":76561198343731774,"connected_time":100000000000,"state":"active","ping":65},{"user_id":17,"name":"who ate the cheese","steam_id":76561198275408467,"connected_time":166000000000,"state":"active","ping":50},{"user_id":18,"name":"slumbermommy ♀","steam_id":76561198398273659,"connected_time":165000000000,"state":"active","ping":90},{"user_id":19,"name":"A Getaway Submarine","steam_id":76561199145662306,"connected_time":127000000000,"state":"active","ping":92},{"user_id":20,"name":"uzr","steam_id":76561198799343084,"connected_time":118000000000,"state":"active","ping":97},{"user_id":22,"name":"The Overmind #RizzGang","steam_id":76561199170229428,"connected_time":83000000000,"state":"active","ping":75},{"user_id":24,"name":"ARGON Soulidity","steam_id":76561198429603550,"connected_time":57000000000,"state":"active","ping":70},{"user_id":25,"name":"Cannon fodder","steam_id":76561199067239743,"connected_time":31000000000,"state":"spawning","ping":226},{"user_id":26,"name":"Glory","steam_id":76561198013975080,"connected_time":3000000000,"state":"spawning","ping":60},{"user_id":27,"name":"MajorStValentine","steam_id":76561198104834349,"connected_time":1000000000,"state":"spawning","ping":48}]},{"server_id":36,"name":"Uncletopia | Chicago | 5 | All Maps","name_short":"chi-5","host":"chi-2.us.uncletopia.com","port":27015,"enabled":true,"region":"us-central","cc":"us","latitude":41.881832,"longitude":-87.62318,"reserved":0,"last_update":"0001-01-01T00:00:00Z","name_a2s":"Uncletopia | Chicago | 5 | All Maps","protocol":17,"map":"koth_cascade","folder":"tf","game":"Team Fortress","app_id":440,"player_count":0,"max_players":24,"Bots":0,"server_type":"Dedicated","server_os":"Linux","password":true,"vac":true,"version":"7757534","steam_id":85568392924866362,"keywords":["cp","nocrits","nodmgspread","uncletopia"],"game_id":440,"stv_port":27016,"stv_name":"Uncletopia | Chicago | 5 | All Maps | STV","players":null},{"server_id":37,"name":"Uncletopia | Chicago | 6 | All Maps","name_short":"chi-6","host":"chi-2.us.uncletopia.com","port":27025,"enabled":true,"region":"us-central","cc":"us","latitude":41.881832,"longitude":-87.62318,"reserved":0,"last_update":"0001-01-01T00:00:00Z","name_a2s":"Uncletopia | Chicago | 6 | All Maps","protocol":17,"map":"koth_cascade","folder":"tf","game":"Team Fortress","app_id":440,"player_count":0,"max_players":24,"Bots":0,"server_type":"Dedicated","server_os":"Linux","password":true,"vac":true,"version":"7757534","steam_id":85568392924866363,"keywords":["cp","nocrits","nodmgspread","uncletopia"],"game_id":440,"stv_port":27026,"stv_name":"Uncletopia | Chicago | 6 | All Maps | STV","players":null},{"server_id":38,"name":"Uncletopia | Chicago | 7 | Stopwatch Beta","name_short":"chi-7","host":"chi-2.us.uncletopia.com","port":27035,"enabled":true,"region":"us-central","cc":"us","latitude":41.881832,"longitude":-87.62318,"reserved":0,"last_update":"0001-01-01T00:00:00Z","name_a2s":"Uncletopia | Chicago | 7 | Stopwatch Beta","protocol":17,"map":"pl_upward","folder":"tf","game":"Team Fortress","app_id":440,"player_count":0,"max_players":24,"Bots":0,"server_type":"Dedicated","server_os":"Linux","password":true,"vac":true,"version":"7757534","steam_id":85568392924866364,"keywords":["nocrits","nodmgspread","payload","uncletopia"],"game_id":440,"stv_port":27036,"stv_name":"Uncletopia | Chicago | 7 | Stopwatch Beta | STV","players":null},{"server_id":39,"name":"Uncletopia | Chicago | 8 | Community","name_short":"chi-8","host":"chi-2.us.uncletopia.com","port":27045,"enabled":true,"region":"us-central","cc":"us","latitude":41.881832,"longitude":-87.62318,"reserved":0,"last_update":"0001-01-01T00:00:00Z","name_a2s":"Uncletopia | Chicago | 8 | Community","protocol":17,"map":"pl_barnblitz","folder":"tf","game":"Team Fortress","app_id":440,"player_count":0,"max_players":24,"Bots":0,"server_type":"Dedicated","server_os":"Linux","password":true,"vac":true,"version":"7757534","steam_id":85568392924866365,"keywords":["nocrits","nodmgspread","payload","uncletopia"],"game_id":440,"stv_port":27046,"stv_name":"Uncletopia | Chicago | 8 | Community | STV","players":null},{"server_id":8,"name":"Uncletopia | Dallas | 1 | All Maps","name_short":"dal-1","host":"dal-1.us.uncletopia.com","port":27015,"enabled":true,"region":"us-central","cc":"us","latitude":32.779167,"longitude":-96.80889,"reserved":0,"last_update":"0001-01-01T00:00:00Z","name_a2s":"Uncletopia | Dallas | 1 | All Maps","protocol":17,"map":"koth_cascade","folder":"tf","game":"Team Fortress","app_id":440,"player_count":0,"max_players":24,"Bots":0,"server_type":"Dedicated","server_os":"Linux","password":true,"vac":true,"version":"7757534","steam_id":85568392924469986,"keywords":["cp","nocrits","nodmgspread","uncletopia"],"game_id":440,"stv_port":27016,"stv_name":"Uncletopia | Dallas | 1 | All Maps | STV","players":null},{"server_id":108,"name":"Uncletopia | Dallas | 2 | All Maps","name_short":"dal-2","host":"dal-1.us.uncletopia.com","port":27025,"enabled":true,"region":"us-central","cc":"us","latitude":32.779167,"longitude":-96.80889,"reserved":0,"last_update":"0001-01-01T00:00:00Z","name_a2s":"Uncletopia | Dallas | 2 | All Maps","protocol":17,"map":"cp_altitude","folder":"tf","game":"Team Fortress","app_id":440,"player_count":0,"max_players":24,"Bots":0,"server_type":"Dedicated","server_os":"Linux","password":true,"vac":true,"version":"7757534","steam_id":85568392924469988,"keywords":["cp","nocrits","nodmgspread","uncletopia"],"game_id":440,"stv_port":27026,"stv_name":"Uncletopia | Dallas | 2 | All Maps | STV","players":null},{"server_id":5,"name":"Uncletopia | Frankfurt | 1 | All Maps","name_short":"frk-1","host":"frk-1.de.uncletopia.com","port":27015,"enabled":true,"region":"eu","cc":"de","latitude":50.110924,"longitude":8.682127,"reserved":0,"last_update":"0001-01-01T00:00:00Z","name_a2s":"Uncletopia | Frankfurt | 1 | All Maps","protocol":17,"map":"pl_borneo","folder":"tf","game":"Team Fortress","app_id":440,"player_count":24,"max_players":24,"Bots":0,"server_type":"Dedicated","server_os":"Linux","password":true,"vac":true,"version":"7757534","steam_id":85568392924469989,"keywords":["nocrits","nodmgspread","payload","uncletopia"],"game_id":440,"stv_port":27016,"stv_name":"Uncletopia | Frankfurt | 1 | All Maps | STV","players":[{"user_id":55,"name":"chiswola","steam_id":76561198046920142,"connected_time":1958000000000,"state":"active","ping":171},{"user_id":48,"name":"We are in a world of magic","steam_id":76561198104745492,"connected_time":2306000000000,"state":"active","ping":72},{"user_id":63,"name":"barni","steam_id":76561198170420173,"connected_time":1572000000000,"state":"active","ping":81},{"user_id":57,"name":"Piox","steam_id":76561198125689157,"connected_time":1859000000000,"state":"active","ping":66},{"user_id":53,"name":"Cumbustible Punda #SaveTF2","steam_id":76561197974274677,"connected_time":2054000000000,"state":"active","ping":54},{"user_id":62,"name":"Telivan","steam_id":76561198026048940,"connected_time":1814000000000,"state":"active","ping":67},{"user_id":66,"name":"panakid","steam_id":76561198364121077,"connected_time":1275000000000,"state":"active","ping":100},{"user_id":28,"name":"miszcz2137 (Don't uber me)","steam_id":76561198432568243,"connected_time":2707000000000,"state":"active","ping":64},{"user_id":80,"name":"lofimonkeyjazz","steam_id":76561198117059662,"connected_time":48000000000,"state":"active","ping":80},{"user_id":43,"name":"Aneťák","steam_id":76561198159294906,"connected_time":2520000000000,"state":"active","ping":58},{"user_id":30,"name":"Banehallow","steam_id":76561198020385353,"connected_time":2698000000000,"state":"active","ping":75},{"user_id":31,"name":"Bell_Boy","steam_id":76561198397512046,"connected_time":2684000000000,"state":"active","ping":163},{"user_id":64,"name":"Cu713","steam_id":76561198175463442,"connected_time":1477000000000,"state":"active","ping":65},{"user_id":79,"name":"Bundle of Sticks","steam_id":76561198133782205,"connected_time":95000000000,"state":"active","ping":128},{"user_id":70,"name":"bAdmon","steam_id":76561197961785793,"connected_time":971000000000,"state":"active","ping":54},{"user_id":36,"name":"Hegyi tahó F2P","steam_id":76561199219150356,"connected_time":2603000000000,"state":"active","ping":87},{"user_id":58,"name":"Dolcelatte","steam_id":76561198038501770,"connected_time":1859000000000,"state":"active","ping":59},{"user_id":60,"name":"Gorgeous George","steam_id":76561198144256544,"connected_time":1848000000000,"state":"active","ping":65},{"user_id":73,"name":"Relix18144","steam_id":76561199202454318,"connected_time":918000000000,"state":"active","ping":97},{"user_id":40,"name":"r06u3","steam_id":76561198254099253,"connected_time":2575000000000,"state":"active","ping":167},{"user_id":46,"name":"I was good before.","steam_id":76561198187045217,"connected_time":2418000000000,"state":"active","ping":71},{"user_id":59,"name":"Hexabit","steam_id":76561198028625661,"connected_time":1859000000000,"state":"active","ping":70},{"user_id":45,"name":"nvs","steam_id":76561198120668070,"connected_time":2447000000000,"state":"active","ping":61},{"user_id":61,"name":"night.s","steam_id":76561198326287823,"connected_time":1848000000000,"state":"active","ping":82}]},{"server_id":110,"name":"Uncletopia | Frankfurt | 2 | All Maps","name_short":"frk-2","host":"frk-1.de.uncletopia.com","port":27025,"enabled":true,"region":"eu","cc":"de","latitude":50.110924,"longitude":8.682127,"reserved":0,"last_update":"0001-01-01T00:00:00Z","name_a2s":"Uncletopia | Frankfurt | 2 | All Maps","protocol":17,"map":"koth_lakeside_final","folder":"tf","game":"Team Fortress","app_id":440,"player_count":0,"max_players":24,"Bots":0,"server_type":"Dedicated","server_os":"Linux","password":true,"vac":true,"version":"7757534","steam_id":85568392924469990,"keywords":["cp","nocrits","nodmgspread","uncletopia"],"game_id":440,"stv_port":27026,"stv_name":"Uncletopia | Frankfurt | 2 | All Maps | STV","players":null},{"server_id":308,"name":"Uncletopia | Frankfurt | 3 | All Maps","name_short":"frk-3","host":"frk-1.de.uncletopia.com","port":27035,"enabled":true,"region":"eu","cc":"de","latitude":50.110924,"longitude":8.682127,"reserved":0,"last_update":"0001-01-01T00:00:00Z","name_a2s":"Uncletopia | Frankfurt | 3 | All Maps","protocol":17,"map":"koth_viaduct","folder":"tf","game":"Team Fortress","app_id":440,"player_count":2,"max_players":24,"Bots":0,"server_type":"Dedicated","server_os":"Linux","password":true,"vac":true,"version":"7757534","steam_id":85568392924504274,"keywords":["cp","nocrits","nodmgspread","uncletopia"],"game_id":440,"stv_port":27036,"stv_name":"Uncletopia | Frankfurt | 3 | All Maps | STV","players":[{"user_id":19,"name":"Mata","steam_id":76561198308191713,"connected_time":948000000000,"state":"active","ping":59},{"user_id":20,"name":"Osmo","steam_id":76561199286764992,"connected_time":657000000000,"state":"active","ping":61}]},{"server_id":309,"name":"Uncletopia | Frankfurt | 4 | All Maps","name_short":"frk-4","host":"frk-1.de.uncletopia.com","port":27045,"enabled":true,"region":"eu","cc":"de","latitude":50.110924,"longitude":8.682127,"reserved":0,"last_update":"0001-01-01T00:00:00Z","name_a2s":"Uncletopia | Frankfurt | 4 | All Maps","protocol":17,"map":"cp_dustbowl","folder":"tf","game":"Team Fortress","app_id":440,"player_count":0,"max_players":24,"Bots":0,"server_type":"Dedicated","server_os":"Linux","password":true,"vac":true,"version":"7757534","steam_id":85568392924504275,"keywords":["cp","nocrits","nodmgspread","uncletopia"],"game_id":440,"stv_port":27046,"stv_name":"Uncletopia | Frankfurt | 4 | All Maps | STV","players":null},{"server_id":310,"name":"Uncletopia | Frankfurt | 5 | All Maps","name_short":"frk-5","host":"frk-1.de.uncletopia.com","port":27055,"enabled":true,"region":"eu","cc":"de","latitude":50.110924,"longitude":8.682127,"reserved":0,"last_update":"0001-01-01T00:00:00Z","name_a2s":"Uncletopia | Frankfurt | 5 | All Maps","protocol":17,"map":"koth_nucleus","folder":"tf","game":"Team Fortress","app_id":440,"player_count":24,"max_players":24,"Bots":0,"server_type":"Dedicated","server_os":"Linux","password":true,"vac":true,"version":"7757534","steam_id":85568392924504277,"keywords":["cp","nocrits","nodmgspread","uncletopia"],"game_id":440,"stv_port":27056,"stv_name":"Uncletopia | Frankfurt | 5 | All Maps | STV","players":[{"user_id":12,"name":"Hydro","steam_id":76561199081791855,"connected_time":2668000000000,"state":"active","ping":78},{"user_id":56,"name":"noobdog","steam_id":76561198036486671,"connected_time":258000000000,"state":"active","ping":58},{"user_id":33,"name":"deepnotic","steam_id":76561199154324805,"connected_time":1166000000000,"state":"active","ping":76},{"user_id":53,"name":"Dispenser (Lopata)","steam_id":76561198820264239,"connected_time":475000000000,"state":"active","ping":88},{"user_id":55,"name":"goblin","steam_id":76561198151122921,"connected_time":436000000000,"state":"active","ping":84},{"user_id":49,"name":"S0LDaTo","steam_id":76561198269413360,"connected_time":631000000000,"state":"active","ping":71},{"user_id":18,"name":"generic alias","steam_id":76561198052878585,"connected_time":1675000000000,"state":"active","ping":121},{"user_id":59,"name":"The Stig","steam_id":76561198103908668,"connected_time":40000000000,"state":"active","ping":71},{"user_id":48,"name":"Vikud","steam_id":76561199110575856,"connected_time":671000000000,"state":"active","ping":142},{"user_id":32,"name":"Daddy Donovan","steam_id":76561198140938904,"connected_time":1175000000000,"state":"active","ping":75},{"user_id":24,"name":"Avoonix","steam_id":76561198186954897,"connected_time":1501000000000,"state":"active","ping":60},{"user_id":60,"name":"Manslayer","steam_id":76561198063956707,"connected_time":30000000000,"state":"active","ping":55},{"user_id":30,"name":"Average meme enjoyer","steam_id":76561199087566663,"connected_time":1199000000000,"state":"active","ping":91},{"user_id":34,"name":"Giovine Killjoy","steam_id":76561198059375315,"connected_time":1125000000000,"state":"active","ping":67},{"user_id":35,"name":"Hoff","steam_id":76561198138540938,"connected_time":1053000000000,"state":"active","ping":72},{"user_id":54,"name":"Piteras","steam_id":76561198858532207,"connected_time":455000000000,"state":"active","ping":75},{"user_id":37,"name":"Magirby","steam_id":76561198818777390,"connected_time":1033000000000,"state":"active","ping":120},{"user_id":61,"name":"Komputer1310","steam_id":76561198870066614,"connected_time":25000000000,"state":"active","ping":69},{"user_id":40,"name":"Qwerty","steam_id":76561198023525894,"connected_time":970000000000,"state":"active","ping":82},{"user_id":51,"name":"The Tomfooler","steam_id":76561198167986695,"connected_time":567000000000,"state":"active","ping":56},{"user_id":52,"name":"john.cb","steam_id":76561198308459585,"connected_time":557000000000,"state":"active","ping":58},{"user_id":44,"name":".::[SerafeTTiN]::.","steam_id":76561198009471724,"connected_time":902000000000,"state":"active","ping":93},{"user_id":45,"name":"yush","steam_id":76561198121688934,"connected_time":901000000000,"state":"active","ping":85},{"user_id":46,"name":"tqla","steam_id":76561198073092585,"connected_time":896000000000,"state":"active","ping":100}]},{"server_id":311,"name":"Uncletopia | Frankfurt | 6 | All Maps","name_short":"frk-6","host":"frk-1.de.uncletopia.com","port":27065,"enabled":true,"region":"eu","cc":"de","latitude":50.110924,"longitude":8.682127,"reserved":0,"last_update":"0001-01-01T00:00:00Z","name_a2s":"Uncletopia | Frankfurt | 6 | All Maps","protocol":17,"map":"koth_highpass","folder":"tf","game":"Team Fortress","app_id":440,"player_count":0,"max_players":24,"Bots":0,"server_type":"Dedicated","server_os":"Linux","password":true,"vac":true,"version":"7757534","steam_id":85568392924504278,"keywords":["cp","nocrits","nodmgspread","uncletopia"],"game_id":440,"stv_port":27066,"stv_name":"Uncletopia | Frankfurt | 6 | All Maps | STV","players":null},{"server_id":23,"name":"Uncletopia | Frankfurt | 7 | Stopwatch Beta","name_short":"frk-7","host":"frk-1.de.uncletopia.com","port":27075,"enabled":true,"region":"eu","cc":"de","latitude":50.110924,"longitude":8.682127,"reserved":0,"last_update":"0001-01-01T00:00:00Z","name_a2s":"Uncletopia | Frankfurt | 7 | Stopwatch Beta","protocol":17,"map":"pl_frontier_final","folder":"tf","game":"Team Fortress","app_id":440,"player_count":0,"max_players":24,"Bots":0,"server_type":"Dedicated","server_os":"Linux","password":true,"vac":true,"version":"7757534","steam_id":85568392924742827,"keywords":["nocrits","nodmgspread","payload","uncletopia"],"game_id":440,"stv_port":27076,"stv_name":"Uncletopia | Frankfurt | 7 | Stopwatch Beta | STV","players":null},{"server_id":24,"name":"Uncletopia | Frankfurt | 8 | Community","name_short":"frk-8","host":"frk-1.de.uncletopia.com","port":27085,"enabled":true,"region":"eu","cc":"de","latitude":50.110924,"longitude":8.682127,"reserved":0,"last_update":"0001-01-01T00:00:00Z","name_a2s":"Uncletopia | Frankfurt | 8 | Community","protocol":17,"map":"workshop/pl_shoreleave_rc1.ugc1238849347","folder":"tf","game":"Team Fortress","app_id":440,"player_count":0,"max_players":24,"Bots":0,"server_type":"Dedicated","server_os":"Linux","password":true,"vac":true,"version":"7757534","steam_id":85568392924742828,"keywords":["nocrits","nodmgspread","payload","uncletopia"],"game_id":440,"stv_port":27086,"stv_name":"Uncletopia | Frankfurt | 8 | Community | STV","players":null},{"server_id":202,"name":"Uncletopia | Hong Kong | 1 | All Maps","name_short":"hgk-1","host":"hgk-1.hk.uncletopia.com","port":27015,"enabled":true,"region":"asia","cc":"hk","latitude":22.302711,"longitude":114.177216,"reserved":0,"last_update":"0001-01-01T00:00:00Z","name_a2s":"Uncletopia | Hong Kong | 1 | All Maps","protocol":17,"map":"pl_badwater","folder":"tf","game":"Team Fortress","app_id":440,"player_count":24,"max_players":24,"Bots":0,"server_type":"Dedicated","server_os":"Linux","password":true,"vac":true,"version":"7757534","steam_id":85568392924494504,"keywords":["nocrits","nodmgspread","payload","uncletopia"],"game_id":440,"stv_port":27016,"stv_name":"Uncletopia | Hong Kong | 1 | All Maps | STV","players":[{"user_id":376,"name":"a tired man","steam_id":76561199229248492,"connected_time":893000000000,"state":"active","ping":87},{"user_id":347,"name":"Nasi Lemak Gaming","steam_id":76561198082921407,"connected_time":2672000000000,"state":"active","ping":78},{"user_id":336,"name":"帕","steam_id":76561198439343999,"connected_time":3450000000000,"state":"active","ping":67},{"user_id":374,"name":"Marika","steam_id":76561198212649929,"connected_time":925000000000,"state":"active","ping":96},{"user_id":365,"name":"Prof Booster","steam_id":76561199148930929,"connected_time":2111000000000,"state":"active","ping":35},{"user_id":387,"name":"P","steam_id":76561198304514505,"connected_time":157000000000,"state":"active","ping":106},{"user_id":377,"name":"Violezine","steam_id":76561199000502615,"connected_time":855000000000,"state":"active","ping":86},{"user_id":332,"name":"Pisces","steam_id":76561198429887240,"connected_time":3852000000000,"state":"active","ping":68},{"user_id":351,"name":":)","steam_id":76561198437941450,"connected_time":2530000000000,"state":"active","ping":86},{"user_id":375,"name":"Jaysong","steam_id":76561198828599078,"connected_time":908000000000,"state":"active","ping":77},{"user_id":378,"name":"[TF]Wagon","steam_id":76561198348624243,"connected_time":847000000000,"state":"active","ping":89},{"user_id":361,"name":"picisan","steam_id":76561198815253186,"connected_time":2235000000000,"state":"active","ping":89},{"user_id":260,"name":"corpse_cadaver","steam_id":76561199225360457,"connected_time":8455000000000,"state":"active","ping":72},{"user_id":357,"name":"Aug","steam_id":76561199212711900,"connected_time":2260000000000,"state":"active","ping":104},{"user_id":352,"name":"jbn","steam_id":76561199172224549,"connected_time":2506000000000,"state":"active","ping":89},{"user_id":370,"name":"moron","steam_id":76561198324008555,"connected_time":1161000000000,"state":"active","ping":45},{"user_id":385,"name":"Loid forgor","steam_id":76561198811532659,"connected_time":697000000000,"state":"active","ping":86},{"user_id":355,"name":"why must you treat me this way","steam_id":76561199146847474,"connected_time":2302000000000,"state":"active","ping":68},{"user_id":383,"name":"Dobby","steam_id":76561198076823643,"connected_time":746000000000,"state":"active","ping":85},{"user_id":362,"name":"Pillboi","steam_id":76561198011172886,"connected_time":2228000000000,"state":"active","ping":45},{"user_id":334,"name":"mister beast","steam_id":76561198346128694,"connected_time":3492000000000,"state":"active","ping":70},{"user_id":267,"name":"loreley","steam_id":76561198230213828,"connected_time":7476000000000,"state":"active","ping":70},{"user_id":384,"name":"Hacksaw","steam_id":76561198029010801,"connected_time":739000000000,"state":"active","ping":116},{"user_id":323,"name":"mutwo","steam_id":76561198077043500,"connected_time":4378000000000,"state":"active","ping":80}]},{"server_id":1,"name":"Uncletopia | Los Angeles | 1 | All Maps","name_short":"lax-1","host":"lax-1.us.uncletopia.com","port":27015,"enabled":true,"region":"us-west","cc":"us","latitude":33.94279,"longitude":-118.41004,"reserved":0,"last_update":"0001-01-01T00:00:00Z","name_a2s":"Uncletopia | Los Angeles | 1 | All Maps","protocol":17,"map":"pl_borneo","folder":"tf","game":"Team Fortress","app_id":440,"player_count":0,"max_players":24,"Bots":0,"server_type":"Dedicated","server_os":"Linux","password":true,"vac":true,"version":"7757534","steam_id":85568392924469991,"keywords":["nocrits","nodmgspread","payload","uncletopia"],"game_id":440,"stv_port":27016,"stv_name":"Uncletopia | Los Angeles | 1 | All Maps | STV","players":null},{"server_id":112,"name":"Uncletopia | Los Angeles | 2 | All Maps","name_short":"lax-2","host":"lax-1.us.uncletopia.com","port":27025,"enabled":true,"region":"us-west","cc":"us","latitude":33.94279,"longitude":-118.41004,"reserved":0,"last_update":"0001-01-01T00:00:00Z","name_a2s":"Uncletopia | Los Angeles | 2 | All Maps","protocol":17,"map":"koth_cascade","folder":"tf","game":"Team Fortress","app_id":440,"player_count":0,"max_players":24,"Bots":0,"server_type":"Dedicated","server_os":"Linux","password":true,"vac":true,"version":"7757534","steam_id":85568392924469992,"keywords":["cp","nocrits","nodmgspread","uncletopia"],"game_id":440,"stv_port":27026,"stv_name":"Uncletopia | Los Angeles | 2 | All Maps | STV","players":null},{"server_id":324,"name":"Uncletopia | Los Angeles | 3 | All Maps","name_short":"lax-3","host":"lax-1.us.uncletopia.com","port":27035,"enabled":true,"region":"us-west","cc":"us","latitude":33.94279,"longitude":-118.41004,"reserved":0,"last_update":"0001-01-01T00:00:00Z","name_a2s":"Uncletopia | Los Angeles | 3 | All Maps","protocol":17,"map":"pl_pier","folder":"tf","game":"Team Fortress","app_id":440,"player_count":0,"max_players":24,"Bots":0,"server_type":"Dedicated","server_os":"Linux","password":true,"vac":true,"version":"7757534","steam_id":85568392924510198,"keywords":["nocrits","nodmgspread","payload","uncletopia"],"game_id":440,"stv_port":27036,"stv_name":"Uncletopia | Los Angeles | 3 | All Maps | STV","players":null},{"server_id":25,"name":"Uncletopia | Los Angeles | 4 | Stopwatch Beta","name_short":"lax-4","host":"lax-1.us.uncletopia.com","port":27045,"enabled":true,"region":"us-west","cc":"us","latitude":33.94279,"longitude":-118.41004,"reserved":0,"last_update":"0001-01-01T00:00:00Z","name_a2s":"Uncletopia | Los Angeles | 4 | Stopwatch Beta","protocol":17,"map":"pl_frontier_final","folder":"tf","game":"Team Fortress","app_id":440,"player_count":0,"max_players":24,"Bots":0,"server_type":"Dedicated","server_os":"Linux","password":true,"vac":true,"version":"7757534","steam_id":85568392924510199,"keywords":["nocrits","nodmgspread","payload","uncletopia"],"game_id":440,"stv_port":27046,"stv_name":"Uncletopia | Los Angeles | 4 | Stopwatch Beta | STV","players":null},{"server_id":11,"name":"Uncletopia | London | 1 | All Maps","name_short":"lon-1","host":"lon-1.uk.uncletopia.com","port":27015,"enabled":true,"region":"eu","cc":"gb","latitude":51.509865,"longitude":-0.118092,"reserved":0,"last_update":"0001-01-01T00:00:00Z","name_a2s":"Uncletopia | London | 1 | All Maps","protocol":17,"map":"pl_thundermountain","folder":"tf","game":"Team Fortress","app_id":440,"player_count":24,"max_players":24,"Bots":0,"server_type":"Dedicated","server_os":"Linux","password":true,"vac":true,"version":"7757534","steam_id":85568392924367362,"keywords":["nocrits","nodmgspread","payload","uncletopia"],"game_id":440,"stv_port":27016,"stv_name":"Uncletopia | London | 1 | All Maps | STV","players":[{"user_id":172,"name":"Joseph Stalin","steam_id":76561198033199746,"connected_time":5039000000000,"state":"active","ping":60},{"user_id":208,"name":"G/3","steam_id":76561198234844188,"connected_time":3077000000000,"state":"active","ping":60},{"user_id":207,"name":"jim","steam_id":76561198172003783,"connected_time":3103000000000,"state":"active","ping":105},{"user_id":237,"name":"Karol X","steam_id":76561199133999804,"connected_time":753000000000,"state":"active","ping":106},{"user_id":184,"name":"Rambi","steam_id":76561199058078505,"connected_time":4494000000000,"state":"active","ping":171},{"user_id":247,"name":"Gaem Geck","steam_id":76561198057966907,"connected_time":61000000000,"state":"active","ping":50},{"user_id":234,"name":"Wario","steam_id":76561198356089255,"connected_time":964000000000,"state":"active","ping":75},{"user_id":244,"name":"The Lobotomite","steam_id":76561198060638325,"connected_time":283000000000,"state":"active","ping":59},{"user_id":238,"name":"Zhongding Construction Group Lt","steam_id":76561198065915748,"connected_time":711000000000,"state":"active","ping":53},{"user_id":245,"name":"Dude Time","steam_id":76561198092991160,"connected_time":272000000000,"state":"active","ping":180},{"user_id":246,"name":"Milfshake","steam_id":76561198208740557,"connected_time":123000000000,"state":"active","ping":64},{"user_id":243,"name":"Jack","steam_id":76561198079575891,"connected_time":547000000000,"state":"active","ping":45},{"user_id":241,"name":"MrXtr","steam_id":76561198966247397,"connected_time":635000000000,"state":"active","ping":74},{"user_id":231,"name":"ciliorkun18","steam_id":76561198228942500,"connected_time":1078000000000,"state":"active","ping":93},{"user_id":211,"name":"xd Clover","steam_id":76561198038905361,"connected_time":2975000000000,"state":"active","ping":116},{"user_id":248,"name":"Speedwagon","steam_id":76561198387667243,"connected_time":1000000000,"state":"spawning","ping":96},{"user_id":225,"name":"Hrafnin","steam_id":76561197970358069,"connected_time":1271000000000,"state":"active","ping":90},{"user_id":160,"name":"Tynnyri","steam_id":76561198075516541,"connected_time":6112000000000,"state":"active","ping":105},{"user_id":206,"name":"JeanCorben","steam_id":76561197965133561,"connected_time":3149000000000,"state":"active","ping":46},{"user_id":235,"name":"Hydnhof","steam_id":76561198120989805,"connected_time":915000000000,"state":"active","ping":70},{"user_id":242,"name":"Svilar","steam_id":76561198828348612,"connected_time":609000000000,"state":"active","ping":89},{"user_id":233,"name":"majora's boostio","steam_id":76561198392628642,"connected_time":1058000000000,"state":"active","ping":36},{"user_id":213,"name":"Koalified","steam_id":76561198095350290,"connected_time":2947000000000,"state":"active","ping":190},{"user_id":222,"name":"Mr.Fosty","steam_id":76561198045212783,"connected_time":1745000000000,"state":"active","ping":87}]},{"server_id":114,"name":"Uncletopia | London | 2 | All Maps","name_short":"lon-2","host":"lon-1.uk.uncletopia.com","port":27025,"enabled":true,"region":"eu","cc":"gb","latitude":51.509865,"longitude":-0.118092,"reserved":0,"last_update":"0001-01-01T00:00:00Z","name_a2s":"Uncletopia | London | 2 | All Maps","protocol":17,"map":"pl_badwater","folder":"tf","game":"Team Fortress","app_id":440,"player_count":25,"max_players":24,"Bots":0,"server_type":"Dedicated","server_os":"Linux","password":true,"vac":true,"version":"7757534","steam_id":85568392924470941,"keywords":["nocrits","nodmgspread","payload","uncletopia"],"game_id":440,"stv_port":27026,"stv_name":"Uncletopia | London | 2 | All Maps | STV","players":[{"user_id":206,"name":"wardex","steam_id":76561198058776834,"connected_time":863000000000,"state":"active","ping":60},{"user_id":176,"name":"Mor'du","steam_id":76561198274105878,"connected_time":3057000000000,"state":"active","ping":90},{"user_id":177,"name":"DrExplosive","steam_id":76561198063678579,"connected_time":2633000000000,"state":"active","ping":48},{"user_id":212,"name":"alejandro","steam_id":76561198326470064,"connected_time":379000000000,"state":"active","ping":73},{"user_id":221,"name":"Dominus.","steam_id":76561199065917088,"connected_time":6000000000,"state":"spawning","ping":124},{"user_id":167,"name":"Jay.k","steam_id":76561198079387590,"connected_time":3834000000000,"state":"active","ping":58},{"user_id":207,"name":"CEO of Pen Island","steam_id":76561198037212191,"connected_time":836000000000,"state":"active","ping":64},{"user_id":213,"name":"Muffin Queen","steam_id":76561198057836492,"connected_time":350000000000,"state":"active","ping":67},{"user_id":178,"name":"WEneedAgreatRESET","steam_id":76561199388295925,"connected_time":2632000000000,"state":"active","ping":66},{"user_id":180,"name":"Tavish","steam_id":76561197971486686,"connected_time":2339000000000,"state":"active","ping":51},{"user_id":214,"name":"ResonanceCascade27","steam_id":76561198200981965,"connected_time":349000000000,"state":"active","ping":60},{"user_id":187,"name":"Laru","steam_id":76561197998838438,"connected_time":2115000000000,"state":"active","ping":78},{"user_id":215,"name":"festive","steam_id":76561197993892057,"connected_time":329000000000,"state":"active","ping":92},{"user_id":216,"name":"Lysandrake","steam_id":76561198181405089,"connected_time":322000000000,"state":"active","ping":65},{"user_id":193,"name":"Mario la Maxim","steam_id":76561199137799215,"connected_time":1918000000000,"state":"active","ping":84},{"user_id":202,"name":"KFC Enjoyer","steam_id":76561198840259819,"connected_time":1269000000000,"state":"active","ping":60},{"user_id":211,"name":"Pipper","steam_id":76561197970326616,"connected_time":440000000000,"state":"active","ping":66},{"user_id":217,"name":"Markiplier(real)","steam_id":76561198299243638,"connected_time":319000000000,"state":"active","ping":62},{"user_id":209,"name":"TPERK","steam_id":76561198931018997,"connected_time":802000000000,"state":"active","ping":113},{"user_id":218,"name":"aph","steam_id":76561198057722639,"connected_time":286000000000,"state":"active","ping":75},{"user_id":203,"name":"JamesPepega","steam_id":76561198019156154,"connected_time":1204000000000,"state":"active","ping":88},{"user_id":210,"name":"Chucky","steam_id":76561198891579362,"connected_time":782000000000,"state":"active","ping":61},{"user_id":197,"name":"yuta","steam_id":76561198077922992,"connected_time":1882000000000,"state":"active","ping":45},{"user_id":198,"name":"GRcrafter","steam_id":76561198372186715,"connected_time":1875000000000,"state":"active","ping":104},{"user_id":222,"name":"cazador","steam_id":76561198123096922,"connected_time":5000000000,"state":"spawning","ping":104}]},{"server_id":320,"name":"Uncletopia | London | 3 | All Maps","name_short":"lon-3","host":"lon-1.uk.uncletopia.com","port":27035,"enabled":true,"region":"eu","cc":"gb","latitude":51.509865,"longitude":-0.118092,"reserved":0,"last_update":"0001-01-01T00:00:00Z","name_a2s":"Uncletopia | London | 3 | All Maps","protocol":17,"map":"pl_barnblitz","folder":"tf","game":"Team Fortress","app_id":440,"player_count":22,"max_players":24,"Bots":0,"server_type":"Dedicated","server_os":"Linux","password":true,"vac":true,"version":"7757534","steam_id":85568392924510192,"keywords":["nocrits","nodmgspread","payload","uncletopia"],"game_id":440,"stv_port":27036,"stv_name":"Uncletopia | London | 3 | All Maps | STV","players":[{"user_id":101,"name":"HungriSanta","steam_id":76561198020376441,"connected_time":3292000000000,"state":"active","ping":71},{"user_id":149,"name":"MR.CRAB","steam_id":76561198329833659,"connected_time":31000000000,"state":"active","ping":80},{"user_id":102,"name":"Rowan Atkinson","steam_id":76561199378865926,"connected_time":3286000000000,"state":"active","ping":87},{"user_id":146,"name":"V1.0","steam_id":76561198312769933,"connected_time":119000000000,"state":"active","ping":115},{"user_id":142,"name":"You slumber","steam_id":76561198344639692,"connected_time":1175000000000,"state":"active","ping":85},{"user_id":150,"name":"StandAlloy","steam_id":76561199466218699,"connected_time":2000000000,"state":"spawning","ping":99},{"user_id":138,"name":"Lamission","steam_id":76561198802762169,"connected_time":1660000000000,"state":"active","ping":257},{"user_id":123,"name":"DontaeRiceArt (DMR)","steam_id":76561198042659150,"connected_time":2632000000000,"state":"active","ping":164},{"user_id":135,"name":"jellywanker","steam_id":76561198282011087,"connected_time":1782000000000,"state":"active","ping":52},{"user_id":147,"name":"amp-t","steam_id":76561198124159344,"connected_time":93000000000,"state":"active","ping":45},{"user_id":122,"name":"Xoukz","steam_id":76561198356014540,"connected_time":2698000000000,"state":"active","ping":111},{"user_id":96,"name":"Poor Fucking Infantry","steam_id":76561198055978522,"connected_time":3393000000000,"state":"active","ping":45},{"user_id":48,"name":"Welder","steam_id":76561198355300561,"connected_time":7882000000000,"state":"active","ping":71},{"user_id":137,"name":"963 frequency of gods","steam_id":76561199088506542,"connected_time":1669000000000,"state":"active","ping":60},{"user_id":121,"name":"caxx","steam_id":76561198062953854,"connected_time":2738000000000,"state":"active","ping":40},{"user_id":116,"name":"thefroggersmacker","steam_id":76561199439408555,"connected_time":2839000000000,"state":"active","ping":119},{"user_id":129,"name":"on1on (pickled)","steam_id":76561197995304137,"connected_time":2415000000000,"state":"active","ping":79},{"user_id":127,"name":"LOBZIK","steam_id":76561198114830120,"connected_time":2536000000000,"state":"active","ping":88},{"user_id":81,"name":"Floppa-z","steam_id":76561199385382550,"connected_time":5630000000000,"state":"active","ping":129},{"user_id":133,"name":"S'all good, man","steam_id":76561198363882056,"connected_time":2076000000000,"state":"active","ping":35},{"user_id":118,"name":"Infectious Stab!!!!","steam_id":76561199443814471,"connected_time":2826000000000,"state":"active","ping":143},{"user_id":134,"name":"thekoolest88","steam_id":76561199022415672,"connected_time":1901000000000,"state":"active","ping":145}]},{"server_id":321,"name":"Uncletopia | London | 4 | All Maps","name_short":"lon-4","host":"lon-1.uk.uncletopia.com","port":27045,"enabled":true,"region":"eu","cc":"gb","latitude":51.509865,"longitude":-0.118092,"reserved":0,"last_update":"0001-01-01T00:00:00Z","name_a2s":"Uncletopia | London | 4 | All Maps","protocol":17,"map":"koth_viaduct","folder":"tf","game":"Team Fortress","app_id":440,"player_count":2,"max_players":24,"Bots":0,"server_type":"Dedicated","server_os":"Linux","password":true,"vac":true,"version":"7757534","steam_id":85568392924510193,"keywords":["cp","nocrits","nodmgspread","uncletopia"],"game_id":440,"stv_port":27046,"stv_name":"Uncletopia | London | 4 | All Maps | STV","players":[{"user_id":28,"name":"fifty hoes","steam_id":76561198097712283,"connected_time":485000000000,"state":"active","ping":74},{"user_id":29,"name":"GlitchyTrashCan","steam_id":76561198309789756,"connected_time":143000000000,"state":"active","ping":76}]},{"server_id":21,"name":"Uncletopia | London | 5 | All Maps","name_short":"lon-5","host":"lon-1.uk.uncletopia.com","port":27055,"enabled":true,"region":"eu","cc":"gb","latitude":51.509865,"longitude":-0.118092,"reserved":0,"last_update":"0001-01-01T00:00:00Z","name_a2s":"Uncletopia | London | 5 | All Maps","protocol":17,"map":"koth_cascade","folder":"tf","game":"Team Fortress","app_id":440,"player_count":24,"max_players":24,"Bots":0,"server_type":"Dedicated","server_os":"Linux","password":true,"vac":true,"version":"7757534","steam_id":85568392924742829,"keywords":["cp","nocrits","nodmgspread","uncletopia"],"game_id":440,"stv_port":27056,"stv_name":"Uncletopia | London | 5 | All Maps | STV","players":[{"user_id":404,"name":"Blacksheep","steam_id":76561198019621063,"connected_time":259000000000,"state":"active","ping":50},{"user_id":344,"name":"Flare","steam_id":76561198039098320,"connected_time":3519000000000,"state":"active","ping":51},{"user_id":355,"name":"DOMINOS","steam_id":76561198334591211,"connected_time":2506000000000,"state":"active","ping":75},{"user_id":352,"name":"Toaster1337","steam_id":76561198103706881,"connected_time":2755000000000,"state":"active","ping":68},{"user_id":408,"name":"yeldad","steam_id":76561198447264153,"connected_time":79000000000,"state":"active","ping":128},{"user_id":381,"name":"K.V. #RemoveRandomCrits","steam_id":76561197994832993,"connected_time":1190000000000,"state":"active","ping":80},{"user_id":342,"name":"poliakov.noam","steam_id":76561199259322961,"connected_time":3813000000000,"state":"active","ping":104},{"user_id":405,"name":"Count Sandbag","steam_id":76561198149553234,"connected_time":246000000000,"state":"active","ping":78},{"user_id":383,"name":"Ledze Shuns Dope","steam_id":76561198049945010,"connected_time":836000000000,"state":"active","ping":57},{"user_id":402,"name":"Ward","steam_id":76561198001500324,"connected_time":409000000000,"state":"active","ping":104},{"user_id":357,"name":"Fill","steam_id":76561198337431955,"connected_time":2496000000000,"state":"active","ping":101},{"user_id":315,"name":"AleXandriX","steam_id":76561198035203950,"connected_time":5020000000000,"state":"active","ping":75},{"user_id":347,"name":"unripe blackberries","steam_id":76561198083615367,"connected_time":3316000000000,"state":"active","ping":37},{"user_id":388,"name":"Ray","steam_id":76561199471696026,"connected_time":747000000000,"state":"active","ping":74},{"user_id":373,"name":"Keizer Ei","steam_id":76561199065419715,"connected_time":1923000000000,"state":"active","ping":53},{"user_id":358,"name":"YinYang Ivy","steam_id":76561198319862585,"connected_time":2465000000000,"state":"active","ping":45},{"user_id":376,"name":"God's Silliest Little Jester","steam_id":76561197987168654,"connected_time":1767000000000,"state":"active","ping":60},{"user_id":385,"name":"Spamton G. Spamton","steam_id":76561199006979486,"connected_time":822000000000,"state":"active","ping":64},{"user_id":403,"name":"Okonell[HUN]","steam_id":76561198032216617,"connected_time":376000000000,"state":"active","ping":83},{"user_id":362,"name":"Priceybay","steam_id":76561198055389492,"connected_time":2428000000000,"state":"active","ping":44},{"user_id":334,"name":"Cosmetic brain","steam_id":76561198055936410,"connected_time":4327000000000,"state":"active","ping":81},{"user_id":401,"name":"DigyB","steam_id":76561198014442345,"connected_time":426000000000,"state":"active","ping":59},{"user_id":393,"name":"bob","steam_id":76561198309295580,"connected_time":571000000000,"state":"active","ping":62},{"user_id":339,"name":"\u003c(sur)\u003esquigly","steam_id":76561198134646151,"connected_time":3965000000000,"state":"active","ping":104}]},{"server_id":22,"name":"Uncletopia | London | 6 | All Maps","name_short":"lon-6","host":"lon-1.uk.uncletopia.com","port":27065,"enabled":true,"region":"eu","cc":"gb","latitude":51.509865,"longitude":-0.118092,"reserved":0,"last_update":"0001-01-01T00:00:00Z","name_a2s":"Uncletopia | London | 6 | All Maps","protocol":17,"map":"koth_cascade","folder":"tf","game":"Team Fortress","app_id":440,"player_count":0,"max_players":24,"Bots":0,"server_type":"Dedicated","server_os":"Linux","password":true,"vac":true,"version":"7757534","steam_id":85568392924742830,"keywords":["cp","nocrits","nodmgspread","uncletopia"],"game_id":440,"stv_port":27066,"stv_name":"Uncletopia | London | 6 | All Maps | STV","players":null},{"server_id":40,"name":"Uncletopia | London | 7 | No Payload","name_short":"lon-7","host":"lon-1.uk.uncletopia.com","port":27075,"enabled":true,"region":"eu","cc":"gb","latitude":51.509865,"longitude":-0.118092,"reserved":0,"last_update":"0001-01-01T00:00:00Z","name_a2s":"Uncletopia | London | 7 | No Payload","protocol":17,"map":"plr_bananabay","folder":"tf","game":"Team Fortress","app_id":440,"player_count":0,"max_players":24,"Bots":0,"server_type":"Dedicated","server_os":"Linux","password":true,"vac":true,"version":"7757534","steam_id":85568392924964314,"keywords":["nocrits","nodmgspread","payload","uncletopia"],"game_id":440,"stv_port":27076,"stv_name":"Uncletopia | London | 7 | No Payload | STV","players":null},{"server_id":41,"name":"Uncletopia | London | 8 | Community","name_short":"lon-8","host":"lon-1.uk.uncletopia.com","port":27085,"enabled":true,"region":"eu","cc":"gb","latitude":51.509865,"longitude":-0.118092,"reserved":0,"last_update":"0001-01-01T00:00:00Z","name_a2s":"Uncletopia | London | 8 | Community","protocol":17,"map":"pl_upward","folder":"tf","game":"Team Fortress","app_id":440,"player_count":0,"max_players":24,"Bots":0,"server_type":"Dedicated","server_os":"Linux","password":true,"vac":true,"version":"7757534","steam_id":85568392924964315,"keywords":["nocrits","nodmgspread","payload","uncletopia"],"game_id":440,"stv_port":27086,"stv_name":"Uncletopia | London | 8 | Community | STV","players":null},{"server_id":300,"name":"Uncletopia | Montréal | 1 | All Maps","name_short":"mtl-1","host":"mtl-1.ca.uncletopia.com","port":27015,"enabled":true,"region":"us-east","cc":"ca","latitude":45.50889,"longitude":-73.56167,"reserved":0,"last_update":"0001-01-01T00:00:00Z","name_a2s":"Uncletopia | Montréal | 1 | All Maps","protocol":17,"map":"pl_snowycoast","folder":"tf","game":"Team Fortress","app_id":440,"player_count":0,"max_players":24,"Bots":0,"server_type":"Dedicated","server_os":"Linux","password":true,"vac":true,"version":"7757534","steam_id":85568392924500087,"keywords":["nocrits","nodmgspread","payload","uncletopia"],"game_id":440,"stv_port":27016,"stv_name":"Uncletopia | Montréal | 1 | All Maps | STV","players":null},{"server_id":301,"name":"Uncletopia | Montréal | 2 | All Maps","name_short":"mtl-2","host":"mtl-1.ca.uncletopia.com","port":27025,"enabled":true,"region":"us-east","cc":"ca","latitude":45.50889,"longitude":-73.56167,"reserved":0,"last_update":"0001-01-01T00:00:00Z","name_a2s":"Uncletopia | Montréal | 2 | All Maps","protocol":17,"map":"pl_snowycoast","folder":"tf","game":"Team Fortress","app_id":440,"player_count":0,"max_players":24,"Bots":0,"server_type":"Dedicated","server_os":"Linux","password":true,"vac":true,"version":"7757534","steam_id":85568392924500088,"keywords":["nocrits","nodmgspread","payload","uncletopia"],"game_id":440,"stv_port":27026,"stv_name":"Uncletopia | Montréal | 2 | All Maps | STV","players":null},{"server_id":302,"name":"Uncletopia | Montréal | 3 | All Maps","name_short":"mtl-3","host":"mtl-1.ca.uncletopia.com","port":27035,"enabled":true,"region":"us-east","cc":"ca","latitude":45.50889,"longitude":-73.56167,"reserved":0,"last_update":"0001-01-01T00:00:00Z","name_a2s":"Uncletopia | Montréal | 3 | All Maps","protocol":17,"map":"cp_dustbowl","folder":"tf","game":"Team Fortress","app_id":440,"player_count":0,"max_players":24,"Bots":0,"server_type":"Dedicated","server_os":"Linux","password":true,"vac":true,"version":"7757534","steam_id":85568392924500089,"keywords":["cp","nocrits","nodmgspread","uncletopia"],"game_id":440,"stv_port":27036,"stv_name":"Uncletopia | Montréal | 3 | All Maps | STV","players":null},{"server_id":303,"name":"Uncletopia | Montréal | 4 | No Payload","name_short":"mtl-4","host":"mtl-1.ca.uncletopia.com","port":27045,"enabled":true,"region":"us-east","cc":"ca","latitude":45.50889,"longitude":-73.56167,"reserved":0,"last_update":"0001-01-01T00:00:00Z","name_a2s":"Uncletopia | Montréal | 4 | No Payload","protocol":17,"map":"pl_borneo","folder":"tf","game":"Team Fortress","app_id":440,"player_count":0,"max_players":24,"Bots":0,"server_type":"Dedicated","server_os":"Linux","password":true,"vac":true,"version":"7757534","steam_id":85568392924500090,"keywords":["nocrits","nodmgspread","payload","uncletopia"],"game_id":440,"stv_port":27046,"stv_name":"Uncletopia | Montréal | 4 | No Payload | STV","players":null},{"server_id":13,"name":"Uncletopia | New York City | 1 | All Maps","name_short":"nyc-1","host":"nyc-1.us.uncletopia.com","port":27015,"enabled":true,"region":"us-east","cc":"us","latitude":40.73061,"longitude":-73.93524,"reserved":0,"last_update":"0001-01-01T00:00:00Z","name_a2s":"Uncletopia | New York City | 1 | All Maps","protocol":17,"map":"cp_altitude","folder":"tf","game":"Team Fortress","app_id":440,"player_count":0,"max_players":24,"Bots":0,"server_type":"Dedicated","server_os":"Linux","password":true,"vac":true,"version":"7757534","steam_id":85568392924469993,"keywords":["cp","nocrits","nodmgspread","uncletopia"],"game_id":440,"stv_port":27016,"stv_name":"Uncletopia | New York City | 1 | All Maps | STV","players":null},{"server_id":14,"name":"Uncletopia | New York City | 2 | All Maps","name_short":"nyc-2","host":"nyc-1.us.uncletopia.com","port":27025,"enabled":true,"region":"us-east","cc":"us","latitude":40.73061,"longitude":-73.93524,"reserved":0,"last_update":"0001-01-01T00:00:00Z","name_a2s":"Uncletopia | New York City | 2 | All Maps","protocol":17,"map":"pl_pier","folder":"tf","game":"Team Fortress","app_id":440,"player_count":0,"max_players":24,"Bots":0,"server_type":"Dedicated","server_os":"Linux","password":true,"vac":true,"version":"7757534","steam_id":85568392924469994,"keywords":["nocrits","nodmgspread","payload","uncletopia"],"game_id":440,"stv_port":27026,"stv_name":"Uncletopia | New York City | 2 | All Maps | STV","players":null},{"server_id":15,"name":"Uncletopia | New York City | 3 | Stopwatch Beta","name_short":"nyc-3","host":"nyc-1.us.uncletopia.com","port":27035,"enabled":true,"region":"us-east","cc":"us","latitude":40.73061,"longitude":-73.93524,"reserved":0,"last_update":"0001-01-01T00:00:00Z","name_a2s":"Uncletopia | New York City | 3 | Stopwatch Beta","protocol":17,"map":"workshop/pl_barnblitz_pro7.ugc582280235","folder":"tf","game":"Team Fortress","app_id":440,"player_count":0,"max_players":24,"Bots":0,"server_type":"Dedicated","server_os":"Linux","password":true,"vac":true,"version":"7757534","steam_id":85568392924742820,"keywords":["nocrits","nodmgspread","payload","uncletopia"],"game_id":440,"stv_port":27036,"stv_name":"Uncletopia | New York City | 3 | Stopwatch Beta | STV","players":null},{"server_id":16,"name":"Uncletopia | New York City | 4 | Community","name_short":"nyc-4","host":"nyc-1.us.uncletopia.com","port":27045,"enabled":true,"region":"us-east","cc":"us","latitude":40.73061,"longitude":-73.93524,"reserved":0,"last_update":"0001-01-01T00:00:00Z","name_a2s":"Uncletopia | New York City | 4 | Community","protocol":17,"map":"workshop/pl_highwood_b13.ugc1769496557","folder":"tf","game":"Team Fortress","app_id":440,"player_count":0,"max_players":24,"Bots":0,"server_type":"Dedicated","server_os":"Linux","password":true,"vac":true,"version":"7757534","steam_id":85568392924742821,"keywords":["nocrits","nodmgspread","payload","uncletopia"],"game_id":440,"stv_port":27046,"stv_name":"Uncletopia | New York City | 4 | Community | STV","players":null},{"server_id":142,"name":"Uncletopia | São Paulo | 1 | All Maps","name_short":"sao-1","host":"sao-1.br.uncletopia.com","port":27015,"enabled":true,"region":"sa","cc":"br","latitude":-23.533773,"longitude":-46.62529,"reserved":0,"last_update":"0001-01-01T00:00:00Z","name_a2s":"Uncletopia | São Paulo | 1 | All Maps","protocol":17,"map":"pl_badwater","folder":"tf","game":"Team Fortress","app_id":440,"player_count":0,"max_players":24,"Bots":0,"server_type":"Dedicated","server_os":"Linux","password":true,"vac":true,"version":"7757534","steam_id":85568392924469996,"keywords":["nocrits","nodmgspread","payload","uncletopia"],"game_id":440,"stv_port":27016,"stv_name":"Uncletopia | São Paulo | 1 | All Maps | STV","players":null},{"server_id":143,"name":"Uncletopia | São Paulo | 2 | All Maps","name_short":"sao-2","host":"sao-2.br.uncletopia.com","port":27015,"enabled":true,"region":"sa","cc":"br","latitude":-23.533773,"longitude":-46.62529,"reserved":0,"last_update":"0001-01-01T00:00:00Z","name_a2s":"Uncletopia | São Paulo | 2 | All Maps","protocol":17,"map":"pl_borneo","folder":"tf","game":"Team Fortress","app_id":440,"player_count":0,"max_players":24,"Bots":0,"server_type":"Dedicated","server_os":"Linux","password":true,"vac":true,"version":"7757534","steam_id":85568392924485349,"keywords":["nocrits","nodmgspread","payload","uncletopia"],"game_id":440,"stv_port":27016,"stv_name":"Uncletopia | São Paulo | 2 | All Maps | STV","players":null},{"server_id":7,"name":"Uncletopia | Seattle | 1 | All Maps","name_short":"sea-1","host":"sea-1.us.uncletopia.com","port":27015,"enabled":true,"region":"us-west","cc":"us","latitude":47.608013,"longitude":-122.33517,"reserved":0,"last_update":"0001-01-01T00:00:00Z","name_a2s":"Uncletopia | Seattle | 1 | All Maps","protocol":17,"map":"cp_mountainlab","folder":"tf","game":"Team Fortress","app_id":440,"player_count":0,"max_players":24,"Bots":0,"server_type":"Dedicated","server_os":"Linux","password":true,"vac":true,"version":"7757534","steam_id":85568392924469997,"keywords":["cp","nocrits","nodmgspread","uncletopia"],"game_id":440,"stv_port":27016,"stv_name":"Uncletopia | Seattle | 1 | All Maps | STV","players":null},{"server_id":119,"name":"Uncletopia | Seattle | 2 | All Maps","name_short":"sea-2","host":"sea-1.us.uncletopia.com","port":27025,"enabled":true,"region":"us-west","cc":"us","latitude":47.608013,"longitude":-122.33517,"reserved":0,"last_update":"0001-01-01T00:00:00Z","name_a2s":"Uncletopia | Seattle | 2 | All Maps","protocol":17,"map":"koth_cascade","folder":"tf","game":"Team Fortress","app_id":440,"player_count":0,"max_players":24,"Bots":0,"server_type":"Dedicated","server_os":"Linux","password":true,"vac":true,"version":"7757534","steam_id":85568392924469998,"keywords":["cp","nocrits","nodmgspread","uncletopia"],"game_id":440,"stv_port":27026,"stv_name":"Uncletopia | Seattle | 2 | All Maps | STV","players":null},{"server_id":406,"name":"Uncletopia | Seattle | 3 | Stopwatch Beta","name_short":"sea-3","host":"sea-1.us.uncletopia.com","port":27035,"enabled":true,"region":"us-west","cc":"us","latitude":47.608013,"longitude":-122.33517,"reserved":0,"last_update":"0001-01-01T00:00:00Z","name_a2s":"Uncletopia | Seattle | 3 | Stopwatch Beta","protocol":17,"map":"pl_barnblitz","folder":"tf","game":"Team Fortress","app_id":440,"player_count":0,"max_players":24,"Bots":0,"server_type":"Dedicated","server_os":"Linux","password":true,"vac":true,"version":"7757534","steam_id":85568392924515217,"keywords":["nocrits","nodmgspread","payload","uncletopia"],"game_id":440,"stv_port":27036,"stv_name":"Uncletopia | Seattle | 3 | Stopwatch Beta | STV","players":null},{"server_id":17,"name":"Uncletopia | San Francisco | 1 | All Maps","name_short":"sfo-1","host":"sfo-1.us.uncletopia.com","port":27015,"enabled":true,"region":"us-west","cc":"us","latitude":37.77397,"longitude":-122.4313,"reserved":0,"last_update":"0001-01-01T00:00:00Z","name_a2s":"Uncletopia | San Francisco | 1 | All Maps","protocol":17,"map":"pl_badwater","folder":"tf","game":"Team Fortress","app_id":440,"player_count":23,"max_players":24,"Bots":0,"server_type":"Dedicated","server_os":"Linux","password":true,"vac":true,"version":"7757534","steam_id":85568392924469999,"keywords":["nocrits","nodmgspread","payload","uncletopia"],"game_id":440,"stv_port":27016,"stv_name":"Uncletopia | San Francisco | 1 | All Maps | STV","players":[{"user_id":57,"name":"✿ PoutyBun ✿","steam_id":76561197965762847,"connected_time":273000000000,"state":"active","ping":56},{"user_id":14,"name":"Nexo Fighter","steam_id":76561199187418090,"connected_time":2560000000000,"state":"active","ping":159},{"user_id":5,"name":"Zetta","steam_id":76561198045710113,"connected_time":3112000000000,"state":"active","ping":85},{"user_id":6,"name":"Nolittle","steam_id":76561198239584280,"connected_time":3111000000000,"state":"active","ping":58},{"user_id":54,"name":"✙CROSS✙","steam_id":76561198039723826,"connected_time":797000000000,"state":"active","ping":135},{"user_id":49,"name":"onion ringer","steam_id":76561199153258607,"connected_time":1218000000000,"state":"active","ping":80},{"user_id":32,"name":"IzzyHoP","steam_id":76561197995927883,"connected_time":2058000000000,"state":"active","ping":68},{"user_id":15,"name":"Mirari","steam_id":76561198126889358,"connected_time":2449000000000,"state":"active","ping":133},{"user_id":16,"name":"Grassman (Cc)","steam_id":76561198026488532,"connected_time":2436000000000,"state":"active","ping":46},{"user_id":52,"name":"Discipline","steam_id":76561198019206178,"connected_time":939000000000,"state":"active","ping":119},{"user_id":58,"name":"Ghobst","steam_id":76561199135823096,"connected_time":227000000000,"state":"active","ping":129},{"user_id":44,"name":"Vegerot","steam_id":76561197997843710,"connected_time":1526000000000,"state":"active","ping":105},{"user_id":51,"name":"LightBulbGlue #SaveTF2","steam_id":76561198329573529,"connected_time":1173000000000,"state":"active","ping":122},{"user_id":34,"name":"Arcane","steam_id":76561198061160908,"connected_time":2019000000000,"state":"active","ping":122},{"user_id":24,"name":"xXx1337ChimkinNugGaymer420xXx","steam_id":76561198149063013,"connected_time":2128000000000,"state":"active","ping":89},{"user_id":59,"name":"Cdesmondd","steam_id":76561198072774462,"connected_time":223000000000,"state":"active","ping":109},{"user_id":27,"name":"Mak","steam_id":76561198089197922,"connected_time":2093000000000,"state":"active","ping":73},{"user_id":35,"name":"Canadian \u003c/3","steam_id":76561198156321471,"connected_time":2016000000000,"state":"active","ping":120},{"user_id":31,"name":"Jcawb","steam_id":76561198171286687,"connected_time":2080000000000,"state":"active","ping":65},{"user_id":55,"name":"Daz","steam_id":76561198041431938,"connected_time":795000000000,"state":"active","ping":113},{"user_id":45,"name":"RandalTheScandal","steam_id":76561199389846942,"connected_time":1496000000000,"state":"active","ping":88},{"user_id":46,"name":"primordialheath","steam_id":76561199386942638,"connected_time":1490000000000,"state":"active","ping":126},{"user_id":56,"name":"Riske","steam_id":76561198115840568,"connected_time":669000000000,"state":"active","ping":124}]},{"server_id":18,"name":"Uncletopia | San Francisco | 2 | All Maps","name_short":"sfo-2","host":"sfo-1.us.uncletopia.com","port":27025,"enabled":true,"region":"us-west","cc":"us","latitude":37.77397,"longitude":-122.4313,"reserved":0,"last_update":"0001-01-01T00:00:00Z","name_a2s":"Uncletopia | San Francisco | 2 | All Maps","protocol":17,"map":"cp_sunshine","folder":"tf","game":"Team Fortress","app_id":440,"player_count":0,"max_players":24,"Bots":0,"server_type":"Dedicated","server_os":"Linux","password":true,"vac":true,"version":"7757534","steam_id":85568392924470000,"keywords":["cp","nocrits","nodmgspread","uncletopia"],"game_id":440,"stv_port":27026,"stv_name":"Uncletopia | San Francisco | 2 | All Maps | STV","players":null},{"server_id":19,"name":"Uncletopia | San Francisco | 3 | Stopwatch Beta","name_short":"sfo-3","host":"sfo-1.us.uncletopia.com","port":27035,"enabled":true,"region":"us-west","cc":"us","latitude":37.77397,"longitude":-122.4313,"reserved":0,"last_update":"0001-01-01T00:00:00Z","name_a2s":"Uncletopia | San Francisco | 3 | Stopwatch Beta","protocol":17,"map":"pl_borneo","folder":"tf","game":"Team Fortress","app_id":440,"player_count":0,"max_players":24,"Bots":0,"server_type":"Dedicated","server_os":"Linux","password":true,"vac":true,"version":"7757534","steam_id":85568392924742824,"keywords":["nocrits","nodmgspread","payload","uncletopia"],"game_id":440,"stv_port":27036,"stv_name":"Uncletopia | San Francisco | 3 | Stopwatch Beta | STV","players":null},{"server_id":20,"name":"Uncletopia | San Francisco | 4 | Community","name_short":"sfo-4","host":"sfo-1.us.uncletopia.com","port":27045,"enabled":true,"region":"us-west","cc":"us","latitude":37.77397,"longitude":-122.4313,"reserved":0,"last_update":"0001-01-01T00:00:00Z","name_a2s":"Uncletopia | San Francisco | 4 | Community","protocol":17,"map":"koth_highpass","folder":"tf","game":"Team Fortress","app_id":440,"player_count":0,"max_players":24,"Bots":0,"server_type":"Dedicated","server_os":"Linux","password":true,"vac":true,"version":"7757534","steam_id":85568392924742826,"keywords":["cp","nocrits","nodmgspread","uncletopia"],"game_id":440,"stv_port":27046,"stv_name":"Uncletopia | San Francisco | 4 | Community | STV","players":null},{"server_id":141,"name":"Uncletopia | Sydney | 1 | All Maps","name_short":"syd-1","host":"syd-1.au.uncletopia.com","port":27015,"enabled":true,"region":"au","cc":"au","latitude":-33.865143,"longitude":151.2099,"reserved":0,"last_update":"0001-01-01T00:00:00Z","name_a2s":"Uncletopia | Sydney | 1 | All Maps","protocol":17,"map":"pl_snowycoast","folder":"tf","game":"Team Fortress","app_id":440,"player_count":21,"max_players":24,"Bots":0,"server_type":"Dedicated","server_os":"Linux","password":true,"vac":true,"version":"7757534","steam_id":85568392924470001,"keywords":["nocrits","nodmgspread","payload","uncletopia"],"game_id":440,"stv_port":27016,"stv_name":"Uncletopia | Sydney | 1 | All Maps | STV","players":[{"user_id":771,"name":"Stab Calloway","steam_id":76561198027827983,"connected_time":159000000000,"state":"active","ping":42},{"user_id":732,"name":"brownie","steam_id":76561198814158355,"connected_time":3914000000000,"state":"active","ping":59},{"user_id":744,"name":"Bobby Bigman","steam_id":76561198044679656,"connected_time":3177000000000,"state":"active","ping":58},{"user_id":768,"name":"bunnies002","steam_id":76561199368512129,"connected_time":574000000000,"state":"active","ping":81},{"user_id":772,"name":"monnickev","steam_id":76561198252587162,"connected_time":57000000000,"state":"active","ping":32},{"user_id":770,"name":"burn","steam_id":76561198310550094,"connected_time":514000000000,"state":"active","ping":58},{"user_id":740,"name":"Korvid66","steam_id":76561198321471147,"connected_time":3505000000000,"state":"active","ping":98},{"user_id":761,"name":"Pride","steam_id":76561198036671190,"connected_time":1311000000000,"state":"active","ping":59},{"user_id":766,"name":"TheDoctor30","steam_id":76561198433686866,"connected_time":599000000000,"state":"active","ping":106},{"user_id":721,"name":"Soru","steam_id":76561198010844786,"connected_time":4994000000000,"state":"active","ping":60},{"user_id":754,"name":"FrontlineNinja","steam_id":76561198046731954,"connected_time":1403000000000,"state":"active","ping":51},{"user_id":769,"name":"wombraider","steam_id":76561199375834537,"connected_time":556000000000,"state":"active","ping":132},{"user_id":731,"name":"¿eTheRealMe?","steam_id":76561198033297147,"connected_time":4049000000000,"state":"active","ping":102},{"user_id":736,"name":"ben","steam_id":76561198223331996,"connected_time":3870000000000,"state":"active","ping":69},{"user_id":751,"name":"mathgeniuswhocares","steam_id":76561198293036993,"connected_time":1519000000000,"state":"active","ping":50},{"user_id":741,"name":"Pew pew pew!","steam_id":76561198004120277,"connected_time":3504000000000,"state":"active","ping":49},{"user_id":748,"name":"Raven","steam_id":76561198428025966,"connected_time":2896000000000,"state":"active","ping":63},{"user_id":763,"name":"cooleverest","steam_id":76561198048004321,"connected_time":1137000000000,"state":"active","ping":49},{"user_id":767,"name":"hobo","steam_id":76561199046481213,"connected_time":596000000000,"state":"active","ping":70},{"user_id":755,"name":"LordCheese","steam_id":76561198294202833,"connected_time":1402000000000,"state":"active","ping":53},{"user_id":678,"name":"Empr","steam_id":76561198024387396,"connected_time":8798000000000,"state":"active","ping":69}]},{"server_id":123,"name":"Uncletopia | Sydney | 2 | All Maps","name_short":"syd-2","host":"syd-1.au.uncletopia.com","port":27025,"enabled":true,"region":"au","cc":"au","latitude":-33.865143,"longitude":151.2099,"reserved":0,"last_update":"0001-01-01T00:00:00Z","name_a2s":"Uncletopia | Sydney | 2 | All Maps","protocol":17,"map":"cp_process_final","folder":"tf","game":"Team Fortress","app_id":440,"player_count":0,"max_players":24,"Bots":0,"server_type":"Dedicated","server_os":"Linux","password":true,"vac":true,"version":"7757534","steam_id":85568392924470002,"keywords":["cp","nocrits","nodmgspread","uncletopia"],"game_id":440,"stv_port":27026,"stv_name":"Uncletopia | Sydney | 2 | All Maps | STV","players":null},{"server_id":395,"name":"Uncletopia | Sydney | 3 | All Maps","name_short":"syd-3","host":"syd-1.au.uncletopia.com","port":27035,"enabled":true,"region":"au","cc":"au","latitude":-33.865143,"longitude":151.2099,"reserved":0,"last_update":"0001-01-01T00:00:00Z","name_a2s":"Uncletopia | Sydney | 3 | All Maps","protocol":17,"map":"cp_snakewater_final1","folder":"tf","game":"Team Fortress","app_id":440,"player_count":0,"max_players":24,"Bots":0,"server_type":"Dedicated","server_os":"Linux","password":true,"vac":true,"version":"7757534","steam_id":85568392925194467,"keywords":["cp","nocrits","nodmgspread","uncletopia"],"game_id":440,"stv_port":27036,"stv_name":"Uncletopia | Sydney | 3 | All Maps | STV","players":null},{"server_id":396,"name":"Uncletopia | Sydney | 4 | All Maps","name_short":"syd-4","host":"syd-1.au.uncletopia.com","port":27045,"enabled":true,"region":"au","cc":"au","latitude":-33.865143,"longitude":151.2099,"reserved":0,"last_update":"0001-01-01T00:00:00Z","name_a2s":"Uncletopia | Sydney | 4 | All Maps","protocol":17,"map":"koth_cascade","folder":"tf","game":"Team Fortress","app_id":440,"player_count":0,"max_players":24,"Bots":0,"server_type":"Dedicated","server_os":"Linux","password":true,"vac":true,"version":"7757534","steam_id":85568392925397958,"keywords":["cp","nocrits","nodmgspread","uncletopia"],"game_id":440,"stv_port":27046,"stv_name":"Uncletopia | Sydney | 4 | All Maps | STV","players":null},{"server_id":58,"name":"Uncletopia | Sydney | 5 | Stopwatch Beta","name_short":"syd-5","host":"syd-1.au.uncletopia.com","port":27055,"enabled":true,"region":"au","cc":"au","latitude":-33.865143,"longitude":151.2099,"reserved":0,"last_update":"0001-01-01T00:00:00Z","name_a2s":"Uncletopia | Sydney | 5 | Stopwatch Beta","protocol":17,"map":"pl_upward","folder":"tf","game":"Team Fortress","app_id":440,"player_count":0,"max_players":24,"Bots":0,"server_type":"Dedicated","server_os":"Linux","password":true,"vac":true,"version":"7757534","steam_id":85568392925397959,"keywords":["nocrits","nodmgspread","payload","uncletopia"],"game_id":440,"stv_port":27056,"stv_name":"Uncletopia | Sydney | 5 | Stopwatch Beta | STV","players":null},{"server_id":59,"name":"Uncletopia | Sydney | 6 | Community","name_short":"syd-6","host":"syd-1.au.uncletopia.com","port":27065,"enabled":true,"region":"au","cc":"au","latitude":-33.865143,"longitude":151.2099,"reserved":0,"last_update":"0001-01-01T00:00:00Z","name_a2s":"Uncletopia | Sydney | 6 | Community","protocol":17,"map":"workshop/cp_kalinka_rc6a.ugc1272700588","folder":"tf","game":"Team Fortress","app_id":440,"player_count":0,"max_players":24,"Bots":0,"server_type":"Dedicated","server_os":"Linux","password":true,"vac":true,"version":"7757534","steam_id":85568392925397960,"keywords":["cp","nocrits","nodmgspread","uncletopia"],"game_id":440,"stv_port":27066,"stv_name":"Uncletopia | Sydney | 6 | Community | STV","players":null},{"server_id":49,"name":"Uncletopia | Warsaw | 1 | All Maps","name_short":"waw-1","host":"waw-1.pl.uncletopia.com","port":27015,"enabled":true,"region":"eu","cc":"pl","latitude":52.2297,"longitude":21.017532,"reserved":0,"last_update":"0001-01-01T00:00:00Z","name_a2s":"","protocol":0,"map":"","folder":"","game":"","app_id":0,"player_count":0,"max_players":0,"Bots":0,"server_type":"","server_os":"","password":false,"vac":false,"version":"","steam_id":0,"keywords":null,"game_id":0,"stv_port":0,"stv_name":"","players":null},{"server_id":50,"name":"Uncletopia | Warsaw | 2 | All Maps","name_short":"waw-2","host":"waw-1.pl.uncletopia.com","port":27025,"enabled":true,"region":"eu","cc":"pl","latitude":52.2297,"longitude":21.017532,"reserved":0,"last_update":"0001-01-01T00:00:00Z","name_a2s":"Uncletopia | Warsaw | 2 | All Maps","protocol":17,"map":"cp_altitude","folder":"tf","game":"Team Fortress","app_id":440,"player_count":0,"max_players":24,"Bots":0,"server_type":"Dedicated","server_os":"Linux","password":true,"vac":true,"version":"7757534","steam_id":85568392925397851,"keywords":["cp","nocrits","nodmgspread","uncletopia"],"game_id":440,"stv_port":27026,"stv_name":"Uncletopia | Warsaw | 2 | All Maps | STV","players":null},{"server_id":51,"name":"Uncletopia | Warsaw | 3 | All Maps","name_short":"waw-3","host":"waw-1.pl.uncletopia.com","port":27035,"enabled":true,"region":"eu","cc":"pl","latitude":52.2297,"longitude":21.017532,"reserved":0,"last_update":"0001-01-01T00:00:00Z","name_a2s":"Uncletopia | Warsaw | 3 | All Maps","protocol":17,"map":"pl_barnblitz","folder":"tf","game":"Team Fortress","app_id":440,"player_count":0,"max_players":24,"Bots":0,"server_type":"Dedicated","server_os":"Linux","password":true,"vac":true,"version":"7757534","steam_id":85568392925397852,"keywords":["nocrits","nodmgspread","payload","uncletopia"],"game_id":440,"stv_port":27036,"stv_name":"Uncletopia | Warsaw | 3 | All Maps | STV","players":null},{"server_id":52,"name":"Uncletopia | Warsaw | 4 | All Maps","name_short":"waw-4","host":"waw-1.pl.uncletopia.com","port":27045,"enabled":true,"region":"eu","cc":"pl","latitude":52.2297,"longitude":21.017532,"reserved":0,"last_update":"0001-01-01T00:00:00Z","name_a2s":"Uncletopia | Warsaw | 4 | All Maps","protocol":17,"map":"koth_cascade","folder":"tf","game":"Team Fortress","app_id":440,"player_count":0,"max_players":24,"Bots":0,"server_type":"Dedicated","server_os":"Linux","password":true,"vac":true,"version":"7757534","steam_id":85568392925397853,"keywords":["cp","nocrits","nodmgspread","uncletopia"],"game_id":440,"stv_port":27046,"stv_name":"Uncletopia | Warsaw | 4 | All Maps | STV","players":null},{"server_id":53,"name":"Uncletopia | Warsaw | 5 | Stopwatch Beta","name_short":"waw-5","host":"waw-1.pl.uncletopia.com","port":27055,"enabled":true,"region":"eu","cc":"pl","latitude":52.2297,"longitude":21.017532,"reserved":0,"last_update":"0001-01-01T00:00:00Z","name_a2s":"Uncletopia | Warsaw | 5 | Stopwatch Beta","protocol":17,"map":"pl_barnblitz","folder":"tf","game":"Team Fortress","app_id":440,"player_count":0,"max_players":24,"Bots":0,"server_type":"Dedicated","server_os":"Linux","password":true,"vac":true,"version":"7757534","steam_id":85568392925397854,"keywords":["nocrits","nodmgspread","payload","uncletopia"],"game_id":440,"stv_port":27056,"stv_name":"Uncletopia | Warsaw | 5 | Stopwatch Beta | STV","players":null},{"server_id":54,"name":"Uncletopia | Warsaw | 6 | Community","name_short":"waw-6","host":"waw-1.pl.uncletopia.com","port":27065,"enabled":true,"region":"eu","cc":"pl","latitude":52.2297,"longitude":21.017532,"reserved":0,"last_update":"0001-01-01T00:00:00Z","name_a2s":"Uncletopia | Warsaw | 6 | Community","protocol":17,"map":"pl_swiftwater_final1","folder":"tf","game":"Team Fortress","app_id":440,"player_count":0,"max_players":24,"Bots":0,"server_type":"Dedicated","server_os":"Linux","password":true,"vac":true,"version":"7757534","steam_id":85568392925397856,"keywords":["nocrits","nodmgspread","payload","uncletopia"],"game_id":440,"stv_port":27066,"stv_name":"Uncletopia | Warsaw | 6 | Community | STV","players":null}]}