{"status":true,"message":"","result":[{"server_id":9,"name":"Uncletopia | Atlanta | 1 | All Maps","name_short":"atl-1","host":"atl-1.us.uncletopia.com","port":27015,"enabled":true,"region":"us-east","cc":"us","latitude":33.753746,"longitude":-84.38633,"reserved":0,"last_update":"0001-01-01T00:00:00Z","name_a2s":"Uncletopia | Atlanta | 1 | All Maps","protocol":17,"map":"pl_snowycoast","folder":"tf","game":"Team Fortress","app_id":440,"player_count":24,"max_players":24,"Bots":0,"server_type":"Dedicated","server_os":"Linux","password":true,"vac":true,"version":"7882260","steam_id":85568392924469982,"keywords":["nocrits","nodmgspread","payload","uncletopia"],"game_id":440,"stv_port":27016,"stv_name":"Uncletopia | Atlanta | 1 | All Maps | STV","players":[{"user_id":327,"name":"floom","steam_id":76561198387571809,"connected_time":3889000000000,"state":"active","ping":52},{"user_id":380,"name":"ma0re","steam_id":76561199231971506,"connected_time":1646000000000,"state":"active","ping":62},{"user_id":368,"name":"Graybard","steam_id":76561198045100497,"connected_time":2716000000000,"state":"active","ping":61},{"user_id":367,"name":"Az","steam_id":76561198045643267,"connected_time":3026000000000,"state":"active","ping":64},{"user_id":383,"name":"kingjeffry2012@hotmail.com","steam_id":76561198314104415,"connected_time":1077000000000,"state":"active","ping":54},{"user_id":276,"name":"FheeseWurger Insouptitty","steam_id":76561198130772096,"connected_time":10156000000000,"state":"active","ping":57},{"user_id":292,"name":"metalfan666|bday tmrw|","steam_id":76561198386344068,"connected_time":8586000000000,"state":"active","ping":63},{"user_id":294,"name":"Sophie","steam_id":76561198170408057,"connected_time":8114000000000,"state":"active","ping":47},{"user_id":283,"name":"Le4n!!!","steam_id":76561198045522596,"connected_time":9011000000000,"state":"active","ping":66},{"user_id":312,"name":"Wheat Box","steam_id":76561198203443358,"connected_time":6014000000000,"state":"active","ping":80},{"user_id":335,"name":"Im High","steam_id":76561198049954886,"connected_time":3438000000000,"state":"active","ping":73},{"user_id":373,"name":"yoklaty","steam_id":76561199020932212,"connected_time":2472000000000,"state":"active","ping":162},{"user_id":326,"name":"ATL1 | on my hunting trip","steam_id":76561198315341646,"connected_time":3898000000000,"state":"active","ping":71},{"user_id":333,"name":"DragonFalcon‚Ñ¢","steam_id":76561198044559930,"connected_time":3570000000000,"state":"active","ping":52},{"user_id":366,"name":"eish","steam_id":76561198089463603,"connected_time":3042000000000,"state":"active","ping":123},{"user_id":376,"name":"kite","steam_id":76561198346516392,"connected_time":2377000000000,"state":"active","ping":84},{"user_id":296,"name":"Toonice","steam_id":76561198402994885,"connected_time":7360000000000,"state":"active","ping":83},{"user_id":302,"name":"DrStarBucksCoffee","steam_id":76561198037372470,"connected_time":6690000000000,"state":"active","ping":80},{"user_id":374,"name":"Flint","steam_id":76561198066547582,"connected_time":2463000000000,"state":"active","ping":110},{"user_id":304,"name":"and i'm javert!","steam_id":76561198117033273,"connected_time":6648000000000,"state":"active","ping":142},{"user_id":379,"name":"lil hog","steam_id":76561199230929836,"connected_time":1751000000000,"state":"active","ping":73},{"user_id":385,"name":"Brown_Dream","steam_id":76561198975766145,"connected_time":227000000000,"state":"active","ping":71},{"user_id":377,"name":"Bocchi the Cock","steam_id":76561198152455316,"connected_time":2263000000000,"state":"active","ping":105},{"user_id":384,"name":"Brikid","steam_id":76561198259244978,"connected_time":678000000000,"state":"active","ping":71}]},{"server_id":104,"name":"Uncletopia | Atlanta | 2 | All Maps","name_short":"atl-2","host":"atl-1.us.uncletopia.com","port":27025,"enabled":true,"region":"us-east","cc":"us","latitude":33.753746,"longitude":-84.38633,"reserved":0,"last_update":"0001-01-01T00:00:00Z","name_a2s":"Uncletopia | Atlanta | 2 | All Maps","protocol":17,"map":"pl_pier","folder":"tf","game":"Team Fortress","app_id":440,"player_count":23,"max_players":24,"Bots":0,"server_type":"Dedicated","server_os":"Linux","password":true,"vac":true,"version":"7882260","steam_id":85568392924469983,"keywords":["nocrits","nodmgspread","payload","uncletopia"],"game_id":440,"stv_port":27026,"stv_name":"Uncletopia | Atlanta | 2 | All Maps | STV","players":[{"user_id":55,"name":"guac","steam_id":76561198070305720,"connected_time":314000000000,"state":"active","ping":77},{"user_id":38,"name":"cosmicotter","steam_id":76561198056426995,"connected_time":762000000000,"state":"active","ping":74},{"user_id":19,"name":"26O3 Ê•µÂÖâÈù¢Á¥ó","steam_id":76561198964074985,"connected_time":1911000000000,"state":"active","ping":116},{"user_id":28,"name":"cake-mix","steam_id":76561199475394535,"connected_time":1318000000000,"state":"active","ping":109},{"user_id":39,"name":"Nezzie","steam_id":76561198208259219,"connected_time":737000000000,"state":"active","ping":78},{"user_id":25,"name":"The Milkman #removeSniper","steam_id":76561199387783793,"connected_time":1564000000000,"state":"active","ping":96},{"user_id":40,"name":"Al Cabone","steam_id":76561198956823243,"connected_time":729000000000,"state":"active","ping":46},{"user_id":27,"name":"Archie","steam_id":76561198137112917,"connected_time":1396000000000,"state":"active","ping":105},{"user_id":56,"name":"HeroOfTime1435","steam_id":76561198414622966,"connected_time":293000000000,"state":"active","ping":68},{"user_id":32,"name":"Hunter_Lord(f)","steam_id":76561198298683234,"connected_time":951000000000,"state":"active","ping":64},{"user_id":41,"name":"Pascal","steam_id":76561198902657591,"connected_time":719000000000,"state":"active","ping":46},{"user_id":42,"name":"sketch","steam_id":76561198138216669,"connected_time":718000000000,"state":"active","ping":86},{"user_id":51,"name":"sal","steam_id":76561198814096380,"connected_time":610000000000,"state":"active","ping":78},{"user_id":43,"name":"Uung","steam_id":76561198183956731,"connected_time":706000000000,"state":"active","ping":49},{"user_id":59,"name":"Sauce Boss","steam_id":76561198000156997,"connected_time":110000000000,"state":"active","ping":63},{"user_id":45,"name":"i are steve","steam_id":76561198867457465,"connected_time":695000000000,"state":"active","ping":66},{"user_id":46,"name":"troll","steam_id":76561198040890252,"connected_time":665000000000,"state":"active","ping":53},{"user_id":61,"name":"Cringe","steam_id":76561198128209614,"connected_time":37000000000,"state":"spawning","ping":60},{"user_id":58,"name":"Goblin (Real)","steam_id":76561199160926985,"connected_time":206000000000,"state":"active","ping":55},{"user_id":49,"name":"CFG Ponder","steam_id":76561198127039453,"connected_time":636000000000,"state":"active","ping":98},{"user_id":50,"name":"sassy loli","steam_id":76561198402316065,"connected_time":633000000000,"state":"active","ping":93},{"user_id":52,"name":"bear","steam_id":76561198301165813,"connected_time":601000000000,"state":"active","ping":53},{"user_id":53,"name":"The Power","steam_id":76561198060566884,"connected_time":591000000000,"state":"active","ping":136}]},{"server_id":400,"name":"Uncletopia | Atlanta | 3 | Community","name_short":"atl-3","host":"atl-1.us.uncletopia.com","port":27035,"enabled":true,"region":"us-east","cc":"us","latitude":33.753746,"longitude":-84.38633,"reserved":0,"last_update":"0001-01-01T00:00:00Z","name_a2s":"Uncletopia | Atlanta | 3 | Community","protocol":17,"map":"workshop/cp_propaganda_b18.ugc1603743849","folder":"tf","game":"Team Fortress","app_id":440,"player_count":0,"max_players":24,"Bots":0,"server_type":"Dedicated","server_os":"Linux","password":true,"vac":true,"version":"7882260","steam_id":85568392924515187,"keywords":["cp","nocrits","nodmgspread","uncletopia"],"game_id":440,"stv_port":27036,"stv_name":"Uncletopia | Atlanta | 3 | Community | STV","players":null},{"server_id":401,"name":"Uncletopia | Atlanta | 4 | No Payload","name_short":"atl-4","host":"atl-1.us.uncletopia.com","port":27045,"enabled":true,"region":"us-east","cc":"us","latitude":33.753746,"longitude":-84.38633,"reserved":0,"last_update":"0001-01-01T00:00:00Z","name_a2s":"","protocol":0,"map":"","folder":"","game":"","app_id":0,"player_count":0,"max_players":0,"Bots":0,"server_type":"","server_os":"","password":false,"vac":false,"version":"","steam_id":0,"keywords":null,"game_id":0,"stv_port":0,"stv_name":"","players":null},{"server_id":2,"name":"Uncletopia | Chicago | 1 | All Maps","name_short":"chi-1","host":"chi-1.us.uncletopia.com","port":27015,"enabled":true,"region":"us-central","cc":"us","latitude":41.881832,"longitude":-87.62318,"reserved":0,"last_update":"0001-01-01T00:00:00Z","name_a2s":"Uncletopia | Chicago | 1 | All Maps","protocol":17,"map":"pl_frontier_final","folder":"tf","game":"Team Fortress","app_id":440,"player_count":24,"max_players":24,"Bots":0,"server_type":"Dedicated","server_os":"Linux","password":true,"vac":true,"version":"7882260","steam_id":85568392924469984,"keywords":["nocrits","nodmgspread","payload","uncletopia"],"game_id":440,"stv_port":27016,"stv_name":"Uncletopia | Chicago | 1 | All Maps | STV","players":[{"user_id":446,"name":"997 N State Street, Orem, Utah","steam_id":76561198285931413,"connected_time":4560000000000,"state":"active","ping":62},{"user_id":444,"name":"Scooter O'Boyl","steam_id":76561197971687069,"connected_time":4743000000000,"state":"active","ping":69},{"user_id":456,"name":"Petrivus","steam_id":76561198202152453,"connected_time":3733000000000,"state":"active","ping":100},{"user_id":482,"name":"bruiseraaron","steam_id":76561198020092380,"connected_time":838000000000,"state":"active","ping":48},{"user_id":415,"name":"scrotal recall","steam_id":76561198135945598,"connected_time":6766000000000,"state":"active","ping":77},{"user_id":453,"name":"Stick Drift","steam_id":76561199019675078,"connected_time":3805000000000,"state":"active","ping":141},{"user_id":474,"name":"Charlotte","steam_id":76561199084344266,"connected_time":2190000000000,"state":"active","ping":60},{"user_id":483,"name":"totally nuts","steam_id":76561198072856511,"connected_time":838000000000,"state":"active","ping":84},{"user_id":486,"name":"edwinbrood","steam_id":76561198044848769,"connected_time":539000000000,"state":"active","ping":54},{"user_id":479,"name":"Maverick","steam_id":76561198322829814,"connected_time":1322000000000,"state":"active","ping":77},{"user_id":493,"name":"Aster","steam_id":76561198037920420,"connected_time":360000000000,"state":"active","ping":73},{"user_id":427,"name":"bought this cart for 15 dollars","steam_id":76561198253731826,"connected_time":5964000000000,"state":"active","ping":53},{"user_id":465,"name":"The Silkyest of Boys","steam_id":76561198320921269,"connected_time":3302000000000,"state":"active","ping":95},{"user_id":494,"name":"Cool Cool Mountain","steam_id":76561199004839490,"connected_time":345000000000,"state":"active","ping":71},{"user_id":487,"name":"CherriKat (she/her)","steam_id":76561198821297512,"connected_time":518000000000,"state":"active","ping":103},{"user_id":495,"name":"hud_saytext_time 0","steam_id":76561198010327228,"connected_time":332000000000,"state":"active","ping":159},{"user_id":485,"name":"uufyfuu","steam_id":76561198142787212,"connected_time":605000000000,"state":"active","ping":77},{"user_id":480,"name":"Gnarly Shark Bite","steam_id":76561198004058342,"connected_time":1258000000000,"state":"active","ping":71},{"user_id":489,"name":"feller","steam_id":76561198329367716,"connected_time":486000000000,"state":"active","ping":113},{"user_id":477,"name":"C.A.S.S.I.E (real)","steam_id":76561199040892651,"connected_time":1971000000000,"state":"active","ping":62},{"user_id":490,"name":"Ekohtwo","steam_id":76561198067994868,"connected_time":485000000000,"state":"active","ping":62},{"user_id":478,"name":"ultralisk52","steam_id":76561198051666604,"connected_time":1954000000000,"state":"active","ping":63},{"user_id":484,"name":"KCritical","steam_id":76561198036988728,"connected_time":622000000000,"state":"active","ping":86},{"user_id":491,"name":"TPScout","steam_id":76561198353808504,"connected_time":455000000000,"state":"active","ping":70}]},{"server_id":106,"name":"Uncletopia | Chicago | 2 | All Maps","name_short":"chi-2","host":"chi-1.us.uncletopia.com","port":27025,"enabled":true,"region":"us-central","cc":"us","latitude":41.881832,"longitude":-87.62318,"reserved":0,"last_update":"0001-01-01T00:00:00Z","name_a2s":"Uncletopia | Chicago | 2 | All Maps","protocol":17,"map":"pl_barnblitz","folder":"tf","game":"Team Fortress","app_id":440,"player_count":24,"max_players":24,"Bots":0,"server_type":"Dedicated","server_os":"Linux","password":true,"vac":true,"version":"7882260","steam_id":85568392924469985,"keywords":["nocrits","nodmgspread","payload","uncletopia"],"game_id":440,"stv_port":27026,"stv_name":"Uncletopia | Chicago | 2 | All Maps | STV","players":[{"user_id":167,"name":"bobbymcbobington","steam_id":76561199089411172,"connected_time":8806000000000,"state":"active","ping":114},{"user_id":230,"name":"Rukh","steam_id":76561197999361315,"connected_time":3010000000000,"state":"active","ping":87},{"user_id":250,"name":"NUt","steam_id":76561198031007966,"connected_time":1642000000000,"state":"active","ping":75},{"user_id":251,"name":"WALKING GOPRO","steam_id":76561198186928885,"connected_time":1638000000000,"state":"active","ping":70},{"user_id":262,"name":"ThugSlug","steam_id":76561198086098047,"connected_time":1058000000000,"state":"active","ping":76},{"user_id":248,"name":"femboy foxgirl","steam_id":76561198056432756,"connected_time":1747000000000,"state":"active","ping":56},{"user_id":227,"name":"Rick Yeti","steam_id":76561198025462553,"connected_time":3749000000000,"state":"active","ping":59},{"user_id":266,"name":"ColbertDolbert?","steam_id":76561198299613842,"connected_time":530000000000,"state":"active","ping":85},{"user_id":231,"name":"Shield12","steam_id":76561198857193675,"connected_time":2997000000000,"state":"active","ping":45},{"user_id":239,"name":"GuyGoom","steam_id":76561198254522178,"connected_time":2541000000000,"state":"active","ping":46},{"user_id":268,"name":"Cosmic Torgue","steam_id":76561198828724945,"connected_time":38000000000,"state":"active","ping":84},{"user_id":245,"name":"¬§JoNJoN¬§","steam_id":76561197985230147,"connected_time":2326000000000,"state":"active","ping":60},{"user_id":254,"name":"hashmap","steam_id":76561198043794014,"connected_time":1625000000000,"state":"active","ping":49},{"user_id":260,"name":"ThatOneKnight","steam_id":76561198388583650,"connected_time":1318000000000,"state":"active","ping":56},{"user_id":267,"name":"On The Bright Side...","steam_id":76561198168785883,"connected_time":340000000000,"state":"active","ping":46},{"user_id":269,"name":"Resistance","steam_id":76561198146782074,"connected_time":15000000000,"state":"active","ping":72},{"user_id":249,"name":"maS","steam_id":76561198033846407,"connected_time":1715000000000,"state":"active","ping":62},{"user_id":240,"name":"the.land.of.avalon","steam_id":76561198245431668,"connected_time":2428000000000,"state":"active","ping":53},{"user_id":270,"name":"fish (2:3)","steam_id":76561198134331073,"connected_time":9000000000,"state":"active","ping":188},{"user_id":189,"name":"LunarrD","steam_id":76561198811220107,"connected_time":7343000000000,"state":"active","ping":78},{"user_id":244,"name":"||BassMan||","steam_id":76561198279865229,"connected_time":2365000000000,"state":"active","ping":124},{"user_id":62,"name":"Moomin","steam_id":76561198072726213,"connected_time":15779000000000,"state":"active","ping":99},{"user_id":256,"name":"SMILEzZZ","steam_id":76561199034761420,"connected_time":1612000000000,"state":"active","ping":71},{"user_id":265,"name":"The Cool Man","steam_id":76561198096420556,"connected_time":813000000000,"state":"active","ping":93}]},{"server_id":402,"name":"Uncletopia | Chicago | 3 | All Maps","name_short":"chi-3","host":"chi-1.us.uncletopia.com","port":27035,"enabled":true,"region":"us-central","cc":"us","latitude":41.881832,"longitude":-87.62318,"reserved":0,"last_update":"0001-01-01T00:00:00Z","name_a2s":"Uncletopia | Chicago | 3 | All Maps","protocol":17,"map":"koth_harvest_final","folder":"tf","game":"Team Fortress","app_id":440,"player_count":24,"max_players":24,"Bots":0,"server_type":"Dedicated","server_os":"Linux","password":true,"vac":true,"version":"7882260","steam_id":85568392924515191,"keywords":["cp","nocrits","nodmgspread","uncletopia"],"game_id":440,"stv_port":27036,"stv_name":"Uncletopia | Chicago | 3 | All Maps | STV","players":[{"user_id":393,"name":"Scotch Tape","steam_id":76561199389314894,"connected_time":152000000000,"state":"active","ping":74},{"user_id":395,"name":"coolkid","steam_id":76561198072600034,"connected_time":0,"state":"connecting","ping":0},{"user_id":387,"name":"Temmie500","steam_id":76561199067942631,"connected_time":468000000000,"state":"active","ping":80},{"user_id":394,"name":"Corbe","steam_id":76561198353893927,"connected_time":102000000000,"state":"active","ping":40},{"user_id":379,"name":"money getting 1 percenter","steam_id":76561198012796388,"connected_time":1179000000000,"state":"active","ping":103},{"user_id":381,"name":"PharmaC","steam_id":76561199077188156,"connected_time":999000000000,"state":"active","ping":83},{"user_id":365,"name":"Coach McFish","steam_id":76561198210456405,"connected_time":2048000000000,"state":"active","ping":75},{"user_id":369,"name":"WeegeePJ","steam_id":76561199383362382,"connected_time":1897000000000,"state":"active","ping":76},{"user_id":389,"name":"Anonymous Redneck","steam_id":76561198006140954,"connected_time":277000000000,"state":"active","ping":71},{"user_id":390,"name":"Extinct","steam_id":76561199013696367,"connected_time":276000000000,"state":"active","ping":70},{"user_id":386,"name":"Boomer Gaming","steam_id":76561198037803087,"connected_time":545000000000,"state":"active","ping":70},{"user_id":377,"name":"Mr.Frundles","steam_id":76561198134559026,"connected_time":1434000000000,"state":"active","ping":72},{"user_id":385,"name":"Samitch","steam_id":76561198038247982,"connected_time":679000000000,"state":"active","ping":74},{"user_id":357,"name":"Definitely Not A Cat","steam_id":76561198123464621,"connected_time":2771000000000,"state":"active","ping":74},{"user_id":370,"name":"Margo_Rae","steam_id":76561198035046430,"connected_time":1888000000000,"state":"active","ping":88},{"user_id":378,"name":"Kritzburgh","steam_id":76561198149466938,"connected_time":1257000000000,"state":"active","ping":61},{"user_id":333,"name":"Drippin Jimmy","steam_id":76561198161241865,"connected_time":4497000000000,"state":"active","ping":89},{"user_id":384,"name":"LG_Fridge_User","steam_id":76561198977815014,"connected_time":831000000000,"state":"active","ping":77},{"user_id":392,"name":"BOT Positronic‚ô•June","steam_id":76561198042556857,"connected_time":221000000000,"state":"active","ping":51},{"user_id":363,"name":"Triples_","steam_id":76561198094249561,"connected_time":2293000000000,"state":"active","ping":55},{"user_id":382,"name":"va l v's melee hit registration","steam_id":76561199039152146,"connected_time":952000000000,"state":"active","ping":69},{"user_id":383,"name":"Astrocards","steam_id":76561199184079830,"connected_time":839000000000,"state":"active","ping":59},{"user_id":248,"name":"worst tf2 player ever","steam_id":76561198330205913,"connected_time":11108000000000,"state":"active","ping":76}]},{"server_id":403,"name":"Uncletopia | Chicago | 4 | All Maps","name_short":"chi-4","host":"chi-1.us.uncletopia.com","port":27045,"enabled":true,"region":"us-central","cc":"us","latitude":41.881832,"longitude":-87.62318,"reserved":0,"last_update":"0001-01-01T00:00:00Z","name_a2s":"Uncletopia | Chicago | 4 | All Maps","protocol":17,"map":"pl_frontier_final","folder":"tf","game":"Team Fortress","app_id":440,"player_count":24,"max_players":24,"Bots":0,"server_type":"Dedicated","server_os":"Linux","password":true,"vac":true,"version":"7882260","steam_id":85568392924515193,"keywords":["nocrits","nodmgspread","payload","uncletopia"],"game_id":440,"stv_port":27046,"stv_name":"Uncletopia | Chicago | 4 | All Maps | STV","players":[{"user_id":528,"name":"Woodchipper","steam_id":76561198274677474,"connected_time":510000000000,"state":"active","ping":71},{"user_id":524,"name":"hatsune miku‚ô°","steam_id":76561199445009981,"connected_time":641000000000,"state":"active","ping":102},{"user_id":518,"name":"fapasaurusrex","steam_id":76561197994951255,"connected_time":1670000000000,"state":"active","ping":34},{"user_id":511,"name":"deb","steam_id":76561198414336279,"connected_time":1834000000000,"state":"active","ping":78},{"user_id":499,"name":"Trusty","steam_id":76561198035444237,"connected_time":2764000000000,"state":"active","ping":65},{"user_id":523,"name":"Lightish Red","steam_id":76561198060879701,"connected_time":708000000000,"state":"active","ping":46},{"user_id":407,"name":"WALL-E","steam_id":76561198154701370,"connected_time":9636000000000,"state":"active","ping":85},{"user_id":504,"name":"ThatGamingKiwi","steam_id":76561199170522237,"connected_time":2315000000000,"state":"active","ping":85},{"user_id":478,"name":"RyInc","steam_id":76561198874261643,"connected_time":4627000000000,"state":"active","ping":48},{"user_id":533,"name":"nekoknight tf2","steam_id":76561198400058665,"connected_time":139000000000,"state":"active","ping":69},{"user_id":512,"name":"artichoke","steam_id":76561198980994364,"connected_time":1826000000000,"state":"active","ping":98},{"user_id":530,"name":"VioletSpecs","steam_id":76561198089366466,"connected_time":411000000000,"state":"active","ping":75},{"user_id":520,"name":"Jango","steam_id":76561198084589742,"connected_time":989000000000,"state":"active","ping":81},{"user_id":508,"name":"Femtofarad","steam_id":76561198308583053,"connected_time":1858000000000,"state":"active","ping":84},{"user_id":479,"name":"Chicken Joe","steam_id":76561198278185182,"connected_time":4548000000000,"state":"active","ping":71},{"user_id":526,"name":"Waaagh!","steam_id":76561197995317887,"connected_time":627000000000,"state":"active","ping":69},{"user_id":534,"name":"Tophu","steam_id":76561198380229671,"connected_time":137000000000,"state":"active","ping":75},{"user_id":531,"name":"CoralDawn","steam_id":76561198292292930,"connected_time":397000000000,"state":"active","ping":64},{"user_id":491,"name":"Mexican Lad","steam_id":76561198060874570,"connected_time":3141000000000,"state":"active","ping":111},{"user_id":525,"name":"Confucio","steam_id":76561198097427947,"connected_time":633000000000,"state":"active","ping":150},{"user_id":516,"name":"Meat Mans Meat","steam_id":76561198062149455,"connected_time":1755000000000,"state":"active","ping":64},{"user_id":498,"name":"El Bondin","steam_id":76561198820792434,"connected_time":2884000000000,"state":"active","ping":102},{"user_id":510,"name":"aiming with drawing tablet","steam_id":76561198397662124,"connected_time":1837000000000,"state":"active","ping":89},{"user_id":532,"name":"Swifgz","steam_id":76561198162875756,"connected_time":367000000000,"state":"active","ping":62}]},{"server_id":36,"name":"Uncletopia | Chicago | 5 | All Maps","name_short":"chi-5","host":"chi-2.us.uncletopia.com","port":27015,"enabled":true,"region":"us-central","cc":"us","latitude":41.881832,"longitude":-87.62318,"reserved":0,"last_update":"0001-01-01T00:00:00Z","name_a2s":"Uncletopia | Chicago | 5 | All Maps","protocol":17,"map":"pl_frontier_final","folder":"tf","game":"Team Fortress","app_id":440,"player_count":24,"max_players":24,"Bots":0,"server_type":"Dedicated","server_os":"Linux","password":true,"vac":true,"version":"7882260","steam_id":85568392924866362,"keywords":["nocrits","nodmgspread","payload","uncletopia"],"game_id":440,"stv_port":27016,"stv_name":"Uncletopia | Chicago | 5 | All Maps | STV","players":[{"user_id":172,"name":":3","steam_id":76561198077449460,"connected_time":933000000000,"state":"active","ping":63},{"user_id":162,"name":"Rein","steam_id":76561198300340427,"connected_time":1364000000000,"state":"active","ping":62},{"user_id":183,"name":"LVL 4 Dispenser Gaming","steam_id":76561198044244547,"connected_time":166000000000,"state":"active","ping":78},{"user_id":173,"name":"xstar","steam_id":76561198170045102,"connected_time":877000000000,"state":"active","ping":62},{"user_id":179,"name":"Recursive Gamer","steam_id":76561198042102952,"connected_time":424000000000,"state":"active","ping":60},{"user_id":117,"name":"Serene Salamander","steam_id":76561198001094770,"connected_time":4196000000000,"state":"active","ping":116},{"user_id":174,"name":"Odd Life","steam_id":76561198244979998,"connected_time":843000000000,"state":"active","ping":105},{"user_id":163,"name":"CyMeryy","steam_id":76561197984986540,"connected_time":1364000000000,"state":"active","ping":65},{"user_id":180,"name":"Sean Bae","steam_id":76561198036909521,"connected_time":423000000000,"state":"active","ping":85},{"user_id":175,"name":"Mops","steam_id":76561198058213741,"connected_time":819000000000,"state":"active","ping":72},{"user_id":122,"name":"riSygneD","steam_id":76561198331618687,"connected_time":3975000000000,"state":"active","ping":92},{"user_id":147,"name":"Drapph","steam_id":76561199384213314,"connected_time":2252000000000,"state":"active","ping":67},{"user_id":165,"name":"LITCH","steam_id":76561198033075871,"connected_time":1318000000000,"state":"active","ping":95},{"user_id":170,"name":"Totally","steam_id":76561198126511227,"connected_time":1013000000000,"state":"active","ping":51},{"user_id":176,"name":"tiny terry","steam_id":76561198001488041,"connected_time":818000000000,"state":"active","ping":86},{"user_id":184,"name":"Quark","steam_id":76561198328155605,"connected_time":151000000000,"state":"active","ping":55},{"user_id":167,"name":"Chechens Spotted","steam_id":76561199028910893,"connected_time":1282000000000,"state":"active","ping":97},{"user_id":132,"name":"sauce","steam_id":76561198068430673,"connected_time":2840000000000,"state":"active","ping":84},{"user_id":181,"name":"Reisen Udongein Inaba","steam_id":76561198051082314,"connected_time":423000000000,"state":"active","ping":110},{"user_id":168,"name":"dolly","steam_id":76561198440779667,"connected_time":1279000000000,"state":"active","ping":62},{"user_id":169,"name":"GamingJuice42","steam_id":76561198110469437,"connected_time":1263000000000,"state":"active","ping":61},{"user_id":182,"name":"Junko","steam_id":76561198146089003,"connected_time":174000000000,"state":"active","ping":54},{"user_id":149,"name":"H.","steam_id":76561198074951179,"connected_time":1789000000000,"state":"active","ping":68},{"user_id":160,"name":"Fredfredfood","steam_id":76561198072824802,"connected_time":1401000000000,"state":"active","ping":55}]},{"server_id":37,"name":"Uncletopia | Chicago | 6 | All Maps","name_short":"chi-6","host":"chi-2.us.uncletopia.com","port":27025,"enabled":true,"region":"us-central","cc":"us","latitude":41.881832,"longitude":-87.62318,"reserved":0,"last_update":"0001-01-01T00:00:00Z","name_a2s":"Uncletopia | Chicago | 6 | All Maps","protocol":17,"map":"pl_frontier_final","folder":"tf","game":"Team Fortress","app_id":440,"player_count":24,"max_players":24,"Bots":0,"server_type":"Dedicated","server_os":"Linux","password":true,"vac":true,"version":"7882260","steam_id":85568392924866363,"keywords":["nocrits","nodmgspread","payload","uncletopia"],"game_id":440,"stv_port":27026,"stv_name":"Uncletopia | Chicago | 6 | All Maps | STV","players":[{"user_id":8,"name":"Kaptinver","steam_id":76561199133313941,"connected_time":2589000000000,"state":"active","ping":79},{"user_id":9,"name":"laserx175","steam_id":76561199220960517,"connected_time":2520000000000,"state":"active","ping":73},{"user_id":48,"name":"Bee","steam_id":76561198074681324,"connected_time":230000000000,"state":"active","ping":60},{"user_id":42,"name":"ilimori","steam_id":76561197961231625,"connected_time":998000000000,"state":"active","ping":134},{"user_id":15,"name":"3xtr3m3rWbyFan2901025","steam_id":76561198042286766,"connected_time":1824000000000,"state":"active","ping":69},{"user_id":46,"name":"SuperFresh","steam_id":76561198200723198,"connected_time":835000000000,"state":"active","ping":38},{"user_id":24,"name":"RedLetterDay","steam_id":76561198168026154,"connected_time":1454000000000,"state":"active","ping":98},{"user_id":19,"name":"Tskuno","steam_id":76561198129291597,"connected_time":1549000000000,"state":"active","ping":56},{"user_id":27,"name":"stupid retard","steam_id":76561198946783148,"connected_time":1437000000000,"state":"active","ping":57},{"user_id":47,"name":"parkace","steam_id":76561198079476666,"connected_time":827000000000,"state":"active","ping":66},{"user_id":22,"name":"genuine reaction","steam_id":76561199007703661,"connected_time":1519000000000,"state":"active","ping":75},{"user_id":23,"name":"Snake Handler","steam_id":76561198027198306,"connected_time":1518000000000,"state":"active","ping":55},{"user_id":25,"name":"Brigade","steam_id":76561198044656610,"connected_time":1452000000000,"state":"active","ping":65},{"user_id":26,"name":"ursa","steam_id":76561198025394298,"connected_time":1450000000000,"state":"active","ping":51},{"user_id":45,"name":"dongwater","steam_id":76561198186629499,"connected_time":873000000000,"state":"active","ping":104},{"user_id":29,"name":"OrangeSodaMachine","steam_id":76561198079230156,"connected_time":1396000000000,"state":"active","ping":87},{"user_id":30,"name":"LukeLeal","steam_id":76561198049822995,"connected_time":1388000000000,"state":"active","ping":167},{"user_id":31,"name":"dr. fartgood","steam_id":76561198329087915,"connected_time":1386000000000,"state":"active","ping":103},{"user_id":32,"name":"marf","steam_id":76561198259541415,"connected_time":1339000000000,"state":"active","ping":70},{"user_id":34,"name":"Boxen","steam_id":76561198014983127,"connected_time":1220000000000,"state":"active","ping":93},{"user_id":40,"name":"yeyoi","steam_id":76561198069821885,"connected_time":1042000000000,"state":"active","ping":70},{"user_id":41,"name":"Ceiling Man","steam_id":76561198003959902,"connected_time":1019000000000,"state":"active","ping":59},{"user_id":37,"name":"sauce","steam_id":76561198155481540,"connected_time":1130000000000,"state":"active","ping":79},{"user_id":44,"name":"Lilith","steam_id":76561198125102885,"connected_time":975000000000,"state":"active","ping":69}]},{"server_id":38,"name":"Uncletopia | Chicago | 7 | Stopwatch Beta","name_short":"chi-7","host":"chi-2.us.uncletopia.com","port":27035,"enabled":true,"region":"us-central","cc":"us","latitude":41.881832,"longitude":-87.62318,"reserved":0,"last_update":"0001-01-01T00:00:00Z","name_a2s":"Uncletopia | Chicago | 7 | Stopwatch Beta","protocol":17,"map":"pl_borneo","folder":"tf","game":"Team Fortress","app_id":440,"player_count":0,"max_players":24,"Bots":0,"server_type":"Dedicated","server_os":"Linux","password":true,"vac":true,"version":"7882260","steam_id":85568392924866364,"keywords":["nocrits","nodmgspread","payload","uncletopia"],"game_id":440,"stv_port":27036,"stv_name":"Uncletopia | Chicago | 7 | Stopwatch Beta | STV","players":null},{"server_id":39,"name":"Uncletopia | Chicago | 8 | Community","name_short":"chi-8","host":"chi-2.us.uncletopia.com","port":27045,"enabled":true,"region":"us-central","cc":"us","latitude":41.881832,"longitude":-87.62318,"reserved":0,"last_update":"0001-01-01T00:00:00Z","name_a2s":"Uncletopia | Chicago | 8 | Community","protocol":17,"map":"workshop/cp_caldera_rc2.ugc2834196889","folder":"tf","game":"Team Fortress","app_id":440,"player_count":0,"max_players":24,"Bots":0,"server_type":"Dedicated","server_os":"Linux","password":true,"vac":true,"version":"7882260","steam_id":85568392924866365,"keywords":["cp","nocrits","nodmgspread","uncletopia"],"game_id":440,"stv_port":27046,"stv_name":"Uncletopia | Chicago | 8 | Community | STV","players":null},{"server_id":8,"name":"Uncletopia | Dallas | 1 | All Maps","name_short":"dal-1","host":"dal-1.us.uncletopia.com","port":27015,"enabled":true,"region":"us-central","cc":"us","latitude":32.779167,"longitude":-96.80889,"reserved":0,"last_update":"0001-01-01T00:00:00Z","name_a2s":"Uncletopia | Dallas | 1 | All Maps","protocol":17,"map":"pl_upward","folder":"tf","game":"Team Fortress","app_id":440,"player_count":24,"max_players":24,"Bots":0,"server_type":"Dedicated","server_os":"Linux","password":true,"vac":true,"version":"7882260","steam_id":85568392924469986,"keywords":["nocrits","nodmgspread","payload","uncletopia"],"game_id":440,"stv_port":27016,"stv_name":"Uncletopia | Dallas | 1 | All Maps | STV","players":[{"user_id":294,"name":"lustful for Pok√©mon","steam_id":76561198063713049,"connected_time":805000000000,"state":"active","ping":57},{"user_id":286,"name":"Painkiller","steam_id":76561198049787400,"connected_time":1164000000000,"state":"active","ping":72},{"user_id":263,"name":"Borgir","steam_id":76561198325390265,"connected_time":3308000000000,"state":"active","ping":70},{"user_id":285,"name":"jarvis the raccoon","steam_id":76561198424954118,"connected_time":1170000000000,"state":"active","ping":50},{"user_id":243,"name":"Jazztral (Grandmaster)","steam_id":76561198067827514,"connected_time":4551000000000,"state":"active","ping":38},{"user_id":298,"name":"MonkeyNobody","steam_id":76561199451266605,"connected_time":417000000000,"state":"active","ping":86},{"user_id":287,"name":"punks","steam_id":76561199140940650,"connected_time":1138000000000,"state":"active","ping":75},{"user_id":299,"name":"agert","steam_id":76561199028751406,"connected_time":406000000000,"state":"active","ping":159},{"user_id":230,"name":"wrist game dumbin","steam_id":76561198247984828,"connected_time":5624000000000,"state":"active","ping":66},{"user_id":262,"name":"„Ç≥„Ç´„Ç§„É≥","steam_id":76561198254360137,"connected_time":3413000000000,"state":"active","ping":88},{"user_id":232,"name":"goon refinery","steam_id":76561198166781089,"connected_time":5539000000000,"state":"active","ping":58},{"user_id":272,"name":"Dark Horse","steam_id":76561198088951869,"connected_time":2551000000000,"state":"active","ping":103},{"user_id":296,"name":"lokm","steam_id":76561198030374238,"connected_time":526000000000,"state":"active","ping":90},{"user_id":297,"name":"errant","steam_id":76561197961758410,"connected_time":525000000000,"state":"active","ping":37},{"user_id":247,"name":"Kito","steam_id":76561198394383213,"connected_time":3973000000000,"state":"active","ping":97},{"user_id":289,"name":"Syntexis","steam_id":76561199229920913,"connected_time":1092000000000,"state":"active","ping":109},{"user_id":292,"name":"meggie","steam_id":76561198038291026,"connected_time":1008000000000,"state":"active","ping":43},{"user_id":221,"name":"Ÿ©(^·¥ó^)€∂","steam_id":76561199013337543,"connected_time":6719000000000,"state":"active","ping":71},{"user_id":275,"name":"floofy","steam_id":76561198389769098,"connected_time":2278000000000,"state":"active","ping":84},{"user_id":147,"name":"Moonflower ‚ú¶","steam_id":76561198191782483,"connected_time":12235000000000,"state":"active","ping":51},{"user_id":281,"name":"Trash Rummager","steam_id":76561198085388962,"connected_time":1436000000000,"state":"active","ping":72},{"user_id":290,"name":"mkl","steam_id":76561197986401685,"connected_time":1088000000000,"state":"active","ping":60},{"user_id":300,"name":"***** beheader","steam_id":76561199395351700,"connected_time":406000000000,"state":"active","ping":73},{"user_id":295,"name":"Casper","steam_id":76561198142131926,"connected_time":774000000000,"state":"active","ping":118}]},{"server_id":108,"name":"Uncletopia | Dallas | 2 | All Maps","name_short":"dal-2","host":"dal-1.us.uncletopia.com","port":27025,"enabled":true,"region":"us-central","cc":"us","latitude":32.779167,"longitude":-96.80889,"reserved":0,"last_update":"0001-01-01T00:00:00Z","name_a2s":"Uncletopia | Dallas | 2 | All Maps","protocol":17,"map":"pl_swiftwater_final1","folder":"tf","game":"Team Fortress","app_id":440,"player_count":24,"max_players":24,"Bots":0,"server_type":"Dedicated","server_os":"Linux","password":true,"vac":true,"version":"7882260","steam_id":85568392924469988,"keywords":["nocrits","nodmgspread","payload","uncletopia"],"game_id":440,"stv_port":27026,"stv_name":"Uncletopia | Dallas | 2 | All Maps | STV","players":[{"user_id":169,"name":"Kuwait Grips","steam_id":76561198292689973,"connected_time":53000000000,"state":"active","ping":75},{"user_id":170,"name":"VelocityCubeR","steam_id":76561198044351011,"connected_time":34000000000,"state":"active","ping":74},{"user_id":84,"name":"vgMaster749","steam_id":76561198205048900,"connected_time":6301000000000,"state":"active","ping":60},{"user_id":154,"name":"wizorb","steam_id":76561198002172674,"connected_time":1444000000000,"state":"active","ping":64},{"user_id":69,"name":"BigPimpin","steam_id":76561198119549348,"connected_time":7033000000000,"state":"active","ping":45},{"user_id":118,"name":"aintnowaiyboi","steam_id":76561198301372369,"connected_time":4644000000000,"state":"active","ping":31},{"user_id":134,"name":"ayecodex","steam_id":76561199477598858,"connected_time":2669000000000,"state":"active","ping":80},{"user_id":115,"name":"Panda Loser","steam_id":76561198828745176,"connected_time":4734000000000,"state":"active","ping":91},{"user_id":122,"name":"Sup m8","steam_id":76561198081659121,"connected_time":3907000000000,"state":"active","ping":36},{"user_id":117,"name":"thepokeyen","steam_id":76561198236847572,"connected_time":4675000000000,"state":"active","ping":85},{"user_id":146,"name":"adami","steam_id":76561198800334731,"connected_time":2095000000000,"state":"active","ping":83},{"user_id":159,"name":"Sammich Slinger","steam_id":76561198007644532,"connected_time":608000000000,"state":"active","ping":64},{"user_id":143,"name":"Baked Beans","steam_id":76561198090419068,"connected_time":2521000000000,"state":"active","ping":134},{"user_id":85,"name":"Ethan7704","steam_id":76561198821010606,"connected_time":6293000000000,"state":"active","ping":78},{"user_id":150,"name":"sebasnerd12","steam_id":76561199437010123,"connected_time":1714000000000,"state":"active","ping":81},{"user_id":156,"name":"Your Local Florida Man","steam_id":76561199213763625,"connected_time":947000000000,"state":"active","ping":85},{"user_id":164,"name":"Kid named download","steam_id":76561199192074448,"connected_time":356000000000,"state":"active","ping":104},{"user_id":110,"name":"Emijon","steam_id":76561198255179590,"connected_time":5371000000000,"state":"active","ping":103},{"user_id":171,"name":"catboy battery eater","steam_id":76561198067881981,"connected_time":29000000000,"state":"spawning","ping":293},{"user_id":130,"name":"Jacob Hornberger 2016","steam_id":76561198204549723,"connected_time":3255000000000,"state":"active","ping":126},{"user_id":161,"name":"Lolxdloldx","steam_id":76561198136887125,"connected_time":482000000000,"state":"active","ping":104},{"user_id":153,"name":"Pluto","steam_id":76561198338593690,"connected_time":1651000000000,"state":"active","ping":86},{"user_id":165,"name":"Tyler\u0026Fingers","steam_id":76561198085154485,"connected_time":251000000000,"state":"active","ping":91},{"user_id":167,"name":"slime ( ,'' w'' ) do crime","steam_id":76561198198984282,"connected_time":120000000000,"state":"active","ping":88}]},{"server_id":5,"name":"Uncletopia | Frankfurt | 1 | All Maps","name_short":"frk-1","host":"frk-1.de.uncletopia.com","port":27015,"enabled":true,"region":"eu","cc":"de","latitude":50.110924,"longitude":8.682127,"reserved":0,"last_update":"0001-01-01T00:00:00Z","name_a2s":"Uncletopia | Frankfurt | 1 | All Maps","protocol":17,"map":"pl_upward","folder":"tf","game":"Team Fortress","app_id":440,"player_count":24,"max_players":24,"Bots":0,"server_type":"Dedicated","server_os":"Linux","password":true,"vac":true,"version":"7882260","steam_id":85568392924469989,"keywords":["nocrits","nodmgspread","payload","uncletopia"],"game_id":440,"stv_port":27016,"stv_name":"Uncletopia | Frankfurt | 1 | All Maps | STV","players":[{"user_id":790,"name":"Kutuzov","steam_id":76561198060988694,"connected_time":91000000000,"state":"active","ping":99},{"user_id":764,"name":"i drink a lot of coffee","steam_id":76561199233979726,"connected_time":1519000000000,"state":"active","ping":75},{"user_id":789,"name":"Ë™∞„Åã„ÅåË¶ã„Å¶„ÅÑ„Çã","steam_id":76561198834913692,"connected_time":188000000000,"state":"active","ping":74},{"user_id":744,"name":"Onyx Odin - Alcoholic Alchemist","steam_id":76561198044560148,"connected_time":2643000000000,"state":"active","ping":71},{"user_id":765,"name":"Mata_FM","steam_id":76561198044824504,"connected_time":1518000000000,"state":"active","ping":58},{"user_id":777,"name":"Vratis","steam_id":76561198062957725,"connected_time":1036000000000,"state":"active","ping":97},{"user_id":767,"name":"skatie","steam_id":76561198169487380,"connected_time":1449000000000,"state":"active","ping":73},{"user_id":784,"name":"Kurage","steam_id":76561198021221288,"connected_time":824000000000,"state":"active","ping":59},{"user_id":786,"name":"MONKEY FIT CHECK üíÄüíÄüíÄ","steam_id":76561198235739036,"connected_time":466000000000,"state":"active","ping":75},{"user_id":769,"name":"JunkJen","steam_id":76561198017223402,"connected_time":1417000000000,"state":"active","ping":69},{"user_id":750,"name":"ldshwt","steam_id":76561198090364357,"connected_time":2111000000000,"state":"active","ping":45},{"user_id":780,"name":"Jucatron","steam_id":76561198044259577,"connected_time":986000000000,"state":"active","ping":83},{"user_id":740,"name":"truebosnianking","steam_id":76561199440060597,"connected_time":2779000000000,"state":"active","ping":86},{"user_id":773,"name":"JeanCorben","steam_id":76561197965133561,"connected_time":1166000000000,"state":"active","ping":45},{"user_id":771,"name":"etc","steam_id":76561197998394797,"connected_time":1398000000000,"state":"active","ping":60},{"user_id":781,"name":"zak","steam_id":76561197998895428,"connected_time":916000000000,"state":"active","ping":56},{"user_id":783,"name":"Garoiop","steam_id":76561198082326459,"connected_time":900000000000,"state":"active","ping":45},{"user_id":745,"name":"Stefan Bizantni","steam_id":76561198274068720,"connected_time":2622000000000,"state":"active","ping":72},{"user_id":772,"name":"ChPerette","steam_id":76561198060004887,"connected_time":1361000000000,"state":"active","ping":45},{"user_id":731,"name":"SNS BATIN–ê–®","steam_id":76561198053914183,"connected_time":3407000000000,"state":"active","ping":67},{"user_id":724,"name":"Weebot00","steam_id":76561199479204459,"connected_time":4304000000000,"state":"active","ping":79},{"user_id":762,"name":"Sir Kiops","steam_id":76561198022769275,"connected_time":1691000000000,"state":"active","ping":119},{"user_id":788,"name":"We believe in you!","steam_id":76561198219252313,"connected_time":220000000000,"state":"active","ping":142},{"user_id":747,"name":"atomic press","steam_id":76561198120668070,"connected_time":2198000000000,"state":"active","ping":61}]},{"server_id":110,"name":"Uncletopia | Frankfurt | 2 | All Maps","name_short":"frk-2","host":"frk-1.de.uncletopia.com","port":27025,"enabled":true,"region":"eu","cc":"de","latitude":50.110924,"longitude":8.682127,"reserved":0,"last_update":"0001-01-01T00:00:00Z","name_a2s":"Uncletopia | Frankfurt | 2 | All Maps","protocol":17,"map":"cp_mountainlab","folder":"tf","game":"Team Fortress","app_id":440,"player_count":23,"max_players":24,"Bots":0,"server_type":"Dedicated","server_os":"Linux","password":true,"vac":true,"version":"7882260","steam_id":85568392924469990,"keywords":["cp","nocrits","nodmgspread","uncletopia"],"game_id":440,"stv_port":27026,"stv_name":"Uncletopia | Frankfurt | 2 | All Maps | STV","players":[{"user_id":541,"name":"tea girl","steam_id":76561198068054530,"connected_time":497000000000,"state":"active","ping":76},{"user_id":533,"name":"Femboy Lilli","steam_id":76561198090146457,"connected_time":600000000000,"state":"active","ping":56},{"user_id":534,"name":"DangerousDave49","steam_id":76561198248567360,"connected_time":598000000000,"state":"active","ping":51},{"user_id":498,"name":"wieto","steam_id":76561198050626427,"connected_time":2462000000000,"state":"active","ping":57},{"user_id":526,"name":"üå≠ 0mger #YNWA","steam_id":76561198053615827,"connected_time":1240000000000,"state":"active","ping":72},{"user_id":489,"name":"mpk02","steam_id":76561198056572735,"connected_time":2665000000000,"state":"active","ping":47},{"user_id":535,"name":"cornycarl67","steam_id":76561198088624259,"connected_time":597000000000,"state":"active","ping":60},{"user_id":546,"name":"sriracha..","steam_id":76561198005560221,"connected_time":367000000000,"state":"active","ping":74},{"user_id":538,"name":"RipSchrozo","steam_id":76561198963378933,"connected_time":576000000000,"state":"active","ping":55},{"user_id":493,"name":"Nuda","steam_id":76561198097550587,"connected_time":2550000000000,"state":"active","ping":88},{"user_id":407,"name":"Melford","steam_id":76561198319650677,"connected_time":8315000000000,"state":"active","ping":152},{"user_id":547,"name":"paguro","steam_id":76561198119560871,"connected_time":301000000000,"state":"active","ping":65},{"user_id":491,"name":"Ravenleeds","steam_id":76561198130577266,"connected_time":2644000000000,"state":"active","ping":73},{"user_id":539,"name":"LocalChurch58","steam_id":76561198307037169,"connected_time":572000000000,"state":"active","ping":73},{"user_id":552,"name":"Fridge","steam_id":76561198071665589,"connected_time":61000000000,"state":"active","ping":102},{"user_id":524,"name":"true","steam_id":76561198031145243,"connected_time":1301000000000,"state":"active","ping":82},{"user_id":540,"name":"2BCD","steam_id":76561198178254946,"connected_time":533000000000,"state":"active","ping":71},{"user_id":544,"name":"SteveFrench","steam_id":76561198151553383,"connected_time":436000000000,"state":"active","ping":81},{"user_id":548,"name":"frenchie","steam_id":76561198178298931,"connected_time":297000000000,"state":"active","ping":54},{"user_id":542,"name":"Beehive","steam_id":76561198003357205,"connected_time":487000000000,"state":"active","ping":64},{"user_id":551,"name":"scarecrowshelper","steam_id":76561198072260553,"connected_time":97000000000,"state":"active","ping":46},{"user_id":528,"name":"PerpetuaForever","steam_id":76561198347444353,"connected_time":1118000000000,"state":"active","ping":138},{"user_id":545,"name":"Col0bok","steam_id":76561197999097117,"connected_time":424000000000,"state":"active","ping":61}]},{"server_id":308,"name":"Uncletopia | Frankfurt | 3 | All Maps","name_short":"frk-3","host":"frk-1.de.uncletopia.com","port":27035,"enabled":true,"region":"eu","cc":"de","latitude":50.110924,"longitude":8.682127,"reserved":0,"last_update":"0001-01-01T00:00:00Z","name_a2s":"Uncletopia | Frankfurt | 3 | All Maps","protocol":17,"map":"pl_borneo","folder":"tf","game":"Team Fortress","app_id":440,"player_count":0,"max_players":24,"Bots":0,"server_type":"Dedicated","server_os":"Linux","password":true,"vac":true,"version":"7882260","steam_id":85568392924504274,"keywords":["nocrits","nodmgspread","payload","uncletopia"],"game_id":440,"stv_port":27036,"stv_name":"Uncletopia | Frankfurt | 3 | All Maps | STV","players":null},{"server_id":309,"name":"Uncletopia | Frankfurt | 4 | All Maps","name_short":"frk-4","host":"frk-1.de.uncletopia.com","port":27045,"enabled":true,"region":"eu","cc":"de","latitude":50.110924,"longitude":8.682127,"reserved":0,"last_update":"0001-01-01T00:00:00Z","name_a2s":"Uncletopia | Frankfurt | 4 | All Maps","protocol":17,"map":"pl_badwater","folder":"tf","game":"Team Fortress","app_id":440,"player_count":5,"max_players":24,"Bots":0,"server_type":"Dedicated","server_os":"Linux","password":true,"vac":true,"version":"7882260","steam_id":85568392924504275,"keywords":["nocrits","nodmgspread","payload","uncletopia"],"game_id":440,"stv_port":27046,"stv_name":"Uncletopia | Frankfurt | 4 | All Maps | STV","players":[{"user_id":753,"name":"Flaffian","steam_id":76561198261614764,"connected_time":357000000000,"state":"active","ping":83},{"user_id":755,"name":"Wake","steam_id":76561198873753505,"connected_time":104000000000,"state":"active","ping":64},{"user_id":754,"name":"Homiestar","steam_id":76561198187677333,"connected_time":298000000000,"state":"active","ping":174},{"user_id":756,"name":"sussy_–ï173","steam_id":76561198323789838,"connected_time":8000000000,"state":"spawning","ping":73},{"user_id":701,"name":"PierraNova","steam_id":76561198145686102,"connected_time":5351000000000,"state":"active","ping":56}]},{"server_id":310,"name":"Uncletopia | Frankfurt | 5 | All Maps","name_short":"frk-5","host":"frk-1.de.uncletopia.com","port":27055,"enabled":true,"region":"eu","cc":"de","latitude":50.110924,"longitude":8.682127,"reserved":0,"last_update":"0001-01-01T00:00:00Z","name_a2s":"Uncletopia | Frankfurt | 5 | All Maps","protocol":17,"map":"cp_yukon_final","folder":"tf","game":"Team Fortress","app_id":440,"player_count":5,"max_players":24,"Bots":0,"server_type":"Dedicated","server_os":"Linux","password":true,"vac":true,"version":"7882260","steam_id":85568392924504277,"keywords":["cp","nocrits","nodmgspread","uncletopia"],"game_id":440,"stv_port":27056,"stv_name":"Uncletopia | Frankfurt | 5 | All Maps | STV","players":[{"user_id":672,"name":"ja","steam_id":76561199228540618,"connected_time":2002000000000,"state":"active","ping":70},{"user_id":673,"name":"[ O B S E R V E ]","steam_id":76561198382531285,"connected_time":1820000000000,"state":"active","ping":45},{"user_id":682,"name":"Frank","steam_id":76561198086672774,"connected_time":161000000000,"state":"active","ping":58},{"user_id":674,"name":"FROYO racist","steam_id":76561198179461907,"connected_time":1742000000000,"state":"active","ping":71},{"user_id":681,"name":"Karzaroth / 101 Objectors","steam_id":76561198134220286,"connected_time":815000000000,"state":"active","ping":57}]},{"server_id":311,"name":"Uncletopia | Frankfurt | 6 | All Maps","name_short":"frk-6","host":"frk-1.de.uncletopia.com","port":27065,"enabled":true,"region":"eu","cc":"de","latitude":50.110924,"longitude":8.682127,"reserved":0,"last_update":"0001-01-01T00:00:00Z","name_a2s":"Uncletopia | Frankfurt | 6 | All Maps","protocol":17,"map":"cp_dustbowl","folder":"tf","game":"Team Fortress","app_id":440,"player_count":22,"max_players":24,"Bots":0,"server_type":"Dedicated","server_os":"Linux","password":true,"vac":true,"version":"7882260","steam_id":85568392924504278,"keywords":["cp","nocrits","nodmgspread","uncletopia"],"game_id":440,"stv_port":27066,"stv_name":"Uncletopia | Frankfurt | 6 | All Maps | STV","players":[{"user_id":214,"name":"painting4","steam_id":76561198067554256,"connected_time":1776000000000,"state":"active","ping":61},{"user_id":216,"name":"koira","steam_id":76561197996199669,"connected_time":1748000000000,"state":"active","ping":87},{"user_id":224,"name":"RebirthInFire","steam_id":76561198200555755,"connected_time":1041000000000,"state":"active","ping":55},{"user_id":246,"name":"Uncle Moomin","steam_id":76561198011628656,"connected_time":277000000000,"state":"active","ping":83},{"user_id":191,"name":"‚≤ò‚≤ì‚≤Å","steam_id":76561199005875559,"connected_time":4310000000000,"state":"active","ping":44},{"user_id":247,"name":"ma≈Çy #tf2pickup.pl","steam_id":76561198074409147,"connected_time":204000000000,"state":"active","ping":54},{"user_id":186,"name":"Chucky.","steam_id":76561197969361063,"connected_time":4599000000000,"state":"active","ping":88},{"user_id":226,"name":"MakTrebla#SaveTF2","steam_id":76561198816539913,"connected_time":837000000000,"state":"active","ping":81},{"user_id":210,"name":"dashin389","steam_id":76561199375915760,"connected_time":2794000000000,"state":"active","ping":157},{"user_id":248,"name":"d","steam_id":76561198042710298,"connected_time":204000000000,"state":"active","ping":45},{"user_id":240,"name":"Deckard","steam_id":76561198004704647,"connected_time":446000000000,"state":"active","ping":76},{"user_id":241,"name":"dn4k","steam_id":76561199221755690,"connected_time":437000000000,"state":"active","ping":76},{"user_id":249,"name":"badrobot","steam_id":76561198322878356,"connected_time":142000000000,"state":"active","ping":101},{"user_id":250,"name":"wgbubl","steam_id":76561199133004884,"connected_time":119000000000,"state":"active","ping":86},{"user_id":220,"name":"adga","steam_id":76561198037563515,"connected_time":1659000000000,"state":"active","ping":79},{"user_id":195,"name":"REN","steam_id":76561198000596385,"connected_time":3942000000000,"state":"active","ping":73},{"user_id":136,"name":"xx_peter_griffinzz_xx","steam_id":76561198863013731,"connected_time":9627000000000,"state":"active","ping":47},{"user_id":242,"name":"\u003c3","steam_id":76561199429407130,"connected_time":430000000000,"state":"active","ping":102},{"user_id":251,"name":"owl","steam_id":76561197998066985,"connected_time":115000000000,"state":"active","ping":63},{"user_id":233,"name":"powerviolentjunglist","steam_id":76561198193802523,"connected_time":698000000000,"state":"active","ping":46},{"user_id":138,"name":"Kaiser","steam_id":76561198024490825,"connected_time":9535000000000,"state":"active","ping":46},{"user_id":252,"name":"Ohad","steam_id":76561198067989324,"connected_time":103000000000,"state":"active","ping":99}]},{"server_id":23,"name":"Uncletopia | Frankfurt | 7 | Stopwatch Beta","name_short":"frk-7","host":"frk-1.de.uncletopia.com","port":27075,"enabled":true,"region":"eu","cc":"de","latitude":50.110924,"longitude":8.682127,"reserved":0,"last_update":"0001-01-01T00:00:00Z","name_a2s":"Uncletopia | Frankfurt | 7 | Stopwatch Beta","protocol":17,"map":"workshop/pl_badwater_pro_v12.ugc2142942074","folder":"tf","game":"Team Fortress","app_id":440,"player_count":0,"max_players":24,"Bots":0,"server_type":"Dedicated","server_os":"Linux","password":true,"vac":true,"version":"7882260","steam_id":85568392924742827,"keywords":["nocrits","nodmgspread","payload","uncletopia"],"game_id":440,"stv_port":27076,"stv_name":"Uncletopia | Frankfurt | 7 | Stopwatch Beta | STV","players":null},{"server_id":24,"name":"Uncletopia | Frankfurt | 8 | Community","name_short":"frk-8","host":"frk-1.de.uncletopia.com","port":27085,"enabled":true,"region":"eu","cc":"de","latitude":50.110924,"longitude":8.682127,"reserved":0,"last_update":"0001-01-01T00:00:00Z","name_a2s":"Uncletopia | Frankfurt | 8 | Community","protocol":17,"map":"workshop/koth_trenchfoot_b1a.ugc731436616","folder":"tf","game":"Team Fortress","app_id":440,"player_count":0,"max_players":24,"Bots":0,"server_type":"Dedicated","server_os":"Linux","password":true,"vac":true,"version":"7882260","steam_id":85568392924742828,"keywords":["cp","nocrits","nodmgspread","uncletopia"],"game_id":440,"stv_port":27086,"stv_name":"Uncletopia | Frankfurt | 8 | Community | STV","players":null},{"server_id":202,"name":"Uncletopia | Hong Kong | 1 | All Maps","name_short":"hgk-1","host":"hgk-1.hk.uncletopia.com","port":27015,"enabled":true,"region":"asia","cc":"hk","latitude":22.302711,"longitude":114.177216,"reserved":0,"last_update":"0001-01-01T00:00:00Z","name_a2s":"Uncletopia | Hong Kong | 1 | All Maps","protocol":17,"map":"koth_cascade","folder":"tf","game":"Team Fortress","app_id":440,"player_count":0,"max_players":24,"Bots":0,"server_type":"Dedicated","server_os":"Linux","password":true,"vac":true,"version":"7882260","steam_id":85568392924494504,"keywords":["cp","nocrits","nodmgspread","uncletopia"],"game_id":440,"stv_port":27016,"stv_name":"Uncletopia | Hong Kong | 1 | All Maps | STV","players":null},{"server_id":1,"name":"Uncletopia | Los Angeles | 1 | All Maps","name_short":"lax-1","host":"lax-1.us.uncletopia.com","port":27015,"enabled":true,"region":"us-west","cc":"us","latitude":33.94279,"longitude":-118.41004,"reserved":0,"last_update":"0001-01-01T00:00:00Z","name_a2s":"Uncletopia | Los Angeles | 1 | All Maps","protocol":17,"map":"cp_gullywash_final1","folder":"tf","game":"Team Fortress","app_id":440,"player_count":24,"max_players":24,"Bots":0,"server_type":"Dedicated","server_os":"Linux","password":true,"vac":true,"version":"7882260","steam_id":85568392924469991,"keywords":["cp","nocrits","nodmgspread","uncletopia"],"game_id":440,"stv_port":27016,"stv_name":"Uncletopia | Los Angeles | 1 | All Maps | STV","players":[{"user_id":243,"name":"kimchiking82","steam_id":76561198008423339,"connected_time":240000000000,"state":"active","ping":98},{"user_id":239,"name":"YouCantSpellNutritionW/OutNUT","steam_id":76561198060588059,"connected_time":618000000000,"state":"active","ping":59},{"user_id":244,"name":"Spookydrop","steam_id":76561199244978757,"connected_time":229000000000,"state":"active","ping":143},{"user_id":110,"name":"cielael","steam_id":76561198043971956,"connected_time":5787000000000,"state":"active","ping":46},{"user_id":205,"name":"IPlayGamez","steam_id":76561198041387508,"connected_time":2575000000000,"state":"active","ping":95},{"user_id":190,"name":"Doc_Eevee","steam_id":76561199289204820,"connected_time":3307000000000,"state":"active","ping":71},{"user_id":242,"name":"Power Jake","steam_id":76561198051510260,"connected_time":475000000000,"state":"active","ping":60},{"user_id":235,"name":"June","steam_id":76561198141803658,"connected_time":1345000000000,"state":"active","ping":47},{"user_id":240,"name":"Cerabond","steam_id":76561199230915333,"connected_time":616000000000,"state":"active","ping":117},{"user_id":182,"name":"Niftylizard","steam_id":76561198175872151,"connected_time":3487000000000,"state":"active","ping":58},{"user_id":250,"name":"DioMagnus","steam_id":76561198299391327,"connected_time":40000000000,"state":"active","ping":44},{"user_id":246,"name":"BEEF","steam_id":76561198808022480,"connected_time":180000000000,"state":"active","ping":121},{"user_id":230,"name":"RetroFerret","steam_id":76561199269714905,"connected_time":1549000000000,"state":"active","ping":116},{"user_id":233,"name":"usedhalfcart","steam_id":76561198072621852,"connected_time":1455000000000,"state":"active","ping":79},{"user_id":79,"name":"gumcuzzler","steam_id":76561198118644686,"connected_time":8075000000000,"state":"active","ping":54},{"user_id":248,"name":"Takyon","steam_id":76561198240014196,"connected_time":94000000000,"state":"active","ping":45},{"user_id":237,"name":"lil homie gay ass","steam_id":76561198044804626,"connected_time":965000000000,"state":"active","ping":105},{"user_id":213,"name":"Monkey D. Management","steam_id":76561198400603422,"connected_time":2169000000000,"state":"active","ping":109},{"user_id":214,"name":"Isaac Clarke","steam_id":76561198317662346,"connected_time":2099000000000,"state":"active","ping":129},{"user_id":199,"name":"Einstein_Kid","steam_id":76561199079149141,"connected_time":2956000000000,"state":"active","ping":60},{"user_id":241,"name":"Dirt Road","steam_id":76561198210372012,"connected_time":555000000000,"state":"active","ping":125},{"user_id":141,"name":"I throw a lot","steam_id":76561198209650964,"connected_time":4688000000000,"state":"active","ping":58},{"user_id":209,"name":"lasagna","steam_id":76561198882758067,"connected_time":2333000000000,"state":"active","ping":92},{"user_id":203,"name":"SanitysEdge","steam_id":76561198130732813,"connected_time":2817000000000,"state":"active","ping":52}]},{"server_id":112,"name":"Uncletopia | Los Angeles | 2 | All Maps","name_short":"lax-2","host":"lax-1.us.uncletopia.com","port":27025,"enabled":true,"region":"us-west","cc":"us","latitude":33.94279,"longitude":-118.41004,"reserved":0,"last_update":"0001-01-01T00:00:00Z","name_a2s":"Uncletopia | Los Angeles | 2 | All Maps","protocol":17,"map":"pl_snowycoast","folder":"tf","game":"Team Fortress","app_id":440,"player_count":0,"max_players":24,"Bots":0,"server_type":"Dedicated","server_os":"Linux","password":true,"vac":true,"version":"7882260","steam_id":85568392924469992,"keywords":["nocrits","nodmgspread","payload","uncletopia"],"game_id":440,"stv_port":27026,"stv_name":"Uncletopia | Los Angeles | 2 | All Maps | STV","players":null},{"server_id":324,"name":"Uncletopia | Los Angeles | 3 | All Maps","name_short":"lax-3","host":"lax-1.us.uncletopia.com","port":27035,"enabled":true,"region":"us-west","cc":"us","latitude":33.94279,"longitude":-118.41004,"reserved":0,"last_update":"0001-01-01T00:00:00Z","name_a2s":"Uncletopia | Los Angeles | 3 | All Maps","protocol":17,"map":"pl_pier","folder":"tf","game":"Team Fortress","app_id":440,"player_count":0,"max_players":24,"Bots":0,"server_type":"Dedicated","server_os":"Linux","password":true,"vac":true,"version":"7882260","steam_id":85568392924510198,"keywords":["nocrits","nodmgspread","payload","uncletopia"],"game_id":440,"stv_port":27036,"stv_name":"Uncletopia | Los Angeles | 3 | All Maps | STV","players":null},{"server_id":25,"name":"Uncletopia | Los Angeles | 4 | Stopwatch Beta","name_short":"lax-4","host":"lax-1.us.uncletopia.com","port":27045,"enabled":true,"region":"us-west","cc":"us","latitude":33.94279,"longitude":-118.41004,"reserved":0,"last_update":"0001-01-01T00:00:00Z","name_a2s":"Uncletopia | Los Angeles | 4 | Stopwatch Beta","protocol":17,"map":"workshop/koth_bagel_rc6.ugc2514036946","folder":"tf","game":"Team Fortress","app_id":440,"player_count":0,"max_players":24,"Bots":0,"server_type":"Dedicated","server_os":"Linux","password":true,"vac":true,"version":"7882260","steam_id":85568392924510199,"keywords":["cp","nocrits","nodmgspread","uncletopia"],"game_id":440,"stv_port":27046,"stv_name":"Uncletopia | Los Angeles | 4 | Stopwatch Beta | STV","players":null},{"server_id":11,"name":"Uncletopia | London | 1 | All Maps","name_short":"lon-1","host":"lon-1.uk.uncletopia.com","port":27015,"enabled":true,"region":"eu","cc":"gb","latitude":51.509865,"longitude":-0.118092,"reserved":0,"last_update":"0001-01-01T00:00:00Z","name_a2s":"Uncletopia | London | 1 | All Maps","protocol":17,"map":"pl_swiftwater_final1","folder":"tf","game":"Team Fortress","app_id":440,"player_count":24,"max_players":24,"Bots":0,"server_type":"Dedicated","server_os":"Linux","password":true,"vac":true,"version":"7882260","steam_id":85568392924367362,"keywords":["nocrits","nodmgspread","payload","uncletopia"],"game_id":440,"stv_port":27016,"stv_name":"Uncletopia | London | 1 | All Maps | STV","players":[{"user_id":382,"name":"Solarwolf64 #SaveTF2","steam_id":76561198023570251,"connected_time":1510000000000,"state":"active","ping":54},{"user_id":387,"name":"GG CLOSE GAME YALL","steam_id":76561198069650580,"connected_time":1275000000000,"state":"active","ping":89},{"user_id":359,"name":"BreadBubbles","steam_id":76561198174332826,"connected_time":3489000000000,"state":"active","ping":61},{"user_id":394,"name":"teddy","steam_id":76561198007436837,"connected_time":285000000000,"state":"active","ping":34},{"user_id":384,"name":"oh my science","steam_id":76561198190583242,"connected_time":1488000000000,"state":"active","ping":82},{"user_id":352,"name":"dec","steam_id":76561198009660168,"connected_time":4456000000000,"state":"active","ping":55},{"user_id":287,"name":"‚ô•aura‚ô•","steam_id":76561198066258544,"connected_time":9821000000000,"state":"active","ping":61},{"user_id":373,"name":"Hoff","steam_id":76561198026537318,"connected_time":2898000000000,"state":"active","ping":40},{"user_id":340,"name":"flappi","steam_id":76561198072892783,"connected_time":5812000000000,"state":"active","ping":63},{"user_id":363,"name":"maritalfuture36","steam_id":76561198272718247,"connected_time":3411000000000,"state":"active","ping":85},{"user_id":266,"name":"finger","steam_id":76561198106802803,"connected_time":11977000000000,"state":"active","ping":76},{"user_id":365,"name":"Mr Lidl","steam_id":76561198426522902,"connected_time":3374000000000,"state":"active","ping":53},{"user_id":377,"name":"Oak","steam_id":76561198067315672,"connected_time":1697000000000,"state":"active","ping":48},{"user_id":388,"name":"peruna","steam_id":76561198000721196,"connected_time":600000000000,"state":"active","ping":77},{"user_id":375,"name":"Arcader","steam_id":76561198109860110,"connected_time":2739000000000,"state":"active","ping":71},{"user_id":374,"name":"Mell","steam_id":76561198356521260,"connected_time":2869000000000,"state":"active","ping":91},{"user_id":391,"name":"goff","steam_id":76561198118989010,"connected_time":559000000000,"state":"active","ping":48},{"user_id":389,"name":"LiterallyRyanGosling","steam_id":76561199017856691,"connected_time":600000000000,"state":"active","ping":55},{"user_id":252,"name":"cock eater","steam_id":76561198873850443,"connected_time":12294000000000,"state":"active","ping":41},{"user_id":351,"name":"jimmy bob","steam_id":76561198319583692,"connected_time":4719000000000,"state":"active","ping":62},{"user_id":390,"name":"‚ú™ qua ‚ú™","steam_id":76561198066408333,"connected_time":584000000000,"state":"active","ping":75},{"user_id":386,"name":"The pigeon king","steam_id":76561198178250598,"connected_time":1384000000000,"state":"active","ping":55},{"user_id":309,"name":"Dwevy","steam_id":76561198090379437,"connected_time":8099000000000,"state":"active","ping":53},{"user_id":392,"name":"eva.","steam_id":76561198054474684,"connected_time":559000000000,"state":"active","ping":86}]},{"server_id":114,"name":"Uncletopia | London | 2 | All Maps","name_short":"lon-2","host":"lon-1.uk.uncletopia.com","port":27025,"enabled":true,"region":"eu","cc":"gb","latitude":51.509865,"longitude":-0.118092,"reserved":0,"last_update":"0001-01-01T00:00:00Z","name_a2s":"Uncletopia | London | 2 | All Maps","protocol":17,"map":"cp_mountainlab","folder":"tf","game":"Team Fortress","app_id":440,"player_count":8,"max_players":24,"Bots":0,"server_type":"Dedicated","server_os":"Linux","password":true,"vac":true,"version":"7882260","steam_id":85568392924470941,"keywords":["cp","nocrits","nodmgspread","uncletopia"],"game_id":440,"stv_port":27026,"stv_name":"Uncletopia | London | 2 | All Maps | STV","players":[{"user_id":335,"name":"Sir Crust","steam_id":76561199122077146,"connected_time":94000000000,"state":"active","ping":55},{"user_id":316,"name":"CLAPPER","steam_id":76561199061808252,"connected_time":4490000000000,"state":"active","ping":55},{"user_id":319,"name":"Spectre","steam_id":76561198163819482,"connected_time":3671000000000,"state":"active","ping":67},{"user_id":320,"name":"Banatical Bean","steam_id":76561198122356617,"connected_time":3408000000000,"state":"active","ping":64},{"user_id":331,"name":"Ô∑Ω","steam_id":76561198049047270,"connected_time":641000000000,"state":"active","ping":52},{"user_id":327,"name":"theboneappleteeth","steam_id":76561198357186957,"connected_time":899000000000,"state":"active","ping":204},{"user_id":330,"name":"ÈπÖÈò¥ËåéÁ≤æÊ∂≤","steam_id":76561198067376454,"connected_time":680000000000,"state":"active","ping":74},{"user_id":336,"name":"Hotdogs","steam_id":76561199112737347,"connected_time":50000000000,"state":"active","ping":67}]},{"server_id":320,"name":"Uncletopia | London | 3 | All Maps","name_short":"lon-3","host":"lon-1.uk.uncletopia.com","port":27035,"enabled":true,"region":"eu","cc":"gb","latitude":51.509865,"longitude":-0.118092,"reserved":0,"last_update":"0001-01-01T00:00:00Z","name_a2s":"Uncletopia | London | 3 | All Maps","protocol":17,"map":"pl_pier","folder":"tf","game":"Team Fortress","app_id":440,"player_count":13,"max_players":24,"Bots":0,"server_type":"Dedicated","server_os":"Linux","password":true,"vac":true,"version":"7882260","steam_id":85568392924510192,"keywords":["nocrits","nodmgspread","payload","uncletopia"],"game_id":440,"stv_port":27036,"stv_name":"Uncletopia | London | 3 | All Maps | STV","players":[{"user_id":160,"name":"The Dogs Bollucks","steam_id":76561198131595961,"connected_time":458000000000,"state":"active","ping":46},{"user_id":111,"name":"zozo","steam_id":76561198332612319,"connected_time":4103000000000,"state":"active","ping":122},{"user_id":150,"name":"CraigslistAdmen","steam_id":76561199018473539,"connected_time":2479000000000,"state":"active","ping":73},{"user_id":167,"name":"shits in urinals","steam_id":76561199480942903,"connected_time":50000000000,"state":"active","ping":69},{"user_id":164,"name":"AudioTrope","steam_id":76561198084116909,"connected_time":117000000000,"state":"active","ping":153},{"user_id":133,"name":"stay focus","steam_id":76561198033695429,"connected_time":3067000000000,"state":"active","ping":30},{"user_id":107,"name":"inebriation of the senses","steam_id":76561198977420882,"connected_time":4753000000000,"state":"active","ping":34},{"user_id":135,"name":"Mr gnash","steam_id":76561198007410990,"connected_time":3023000000000,"state":"active","ping":70},{"user_id":122,"name":"meriones","steam_id":76561198034234373,"connected_time":3863000000000,"state":"active","ping":42},{"user_id":126,"name":"ChomeDomer","steam_id":76561198049375898,"connected_time":3663000000000,"state":"active","ping":76},{"user_id":127,"name":"Shvgo","steam_id":76561199005196948,"connected_time":3661000000000,"state":"active","ping":72},{"user_id":138,"name":"XSCod","steam_id":76561198124586634,"connected_time":2973000000000,"state":"active","ping":71},{"user_id":154,"name":"Lord","steam_id":76561198241305816,"connected_time":1459000000000,"state":"active","ping":119}]},{"server_id":321,"name":"Uncletopia | London | 4 | All Maps","name_short":"lon-4","host":"lon-1.uk.uncletopia.com","port":27045,"enabled":true,"region":"eu","cc":"gb","latitude":51.509865,"longitude":-0.118092,"reserved":0,"last_update":"0001-01-01T00:00:00Z","name_a2s":"Uncletopia | London | 4 | All Maps","protocol":17,"map":"pl_snowycoast","folder":"tf","game":"Team Fortress","app_id":440,"player_count":24,"max_players":24,"Bots":0,"server_type":"Dedicated","server_os":"Linux","password":true,"vac":true,"version":"7882260","steam_id":85568392924510193,"keywords":["nocrits","nodmgspread","payload","uncletopia"],"game_id":440,"stv_port":27046,"stv_name":"Uncletopia | London | 4 | All Maps | STV","players":[{"user_id":316,"name":"ramirez","steam_id":76561198117060048,"connected_time":297000000000,"state":"active","ping":64},{"user_id":293,"name":"monaskick","steam_id":76561198326190912,"connected_time":3564000000000,"state":"active","ping":75},{"user_id":220,"name":"Gnarville","steam_id":76561198006373329,"connected_time":9538000000000,"state":"active","ping":49},{"user_id":303,"name":"wouris","steam_id":76561198876188003,"connected_time":2288000000000,"state":"active","ping":61},{"user_id":313,"name":"Rubi","steam_id":76561198139410003,"connected_time":1516000000000,"state":"active","ping":87},{"user_id":259,"name":"frosty","steam_id":76561198094560834,"connected_time":6741000000000,"state":"active","ping":56},{"user_id":261,"name":"Jon","steam_id":76561199380849468,"connected_time":6709000000000,"state":"active","ping":61},{"user_id":291,"name":"Steen","steam_id":76561198122992510,"connected_time":3847000000000,"state":"active","ping":46},{"user_id":290,"name":"cinny","steam_id":76561198832112629,"connected_time":3997000000000,"state":"active","ping":84},{"user_id":305,"name":"‚òûLaZe‚òú","steam_id":76561198202191400,"connected_time":2185000000000,"state":"active","ping":52},{"user_id":306,"name":"Sylvanas","steam_id":76561198154904165,"connected_time":2163000000000,"state":"active","ping":115},{"user_id":308,"name":"Captain Scrumpe","steam_id":76561198032206577,"connected_time":2103000000000,"state":"active","ping":75},{"user_id":297,"name":"Fat Pigeon","steam_id":76561198817940142,"connected_time":2755000000000,"state":"active","ping":48},{"user_id":315,"name":"bowchika wowa #SlavaUkraine","steam_id":76561198159564550,"connected_time":459000000000,"state":"active","ping":70},{"user_id":309,"name":"lego obi-wan kenobi","steam_id":76561198103336739,"connected_time":2084000000000,"state":"active","ping":69},{"user_id":298,"name":"CAWER","steam_id":76561198277265652,"connected_time":2723000000000,"state":"active","ping":55},{"user_id":269,"name":"Finn","steam_id":76561198179960193,"connected_time":6281000000000,"state":"active","ping":43},{"user_id":296,"name":"Volcyy","steam_id":76561198063979124,"connected_time":2867000000000,"state":"active","ping":48},{"user_id":311,"name":"Nameless","steam_id":76561198084215731,"connected_time":1942000000000,"state":"active","ping":42},{"user_id":314,"name":"elijah","steam_id":76561198093936708,"connected_time":1067000000000,"state":"active","ping":52},{"user_id":278,"name":"Bill Carr","steam_id":76561198110033943,"connected_time":5004000000000,"state":"active","ping":35},{"user_id":283,"name":"General Petrov","steam_id":76561198027204104,"connected_time":4389000000000,"state":"active","ping":78},{"user_id":295,"name":"P√¶b√¶s","steam_id":76561198088369219,"connected_time":3530000000000,"state":"active","ping":89},{"user_id":271,"name":"Sarii","steam_id":76561199155102111,"connected_time":6258000000000,"state":"active","ping":79}]},{"server_id":21,"name":"Uncletopia | London | 5 | All Maps","name_short":"lon-5","host":"lon-1.uk.uncletopia.com","port":27055,"enabled":true,"region":"eu","cc":"gb","latitude":51.509865,"longitude":-0.118092,"reserved":0,"last_update":"0001-01-01T00:00:00Z","name_a2s":"Uncletopia | London | 5 | All Maps","protocol":17,"map":"pl_snowycoast","folder":"tf","game":"Team Fortress","app_id":440,"player_count":24,"max_players":24,"Bots":0,"server_type":"Dedicated","server_os":"Linux","password":true,"vac":true,"version":"7882260","steam_id":85568392924742829,"keywords":["nocrits","nodmgspread","payload","uncletopia"],"game_id":440,"stv_port":27056,"stv_name":"Uncletopia | London | 5 | All Maps | STV","players":[{"user_id":93,"name":"BeefHammer","steam_id":76561198078426223,"connected_time":2240000000000,"state":"active","ping":83},{"user_id":86,"name":"Economic crisis","steam_id":76561198063562843,"connected_time":2392000000000,"state":"active","ping":62},{"user_id":120,"name":"get fucked","steam_id":76561198095560087,"connected_time":250000000000,"state":"active","ping":78},{"user_id":66,"name":"Toa LightMakuta","steam_id":76561198212178104,"connected_time":4605000000000,"state":"active","ping":73},{"user_id":119,"name":"Ready Rice Cakes","steam_id":76561198091969871,"connected_time":469000000000,"state":"active","ping":82},{"user_id":121,"name":"shreddies 750g","steam_id":76561198188642265,"connected_time":237000000000,"state":"active","ping":60},{"user_id":110,"name":"Djingis Khan","steam_id":76561197967864460,"connected_time":865000000000,"state":"active","ping":49},{"user_id":111,"name":"Tink","steam_id":76561198118235443,"connected_time":816000000000,"state":"active","ping":57},{"user_id":99,"name":"Umby","steam_id":76561198166584580,"connected_time":1910000000000,"state":"active","ping":37},{"user_id":74,"name":"froufrou","steam_id":76561198129110010,"connected_time":3705000000000,"state":"active","ping":82},{"user_id":58,"name":"Clitorina","steam_id":76561198077570815,"connected_time":5442000000000,"state":"active","ping":44},{"user_id":109,"name":"calum92","steam_id":76561197992188760,"connected_time":1072000000000,"state":"active","ping":72},{"user_id":112,"name":"Providence","steam_id":76561198003920270,"connected_time":814000000000,"state":"active","ping":71},{"user_id":51,"name":"gfjhsdf","steam_id":76561198136736426,"connected_time":6214000000000,"state":"active","ping":68},{"user_id":113,"name":"Chambersite","steam_id":76561198197022399,"connected_time":807000000000,"state":"active","ping":75},{"user_id":114,"name":"StumpKnuckle","steam_id":76561197995325320,"connected_time":795000000000,"state":"active","ping":59},{"user_id":115,"name":"br3tose","steam_id":76561198209072776,"connected_time":750000000000,"state":"active","ping":41},{"user_id":124,"name":"WitchyD","steam_id":76561197997130535,"connected_time":17000000000,"state":"active","ping":142},{"user_id":63,"name":"Ran33","steam_id":76561197991474499,"connected_time":4891000000000,"state":"active","ping":78},{"user_id":55,"name":"medicinal man","steam_id":76561198202668788,"connected_time":5705000000000,"state":"active","ping":65},{"user_id":123,"name":"Sir Coreden","steam_id":76561198008430589,"connected_time":146000000000,"state":"active","ping":157},{"user_id":118,"name":"Zadira","steam_id":76561197970502828,"connected_time":555000000000,"state":"active","ping":124},{"user_id":117,"name":"Lucan","steam_id":76561198219195135,"connected_time":610000000000,"state":"active","ping":50},{"user_id":106,"name":"Nicholas Angel","steam_id":76561198434652604,"connected_time":1573000000000,"state":"active","ping":81}]},{"server_id":22,"name":"Uncletopia | London | 6 | All Maps","name_short":"lon-6","host":"lon-1.uk.uncletopia.com","port":27065,"enabled":true,"region":"eu","cc":"gb","latitude":51.509865,"longitude":-0.118092,"reserved":0,"last_update":"0001-01-01T00:00:00Z","name_a2s":"Uncletopia | London | 6 | All Maps","protocol":17,"map":"cp_mountainlab","folder":"tf","game":"Team Fortress","app_id":440,"player_count":22,"max_players":24,"Bots":0,"server_type":"Dedicated","server_os":"Linux","password":true,"vac":true,"version":"7882260","steam_id":85568392924742830,"keywords":["cp","nocrits","nodmgspread","uncletopia"],"game_id":440,"stv_port":27066,"stv_name":"Uncletopia | London | 6 | All Maps | STV","players":[{"user_id":576,"name":"pl.haker","steam_id":76561198278440186,"connected_time":315000000000,"state":"active","ping":72},{"user_id":524,"name":"heiiis.","steam_id":76561199149006242,"connected_time":4047000000000,"state":"active","ping":89},{"user_id":577,"name":"SirSangoor","steam_id":76561198044462559,"connected_time":300000000000,"state":"active","ping":113},{"user_id":569,"name":"Brage","steam_id":76561198111623044,"connected_time":619000000000,"state":"active","ping":89},{"user_id":575,"name":"Hyperek","steam_id":76561198130797464,"connected_time":404000000000,"state":"active","ping":77},{"user_id":574,"name":"Bungus","steam_id":76561198238332624,"connected_time":453000000000,"state":"active","ping":52},{"user_id":508,"name":"DelaNo","steam_id":76561199125086655,"connected_time":4626000000000,"state":"active","ping":38},{"user_id":540,"name":"Popxpce / trade.tf","steam_id":76561198365405733,"connected_time":3256000000000,"state":"active","ping":127},{"user_id":573,"name":"the least schizo med main","steam_id":76561198048530109,"connected_time":463000000000,"state":"active","ping":72},{"user_id":567,"name":"StealthCat","steam_id":76561198068937412,"connected_time":685000000000,"state":"active","ping":45},{"user_id":564,"name":"Lampinen","steam_id":76561198004936228,"connected_time":1095000000000,"state":"active","ping":91},{"user_id":570,"name":"swagbra","steam_id":76561198051828515,"connected_time":609000000000,"state":"active","ping":43},{"user_id":578,"name":"akakez","steam_id":76561198095432821,"connected_time":250000000000,"state":"active","ping":114},{"user_id":579,"name":"Dagda","steam_id":76561198871136698,"connected_time":207000000000,"state":"active","ping":43},{"user_id":583,"name":"MaTiN.v2","steam_id":76561199431506131,"connected_time":44000000000,"state":"active","ping":44},{"user_id":511,"name":"neo the cracked protogen","steam_id":76561198874467825,"connected_time":4569000000000,"state":"active","ping":46},{"user_id":582,"name":"Gryoss","steam_id":76561197999837111,"connected_time":52000000000,"state":"active","ping":94},{"user_id":584,"name":"Oscar The Grouch (real)","steam_id":76561199174779667,"connected_time":34000000000,"state":"spawning","ping":189},{"user_id":543,"name":"Sarah Obama Michella","steam_id":76561198078996559,"connected_time":3172000000000,"state":"active","ping":83},{"user_id":559,"name":"Purps","steam_id":76561198053886680,"connected_time":1694000000000,"state":"active","ping":31},{"user_id":562,"name":"ShoobyDooby","steam_id":76561198118473910,"connected_time":1337000000000,"state":"active","ping":55}]},{"server_id":40,"name":"Uncletopia | London | 7 | No Payload","name_short":"lon-7","host":"lon-1.uk.uncletopia.com","port":27075,"enabled":true,"region":"eu","cc":"gb","latitude":51.509865,"longitude":-0.118092,"reserved":0,"last_update":"0001-01-01T00:00:00Z","name_a2s":"Uncletopia | London | 7 | No Payload","protocol":17,"map":"koth_viaduct","folder":"tf","game":"Team Fortress","app_id":440,"player_count":0,"max_players":24,"Bots":0,"server_type":"Dedicated","server_os":"Linux","password":true,"vac":true,"version":"7882260","steam_id":85568392924964314,"keywords":["cp","nocrits","nodmgspread","uncletopia"],"game_id":440,"stv_port":27076,"stv_name":"Uncletopia | London | 7 | No Payload | STV","players":null},{"server_id":41,"name":"Uncletopia | London | 8 | Community","name_short":"lon-8","host":"lon-1.uk.uncletopia.com","port":27085,"enabled":true,"region":"eu","cc":"gb","latitude":51.509865,"longitude":-0.118092,"reserved":0,"last_update":"0001-01-01T00:00:00Z","name_a2s":"Uncletopia | London | 8 | Community","protocol":17,"map":"workshop/koth_kemptown_rc1.ugc767410655","folder":"tf","game":"Team Fortress","app_id":440,"player_count":0,"max_players":24,"Bots":0,"server_type":"Dedicated","server_os":"Linux","password":true,"vac":true,"version":"7882260","steam_id":85568392924964315,"keywords":["cp","nocrits","nodmgspread","uncletopia"],"game_id":440,"stv_port":27086,"stv_name":"Uncletopia | London | 8 | Community | STV","players":null},{"server_id":300,"name":"Uncletopia | Montr√©al | 1 | All Maps","name_short":"mtl-1","host":"mtl-1.ca.uncletopia.com","port":27015,"enabled":true,"region":"us-east","cc":"ca","latitude":45.50889,"longitude":-73.56167,"reserved":0,"last_update":"0001-01-01T00:00:00Z","name_a2s":"Uncletopia | Montr√©al | 1 | All Maps","protocol":17,"map":"koth_viaduct","folder":"tf","game":"Team Fortress","app_id":440,"player_count":0,"max_players":24,"Bots":0,"server_type":"Dedicated","server_os":"Linux","password":true,"vac":true,"version":"7882260","steam_id":85568392924500087,"keywords":["cp","nocrits","nodmgspread","uncletopia"],"game_id":440,"stv_port":27016,"stv_name":"Uncletopia | Montr√©al | 1 | All Maps | STV","players":null},{"server_id":301,"name":"Uncletopia | Montr√©al | 2 | All Maps","name_short":"mtl-2","host":"mtl-1.ca.uncletopia.com","port":27025,"enabled":true,"region":"us-east","cc":"ca","latitude":45.50889,"longitude":-73.56167,"reserved":0,"last_update":"0001-01-01T00:00:00Z","name_a2s":"Uncletopia | Montr√©al | 2 | All Maps","protocol":17,"map":"pl_upward","folder":"tf","game":"Team Fortress","app_id":440,"player_count":9,"max_players":24,"Bots":0,"server_type":"Dedicated","server_os":"Linux","password":true,"vac":true,"version":"7882260","steam_id":85568392924500088,"keywords":["nocrits","nodmgspread","payload","uncletopia"],"game_id":440,"stv_port":27026,"stv_name":"Uncletopia | Montr√©al | 2 | All Maps | STV","players":[{"user_id":8,"name":"BEES","steam_id":76561198811545874,"connected_time":1383000000000,"state":"active","ping":91},{"user_id":6,"name":"LucasIsNeverHere","steam_id":76561198995748555,"connected_time":3043000000000,"state":"active","ping":60},{"user_id":7,"name":"Triple-Edged","steam_id":76561198308472155,"connected_time":1472000000000,"state":"active","ping":45},{"user_id":9,"name":"lightcatnap","steam_id":76561199385584854,"connected_time":1370000000000,"state":"active","ping":85},{"user_id":10,"name":"bachphong760","steam_id":76561199433780443,"connected_time":1305000000000,"state":"active","ping":80},{"user_id":11,"name":"Professional Clicker","steam_id":76561199210799428,"connected_time":744000000000,"state":"active","ping":55},{"user_id":12,"name":"Dededoo","steam_id":76561198279033471,"connected_time":504000000000,"state":"active","ping":120},{"user_id":13,"name":"XDDDDDDDDDDDDDDDDDDDDDD","steam_id":76561198965667861,"connected_time":111000000000,"state":"active","ping":137},{"user_id":14,"name":"Blake...","steam_id":76561198064090974,"connected_time":74000000000,"state":"active","ping":85}]},{"server_id":302,"name":"Uncletopia | Montr√©al | 3 | All Maps","name_short":"mtl-3","host":"mtl-1.ca.uncletopia.com","port":27035,"enabled":true,"region":"us-east","cc":"ca","latitude":45.50889,"longitude":-73.56167,"reserved":0,"last_update":"0001-01-01T00:00:00Z","name_a2s":"Uncletopia | Montr√©al | 3 | All Maps","protocol":17,"map":"pl_pier","folder":"tf","game":"Team Fortress","app_id":440,"player_count":0,"max_players":24,"Bots":0,"server_type":"Dedicated","server_os":"Linux","password":true,"vac":true,"version":"7882260","steam_id":85568392924500089,"keywords":["nocrits","nodmgspread","payload","uncletopia"],"game_id":440,"stv_port":27036,"stv_name":"Uncletopia | Montr√©al | 3 | All Maps | STV","players":null},{"server_id":303,"name":"Uncletopia | Montr√©al | 4 | No Payload","name_short":"mtl-4","host":"mtl-1.ca.uncletopia.com","port":27045,"enabled":true,"region":"us-east","cc":"ca","latitude":45.50889,"longitude":-73.56167,"reserved":0,"last_update":"0001-01-01T00:00:00Z","name_a2s":"Uncletopia | Montr√©al | 4 | No Payload","protocol":17,"map":"cp_altitude","folder":"tf","game":"Team Fortress","app_id":440,"player_count":0,"max_players":24,"Bots":0,"server_type":"Dedicated","server_os":"Linux","password":true,"vac":true,"version":"7882260","steam_id":85568392924500090,"keywords":["cp","nocrits","nodmgspread","uncletopia"],"game_id":440,"stv_port":27046,"stv_name":"Uncletopia | Montr√©al | 4 | No Payload | STV","players":null},{"server_id":13,"name":"Uncletopia | New York City | 1 | All Maps","name_short":"nyc-1","host":"nyc-1.us.uncletopia.com","port":27015,"enabled":true,"region":"us-east","cc":"us","latitude":40.73061,"longitude":-73.93524,"reserved":0,"last_update":"0001-01-01T00:00:00Z","name_a2s":"Uncletopia | New York City | 1 | All Maps","protocol":17,"map":"pl_frontier_final","folder":"tf","game":"Team Fortress","app_id":440,"player_count":24,"max_players":24,"Bots":0,"server_type":"Dedicated","server_os":"Linux","password":true,"vac":true,"version":"7882260","steam_id":85568392924469993,"keywords":["nocrits","nodmgspread","payload","uncletopia"],"game_id":440,"stv_port":27016,"stv_name":"Uncletopia | New York City | 1 | All Maps | STV","players":[{"user_id":62,"name":"Kamin","steam_id":76561198255299559,"connected_time":1989000000000,"state":"active","ping":104},{"user_id":78,"name":"john01k","steam_id":76561198059731548,"connected_time":970000000000,"state":"active","ping":83},{"user_id":79,"name":"Voodo133","steam_id":76561198042670351,"connected_time":965000000000,"state":"active","ping":80},{"user_id":80,"name":"musicwilldie","steam_id":76561198395833764,"connected_time":940000000000,"state":"active","ping":40},{"user_id":16,"name":"don't leave her waiting","steam_id":76561198103496593,"connected_time":4215000000000,"state":"active","ping":68},{"user_id":58,"name":"Ian","steam_id":76561199078852180,"connected_time":2549000000000,"state":"active","ping":72},{"user_id":81,"name":"BARNACLE BOY","steam_id":76561199060575719,"connected_time":900000000000,"state":"active","ping":91},{"user_id":86,"name":"Golurk with some bitches","steam_id":76561198085888959,"connected_time":686000000000,"state":"active","ping":59},{"user_id":53,"name":"Gamerdude313","steam_id":76561198869211435,"connected_time":2804000000000,"state":"active","ping":72},{"user_id":82,"name":"ThatComicStenzo","steam_id":76561198312325408,"connected_time":899000000000,"state":"active","ping":68},{"user_id":87,"name":"Seico Bass","steam_id":76561198123498500,"connected_time":633000000000,"state":"active","ping":117},{"user_id":64,"name":"peace dog","steam_id":76561198267988522,"connected_time":1914000000000,"state":"active","ping":72},{"user_id":65,"name":"E4Estrogen","steam_id":76561198085813708,"connected_time":1896000000000,"state":"active","ping":72},{"user_id":90,"name":"scarecrow (evil)","steam_id":76561198082979347,"connected_time":454000000000,"state":"active","ping":66},{"user_id":71,"name":"Womp","steam_id":76561198245103000,"connected_time":1651000000000,"state":"active","ping":56},{"user_id":45,"name":"Chezaus","steam_id":76561198317397837,"connected_time":3046000000000,"state":"active","ping":80},{"user_id":84,"name":"ScandinavianRice","steam_id":76561198125059181,"connected_time":812000000000,"state":"active","ping":58},{"user_id":76,"name":"Mister Rattlebones","steam_id":76561198065560157,"connected_time":1340000000000,"state":"active","ping":42},{"user_id":34,"name":"Kawflynn","steam_id":76561198029885678,"connected_time":3492000000000,"state":"active","ping":83},{"user_id":69,"name":"MetalNavigator","steam_id":76561198974231439,"connected_time":1738000000000,"state":"active","ping":101},{"user_id":88,"name":"PageBoiSkull","steam_id":76561198237353578,"connected_time":603000000000,"state":"active","ping":131},{"user_id":89,"name":"judesro","steam_id":76561198352244888,"connected_time":589000000000,"state":"active","ping":71},{"user_id":91,"name":"They/Thembo","steam_id":76561198096221632,"connected_time":406000000000,"state":"active","ping":71},{"user_id":61,"name":"Pa-Py-ro-ni","steam_id":76561198139054162,"connected_time":2184000000000,"state":"active","ping":69}]},{"server_id":14,"name":"Uncletopia | New York City | 2 | All Maps","name_short":"nyc-2","host":"nyc-1.us.uncletopia.com","port":27025,"enabled":true,"region":"us-east","cc":"us","latitude":40.73061,"longitude":-73.93524,"reserved":0,"last_update":"0001-01-01T00:00:00Z","name_a2s":"Uncletopia | New York City | 2 | All Maps","protocol":17,"map":"cp_dustbowl","folder":"tf","game":"Team Fortress","app_id":440,"player_count":3,"max_players":24,"Bots":0,"server_type":"Dedicated","server_os":"Linux","password":true,"vac":true,"version":"7882260","steam_id":85568392924469994,"keywords":["cp","nocrits","nodmgspread","uncletopia"],"game_id":440,"stv_port":27026,"stv_name":"Uncletopia | New York City | 2 | All Maps | STV","players":[{"user_id":13,"name":"Zaku 2 Party Type","steam_id":76561198356522924,"connected_time":2403000000000,"state":"active","ping":55},{"user_id":14,"name":"mateololero","steam_id":76561198852900219,"connected_time":2265000000000,"state":"active","ping":200},{"user_id":17,"name":"spherewithahat","steam_id":76561199122192660,"connected_time":415000000000,"state":"active","ping":52}]},{"server_id":15,"name":"Uncletopia | New York City | 3 | Stopwatch Beta","name_short":"nyc-3","host":"nyc-1.us.uncletopia.com","port":27035,"enabled":true,"region":"us-east","cc":"us","latitude":40.73061,"longitude":-73.93524,"reserved":0,"last_update":"0001-01-01T00:00:00Z","name_a2s":"Uncletopia | New York City | 3 | Stopwatch Beta","protocol":17,"map":"workshop/koth_ashville_final.ugc2130459942","folder":"tf","game":"Team Fortress","app_id":440,"player_count":0,"max_players":24,"Bots":0,"server_type":"Dedicated","server_os":"Linux","password":true,"vac":true,"version":"7882260","steam_id":85568392924742820,"keywords":["cp","nocrits","nodmgspread","uncletopia"],"game_id":440,"stv_port":27036,"stv_name":"Uncletopia | New York City | 3 | Stopwatch Beta | STV","players":null},{"server_id":16,"name":"Uncletopia | New York City | 4 | Community","name_short":"nyc-4","host":"nyc-1.us.uncletopia.com","port":27045,"enabled":true,"region":"us-east","cc":"us","latitude":40.73061,"longitude":-73.93524,"reserved":0,"last_update":"0001-01-01T00:00:00Z","name_a2s":"Uncletopia | New York City | 4 | Community","protocol":17,"map":"workshop/cp_overgrown_rc7b.ugc503939302","folder":"tf","game":"Team Fortress","app_id":440,"player_count":0,"max_players":24,"Bots":0,"server_type":"Dedicated","server_os":"Linux","password":true,"vac":true,"version":"7882260","steam_id":85568392924742821,"keywords":["cp","nocrits","nodmgspread","uncletopia"],"game_id":440,"stv_port":27046,"stv_name":"Uncletopia | New York City | 4 | Community | STV","players":null},{"server_id":142,"name":"Uncletopia | S√£o Paulo | 1 | All Maps","name_short":"sao-1","host":"sao-1.br.uncletopia.com","port":27015,"enabled":true,"region":"sa","cc":"br","latitude":-23.533773,"longitude":-46.62529,"reserved":0,"last_update":"0001-01-01T00:00:00Z","name_a2s":"Uncletopia | S√£o Paulo | 1 | All Maps","protocol":17,"map":"koth_viaduct","folder":"tf","game":"Team Fortress","app_id":440,"player_count":0,"max_players":24,"Bots":0,"server_type":"Dedicated","server_os":"Linux","password":true,"vac":true,"version":"7882260","steam_id":85568392924469996,"keywords":["cp","nocrits","nodmgspread","uncletopia"],"game_id":440,"stv_port":27016,"stv_name":"Uncletopia | S√£o Paulo | 1 | All Maps | STV","players":null},{"server_id":143,"name":"Uncletopia | S√£o Paulo | 2 | All Maps","name_short":"sao-2","host":"sao-2.br.uncletopia.com","port":27015,"enabled":true,"region":"sa","cc":"br","latitude":-23.533773,"longitude":-46.62529,"reserved":0,"last_update":"0001-01-01T00:00:00Z","name_a2s":"Uncletopia | S√£o Paulo | 2 | All Maps","protocol":17,"map":"pl_frontier_final","folder":"tf","game":"Team Fortress","app_id":440,"player_count":0,"max_players":24,"Bots":0,"server_type":"Dedicated","server_os":"Linux","password":true,"vac":true,"version":"7882260","steam_id":85568392924485349,"keywords":["nocrits","nodmgspread","payload","uncletopia"],"game_id":440,"stv_port":27016,"stv_name":"Uncletopia | S√£o Paulo | 2 | All Maps | STV","players":null},{"server_id":7,"name":"Uncletopia | Seattle | 1 | All Maps","name_short":"sea-1","host":"sea-1.us.uncletopia.com","port":27015,"enabled":true,"region":"us-west","cc":"us","latitude":47.608013,"longitude":-122.33517,"reserved":0,"last_update":"0001-01-01T00:00:00Z","name_a2s":"Uncletopia | Seattle | 1 | All Maps","protocol":17,"map":"pl_badwater","folder":"tf","game":"Team Fortress","app_id":440,"player_count":24,"max_players":24,"Bots":0,"server_type":"Dedicated","server_os":"Linux","password":true,"vac":true,"version":"7882260","steam_id":85568392924469997,"keywords":["nocrits","nodmgspread","payload","uncletopia"],"game_id":440,"stv_port":27016,"stv_name":"Uncletopia | Seattle | 1 | All Maps | STV","players":[{"user_id":369,"name":"Homura Simp","steam_id":76561198246080762,"connected_time":1348000000000,"state":"active","ping":64},{"user_id":352,"name":"worker","steam_id":76561198039608940,"connected_time":2779000000000,"state":"active","ping":57},{"user_id":372,"name":"Bishuhp","steam_id":76561198015062850,"connected_time":1259000000000,"state":"active","ping":54},{"user_id":368,"name":"Astronat","steam_id":76561198096321896,"connected_time":1386000000000,"state":"active","ping":72},{"user_id":380,"name":"ColSnugglebugs","steam_id":76561197997121141,"connected_time":462000000000,"state":"active","ping":69},{"user_id":385,"name":"Mediarch","steam_id":76561198050765729,"connected_time":306000000000,"state":"active","ping":59},{"user_id":315,"name":"Jacobzeba01","steam_id":76561198131808718,"connected_time":6141000000000,"state":"active","ping":58},{"user_id":367,"name":"Balls Insurance","steam_id":76561198005860388,"connected_time":1397000000000,"state":"active","ping":78},{"user_id":351,"name":"The Collective","steam_id":76561198170423483,"connected_time":2803000000000,"state":"active","ping":126},{"user_id":346,"name":"mega","steam_id":76561198089520959,"connected_time":3287000000000,"state":"active","ping":98},{"user_id":329,"name":"LizardBoyTailFrotting","steam_id":76561199169859135,"connected_time":4706000000000,"state":"active","ping":101},{"user_id":382,"name":"SLiPpeRyJoe.nosound","steam_id":76561197977206359,"connected_time":446000000000,"state":"active","ping":119},{"user_id":373,"name":"WaffleWithNoToppings","steam_id":76561199088280111,"connected_time":1081000000000,"state":"active","ping":55},{"user_id":378,"name":"ChickenShred","steam_id":76561198867897841,"connected_time":750000000000,"state":"active","ping":114},{"user_id":365,"name":"Chara","steam_id":76561198070136073,"connected_time":1811000000000,"state":"active","ping":115},{"user_id":370,"name":"captain red","steam_id":76561198191587983,"connected_time":1328000000000,"state":"active","ping":75},{"user_id":359,"name":"Shark Sandwich","steam_id":76561198025007938,"connected_time":2139000000000,"state":"active","ping":63},{"user_id":371,"name":"colespudzo","steam_id":76561198051127147,"connected_time":1320000000000,"state":"active","ping":46},{"user_id":383,"name":"carpet","steam_id":76561198207881077,"connected_time":404000000000,"state":"active","ping":96},{"user_id":384,"name":"Angel Wolfie","steam_id":76561198026562237,"connected_time":384000000000,"state":"active","ping":115},{"user_id":376,"name":"MisterManne","steam_id":76561198106598600,"connected_time":1044000000000,"state":"active","ping":58},{"user_id":298,"name":"forest (italian)","steam_id":76561198157960257,"connected_time":7533000000000,"state":"active","ping":43},{"user_id":386,"name":"ether","steam_id":76561198210322871,"connected_time":233000000000,"state":"active","ping":69},{"user_id":387,"name":"PissBeam","steam_id":76561198830303485,"connected_time":196000000000,"state":"active","ping":64}]},{"server_id":119,"name":"Uncletopia | Seattle | 2 | All Maps","name_short":"sea-2","host":"sea-1.us.uncletopia.com","port":27025,"enabled":true,"region":"us-west","cc":"us","latitude":47.608013,"longitude":-122.33517,"reserved":0,"last_update":"0001-01-01T00:00:00Z","name_a2s":"Uncletopia | Seattle | 2 | All Maps","protocol":17,"map":"plr_bananabay","folder":"tf","game":"Team Fortress","app_id":440,"player_count":24,"max_players":24,"Bots":0,"server_type":"Dedicated","server_os":"Linux","password":true,"vac":true,"version":"7882260","steam_id":85568392924469998,"keywords":["nocrits","nodmgspread","payload","uncletopia"],"game_id":440,"stv_port":27026,"stv_name":"Uncletopia | Seattle | 2 | All Maps | STV","players":[{"user_id":222,"name":"professional twelve year old","steam_id":76561198858796870,"connected_time":1210000000000,"state":"active","ping":42},{"user_id":181,"name":"laggy mcstab","steam_id":76561198106379962,"connected_time":3932000000000,"state":"active","ping":56},{"user_id":150,"name":"AmiableNebula","steam_id":76561198094306627,"connected_time":5753000000000,"state":"active","ping":74},{"user_id":187,"name":"hacivad","steam_id":76561198205981316,"connected_time":3185000000000,"state":"active","ping":86},{"user_id":216,"name":"wmjledger","steam_id":76561198443046861,"connected_time":1370000000000,"state":"active","ping":59},{"user_id":242,"name":"Jamin'Jelly","steam_id":76561199011399657,"connected_time":37000000000,"state":"spawning","ping":120},{"user_id":200,"name":"SadFapping","steam_id":76561198076651049,"connected_time":2012000000000,"state":"active","ping":57},{"user_id":241,"name":"I eat flavored chapsticks","steam_id":76561198983594907,"connected_time":98000000000,"state":"active","ping":64},{"user_id":226,"name":"BuncusBeffer","steam_id":76561198285936616,"connected_time":964000000000,"state":"active","ping":76},{"user_id":235,"name":"LalitoTV","steam_id":76561198334302951,"connected_time":185000000000,"state":"active","ping":125},{"user_id":188,"name":"Sir Axel VI","steam_id":76561198066016272,"connected_time":3145000000000,"state":"active","ping":114},{"user_id":221,"name":"12lego2","steam_id":76561198131632870,"connected_time":1251000000000,"state":"active","ping":73},{"user_id":223,"name":"An Alien Mango","steam_id":76561198864823970,"connected_time":1206000000000,"state":"active","ping":60},{"user_id":236,"name":"Selenddron","steam_id":76561198130341338,"connected_time":173000000000,"state":"active","ping":98},{"user_id":196,"name":"dahperson","steam_id":76561198067207467,"connected_time":2734000000000,"state":"active","ping":107},{"user_id":237,"name":"HFMurasama","steam_id":76561198272021214,"connected_time":173000000000,"state":"active","ping":75},{"user_id":229,"name":"MrRojan","steam_id":76561197993760849,"connected_time":732000000000,"state":"active","ping":62},{"user_id":233,"name":"Bloblobbob","steam_id":76561199135937774,"connected_time":224000000000,"state":"active","ping":67},{"user_id":194,"name":"AllPantsNoSkill","steam_id":76561198049655464,"connected_time":2938000000000,"state":"active","ping":134},{"user_id":239,"name":"little ceasers download interne","steam_id":76561198968790332,"connected_time":135000000000,"state":"active","ping":129},{"user_id":224,"name":"CranAppleGaming","steam_id":76561198398206209,"connected_time":1188000000000,"state":"active","ping":89},{"user_id":209,"name":"Nottawink","steam_id":76561198071248705,"connected_time":1868000000000,"state":"active","ping":96},{"user_id":225,"name":"The Bishop","steam_id":76561198934960505,"connected_time":1179000000000,"state":"active","ping":118},{"user_id":240,"name":"Cinnifox","steam_id":76561198068773971,"connected_time":114000000000,"state":"active","ping":68}]},{"server_id":406,"name":"Uncletopia | Seattle | 3 | Stopwatch Beta","name_short":"sea-3","host":"sea-1.us.uncletopia.com","port":27035,"enabled":true,"region":"us-west","cc":"us","latitude":47.608013,"longitude":-122.33517,"reserved":0,"last_update":"0001-01-01T00:00:00Z","name_a2s":"Uncletopia | Seattle | 3 | Stopwatch Beta","protocol":17,"map":"workshop/pl_badwater_pro_v12.ugc2142942074","folder":"tf","game":"Team Fortress","app_id":440,"player_count":0,"max_players":24,"Bots":0,"server_type":"Dedicated","server_os":"Linux","password":true,"vac":true,"version":"7882260","steam_id":85568392924515217,"keywords":["nocrits","nodmgspread","payload","uncletopia"],"game_id":440,"stv_port":27036,"stv_name":"Uncletopia | Seattle | 3 | Stopwatch Beta | STV","players":null},{"server_id":17,"name":"Uncletopia | San Francisco | 1 | All Maps","name_short":"sfo-1","host":"sfo-1.us.uncletopia.com","port":27015,"enabled":true,"region":"us-west","cc":"us","latitude":37.77397,"longitude":-122.4313,"reserved":0,"last_update":"0001-01-01T00:00:00Z","name_a2s":"Uncletopia | San Francisco | 1 | All Maps","protocol":17,"map":"cp_process_final","folder":"tf","game":"Team Fortress","app_id":440,"player_count":0,"max_players":24,"Bots":0,"server_type":"Dedicated","server_os":"Linux","password":true,"vac":true,"version":"7757534","steam_id":85568392924469999,"keywords":["cp","nocrits","nodmgspread","uncletopia"],"game_id":440,"stv_port":27016,"stv_name":"Uncletopia | San Francisco | 1 | All Maps | STV","players":null},{"server_id":18,"name":"Uncletopia | San Francisco | 2 | All Maps","name_short":"sfo-2","host":"sfo-1.us.uncletopia.com","port":27025,"enabled":true,"region":"us-west","cc":"us","latitude":37.77397,"longitude":-122.4313,"reserved":0,"last_update":"0001-01-01T00:00:00Z","name_a2s":"Uncletopia | San Francisco | 2 | All Maps","protocol":17,"map":"koth_highpass","folder":"tf","game":"Team Fortress","app_id":440,"player_count":0,"max_players":24,"Bots":0,"server_type":"Dedicated","server_os":"Linux","password":true,"vac":true,"version":"7757534","steam_id":85568392924470000,"keywords":["cp","nocrits","nodmgspread","uncletopia"],"game_id":440,"stv_port":27026,"stv_name":"Uncletopia | San Francisco | 2 | All Maps | STV","players":null},{"server_id":19,"name":"Uncletopia | San Francisco | 3 | Stopwatch Beta","name_short":"sfo-3","host":"sfo-1.us.uncletopia.com","port":27035,"enabled":true,"region":"us-west","cc":"us","latitude":37.77397,"longitude":-122.4313,"reserved":0,"last_update":"0001-01-01T00:00:00Z","name_a2s":"Uncletopia | San Francisco | 3 | Stopwatch Beta","protocol":17,"map":"koth_lakeside_final","folder":"tf","game":"Team Fortress","app_id":440,"player_count":0,"max_players":24,"Bots":0,"server_type":"Dedicated","server_os":"Linux","password":true,"vac":true,"version":"7757534","steam_id":85568392924742824,"keywords":["cp","nocrits","nodmgspread","uncletopia"],"game_id":440,"stv_port":27036,"stv_name":"Uncletopia | San Francisco | 3 | Stopwatch Beta | STV","players":null},{"server_id":20,"name":"Uncletopia | San Francisco | 4 | Community","name_short":"sfo-4","host":"sfo-1.us.uncletopia.com","port":27045,"enabled":true,"region":"us-west","cc":"us","latitude":37.77397,"longitude":-122.4313,"reserved":0,"last_update":"0001-01-01T00:00:00Z","name_a2s":"Uncletopia | San Francisco | 4 | Community","protocol":17,"map":"cp_altitude","folder":"tf","game":"Team Fortress","app_id":440,"player_count":0,"max_players":24,"Bots":0,"server_type":"Dedicated","server_os":"Linux","password":true,"vac":true,"version":"7757534","steam_id":85568392924742826,"keywords":["cp","nocrits","nodmgspread","uncletopia"],"game_id":440,"stv_port":27046,"stv_name":"Uncletopia | San Francisco | 4 | Community | STV","players":null},{"server_id":141,"name":"Uncletopia | Sydney | 1 | All Maps","name_short":"syd-1","host":"syd-1.au.uncletopia.com","port":27015,"enabled":true,"region":"au","cc":"au","latitude":-33.865143,"longitude":151.2099,"reserved":0,"last_update":"0001-01-01T00:00:00Z","name_a2s":"Uncletopia | Sydney | 1 | All Maps","protocol":17,"map":"koth_highpass","folder":"tf","game":"Team Fortress","app_id":440,"player_count":0,"max_players":24,"Bots":0,"server_type":"Dedicated","server_os":"Linux","password":true,"vac":true,"version":"7882260","steam_id":85568392924470001,"keywords":["cp","nocrits","nodmgspread","uncletopia"],"game_id":440,"stv_port":27016,"stv_name":"Uncletopia | Sydney | 1 | All Maps | STV","players":null},{"server_id":123,"name":"Uncletopia | Sydney | 2 | All Maps","name_short":"syd-2","host":"syd-1.au.uncletopia.com","port":27025,"enabled":true,"region":"au","cc":"au","latitude":-33.865143,"longitude":151.2099,"reserved":0,"last_update":"0001-01-01T00:00:00Z","name_a2s":"Uncletopia | Sydney | 2 | All Maps","protocol":17,"map":"pl_barnblitz","folder":"tf","game":"Team Fortress","app_id":440,"player_count":0,"max_players":24,"Bots":0,"server_type":"Dedicated","server_os":"Linux","password":true,"vac":true,"version":"7882260","steam_id":85568392924470002,"keywords":["nocrits","nodmgspread","payload","uncletopia"],"game_id":440,"stv_port":27026,"stv_name":"Uncletopia | Sydney | 2 | All Maps | STV","players":null},{"server_id":395,"name":"Uncletopia | Sydney | 3 | All Maps","name_short":"syd-3","host":"syd-1.au.uncletopia.com","port":27035,"enabled":true,"region":"au","cc":"au","latitude":-33.865143,"longitude":151.2099,"reserved":0,"last_update":"0001-01-01T00:00:00Z","name_a2s":"Uncletopia | Sydney | 3 | All Maps","protocol":17,"map":"pl_badwater","folder":"tf","game":"Team Fortress","app_id":440,"player_count":0,"max_players":24,"Bots":0,"server_type":"Dedicated","server_os":"Linux","password":true,"vac":true,"version":"7882260","steam_id":85568392925194467,"keywords":["nocrits","nodmgspread","payload","uncletopia"],"game_id":440,"stv_port":27036,"stv_name":"Uncletopia | Sydney | 3 | All Maps | STV","players":null},{"server_id":396,"name":"Uncletopia | Sydney | 4 | All Maps","name_short":"syd-4","host":"syd-1.au.uncletopia.com","port":27045,"enabled":true,"region":"au","cc":"au","latitude":-33.865143,"longitude":151.2099,"reserved":0,"last_update":"0001-01-01T00:00:00Z","name_a2s":"Uncletopia | Sydney | 4 | All Maps","protocol":17,"map":"cp_dustbowl","folder":"tf","game":"Team Fortress","app_id":440,"player_count":0,"max_players":24,"Bots":0,"server_type":"Dedicated","server_os":"Linux","password":true,"vac":true,"version":"7882260","steam_id":85568392925397958,"keywords":["cp","nocrits","nodmgspread","uncletopia"],"game_id":440,"stv_port":27046,"stv_name":"Uncletopia | Sydney | 4 | All Maps | STV","players":null},{"server_id":58,"name":"Uncletopia | Sydney | 5 | Stopwatch Beta","name_short":"syd-5","host":"syd-1.au.uncletopia.com","port":27055,"enabled":true,"region":"au","cc":"au","latitude":-33.865143,"longitude":151.2099,"reserved":0,"last_update":"0001-01-01T00:00:00Z","name_a2s":"Uncletopia | Sydney | 5 | Stopwatch Beta","protocol":17,"map":"cp_snakewater_final1","folder":"tf","game":"Team Fortress","app_id":440,"player_count":0,"max_players":24,"Bots":0,"server_type":"Dedicated","server_os":"Linux","password":true,"vac":true,"version":"7882260","steam_id":85568392925397959,"keywords":["cp","nocrits","nodmgspread","uncletopia"],"game_id":440,"stv_port":27056,"stv_name":"Uncletopia | Sydney | 5 | Stopwatch Beta | STV","players":null},{"server_id":59,"name":"Uncletopia | Sydney | 6 | Community","name_short":"syd-6","host":"syd-1.au.uncletopia.com","port":27065,"enabled":true,"region":"au","cc":"au","latitude":-33.865143,"longitude":151.2099,"reserved":0,"last_update":"0001-01-01T00:00:00Z","name_a2s":"Uncletopia | Sydney | 6 | Community","protocol":17,"map":"workshop/koth_ramjam_rc1.ugc459778887","folder":"tf","game":"Team Fortress","app_id":440,"player_count":0,"max_players":24,"Bots":0,"server_type":"Dedicated","server_os":"Linux","password":true,"vac":true,"version":"7882260","steam_id":85568392925397960,"keywords":["cp","nocrits","nodmgspread","uncletopia"],"game_id":440,"stv_port":27066,"stv_name":"Uncletopia | Sydney | 6 | Community | STV","players":null},{"server_id":49,"name":"Uncletopia | Warsaw | 1 | All Maps","name_short":"waw-1","host":"waw-1.pl.uncletopia.com","port":27015,"enabled":true,"region":"eu","cc":"pl","latitude":52.2297,"longitude":21.017532,"reserved":0,"last_update":"0001-01-01T00:00:00Z","name_a2s":"","protocol":0,"map":"","folder":"","game":"","app_id":0,"player_count":0,"max_players":0,"Bots":0,"server_type":"","server_os":"","password":false,"vac":false,"version":"","steam_id":0,"keywords":null,"game_id":0,"stv_port":0,"stv_name":"","players":null},{"server_id":50,"name":"Uncletopia | Warsaw | 2 | All Maps","name_short":"waw-2","host":"waw-1.pl.uncletopia.com","port":27025,"enabled":true,"region":"eu","cc":"pl","latitude":52.2297,"longitude":21.017532,"reserved":0,"last_update":"0001-01-01T00:00:00Z","name_a2s":"Uncletopia | Warsaw | 2 | All Maps","protocol":17,"map":"cp_snakewater_final1","folder":"tf","game":"Team Fortress","app_id":440,"player_count":0,"max_players":24,"Bots":0,"server_type":"Dedicated","server_os":"Linux","password":true,"vac":true,"version":"7882260","steam_id":85568392925397851,"keywords":["cp","nocrits","nodmgspread","uncletopia"],"game_id":440,"stv_port":27026,"stv_name":"Uncletopia | Warsaw | 2 | All Maps | STV","players":null},{"server_id":51,"name":"Uncletopia | Warsaw | 3 | All Maps","name_short":"waw-3","host":"waw-1.pl.uncletopia.com","port":27035,"enabled":true,"region":"eu","cc":"pl","latitude":52.2297,"longitude":21.017532,"reserved":0,"last_update":"0001-01-01T00:00:00Z","name_a2s":"Uncletopia | Warsaw | 3 | All Maps","protocol":17,"map":"koth_lakeside_final","folder":"tf","game":"Team Fortress","app_id":440,"player_count":0,"max_players":24,"Bots":0,"server_type":"Dedicated","server_os":"Linux","password":true,"vac":true,"version":"7882260","steam_id":85568392925397852,"keywords":["cp","nocrits","nodmgspread","uncletopia"],"game_id":440,"stv_port":27036,"stv_name":"Uncletopia | Warsaw | 3 | All Maps | STV","players":null},{"server_id":52,"name":"Uncletopia | Warsaw | 4 | All Maps","name_short":"waw-4","host":"waw-1.pl.uncletopia.com","port":27045,"enabled":true,"region":"eu","cc":"pl","latitude":52.2297,"longitude":21.017532,"reserved":0,"last_update":"0001-01-01T00:00:00Z","name_a2s":"Uncletopia | Warsaw | 4 | All Maps","protocol":17,"map":"koth_highpass","folder":"tf","game":"Team Fortress","app_id":440,"player_count":0,"max_players":24,"Bots":0,"server_type":"Dedicated","server_os":"Linux","password":true,"vac":true,"version":"7882260","steam_id":85568392925397853,"keywords":["cp","nocrits","nodmgspread","uncletopia"],"game_id":440,"stv_port":27046,"stv_name":"Uncletopia | Warsaw | 4 | All Maps | STV","players":null},{"server_id":53,"name":"Uncletopia | Warsaw | 5 | Stopwatch Beta","name_short":"waw-5","host":"waw-1.pl.uncletopia.com","port":27055,"enabled":true,"region":"eu","cc":"pl","latitude":52.2297,"longitude":21.017532,"reserved":0,"last_update":"0001-01-01T00:00:00Z","name_a2s":"Uncletopia | Warsaw | 5 | Stopwatch Beta","protocol":17,"map":"cp_mountainlab","folder":"tf","game":"Team Fortress","app_id":440,"player_count":0,"max_players":24,"Bots":0,"server_type":"Dedicated","server_os":"Linux","password":true,"vac":true,"version":"7882260","steam_id":85568392925397854,"keywords":["cp","nocrits","nodmgspread","uncletopia"],"game_id":440,"stv_port":27056,"stv_name":"Uncletopia | Warsaw | 5 | Stopwatch Beta | STV","players":null},{"server_id":54,"name":"Uncletopia | Warsaw | 6 | Community","name_short":"waw-6","host":"waw-1.pl.uncletopia.com","port":27065,"enabled":true,"region":"eu","cc":"pl","latitude":52.2297,"longitude":21.017532,"reserved":0,"last_update":"0001-01-01T00:00:00Z","name_a2s":"Uncletopia | Warsaw | 6 | Community","protocol":17,"map":"workshop/pl_badwater_pro_v12.ugc2142942074","folder":"tf","game":"Team Fortress","app_id":440,"player_count":0,"max_players":24,"Bots":0,"server_type":"Dedicated","server_os":"Linux","password":true,"vac":true,"version":"7882260","steam_id":85568392925397856,"keywords":["nocrits","nodmgspread","payload","uncletopia"],"game_id":440,"stv_port":27066,"stv_name":"Uncletopia | Warsaw | 6 | Community | STV","players":null}]}