{"status":true,"message":"","result":[{"server_id":9,"name":"Uncletopia | Atlanta | 1 | All Maps","name_short":"atl-1","host":"atl-1.us.uncletopia.com","port":27015,"enabled":true,"region":"us-east","cc":"us","latitude":33.753746,"longitude":-84.38633,"reserved":0,"last_update":"0001-01-01T00:00:00Z","name_a2s":"Uncletopia | Atlanta | 1 | All Maps","protocol":17,"map":"pl_swiftwater_final1","folder":"tf","game":"Team Fortress","app_id":440,"player_count":0,"max_players":24,"Bots":0,"server_type":"Dedicated","server_os":"Linux","password":true,"vac":true,"version":"7932396","steam_id":85568392924469982,"keywords":["nocrits","nodmgspread","payload","uncletopia"],"game_id":440,"stv_port":27016,"stv_name":"Uncletopia | Atlanta | 1 | All Maps | STV","players":null},{"server_id":104,"name":"Uncletopia | Atlanta | 2 | All Maps","name_short":"atl-2","host":"atl-1.us.uncletopia.com","port":27025,"enabled":true,"region":"us-east","cc":"us","latitude":33.753746,"longitude":-84.38633,"reserved":0,"last_update":"0001-01-01T00:00:00Z","name_a2s":"Uncletopia | Atlanta | 2 | All Maps","protocol":17,"map":"pl_badwater","folder":"tf","game":"Team Fortress","app_id":440,"player_count":21,"max_players":24,"Bots":0,"server_type":"Dedicated","server_os":"Linux","password":true,"vac":true,"version":"7932396","steam_id":85568392924469983,"keywords":["nocrits","nodmgspread","payload","uncletopia"],"game_id":440,"stv_port":27026,"stv_name":"Uncletopia | Atlanta | 2 | All Maps | STV","players":[{"user_id":420,"name":"BurningKev","steam_id":76561198057688837,"connected_time":667000000000,"state":"active","ping":110},{"user_id":377,"name":"skent6621","steam_id":76561199210134404,"connected_time":1977000000000,"state":"active","ping":84},{"user_id":387,"name":"presto.369","steam_id":76561198853852443,"connected_time":1755000000000,"state":"active","ping":115},{"user_id":343,"name":"Zero","steam_id":76561198064142285,"connected_time":2802000000000,"state":"active","ping":118},{"user_id":422,"name":"totally not a pile of beans","steam_id":76561198119851931,"connected_time":622000000000,"state":"active","ping":94},{"user_id":446,"name":"spongebpob","steam_id":76561198860456993,"connected_time":49000000000,"state":"active","ping":117},{"user_id":415,"name":"Guess I'm just popo","steam_id":76561197966419253,"connected_time":713000000000,"state":"active","ping":99},{"user_id":436,"name":"DNA","steam_id":76561198889418752,"connected_time":304000000000,"state":"active","ping":126},{"user_id":410,"name":"AnnieM","steam_id":76561199435467297,"connected_time":1002000000000,"state":"active","ping":87},{"user_id":421,"name":"JohnnyGitGud","steam_id":76561198401455467,"connected_time":662000000000,"state":"active","ping":143},{"user_id":419,"name":"real","steam_id":76561199030879048,"connected_time":677000000000,"state":"active","ping":105},{"user_id":423,"name":"Daz","steam_id":76561198041431938,"connected_time":577000000000,"state":"active","ping":138},{"user_id":434,"name":"k!llua","steam_id":76561199237310982,"connected_time":352000000000,"state":"active","ping":115},{"user_id":435,"name":"Necronoxide","steam_id":76561197997856321,"connected_time":320000000000,"state":"active","ping":108},{"user_id":365,"name":"Chosen","steam_id":76561198443525987,"connected_time":2254000000000,"state":"active","ping":114},{"user_id":429,"name":"yes","steam_id":76561197977461320,"connected_time":440000000000,"state":"active","ping":205},{"user_id":347,"name":"PileofPolygons","steam_id":76561199321343460,"connected_time":2662000000000,"state":"active","ping":81},{"user_id":427,"name":"AilurosMajor88","steam_id":76561198350900640,"connected_time":467000000000,"state":"active","ping":155},{"user_id":352,"name":"Zixzs","steam_id":76561198055504126,"connected_time":2516000000000,"state":"active","ping":113},{"user_id":438,"name":"LProduct","steam_id":76561199442139670,"connected_time":291000000000,"state":"active","ping":161},{"user_id":447,"name":"ultralisk52","steam_id":76561198051666604,"connected_time":37000000000,"state":"active","ping":109}]},{"server_id":400,"name":"Uncletopia | Atlanta | 3 | Community","name_short":"atl-3","host":"atl-1.us.uncletopia.com","port":27035,"enabled":true,"region":"us-east","cc":"us","latitude":33.753746,"longitude":-84.38633,"reserved":0,"last_update":"0001-01-01T00:00:00Z","name_a2s":"Uncletopia | Atlanta | 3 | Community","protocol":17,"map":"workshop/cp_propaganda_b18.ugc1603743849","folder":"tf","game":"Team Fortress","app_id":440,"player_count":10,"max_players":24,"Bots":0,"server_type":"Dedicated","server_os":"Linux","password":true,"vac":true,"version":"7932396","steam_id":85568392924515187,"keywords":["cp","nocrits","nodmgspread","uncletopia"],"game_id":440,"stv_port":27036,"stv_name":"Uncletopia | Atlanta | 3 | Community | STV","players":[{"user_id":5,"name":"Smams","steam_id":76561198262368084,"connected_time":5742000000000,"state":"active","ping":89},{"user_id":68,"name":"Thane","steam_id":76561198867766237,"connected_time":614000000000,"state":"active","ping":71},{"user_id":62,"name":"Catticus","steam_id":76561198345819349,"connected_time":1260000000000,"state":"active","ping":121},{"user_id":71,"name":"Snipar","steam_id":76561198129725862,"connected_time":549000000000,"state":"active","ping":78},{"user_id":16,"name":"Skyrim killable children mod","steam_id":76561198862836173,"connected_time":3368000000000,"state":"active","ping":138},{"user_id":17,"name":"180p","steam_id":76561198342171751,"connected_time":3333000000000,"state":"active","ping":99},{"user_id":72,"name":"Rainy Devil","steam_id":76561198271886440,"connected_time":539000000000,"state":"active","ping":104},{"user_id":74,"name":"Sage","steam_id":76561198143101697,"connected_time":400000000000,"state":"active","ping":109},{"user_id":25,"name":"YoursTruely","steam_id":76561198072129131,"connected_time":2750000000000,"state":"active","ping":91},{"user_id":33,"name":"Firerise9402","steam_id":76561199158500661,"connected_time":2299000000000,"state":"active","ping":65}]},{"server_id":401,"name":"Uncletopia | Atlanta | 4 | No Payload","name_short":"atl-4","host":"atl-1.us.uncletopia.com","port":27045,"enabled":true,"region":"us-east","cc":"us","latitude":33.753746,"longitude":-84.38633,"reserved":0,"last_update":"0001-01-01T00:00:00Z","name_a2s":"","protocol":0,"map":"","folder":"","game":"","app_id":0,"player_count":0,"max_players":0,"Bots":0,"server_type":"","server_os":"","password":false,"vac":false,"version":"","steam_id":0,"keywords":null,"game_id":0,"stv_port":0,"stv_name":"","players":null},{"server_id":2,"name":"Uncletopia | Chicago | 1 | All Maps","name_short":"chi-1","host":"chi-1.us.uncletopia.com","port":27015,"enabled":true,"region":"us-central","cc":"us","latitude":41.881832,"longitude":-87.62318,"reserved":0,"last_update":"0001-01-01T00:00:00Z","name_a2s":"Uncletopia | Chicago | 1 | All Maps","protocol":17,"map":"ctf_turbine","folder":"tf","game":"Team Fortress","app_id":440,"player_count":23,"max_players":24,"Bots":0,"server_type":"Dedicated","server_os":"Linux","password":true,"vac":true,"version":"7932396","steam_id":85568392924469984,"keywords":["ctf","nocrits","nodmgspread","uncletopia"],"game_id":440,"stv_port":27016,"stv_name":"Uncletopia | Chicago | 1 | All Maps | STV","players":[{"user_id":321,"name":"msay","steam_id":76561198170888029,"connected_time":1545000000000,"state":"active","ping":84},{"user_id":323,"name":"Temujin","steam_id":76561198030936583,"connected_time":1482000000000,"state":"active","ping":67},{"user_id":308,"name":"mikegilkey2","steam_id":76561198118561757,"connected_time":2546000000000,"state":"active","ping":92},{"user_id":335,"name":"Tomcouger","steam_id":76561198022866923,"connected_time":8000000000,"state":"spawning","ping":105},{"user_id":319,"name":"blob","steam_id":76561198122375328,"connected_time":1597000000000,"state":"active","ping":140},{"user_id":288,"name":"Unrefined Milk","steam_id":76561197986051713,"connected_time":5155000000000,"state":"active","ping":66},{"user_id":299,"name":"Ark","steam_id":76561198053000340,"connected_time":4075000000000,"state":"active","ping":67},{"user_id":336,"name":"VenANON","steam_id":76561198055676240,"connected_time":1000000000,"state":"spawning","ping":42},{"user_id":314,"name":"TeeTree","steam_id":76561198862307874,"connected_time":1969000000000,"state":"active","ping":65},{"user_id":291,"name":"Doctor Emerald(real)","steam_id":76561199123003872,"connected_time":5143000000000,"state":"active","ping":103},{"user_id":332,"name":"M1C4A3L","steam_id":76561198009980085,"connected_time":103000000000,"state":"active","ping":88},{"user_id":324,"name":"flaccid","steam_id":76561198299241777,"connected_time":1211000000000,"state":"active","ping":79},{"user_id":271,"name":"TheDapperTaco","steam_id":76561199103076602,"connected_time":6600000000000,"state":"spawning","ping":152},{"user_id":329,"name":"Ras","steam_id":76561198123546775,"connected_time":600000000000,"state":"active","ping":70},{"user_id":317,"name":"Mr. Baseball","steam_id":76561198112635823,"connected_time":1718000000000,"state":"active","ping":106},{"user_id":328,"name":"Nitro Express","steam_id":76561197988784070,"connected_time":690000000000,"state":"active","ping":129},{"user_id":333,"name":"noided","steam_id":76561198353924837,"connected_time":61000000000,"state":"spawning","ping":64},{"user_id":242,"name":"get scrongled, idiot","steam_id":76561198115874625,"connected_time":8355000000000,"state":"active","ping":61},{"user_id":257,"name":"Ashes!","steam_id":76561197998475441,"connected_time":7569000000000,"state":"active","ping":100},{"user_id":325,"name":"vv","steam_id":76561198134813102,"connected_time":1151000000000,"state":"spawning","ping":291},{"user_id":334,"name":"dak","steam_id":76561198076596506,"connected_time":42000000000,"state":"active","ping":53},{"user_id":331,"name":"Craig Isonychia","steam_id":76561198272013678,"connected_time":337000000000,"state":"active","ping":91},{"user_id":292,"name":"Aeonspassed","steam_id":76561198014016451,"connected_time":5142000000000,"state":"spawning","ping":231}]},{"server_id":106,"name":"Uncletopia | Chicago | 2 | All Maps","name_short":"chi-2","host":"chi-1.us.uncletopia.com","port":27025,"enabled":true,"region":"us-central","cc":"us","latitude":41.881832,"longitude":-87.62318,"reserved":0,"last_update":"0001-01-01T00:00:00Z","name_a2s":"Uncletopia | Chicago | 2 | All Maps","protocol":17,"map":"pl_pier","folder":"tf","game":"Team Fortress","app_id":440,"player_count":24,"max_players":24,"Bots":0,"server_type":"Dedicated","server_os":"Linux","password":true,"vac":true,"version":"7932396","steam_id":85568392924469985,"keywords":["nocrits","nodmgspread","payload","uncletopia"],"game_id":440,"stv_port":27026,"stv_name":"Uncletopia | Chicago | 2 | All Maps | STV","players":[{"user_id":293,"name":"creamgravy573","steam_id":76561198093308746,"connected_time":698000000000,"state":"active","ping":69},{"user_id":217,"name":"Norman","steam_id":76561198154715990,"connected_time":5882000000000,"state":"active","ping":109},{"user_id":296,"name":"Pango","steam_id":76561198069811545,"connected_time":409000000000,"state":"active","ping":62},{"user_id":297,"name":"albert jones","steam_id":76561198404271005,"connected_time":380000000000,"state":"active","ping":84},{"user_id":280,"name":"A_Malebolgia","steam_id":76561198097722818,"connected_time":1291000000000,"state":"active","ping":90},{"user_id":258,"name":"Genuine","steam_id":76561198253471115,"connected_time":3148000000000,"state":"active","ping":73},{"user_id":291,"name":"Zanartan","steam_id":76561198050528902,"connected_time":722000000000,"state":"active","ping":180},{"user_id":295,"name":"P.C. Baby","steam_id":76561198067011379,"connected_time":430000000000,"state":"active","ping":111},{"user_id":281,"name":"Cogenheimer","steam_id":76561198146321550,"connected_time":1268000000000,"state":"active","ping":84},{"user_id":261,"name":"Phantis_Squid","steam_id":76561199428864090,"connected_time":2931000000000,"state":"active","ping":65},{"user_id":292,"name":"5mech","steam_id":76561198979167520,"connected_time":722000000000,"state":"active","ping":54},{"user_id":298,"name":"cran","steam_id":76561198178840075,"connected_time":353000000000,"state":"active","ping":82},{"user_id":284,"name":"StarLy","steam_id":76561198174428289,"connected_time":1231000000000,"state":"active","ping":70},{"user_id":274,"name":"FishGod","steam_id":76561198056156434,"connected_time":1565000000000,"state":"active","ping":62},{"user_id":252,"name":"Boomer Gaming","steam_id":76561198037803087,"connected_time":3340000000000,"state":"active","ping":67},{"user_id":246,"name":"1000000","steam_id":76561198360134800,"connected_time":3884000000000,"state":"active","ping":74},{"user_id":299,"name":"LerN","steam_id":76561198083463877,"connected_time":348000000000,"state":"active","ping":59},{"user_id":218,"name":"gerry0107","steam_id":76561198277578620,"connected_time":5740000000000,"state":"active","ping":73},{"user_id":294,"name":"Critscare","steam_id":76561198087712508,"connected_time":697000000000,"state":"active","ping":45},{"user_id":301,"name":"tristessa","steam_id":76561198160335315,"connected_time":19000000000,"state":"active","ping":45},{"user_id":286,"name":"[]{}#^*+=","steam_id":76561198127039453,"connected_time":1221000000000,"state":"active","ping":99},{"user_id":243,"name":"Bon Gripper","steam_id":76561198090074621,"connected_time":4043000000000,"state":"active","ping":64},{"user_id":272,"name":"Sir Loincloth","steam_id":76561198033073991,"connected_time":2304000000000,"state":"active","ping":76},{"user_id":290,"name":"A French Man With a Gun","steam_id":76561198373893302,"connected_time":810000000000,"state":"active","ping":77}]},{"server_id":402,"name":"Uncletopia | Chicago | 3 | All Maps","name_short":"chi-3","host":"chi-1.us.uncletopia.com","port":27035,"enabled":true,"region":"us-central","cc":"us","latitude":41.881832,"longitude":-87.62318,"reserved":0,"last_update":"0001-01-01T00:00:00Z","name_a2s":"Uncletopia | Chicago | 3 | All Maps","protocol":17,"map":"cp_mountainlab","folder":"tf","game":"Team Fortress","app_id":440,"player_count":0,"max_players":24,"Bots":0,"server_type":"Dedicated","server_os":"Linux","password":true,"vac":true,"version":"7932396","steam_id":85568392924515191,"keywords":["cp","nocrits","nodmgspread","uncletopia"],"game_id":440,"stv_port":27036,"stv_name":"Uncletopia | Chicago | 3 | All Maps | STV","players":null},{"server_id":403,"name":"Uncletopia | Chicago | 4 | All Maps","name_short":"chi-4","host":"chi-1.us.uncletopia.com","port":27045,"enabled":true,"region":"us-central","cc":"us","latitude":41.881832,"longitude":-87.62318,"reserved":0,"last_update":"0001-01-01T00:00:00Z","name_a2s":"Uncletopia | Chicago | 4 | All Maps","protocol":17,"map":"cp_sunshine","folder":"tf","game":"Team Fortress","app_id":440,"player_count":0,"max_players":24,"Bots":0,"server_type":"Dedicated","server_os":"Linux","password":true,"vac":true,"version":"7932396","steam_id":85568392924515193,"keywords":["cp","nocrits","nodmgspread","uncletopia"],"game_id":440,"stv_port":27046,"stv_name":"Uncletopia | Chicago | 4 | All Maps | STV","players":null},{"server_id":36,"name":"Uncletopia | Chicago | 5 | All Maps","name_short":"chi-5","host":"chi-2.us.uncletopia.com","port":27015,"enabled":true,"region":"us-central","cc":"us","latitude":41.881832,"longitude":-87.62318,"reserved":0,"last_update":"0001-01-01T00:00:00Z","name_a2s":"Uncletopia | Chicago | 5 | All Maps","protocol":17,"map":"pl_badwater","folder":"tf","game":"Team Fortress","app_id":440,"player_count":0,"max_players":24,"Bots":0,"server_type":"Dedicated","server_os":"Linux","password":true,"vac":true,"version":"7932396","steam_id":85568392924866362,"keywords":["nocrits","nodmgspread","payload","uncletopia"],"game_id":440,"stv_port":27016,"stv_name":"Uncletopia | Chicago | 5 | All Maps | STV","players":null},{"server_id":37,"name":"Uncletopia | Chicago | 6 | All Maps","name_short":"chi-6","host":"chi-2.us.uncletopia.com","port":27025,"enabled":true,"region":"us-central","cc":"us","latitude":41.881832,"longitude":-87.62318,"reserved":0,"last_update":"0001-01-01T00:00:00Z","name_a2s":"Uncletopia | Chicago | 6 | All Maps","protocol":17,"map":"pl_borneo","folder":"tf","game":"Team Fortress","app_id":440,"player_count":24,"max_players":24,"Bots":0,"server_type":"Dedicated","server_os":"Linux","password":true,"vac":true,"version":"7932396","steam_id":85568392924866363,"keywords":["nocrits","nodmgspread","payload","uncletopia"],"game_id":440,"stv_port":27026,"stv_name":"Uncletopia | Chicago | 6 | All Maps | STV","players":[{"user_id":67,"name":"Raptortastic","steam_id":76561198105613110,"connected_time":209000000000,"state":"active","ping":60},{"user_id":20,"name":"xiii","steam_id":76561198079416036,"connected_time":2140000000000,"state":"active","ping":44},{"user_id":48,"name":"Prince Zuko","steam_id":76561198024934481,"connected_time":1110000000000,"state":"active","ping":67},{"user_id":19,"name":"freyja","steam_id":76561198249206656,"connected_time":2306000000000,"state":"active","ping":73},{"user_id":21,"name":"SandBaked","steam_id":76561198134208585,"connected_time":1994000000000,"state":"active","ping":59},{"user_id":66,"name":"Cosmic Torgue","steam_id":76561198828724945,"connected_time":290000000000,"state":"active","ping":83},{"user_id":68,"name":"LiftN","steam_id":76561198167974713,"connected_time":43000000000,"state":"active","ping":72},{"user_id":53,"name":"basil","steam_id":76561198075758026,"connected_time":778000000000,"state":"active","ping":81},{"user_id":50,"name":"Auto_Correct","steam_id":76561198254988078,"connected_time":985000000000,"state":"active","ping":75},{"user_id":61,"name":"herb","steam_id":76561198185980055,"connected_time":476000000000,"state":"active","ping":66},{"user_id":51,"name":"aflyingmouse","steam_id":76561198058134934,"connected_time":900000000000,"state":"active","ping":120},{"user_id":29,"name":"Indigolake","steam_id":76561198202215807,"connected_time":1529000000000,"state":"active","ping":87},{"user_id":31,"name":"é‡ŒèŠ‹ - Tarooo","steam_id":76561198392986348,"connected_time":1507000000000,"state":"active","ping":105},{"user_id":32,"name":"SleepyCanary","steam_id":76561198071770434,"connected_time":1495000000000,"state":"active","ping":115},{"user_id":34,"name":"Nephi","steam_id":76561198031525122,"connected_time":1469000000000,"state":"active","ping":92},{"user_id":36,"name":"Patriarch","steam_id":76561198440302109,"connected_time":1439000000000,"state":"active","ping":59},{"user_id":62,"name":"arinet","steam_id":76561198052572890,"connected_time":437000000000,"state":"active","ping":64},{"user_id":64,"name":"swaj","steam_id":76561198171016351,"connected_time":388000000000,"state":"active","ping":62},{"user_id":59,"name":"PK","steam_id":76561198368722500,"connected_time":563000000000,"state":"active","ping":85},{"user_id":40,"name":"Sokka of the water tribe","steam_id":76561198017081737,"connected_time":1347000000000,"state":"active","ping":70},{"user_id":41,"name":"IAmAProfesonal","steam_id":76561199171858953,"connected_time":1333000000000,"state":"active","ping":49},{"user_id":47,"name":"sad boi","steam_id":76561198395577807,"connected_time":1149000000000,"state":"active","ping":72},{"user_id":56,"name":"round and puntable","steam_id":76561198392539722,"connected_time":639000000000,"state":"active","ping":79},{"user_id":65,"name":"daemon","steam_id":76561198001541433,"connected_time":384000000000,"state":"active","ping":54}]},{"server_id":38,"name":"Uncletopia | Chicago | 7 | Stopwatch Beta","name_short":"chi-7","host":"chi-2.us.uncletopia.com","port":27035,"enabled":true,"region":"us-central","cc":"us","latitude":41.881832,"longitude":-87.62318,"reserved":0,"last_update":"0001-01-01T00:00:00Z","name_a2s":"Uncletopia | Chicago | 7 | Stopwatch Beta","protocol":17,"map":"pl_borneo","folder":"tf","game":"Team Fortress","app_id":440,"player_count":0,"max_players":24,"Bots":0,"server_type":"Dedicated","server_os":"Linux","password":true,"vac":true,"version":"7932396","steam_id":85568392924866364,"keywords":["nocrits","nodmgspread","payload","uncletopia"],"game_id":440,"stv_port":27036,"stv_name":"Uncletopia | Chicago | 7 | Stopwatch Beta | STV","players":null},{"server_id":39,"name":"Uncletopia | Chicago | 8 | Community","name_short":"chi-8","host":"chi-2.us.uncletopia.com","port":27045,"enabled":true,"region":"us-central","cc":"us","latitude":41.881832,"longitude":-87.62318,"reserved":0,"last_update":"0001-01-01T00:00:00Z","name_a2s":"Uncletopia | Chicago | 8 | Community","protocol":17,"map":"workshop/pl_shoreleave_rc2.ugc1238849347","folder":"tf","game":"Team Fortress","app_id":440,"player_count":23,"max_players":24,"Bots":0,"server_type":"Dedicated","server_os":"Linux","password":true,"vac":true,"version":"7932396","steam_id":85568392924866365,"keywords":["nocrits","nodmgspread","payload","uncletopia"],"game_id":440,"stv_port":27046,"stv_name":"Uncletopia | Chicago | 8 | Community | STV","players":[{"user_id":79,"name":"jayzak24","steam_id":76561198354267509,"connected_time":2486000000000,"state":"active","ping":83},{"user_id":96,"name":"gmaay","steam_id":76561199104911185,"connected_time":1177000000000,"state":"active","ping":66},{"user_id":122,"name":"123","steam_id":76561198106308056,"connected_time":132000000000,"state":"active","ping":137},{"user_id":84,"name":"Lemonade Juice","steam_id":76561198402892608,"connected_time":2069000000000,"state":"active","ping":94},{"user_id":15,"name":"warm soda","steam_id":76561199221896617,"connected_time":6589000000000,"state":"active","ping":69},{"user_id":40,"name":"Rornir","steam_id":76561198081829615,"connected_time":5068000000000,"state":"active","ping":36},{"user_id":93,"name":"extra purple","steam_id":76561198044344111,"connected_time":1368000000000,"state":"active","ping":69},{"user_id":101,"name":"TheLuzinator","steam_id":76561198377144604,"connected_time":1092000000000,"state":"active","ping":74},{"user_id":102,"name":"whimsical little creature","steam_id":76561198271710504,"connected_time":1086000000000,"state":"active","ping":56},{"user_id":89,"name":"UnReLinked","steam_id":76561199366044663,"connected_time":1812000000000,"state":"active","ping":107},{"user_id":114,"name":"cryptidTD","steam_id":76561199094314945,"connected_time":603000000000,"state":"active","ping":147},{"user_id":117,"name":"Jork","steam_id":76561198121415366,"connected_time":451000000000,"state":"active","ping":89},{"user_id":119,"name":"Acking02","steam_id":76561198042543757,"connected_time":198000000000,"state":"active","ping":45},{"user_id":103,"name":"selvhat","steam_id":76561198114225509,"connected_time":1062000000000,"state":"active","ping":106},{"user_id":67,"name":"CHAIRMAN MAO GAMING","steam_id":76561198066018972,"connected_time":3588000000000,"state":"active","ping":74},{"user_id":61,"name":"BoX_hEaD101","steam_id":76561198200875467,"connected_time":3979000000000,"state":"active","ping":119},{"user_id":107,"name":"Sup m8","steam_id":76561198081659121,"connected_time":919000000000,"state":"active","ping":66},{"user_id":88,"name":"cc","steam_id":76561199215821942,"connected_time":1851000000000,"state":"active","ping":74},{"user_id":70,"name":"Colin102004","steam_id":76561198202384334,"connected_time":3153000000000,"state":"active","ping":48},{"user_id":113,"name":"SNIPER MONKEY","steam_id":76561198403205128,"connected_time":773000000000,"state":"spawning","ping":367},{"user_id":110,"name":"Mr. Pink","steam_id":76561198065858172,"connected_time":809000000000,"state":"active","ping":65},{"user_id":121,"name":"vandeer","steam_id":76561198120124007,"connected_time":161000000000,"state":"active","ping":76},{"user_id":77,"name":"peee pee man","steam_id":76561198044979205,"connected_time":2700000000000,"state":"active","ping":73}]},{"server_id":8,"name":"Uncletopia | Dallas | 1 | All Maps","name_short":"dal-1","host":"dal-1.us.uncletopia.com","port":27015,"enabled":true,"region":"us-central","cc":"us","latitude":32.779167,"longitude":-96.80889,"reserved":0,"last_update":"0001-01-01T00:00:00Z","name_a2s":"Uncletopia | Dallas | 1 | All Maps","protocol":17,"map":"pl_swiftwater_final1","folder":"tf","game":"Team Fortress","app_id":440,"player_count":1,"max_players":24,"Bots":0,"server_type":"Dedicated","server_os":"Linux","password":true,"vac":true,"version":"7932396","steam_id":85568392924469986,"keywords":["nocrits","nodmgspread","payload","uncletopia"],"game_id":440,"stv_port":27016,"stv_name":"Uncletopia | Dallas | 1 | All Maps | STV","players":[{"user_id":22,"name":"Kid B8","steam_id":76561198086764710,"connected_time":20000000000,"state":"active","ping":68}]},{"server_id":108,"name":"Uncletopia | Dallas | 2 | All Maps","name_short":"dal-2","host":"dal-1.us.uncletopia.com","port":27025,"enabled":true,"region":"us-central","cc":"us","latitude":32.779167,"longitude":-96.80889,"reserved":0,"last_update":"0001-01-01T00:00:00Z","name_a2s":"Uncletopia | Dallas | 2 | All Maps","protocol":17,"map":"pl_badwater","folder":"tf","game":"Team Fortress","app_id":440,"player_count":3,"max_players":24,"Bots":0,"server_type":"Dedicated","server_os":"Linux","password":true,"vac":true,"version":"7932396","steam_id":85568392924469988,"keywords":["nocrits","nodmgspread","payload","uncletopia"],"game_id":440,"stv_port":27026,"stv_name":"Uncletopia | Dallas | 2 | All Maps | STV","players":[{"user_id":14,"name":"tulpa","steam_id":76561198013253513,"connected_time":167000000000,"state":"active","ping":69},{"user_id":19,"name":"KnifeScope","steam_id":76561198057632106,"connected_time":135000000000,"state":"active","ping":48},{"user_id":21,"name":"Boingo","steam_id":76561199086931535,"connected_time":132000000000,"state":"active","ping":43}]},{"server_id":5,"name":"Uncletopia | Frankfurt | 1 | All Maps","name_short":"frk-1","host":"frk-1.de.uncletopia.com","port":27015,"enabled":true,"region":"eu","cc":"de","latitude":50.110924,"longitude":8.682127,"reserved":0,"last_update":"0001-01-01T00:00:00Z","name_a2s":"Uncletopia | Frankfurt | 1 | All Maps","protocol":17,"map":"cp_dustbowl","folder":"tf","game":"Team Fortress","app_id":440,"player_count":24,"max_players":24,"Bots":0,"server_type":"Dedicated","server_os":"Linux","password":true,"vac":true,"version":"7932396","steam_id":85568392924469989,"keywords":["cp","nocrits","nodmgspread","uncletopia"],"game_id":440,"stv_port":27016,"stv_name":"Uncletopia | Frankfurt | 1 | All Maps | STV","players":[{"user_id":490,"name":"Dadian1","steam_id":76561198294356761,"connected_time":596000000000,"state":"active","ping":119},{"user_id":491,"name":"MegaKEKER","steam_id":76561199485792353,"connected_time":587000000000,"state":"active","ping":74},{"user_id":492,"name":"Egor Pomidor","steam_id":76561199175688390,"connected_time":574000000000,"state":"active","ping":76},{"user_id":472,"name":"Mr. Mustard","steam_id":76561198025185606,"connected_time":1508000000000,"state":"active","ping":64},{"user_id":428,"name":"XuMuK","steam_id":76561198102102340,"connected_time":2728000000000,"state":"active","ping":76},{"user_id":437,"name":"Wdfrodo","steam_id":76561198985647263,"connected_time":2464000000000,"state":"active","ping":70},{"user_id":481,"name":"Pvt. Prinny","steam_id":76561198030278562,"connected_time":1171000000000,"state":"active","ping":56},{"user_id":493,"name":"Numernabis","steam_id":76561198152548272,"connected_time":518000000000,"state":"active","ping":87},{"user_id":429,"name":"Krefa12","steam_id":76561198268375393,"connected_time":2680000000000,"state":"active","ping":89},{"user_id":474,"name":"Invoker-sama","steam_id":76561198128470403,"connected_time":1436000000000,"state":"active","ping":113},{"user_id":503,"name":"skill based","steam_id":76561198341178432,"connected_time":129000000000,"state":"active","ping":54},{"user_id":489,"name":"BRICK TOP","steam_id":76561198014366715,"connected_time":655000000000,"state":"active","ping":60},{"user_id":500,"name":"romaingallo","steam_id":76561198268112907,"connected_time":408000000000,"state":"active","ping":175},{"user_id":473,"name":"EtoGeek","steam_id":76561198020304242,"connected_time":1448000000000,"state":"active","ping":65},{"user_id":496,"name":"ban98902","steam_id":76561199241652790,"connected_time":473000000000,"state":"active","ping":98},{"user_id":442,"name":"One-Face","steam_id":76561197999384826,"connected_time":2350000000000,"state":"active","ping":53},{"user_id":443,"name":"scarybroccoli","steam_id":76561198996934524,"connected_time":2341000000000,"state":"active","ping":109},{"user_id":497,"name":"Syd","steam_id":76561198020515027,"connected_time":473000000000,"state":"active","ping":81},{"user_id":485,"name":"Chromega","steam_id":76561199075307750,"connected_time":842000000000,"state":"active","ping":59},{"user_id":435,"name":"domek brexit geezerðŸ‡¬ðŸ‡§","steam_id":76561198048447632,"connected_time":2550000000000,"state":"active","ping":60},{"user_id":498,"name":"Fucking Nep Nep","steam_id":76561198340419043,"connected_time":459000000000,"state":"active","ping":142},{"user_id":499,"name":"mkwii","steam_id":76561198062507768,"connected_time":447000000000,"state":"active","ping":57},{"user_id":436,"name":"Eqxd","steam_id":76561199055592635,"connected_time":2548000000000,"state":"active","ping":75},{"user_id":364,"name":"Kepucz","steam_id":76561197977634244,"connected_time":6664000000000,"state":"active","ping":60}]},{"server_id":110,"name":"Uncletopia | Frankfurt | 2 | All Maps","name_short":"frk-2","host":"frk-1.de.uncletopia.com","port":27025,"enabled":true,"region":"eu","cc":"de","latitude":50.110924,"longitude":8.682127,"reserved":0,"last_update":"0001-01-01T00:00:00Z","name_a2s":"Uncletopia | Frankfurt | 2 | All Maps","protocol":17,"map":"pl_badwater","folder":"tf","game":"Team Fortress","app_id":440,"player_count":24,"max_players":24,"Bots":0,"server_type":"Dedicated","server_os":"Linux","password":true,"vac":true,"version":"7932396","steam_id":85568392924469990,"keywords":["nocrits","nodmgspread","payload","uncletopia"],"game_id":440,"stv_port":27026,"stv_name":"Uncletopia | Frankfurt | 2 | All Maps | STV","players":[{"user_id":232,"name":"EagleDeath","steam_id":76561198282441198,"connected_time":1934000000000,"state":"active","ping":69},{"user_id":163,"name":"Hexagon","steam_id":76561198151205758,"connected_time":6800000000000,"state":"active","ping":50},{"user_id":197,"name":"Narwhal","steam_id":76561199489020776,"connected_time":4176000000000,"state":"active","ping":69},{"user_id":246,"name":"Doriian","steam_id":76561198071438810,"connected_time":1424000000000,"state":"active","ping":76},{"user_id":289,"name":"Woman (Real)","steam_id":76561199151823932,"connected_time":77000000000,"state":"active","ping":70},{"user_id":264,"name":"speedyboy","steam_id":76561199222795521,"connected_time":686000000000,"state":"active","ping":93},{"user_id":274,"name":"tired","steam_id":76561198046838168,"connected_time":340000000000,"state":"active","ping":49},{"user_id":266,"name":"Dr. sex","steam_id":76561199174677820,"connected_time":610000000000,"state":"active","ping":121},{"user_id":244,"name":"Nornia","steam_id":76561198040509712,"connected_time":1582000000000,"state":"active","ping":62},{"user_id":250,"name":"miiq130","steam_id":76561198188010666,"connected_time":1301000000000,"state":"active","ping":81},{"user_id":203,"name":"Finnish Farmer","steam_id":76561198205366043,"connected_time":3813000000000,"state":"active","ping":86},{"user_id":237,"name":"Bill","steam_id":76561198293112566,"connected_time":1843000000000,"state":"active","ping":82},{"user_id":275,"name":"DobreStarachowickie","steam_id":76561198027126737,"connected_time":332000000000,"state":"active","ping":63},{"user_id":249,"name":"on1on (scrambled)","steam_id":76561197995304137,"connected_time":1348000000000,"state":"active","ping":61},{"user_id":276,"name":"Jim Milton","steam_id":76561198055788070,"connected_time":305000000000,"state":"active","ping":53},{"user_id":257,"name":"Crollikk","steam_id":76561198071654791,"connected_time":1048000000000,"state":"active","ping":96},{"user_id":279,"name":"fÃ©nix","steam_id":76561198083199151,"connected_time":263000000000,"state":"active","ping":61},{"user_id":291,"name":"ÐºÐ¾Ð½Ð³Ð¾","steam_id":76561198236836866,"connected_time":8000000000,"state":"active","ping":101},{"user_id":252,"name":"Bakser Swagger","steam_id":76561198199774646,"connected_time":1271000000000,"state":"active","ping":86},{"user_id":247,"name":"SoerlssoelssÃ¶en","steam_id":76561197993060585,"connected_time":1381000000000,"state":"active","ping":72},{"user_id":211,"name":"3 AM","steam_id":76561198410945277,"connected_time":3635000000000,"state":"active","ping":118},{"user_id":226,"name":"r06u3","steam_id":76561198254099253,"connected_time":2949000000000,"state":"active","ping":166},{"user_id":259,"name":"THE Grosser","steam_id":76561197995530666,"connected_time":906000000000,"state":"active","ping":50},{"user_id":153,"name":"â™‚ Animan â™‚ Studios â™‚","steam_id":76561198308302932,"connected_time":7043000000000,"state":"active","ping":104}]},{"server_id":308,"name":"Uncletopia | Frankfurt | 3 | All Maps","name_short":"frk-3","host":"frk-1.de.uncletopia.com","port":27035,"enabled":true,"region":"eu","cc":"de","latitude":50.110924,"longitude":8.682127,"reserved":0,"last_update":"0001-01-01T00:00:00Z","name_a2s":"Uncletopia | Frankfurt | 3 | All Maps","protocol":17,"map":"cp_altitude","folder":"tf","game":"Team Fortress","app_id":440,"player_count":0,"max_players":24,"Bots":0,"server_type":"Dedicated","server_os":"Linux","password":true,"vac":true,"version":"7932396","steam_id":85568392924504274,"keywords":["cp","nocrits","nodmgspread","uncletopia"],"game_id":440,"stv_port":27036,"stv_name":"Uncletopia | Frankfurt | 3 | All Maps | STV","players":null},{"server_id":309,"name":"Uncletopia | Frankfurt | 4 | All Maps","name_short":"frk-4","host":"frk-1.de.uncletopia.com","port":27045,"enabled":true,"region":"eu","cc":"de","latitude":50.110924,"longitude":8.682127,"reserved":0,"last_update":"0001-01-01T00:00:00Z","name_a2s":"Uncletopia | Frankfurt | 4 | All Maps","protocol":17,"map":"koth_harvest_final","folder":"tf","game":"Team Fortress","app_id":440,"player_count":22,"max_players":24,"Bots":0,"server_type":"Dedicated","server_os":"Linux","password":true,"vac":true,"version":"7932396","steam_id":85568392924504275,"keywords":["cp","nocrits","nodmgspread","uncletopia"],"game_id":440,"stv_port":27046,"stv_name":"Uncletopia | Frankfurt | 4 | All Maps | STV","players":[{"user_id":310,"name":"Valoxi","steam_id":76561197995042938,"connected_time":1961000000000,"state":"active","ping":70},{"user_id":320,"name":"Local Capybara","steam_id":76561198388321887,"connected_time":1055000000000,"state":"active","ping":57},{"user_id":323,"name":"X-tis","steam_id":76561198043837480,"connected_time":333000000000,"state":"active","ping":68},{"user_id":331,"name":"berahne khosh hal","steam_id":76561198327135462,"connected_time":167000000000,"state":"active","ping":155},{"user_id":306,"name":"wheatley","steam_id":76561199049838300,"connected_time":2167000000000,"state":"active","ping":64},{"user_id":284,"name":"GrossViche","steam_id":76561198184620926,"connected_time":3474000000000,"state":"active","ping":60},{"user_id":252,"name":"Flamy?","steam_id":76561198024332838,"connected_time":5065000000000,"state":"active","ping":66},{"user_id":239,"name":"cuddles \u003c3","steam_id":76561198805181599,"connected_time":5738000000000,"state":"active","ping":66},{"user_id":275,"name":"Fat Pigeon","steam_id":76561198817940142,"connected_time":3841000000000,"state":"active","ping":48},{"user_id":301,"name":"StingyLettuce","steam_id":76561199010337406,"connected_time":2570000000000,"state":"active","ping":112},{"user_id":327,"name":"Arecibo","steam_id":76561198014359615,"connected_time":216000000000,"state":"active","ping":68},{"user_id":313,"name":"t.tv/Montreetor","steam_id":76561198088729562,"connected_time":1595000000000,"state":"active","ping":55},{"user_id":332,"name":"boryshero","steam_id":76561198435995576,"connected_time":106000000000,"state":"active","ping":74},{"user_id":333,"name":"-TA-skai","steam_id":76561198184881255,"connected_time":104000000000,"state":"active","ping":73},{"user_id":288,"name":"kornetov.vitalya","steam_id":76561199286034833,"connected_time":3346000000000,"state":"active","ping":96},{"user_id":273,"name":"Eke","steam_id":76561198105248922,"connected_time":4286000000000,"state":"active","ping":102},{"user_id":324,"name":"ãƒ GeRmAn |Ã—UAÃ—ãƒ ","steam_id":76561199044754898,"connected_time":257000000000,"state":"active","ping":69},{"user_id":318,"name":"Ð—Ð´Ð¾Ñ€Ð¾Ð²ÐµÐ½ÑŒÐºÑ– Ð±ÑƒÐ»Ð¸","steam_id":76561198201706527,"connected_time":1289000000000,"state":"active","ping":67},{"user_id":319,"name":"Master Of Noob","steam_id":76561198217926783,"connected_time":1236000000000,"state":"active","ping":66},{"user_id":330,"name":"richie","steam_id":76561198124159344,"connected_time":196000000000,"state":"active","ping":46},{"user_id":279,"name":"yuck","steam_id":76561197987249568,"connected_time":3749000000000,"state":"active","ping":105},{"user_id":317,"name":"XPullaHiiri","steam_id":76561198031652375,"connected_time":1320000000000,"state":"active","ping":82}]},{"server_id":310,"name":"Uncletopia | Frankfurt | 5 | All Maps","name_short":"frk-5","host":"frk-1.de.uncletopia.com","port":27055,"enabled":true,"region":"eu","cc":"de","latitude":50.110924,"longitude":8.682127,"reserved":0,"last_update":"0001-01-01T00:00:00Z","name_a2s":"Uncletopia | Frankfurt | 5 | All Maps","protocol":17,"map":"pl_barnblitz","folder":"tf","game":"Team Fortress","app_id":440,"player_count":24,"max_players":24,"Bots":0,"server_type":"Dedicated","server_os":"Linux","password":true,"vac":true,"version":"7932396","steam_id":85568392924504277,"keywords":["nocrits","nodmgspread","payload","uncletopia"],"game_id":440,"stv_port":27056,"stv_name":"Uncletopia | Frankfurt | 5 | All Maps | STV","players":[{"user_id":579,"name":"sareena","steam_id":76561198810194062,"connected_time":2722000000000,"state":"active","ping":74},{"user_id":597,"name":"Brap","steam_id":76561198410520287,"connected_time":2004000000000,"state":"active","ping":150},{"user_id":615,"name":"Dog ?","steam_id":76561198347020945,"connected_time":470000000000,"state":"active","ping":81},{"user_id":584,"name":"Urfangonultasadana","steam_id":76561199389286151,"connected_time":2400000000000,"state":"active","ping":110},{"user_id":608,"name":"Kamikrazy","steam_id":76561198044254918,"connected_time":857000000000,"state":"active","ping":73},{"user_id":596,"name":"Mirandaws","steam_id":76561198930890710,"connected_time":2031000000000,"state":"active","ping":71},{"user_id":504,"name":"NAHIDA","steam_id":76561198349648942,"connected_time":7204000000000,"state":"active","ping":90},{"user_id":609,"name":"Hussain_144","steam_id":76561198346029208,"connected_time":833000000000,"state":"active","ping":176},{"user_id":614,"name":"Popop","steam_id":76561198004793795,"connected_time":744000000000,"state":"active","ping":48},{"user_id":604,"name":"etc","steam_id":76561197998394797,"connected_time":1768000000000,"state":"active","ping":59},{"user_id":607,"name":"Der Herr Doktor","steam_id":76561198119476089,"connected_time":985000000000,"state":"active","ping":54},{"user_id":578,"name":"Acbh","steam_id":76561198158271672,"connected_time":2764000000000,"state":"active","ping":60},{"user_id":588,"name":"tamz","steam_id":76561198146873972,"connected_time":2360000000000,"state":"active","ping":45},{"user_id":620,"name":"Lassie","steam_id":76561198131924713,"connected_time":63000000000,"state":"active","ping":58},{"user_id":617,"name":"ALL BALLS NO SHAFT","steam_id":76561198028701695,"connected_time":286000000000,"state":"active","ping":65},{"user_id":613,"name":"Aleknat","steam_id":76561198055379857,"connected_time":766000000000,"state":"active","ping":69},{"user_id":568,"name":"One-Eyed Dancer","steam_id":76561198872013525,"connected_time":3188000000000,"state":"active","ping":130},{"user_id":611,"name":"Carlo","steam_id":76561198276491098,"connected_time":829000000000,"state":"active","ping":57},{"user_id":606,"name":"night.s","steam_id":76561198326287823,"connected_time":1367000000000,"state":"active","ping":75},{"user_id":450,"name":"It's time","steam_id":76561198061197114,"connected_time":10044000000000,"state":"active","ping":66},{"user_id":594,"name":"Mav","steam_id":76561198004403881,"connected_time":2205000000000,"state":"active","ping":63},{"user_id":603,"name":"Opti","steam_id":76561197968902518,"connected_time":1864000000000,"state":"active","ping":69},{"user_id":616,"name":"WolfmanCZ","steam_id":76561199157141414,"connected_time":408000000000,"state":"active","ping":69},{"user_id":593,"name":"madijo","steam_id":76561198012617400,"connected_time":2248000000000,"state":"active","ping":59}]},{"server_id":311,"name":"Uncletopia | Frankfurt | 6 | All Maps","name_short":"frk-6","host":"frk-1.de.uncletopia.com","port":27065,"enabled":true,"region":"eu","cc":"de","latitude":50.110924,"longitude":8.682127,"reserved":0,"last_update":"0001-01-01T00:00:00Z","name_a2s":"Uncletopia | Frankfurt | 6 | All Maps","protocol":17,"map":"koth_viaduct","folder":"tf","game":"Team Fortress","app_id":440,"player_count":0,"max_players":24,"Bots":0,"server_type":"Dedicated","server_os":"Linux","password":true,"vac":true,"version":"7932396","steam_id":85568392924504278,"keywords":["cp","nocrits","nodmgspread","uncletopia"],"game_id":440,"stv_port":27066,"stv_name":"Uncletopia | Frankfurt | 6 | All Maps | STV","players":null},{"server_id":23,"name":"Uncletopia | Frankfurt | 7 | Stopwatch Beta","name_short":"frk-7","host":"frk-1.de.uncletopia.com","port":27075,"enabled":true,"region":"eu","cc":"de","latitude":50.110924,"longitude":8.682127,"reserved":0,"last_update":"0001-01-01T00:00:00Z","name_a2s":"Uncletopia | Frankfurt | 7 | Stopwatch Beta","protocol":17,"map":"pl_snowycoast","folder":"tf","game":"Team Fortress","app_id":440,"player_count":0,"max_players":24,"Bots":0,"server_type":"Dedicated","server_os":"Linux","password":true,"vac":true,"version":"7932396","steam_id":85568392924742827,"keywords":["nocrits","nodmgspread","payload","uncletopia"],"game_id":440,"stv_port":27076,"stv_name":"Uncletopia | Frankfurt | 7 | Stopwatch Beta | STV","players":null},{"server_id":24,"name":"Uncletopia | Frankfurt | 8 | Community","name_short":"frk-8","host":"frk-1.de.uncletopia.com","port":27085,"enabled":true,"region":"eu","cc":"de","latitude":50.110924,"longitude":8.682127,"reserved":0,"last_update":"0001-01-01T00:00:00Z","name_a2s":"Uncletopia | Frankfurt | 8 | Community","protocol":17,"map":"workshop/koth_bagel_rc6.ugc2514036946","folder":"tf","game":"Team Fortress","app_id":440,"player_count":0,"max_players":24,"Bots":0,"server_type":"Dedicated","server_os":"Linux","password":true,"vac":true,"version":"7932396","steam_id":85568392924742828,"keywords":["cp","nocrits","nodmgspread","uncletopia"],"game_id":440,"stv_port":27086,"stv_name":"Uncletopia | Frankfurt | 8 | Community | STV","players":null},{"server_id":202,"name":"Uncletopia | Hong Kong | 1 | All Maps","name_short":"hgk-1","host":"hgk-1.hk.uncletopia.com","port":27015,"enabled":true,"region":"asia","cc":"hk","latitude":22.302711,"longitude":114.177216,"reserved":0,"last_update":"0001-01-01T00:00:00Z","name_a2s":"Uncletopia | Hong Kong | 1 | All Maps","protocol":17,"map":"koth_highpass","folder":"tf","game":"Team Fortress","app_id":440,"player_count":0,"max_players":24,"Bots":0,"server_type":"Dedicated","server_os":"Linux","password":true,"vac":true,"version":"7932396","steam_id":85568392924494504,"keywords":["cp","nocrits","nodmgspread","uncletopia"],"game_id":440,"stv_port":27016,"stv_name":"Uncletopia | Hong Kong | 1 | All Maps | STV","players":null},{"server_id":1,"name":"Uncletopia | Los Angeles | 1 | All Maps","name_short":"lax-1","host":"lax-1.us.uncletopia.com","port":27015,"enabled":true,"region":"us-west","cc":"us","latitude":33.94279,"longitude":-118.41004,"reserved":0,"last_update":"0001-01-01T00:00:00Z","name_a2s":"Uncletopia | Los Angeles | 1 | All Maps","protocol":17,"map":"koth_highpass","folder":"tf","game":"Team Fortress","app_id":440,"player_count":0,"max_players":24,"Bots":0,"server_type":"Dedicated","server_os":"Linux","password":true,"vac":true,"version":"7932396","steam_id":85568392924469991,"keywords":["cp","nocrits","nodmgspread","uncletopia"],"game_id":440,"stv_port":27016,"stv_name":"Uncletopia | Los Angeles | 1 | All Maps | STV","players":null},{"server_id":112,"name":"Uncletopia | Los Angeles | 2 | All Maps","name_short":"lax-2","host":"lax-1.us.uncletopia.com","port":27025,"enabled":true,"region":"us-west","cc":"us","latitude":33.94279,"longitude":-118.41004,"reserved":0,"last_update":"0001-01-01T00:00:00Z","name_a2s":"Uncletopia | Los Angeles | 2 | All Maps","protocol":17,"map":"pl_borneo","folder":"tf","game":"Team Fortress","app_id":440,"player_count":0,"max_players":24,"Bots":0,"server_type":"Dedicated","server_os":"Linux","password":true,"vac":true,"version":"7932396","steam_id":85568392924469992,"keywords":["nocrits","nodmgspread","payload","uncletopia"],"game_id":440,"stv_port":27026,"stv_name":"Uncletopia | Los Angeles | 2 | All Maps | STV","players":null},{"server_id":324,"name":"Uncletopia | Los Angeles | 3 | All Maps","name_short":"lax-3","host":"lax-1.us.uncletopia.com","port":27035,"enabled":true,"region":"us-west","cc":"us","latitude":33.94279,"longitude":-118.41004,"reserved":0,"last_update":"0001-01-01T00:00:00Z","name_a2s":"Uncletopia | Los Angeles | 3 | All Maps","protocol":17,"map":"koth_highpass","folder":"tf","game":"Team Fortress","app_id":440,"player_count":0,"max_players":24,"Bots":0,"server_type":"Dedicated","server_os":"Linux","password":true,"vac":true,"version":"7932396","steam_id":85568392924510198,"keywords":["cp","nocrits","nodmgspread","uncletopia"],"game_id":440,"stv_port":27036,"stv_name":"Uncletopia | Los Angeles | 3 | All Maps | STV","players":null},{"server_id":25,"name":"Uncletopia | Los Angeles | 4 | Stopwatch Beta","name_short":"lax-4","host":"lax-1.us.uncletopia.com","port":27045,"enabled":true,"region":"us-west","cc":"us","latitude":33.94279,"longitude":-118.41004,"reserved":0,"last_update":"0001-01-01T00:00:00Z","name_a2s":"Uncletopia | Los Angeles | 4 | Stopwatch Beta","protocol":17,"map":"cp_altitude","folder":"tf","game":"Team Fortress","app_id":440,"player_count":0,"max_players":24,"Bots":0,"server_type":"Dedicated","server_os":"Linux","password":true,"vac":true,"version":"7932396","steam_id":85568392924510199,"keywords":["cp","nocrits","nodmgspread","uncletopia"],"game_id":440,"stv_port":27046,"stv_name":"Uncletopia | Los Angeles | 4 | Stopwatch Beta | STV","players":null},{"server_id":11,"name":"Uncletopia | London | 1 | All Maps","name_short":"lon-1","host":"lon-1.uk.uncletopia.com","port":27015,"enabled":true,"region":"eu","cc":"gb","latitude":51.509865,"longitude":-0.118092,"reserved":0,"last_update":"0001-01-01T00:00:00Z","name_a2s":"Uncletopia | London | 1 | All Maps","protocol":17,"map":"pl_snowycoast","folder":"tf","game":"Team Fortress","app_id":440,"player_count":23,"max_players":24,"Bots":0,"server_type":"Dedicated","server_os":"Linux","password":true,"vac":true,"version":"7932396","steam_id":85568392924367362,"keywords":["nocrits","nodmgspread","payload","uncletopia"],"game_id":440,"stv_port":27016,"stv_name":"Uncletopia | London | 1 | All Maps | STV","players":[{"user_id":719,"name":"Stuid","steam_id":76561199427506542,"connected_time":757000000000,"state":"active","ping":71},{"user_id":703,"name":"Night Fury","steam_id":76561197995207032,"connected_time":1559000000000,"state":"active","ping":84},{"user_id":733,"name":"JonTurn","steam_id":76561198128323383,"connected_time":172000000000,"state":"active","ping":41},{"user_id":727,"name":"rabbitface26","steam_id":76561198327540113,"connected_time":348000000000,"state":"active","ping":45},{"user_id":729,"name":"FuneralDJ (semen demon)","steam_id":76561198105320071,"connected_time":335000000000,"state":"active","ping":46},{"user_id":731,"name":"KoadaQ","steam_id":76561199075589159,"connected_time":257000000000,"state":"active","ping":66},{"user_id":732,"name":"Burgoo_King","steam_id":76561198133572225,"connected_time":206000000000,"state":"active","ping":72},{"user_id":734,"name":"SnazzyCelestial","steam_id":76561198328763813,"connected_time":155000000000,"state":"active","ping":147},{"user_id":735,"name":"0","steam_id":76561199084809092,"connected_time":142000000000,"state":"active","ping":108},{"user_id":736,"name":"CEO of Racism","steam_id":76561198211814371,"connected_time":107000000000,"state":"active","ping":90},{"user_id":696,"name":"DrExplosive","steam_id":76561198063678579,"connected_time":2069000000000,"state":"active","ping":37},{"user_id":704,"name":"rwota","steam_id":76561198385769722,"connected_time":1493000000000,"state":"active","ping":107},{"user_id":737,"name":"Mr. Enjoy da money","steam_id":76561198152681460,"connected_time":68000000000,"state":"active","ping":74},{"user_id":721,"name":"Joseph Stalin","steam_id":76561198033199746,"connected_time":721000000000,"state":"active","ping":48},{"user_id":738,"name":"Goodmouth","steam_id":76561198097645042,"connected_time":57000000000,"state":"active","ping":75},{"user_id":739,"name":"big poo","steam_id":76561198129157178,"connected_time":36000000000,"state":"active","ping":89},{"user_id":740,"name":"Once in a Lifetime","steam_id":76561199180652178,"connected_time":35000000000,"state":"active","ping":154},{"user_id":741,"name":"The Bonk Manâ„¢","steam_id":76561199044260792,"connected_time":34000000000,"state":"active","ping":77},{"user_id":742,"name":"Borat","steam_id":76561198122226417,"connected_time":29000000000,"state":"active","ping":43},{"user_id":690,"name":"Fish 'n' Chips","steam_id":76561198033476886,"connected_time":2975000000000,"state":"active","ping":46},{"user_id":743,"name":"Cosmetic brain","steam_id":76561198055936410,"connected_time":28000000000,"state":"active","ping":84},{"user_id":726,"name":"The Funny Cat-Heaby","steam_id":76561198439978112,"connected_time":426000000000,"state":"active","ping":100},{"user_id":695,"name":"Wardruna96","steam_id":76561199057083828,"connected_time":2549000000000,"state":"active","ping":77}]},{"server_id":114,"name":"Uncletopia | London | 2 | All Maps","name_short":"lon-2","host":"lon-1.uk.uncletopia.com","port":27025,"enabled":true,"region":"eu","cc":"gb","latitude":51.509865,"longitude":-0.118092,"reserved":0,"last_update":"0001-01-01T00:00:00Z","name_a2s":"Uncletopia | London | 2 | All Maps","protocol":17,"map":"ctf_2fort","folder":"tf","game":"Team Fortress","app_id":440,"player_count":24,"max_players":24,"Bots":0,"server_type":"Dedicated","server_os":"Linux","password":true,"vac":true,"version":"7932396","steam_id":85568392924470941,"keywords":["ctf","nocrits","nodmgspread","uncletopia"],"game_id":440,"stv_port":27026,"stv_name":"Uncletopia | London | 2 | All Maps | STV","players":[{"user_id":179,"name":"spilskinanka","steam_id":76561198047390799,"connected_time":1502000000000,"state":"active","ping":59},{"user_id":178,"name":"laza's boy","steam_id":76561199074095198,"connected_time":1521000000000,"state":"active","ping":114},{"user_id":181,"name":"ender45","steam_id":76561198840955715,"connected_time":1490000000000,"state":"active","ping":30},{"user_id":168,"name":"help","steam_id":76561199056338917,"connected_time":1848000000000,"state":"active","ping":147},{"user_id":188,"name":"tj","steam_id":76561198160466307,"connected_time":991000000000,"state":"active","ping":75},{"user_id":130,"name":"Estrogen Overdoser","steam_id":76561199030306982,"connected_time":3511000000000,"state":"active","ping":73},{"user_id":95,"name":"Paladin","steam_id":76561198042593027,"connected_time":6314000000000,"state":"active","ping":95},{"user_id":122,"name":"Mymy","steam_id":76561198819871606,"connected_time":3677000000000,"state":"active","ping":98},{"user_id":196,"name":"MondoDong","steam_id":76561197991400109,"connected_time":57000000000,"state":"active","ping":121},{"user_id":163,"name":"mesi","steam_id":76561198152458174,"connected_time":1923000000000,"state":"active","ping":78},{"user_id":96,"name":"Wade Wilson's Spoilt C4","steam_id":76561198013884709,"connected_time":6059000000000,"state":"active","ping":85},{"user_id":194,"name":"cock","steam_id":76561198307522022,"connected_time":621000000000,"state":"active","ping":81},{"user_id":164,"name":"V.Domov","steam_id":76561198799218046,"connected_time":1907000000000,"state":"active","ping":70},{"user_id":149,"name":"Axy","steam_id":76561198244029740,"connected_time":2234000000000,"state":"active","ping":77},{"user_id":189,"name":"Half Dane","steam_id":76561198170255465,"connected_time":819000000000,"state":"active","ping":60},{"user_id":177,"name":"Vitamin Weee","steam_id":76561199183937747,"connected_time":1586000000000,"state":"active","ping":83},{"user_id":183,"name":"Remizer","steam_id":76561198799755616,"connected_time":1423000000000,"state":"active","ping":75},{"user_id":184,"name":"Creative","steam_id":76561198835034247,"connected_time":1405000000000,"state":"active","ping":76},{"user_id":195,"name":"Redkiller","steam_id":76561199453655288,"connected_time":269000000000,"state":"active","ping":125},{"user_id":165,"name":"Darkstefxd","steam_id":76561198342416901,"connected_time":1894000000000,"state":"active","ping":77},{"user_id":185,"name":"SJM","steam_id":76561198799066983,"connected_time":1344000000000,"state":"active","ping":82},{"user_id":193,"name":"Ape","steam_id":76561198119347598,"connected_time":665000000000,"state":"active","ping":47},{"user_id":121,"name":"Sylvanas","steam_id":76561198154904165,"connected_time":3681000000000,"state":"active","ping":105},{"user_id":197,"name":"Roland Deschain","steam_id":76561198023296355,"connected_time":50000000000,"state":"active","ping":109}]},{"server_id":320,"name":"Uncletopia | London | 3 | All Maps","name_short":"lon-3","host":"lon-1.uk.uncletopia.com","port":27035,"enabled":true,"region":"eu","cc":"gb","latitude":51.509865,"longitude":-0.118092,"reserved":0,"last_update":"0001-01-01T00:00:00Z","name_a2s":"Uncletopia | London | 3 | All Maps","protocol":17,"map":"pl_snowycoast","folder":"tf","game":"Team Fortress","app_id":440,"player_count":24,"max_players":24,"Bots":0,"server_type":"Dedicated","server_os":"Linux","password":true,"vac":true,"version":"7932396","steam_id":85568392924510192,"keywords":["nocrits","nodmgspread","payload","uncletopia"],"game_id":440,"stv_port":27036,"stv_name":"Uncletopia | London | 3 | All Maps | STV","players":[{"user_id":417,"name":"DJPNK","steam_id":76561197989948420,"connected_time":1237000000000,"state":"active","ping":52},{"user_id":413,"name":"quickfast","steam_id":76561199438900919,"connected_time":1960000000000,"state":"active","ping":41},{"user_id":427,"name":"KsawiDemon","steam_id":76561198855789287,"connected_time":365000000000,"state":"active","ping":75},{"user_id":393,"name":"bigebi1","steam_id":76561198274724610,"connected_time":2710000000000,"state":"active","ping":92},{"user_id":426,"name":"Tibalt Nyahuma","steam_id":76561198034779431,"connected_time":517000000000,"state":"active","ping":146},{"user_id":419,"name":"cof","steam_id":76561199128417805,"connected_time":1210000000000,"state":"active","ping":55},{"user_id":391,"name":"MyDoctorCalledMeACorpse","steam_id":76561199218184933,"connected_time":2806000000000,"state":"active","ping":87},{"user_id":411,"name":"kilo","steam_id":76561198015641339,"connected_time":2020000000000,"state":"active","ping":84},{"user_id":398,"name":"Bottle O' Scrumpy","steam_id":76561199244250562,"connected_time":2624000000000,"state":"active","ping":102},{"user_id":399,"name":"zorze supreme.exe","steam_id":76561198996333022,"connected_time":2561000000000,"state":"active","ping":80},{"user_id":379,"name":"Luxotrics","steam_id":76561198053455161,"connected_time":3760000000000,"state":"active","ping":87},{"user_id":429,"name":"Jyghc","steam_id":76561198405980575,"connected_time":314000000000,"state":"active","ping":71},{"user_id":401,"name":"zoinks!","steam_id":76561198068645362,"connected_time":2470000000000,"state":"active","ping":45},{"user_id":425,"name":"C.H.E.R.E.P.","steam_id":76561198026938595,"connected_time":612000000000,"state":"active","ping":84},{"user_id":333,"name":"Jospeh","steam_id":76561198120930790,"connected_time":5680000000000,"state":"active","ping":55},{"user_id":420,"name":"A mischievous Femboy","steam_id":76561198248239796,"connected_time":1152000000000,"state":"active","ping":60},{"user_id":403,"name":"joachym","steam_id":76561198428579761,"connected_time":2414000000000,"state":"active","ping":71},{"user_id":421,"name":"Ada","steam_id":76561198045371389,"connected_time":1145000000000,"state":"active","ping":90},{"user_id":299,"name":"MichaÅ‚","steam_id":76561198320346362,"connected_time":7224000000000,"state":"active","ping":65},{"user_id":424,"name":"Sign up to give bone marrow!","steam_id":76561198055363275,"connected_time":791000000000,"state":"active","ping":47},{"user_id":430,"name":"God","steam_id":76561199049925843,"connected_time":277000000000,"state":"active","ping":103},{"user_id":428,"name":"Croix","steam_id":76561198059642945,"connected_time":354000000000,"state":"active","ping":72},{"user_id":377,"name":"SwiftKarma","steam_id":76561199005694153,"connected_time":3876000000000,"state":"active","ping":61},{"user_id":409,"name":"LeifrðŸ¦Œ","steam_id":76561198076271106,"connected_time":2141000000000,"state":"active","ping":54}]},{"server_id":321,"name":"Uncletopia | London | 4 | All Maps","name_short":"lon-4","host":"lon-1.uk.uncletopia.com","port":27045,"enabled":true,"region":"eu","cc":"gb","latitude":51.509865,"longitude":-0.118092,"reserved":0,"last_update":"0001-01-01T00:00:00Z","name_a2s":"Uncletopia | London | 4 | All Maps","protocol":17,"map":"pl_snowycoast","folder":"tf","game":"Team Fortress","app_id":440,"player_count":23,"max_players":24,"Bots":0,"server_type":"Dedicated","server_os":"Linux","password":true,"vac":true,"version":"7932396","steam_id":85568392924510193,"keywords":["nocrits","nodmgspread","payload","uncletopia"],"game_id":440,"stv_port":27046,"stv_name":"Uncletopia | London | 4 | All Maps | STV","players":[{"user_id":231,"name":"PadrePockets","steam_id":76561197993251606,"connected_time":3269000000000,"state":"active","ping":116},{"user_id":289,"name":"szmen","steam_id":76561198072569764,"connected_time":255000000000,"state":"active","ping":102},{"user_id":277,"name":"Ziemniaczki z koperkiem","steam_id":76561198829123464,"connected_time":822000000000,"state":"active","ping":79},{"user_id":275,"name":"Proud Jojo Fan #TF2SP","steam_id":76561198847327216,"connected_time":1060000000000,"state":"active","ping":74},{"user_id":233,"name":"Bob Sacamano","steam_id":76561198085610701,"connected_time":3251000000000,"state":"active","ping":97},{"user_id":235,"name":"WrytXander","steam_id":76561198067856323,"connected_time":3204000000000,"state":"active","ping":98},{"user_id":290,"name":"damn","steam_id":76561198875273631,"connected_time":243000000000,"state":"active","ping":115},{"user_id":263,"name":"Bred_Bone","steam_id":76561198179130475,"connected_time":1493000000000,"state":"active","ping":86},{"user_id":285,"name":"Kurage","steam_id":76561198021221288,"connected_time":479000000000,"state":"active","ping":65},{"user_id":237,"name":"HawkBear","steam_id":76561198046062963,"connected_time":3198000000000,"state":"active","ping":140},{"user_id":268,"name":"Ded","steam_id":76561198186054573,"connected_time":1326000000000,"state":"active","ping":83},{"user_id":239,"name":"Anonymous47007","steam_id":76561199005211417,"connected_time":3193000000000,"state":"active","ping":78},{"user_id":282,"name":"Filliam","steam_id":76561198124028151,"connected_time":678000000000,"state":"active","ping":114},{"user_id":266,"name":"oxidius","steam_id":76561198261730746,"connected_time":1394000000000,"state":"active","ping":53},{"user_id":261,"name":"Greasy","steam_id":76561198868180366,"connected_time":1645000000000,"state":"active","ping":59},{"user_id":286,"name":"whatever","steam_id":76561198095943461,"connected_time":426000000000,"state":"active","ping":73},{"user_id":279,"name":"Crisp Rat","steam_id":76561198252853460,"connected_time":771000000000,"state":"active","ping":52},{"user_id":291,"name":"good luck aaron","steam_id":76561198388750592,"connected_time":194000000000,"state":"active","ping":65},{"user_id":287,"name":"Big Benn","steam_id":76561199024168373,"connected_time":337000000000,"state":"active","ping":61},{"user_id":292,"name":"Zank Frappa","steam_id":76561199227624104,"connected_time":190000000000,"state":"active","ping":67},{"user_id":273,"name":"cislastar","steam_id":76561198027202375,"connected_time":1284000000000,"state":"active","ping":65},{"user_id":296,"name":"Penis Contortionist","steam_id":76561198073663784,"connected_time":14000000000,"state":"spawning","ping":77},{"user_id":294,"name":"Druid5333","steam_id":76561198348066287,"connected_time":177000000000,"state":"active","ping":65}]},{"server_id":21,"name":"Uncletopia | London | 5 | All Maps","name_short":"lon-5","host":"lon-1.uk.uncletopia.com","port":27055,"enabled":true,"region":"eu","cc":"gb","latitude":51.509865,"longitude":-0.118092,"reserved":0,"last_update":"0001-01-01T00:00:00Z","name_a2s":"Uncletopia | London | 5 | All Maps","protocol":17,"map":"plr_hightower","folder":"tf","game":"Team Fortress","app_id":440,"player_count":18,"max_players":24,"Bots":0,"server_type":"Dedicated","server_os":"Linux","password":true,"vac":true,"version":"7932396","steam_id":85568392924742829,"keywords":["nocrits","nodmgspread","payload","uncletopia"],"game_id":440,"stv_port":27056,"stv_name":"Uncletopia | London | 5 | All Maps | STV","players":[{"user_id":15,"name":"FanFish","steam_id":76561199389558024,"connected_time":2149000000000,"state":"active","ping":74},{"user_id":38,"name":"Miloleopard","steam_id":76561199196616680,"connected_time":34000000000,"state":"active","ping":65},{"user_id":37,"name":"Vladimir Lenin","steam_id":76561199438120787,"connected_time":107000000000,"state":"active","ping":54},{"user_id":16,"name":"ThaumielAT","steam_id":76561199488559560,"connected_time":2034000000000,"state":"active","ping":101},{"user_id":23,"name":"Salad's Warband","steam_id":76561198214089583,"connected_time":1000000000000,"state":"active","ping":67},{"user_id":21,"name":"LuckLuster","steam_id":76561198092986647,"connected_time":1294000000000,"state":"active","ping":110},{"user_id":34,"name":"dinorno","steam_id":76561198146276830,"connected_time":502000000000,"state":"active","ping":76},{"user_id":22,"name":"NOTON101","steam_id":76561199148671672,"connected_time":1280000000000,"state":"active","ping":64},{"user_id":39,"name":"Codex","steam_id":76561198068748584,"connected_time":21000000000,"state":"active","ping":44},{"user_id":40,"name":"Verculum","steam_id":76561198894912634,"connected_time":17000000000,"state":"spawning","ping":100},{"user_id":26,"name":"Dry Chester","steam_id":76561198044095538,"connected_time":888000000000,"state":"active","ping":77},{"user_id":28,"name":"clunk","steam_id":76561198836460767,"connected_time":839000000000,"state":"active","ping":72},{"user_id":29,"name":"Kapitan Polska","steam_id":76561197968069413,"connected_time":750000000000,"state":"active","ping":81},{"user_id":30,"name":"Peep","steam_id":76561198132508552,"connected_time":675000000000,"state":"active","ping":46},{"user_id":31,"name":"Sammy096","steam_id":76561198128167541,"connected_time":595000000000,"state":"active","ping":69},{"user_id":32,"name":"driz","steam_id":76561198069462235,"connected_time":587000000000,"state":"active","ping":43},{"user_id":33,"name":"Tsuwu","steam_id":76561198354596897,"connected_time":583000000000,"state":"active","ping":103},{"user_id":41,"name":"luckyastroman","steam_id":76561199027500574,"connected_time":6000000000,"state":"spawning","ping":73}]},{"server_id":22,"name":"Uncletopia | London | 6 | All Maps","name_short":"lon-6","host":"lon-1.uk.uncletopia.com","port":27065,"enabled":true,"region":"eu","cc":"gb","latitude":51.509865,"longitude":-0.118092,"reserved":0,"last_update":"0001-01-01T00:00:00Z","name_a2s":"Uncletopia | London | 6 | All Maps","protocol":17,"map":"koth_lakeside_final","folder":"tf","game":"Team Fortress","app_id":440,"player_count":0,"max_players":24,"Bots":0,"server_type":"Dedicated","server_os":"Linux","password":true,"vac":true,"version":"7932396","steam_id":85568392924742830,"keywords":["cp","nocrits","nodmgspread","uncletopia"],"game_id":440,"stv_port":27066,"stv_name":"Uncletopia | London | 6 | All Maps | STV","players":null},{"server_id":40,"name":"Uncletopia | London | 7 | No Payload","name_short":"lon-7","host":"lon-1.uk.uncletopia.com","port":27075,"enabled":true,"region":"eu","cc":"gb","latitude":51.509865,"longitude":-0.118092,"reserved":0,"last_update":"0001-01-01T00:00:00Z","name_a2s":"Uncletopia | London | 7 | No Payload","protocol":17,"map":"cp_mercenarypark","folder":"tf","game":"Team Fortress","app_id":440,"player_count":0,"max_players":24,"Bots":0,"server_type":"Dedicated","server_os":"Linux","password":true,"vac":true,"version":"7932396","steam_id":85568392924964314,"keywords":["cp","nocrits","nodmgspread","uncletopia"],"game_id":440,"stv_port":27076,"stv_name":"Uncletopia | London | 7 | No Payload | STV","players":null},{"server_id":41,"name":"Uncletopia | London | 8 | Community","name_short":"lon-8","host":"lon-1.uk.uncletopia.com","port":27085,"enabled":true,"region":"eu","cc":"gb","latitude":51.509865,"longitude":-0.118092,"reserved":0,"last_update":"0001-01-01T00:00:00Z","name_a2s":"Uncletopia | London | 8 | Community","protocol":17,"map":"workshop/pl_cactuscanyon_redux_final2.ugc2579644293","folder":"tf","game":"Team Fortress","app_id":440,"player_count":0,"max_players":24,"Bots":0,"server_type":"Dedicated","server_os":"Linux","password":true,"vac":true,"version":"7932396","steam_id":85568392924964315,"keywords":["nocrits","nodmgspread","payload","uncletopia"],"game_id":440,"stv_port":27086,"stv_name":"Uncletopia | London | 8 | Community | STV","players":null},{"server_id":300,"name":"Uncletopia | MontrÃ©al | 1 | All Maps","name_short":"mtl-1","host":"mtl-1.ca.uncletopia.com","port":27015,"enabled":true,"region":"us-east","cc":"ca","latitude":45.50889,"longitude":-73.56167,"reserved":0,"last_update":"0001-01-01T00:00:00Z","name_a2s":"Uncletopia | MontrÃ©al | 1 | All Maps","protocol":17,"map":"cp_altitude","folder":"tf","game":"Team Fortress","app_id":440,"player_count":0,"max_players":24,"Bots":0,"server_type":"Dedicated","server_os":"Linux","password":true,"vac":true,"version":"7932396","steam_id":85568392924500087,"keywords":["cp","nocrits","nodmgspread","uncletopia"],"game_id":440,"stv_port":27016,"stv_name":"Uncletopia | MontrÃ©al | 1 | All Maps | STV","players":null},{"server_id":301,"name":"Uncletopia | MontrÃ©al | 2 | All Maps","name_short":"mtl-2","host":"mtl-1.ca.uncletopia.com","port":27025,"enabled":true,"region":"us-east","cc":"ca","latitude":45.50889,"longitude":-73.56167,"reserved":0,"last_update":"0001-01-01T00:00:00Z","name_a2s":"Uncletopia | MontrÃ©al | 2 | All Maps","protocol":17,"map":"koth_lakeside_final","folder":"tf","game":"Team Fortress","app_id":440,"player_count":1,"max_players":24,"Bots":0,"server_type":"Dedicated","server_os":"Linux","password":true,"vac":true,"version":"7932396","steam_id":85568392924500088,"keywords":["cp","nocrits","nodmgspread","uncletopia"],"game_id":440,"stv_port":27026,"stv_name":"Uncletopia | MontrÃ©al | 2 | All Maps | STV","players":[{"user_id":4,"name":"Dwarfo","steam_id":76561198119220289,"connected_time":44000000000,"state":"active","ping":64}]},{"server_id":302,"name":"Uncletopia | MontrÃ©al | 3 | All Maps","name_short":"mtl-3","host":"mtl-1.ca.uncletopia.com","port":27035,"enabled":true,"region":"us-east","cc":"ca","latitude":45.50889,"longitude":-73.56167,"reserved":0,"last_update":"0001-01-01T00:00:00Z","name_a2s":"Uncletopia | MontrÃ©al | 3 | All Maps","protocol":17,"map":"cp_process_final","folder":"tf","game":"Team Fortress","app_id":440,"player_count":0,"max_players":24,"Bots":0,"server_type":"Dedicated","server_os":"Linux","password":true,"vac":true,"version":"7932396","steam_id":85568392924500089,"keywords":["cp","nocrits","nodmgspread","uncletopia"],"game_id":440,"stv_port":27036,"stv_name":"Uncletopia | MontrÃ©al | 3 | All Maps | STV","players":null},{"server_id":303,"name":"Uncletopia | MontrÃ©al | 4 | No Payload","name_short":"mtl-4","host":"mtl-1.ca.uncletopia.com","port":27045,"enabled":true,"region":"us-east","cc":"ca","latitude":45.50889,"longitude":-73.56167,"reserved":0,"last_update":"0001-01-01T00:00:00Z","name_a2s":"Uncletopia | MontrÃ©al | 4 | No Payload","protocol":17,"map":"cp_snakewater_final1","folder":"tf","game":"Team Fortress","app_id":440,"player_count":0,"max_players":24,"Bots":0,"server_type":"Dedicated","server_os":"Linux","password":true,"vac":true,"version":"7932396","steam_id":85568392924500090,"keywords":["cp","nocrits","nodmgspread","uncletopia"],"game_id":440,"stv_port":27046,"stv_name":"Uncletopia | MontrÃ©al | 4 | No Payload | STV","players":null},{"server_id":13,"name":"Uncletopia | New York City | 1 | All Maps","name_short":"nyc-1","host":"nyc-1.us.uncletopia.com","port":27015,"enabled":true,"region":"us-east","cc":"us","latitude":40.73061,"longitude":-73.93524,"reserved":0,"last_update":"0001-01-01T00:00:00Z","name_a2s":"Uncletopia | New York City | 1 | All Maps","protocol":17,"map":"koth_viaduct","folder":"tf","game":"Team Fortress","app_id":440,"player_count":0,"max_players":24,"Bots":0,"server_type":"Dedicated","server_os":"Linux","password":true,"vac":true,"version":"7932396","steam_id":85568392924469993,"keywords":["cp","nocrits","nodmgspread","uncletopia"],"game_id":440,"stv_port":27016,"stv_name":"Uncletopia | New York City | 1 | All Maps | STV","players":null},{"server_id":14,"name":"Uncletopia | New York City | 2 | All Maps","name_short":"nyc-2","host":"nyc-1.us.uncletopia.com","port":27025,"enabled":true,"region":"us-east","cc":"us","latitude":40.73061,"longitude":-73.93524,"reserved":0,"last_update":"0001-01-01T00:00:00Z","name_a2s":"Uncletopia | New York City | 2 | All Maps","protocol":17,"map":"koth_lakeside_final","folder":"tf","game":"Team Fortress","app_id":440,"player_count":0,"max_players":24,"Bots":0,"server_type":"Dedicated","server_os":"Linux","password":true,"vac":true,"version":"7932396","steam_id":85568392924469994,"keywords":["cp","nocrits","nodmgspread","uncletopia"],"game_id":440,"stv_port":27026,"stv_name":"Uncletopia | New York City | 2 | All Maps | STV","players":null},{"server_id":15,"name":"Uncletopia | New York City | 3 | Stopwatch Beta","name_short":"nyc-3","host":"nyc-1.us.uncletopia.com","port":27035,"enabled":true,"region":"us-east","cc":"us","latitude":40.73061,"longitude":-73.93524,"reserved":0,"last_update":"0001-01-01T00:00:00Z","name_a2s":"Uncletopia | New York City | 3 | Stopwatch Beta","protocol":17,"map":"workshop/koth_clearcut_b15.ugc2107050255","folder":"tf","game":"Team Fortress","app_id":440,"player_count":0,"max_players":24,"Bots":0,"server_type":"Dedicated","server_os":"Linux","password":true,"vac":true,"version":"7932396","steam_id":85568392924742820,"keywords":["cp","nocrits","nodmgspread","uncletopia"],"game_id":440,"stv_port":27036,"stv_name":"Uncletopia | New York City | 3 | Stopwatch Beta | STV","players":null},{"server_id":16,"name":"Uncletopia | New York City | 4 | Community","name_short":"nyc-4","host":"nyc-1.us.uncletopia.com","port":27045,"enabled":true,"region":"us-east","cc":"us","latitude":40.73061,"longitude":-73.93524,"reserved":0,"last_update":"0001-01-01T00:00:00Z","name_a2s":"Uncletopia | New York City | 4 | Community","protocol":17,"map":"workshop/pl_badwater_pro_v12.ugc2142942074","folder":"tf","game":"Team Fortress","app_id":440,"player_count":5,"max_players":24,"Bots":0,"server_type":"Dedicated","server_os":"Linux","password":true,"vac":true,"version":"7932396","steam_id":85568392924742821,"keywords":["nocrits","nodmgspread","payload","uncletopia"],"game_id":440,"stv_port":27046,"stv_name":"Uncletopia | New York City | 4 | Community | STV","players":[{"user_id":4,"name":"Swedish Crowbar","steam_id":76561199105488936,"connected_time":3143000000000,"state":"active","ping":127},{"user_id":5,"name":"Spork","steam_id":76561199072431848,"connected_time":2859000000000,"state":"active","ping":49},{"user_id":9,"name":"Flowers","steam_id":76561198031669899,"connected_time":2269000000000,"state":"active","ping":67},{"user_id":12,"name":"You like Mending?","steam_id":76561198135731629,"connected_time":823000000000,"state":"active","ping":46},{"user_id":14,"name":"gIBBY","steam_id":76561198080099598,"connected_time":16000000000,"state":"active","ping":32}]},{"server_id":142,"name":"Uncletopia | SÃ£o Paulo | 1 | All Maps","name_short":"sao-1","host":"sao-1.br.uncletopia.com","port":27015,"enabled":true,"region":"sa","cc":"br","latitude":-23.533773,"longitude":-46.62529,"reserved":0,"last_update":"0001-01-01T00:00:00Z","name_a2s":"Uncletopia | SÃ£o Paulo | 1 | All Maps","protocol":17,"map":"pl_swiftwater_final1","folder":"tf","game":"Team Fortress","app_id":440,"player_count":0,"max_players":24,"Bots":0,"server_type":"Dedicated","server_os":"Linux","password":true,"vac":true,"version":"7932396","steam_id":85568392924469996,"keywords":["nocrits","nodmgspread","payload","uncletopia"],"game_id":440,"stv_port":27016,"stv_name":"Uncletopia | SÃ£o Paulo | 1 | All Maps | STV","players":null},{"server_id":143,"name":"Uncletopia | SÃ£o Paulo | 2 | All Maps","name_short":"sao-2","host":"sao-2.br.uncletopia.com","port":27015,"enabled":true,"region":"sa","cc":"br","latitude":-23.533773,"longitude":-46.62529,"reserved":0,"last_update":"0001-01-01T00:00:00Z","name_a2s":"Uncletopia | SÃ£o Paulo | 2 | All Maps","protocol":17,"map":"pl_swiftwater_final1","folder":"tf","game":"Team Fortress","app_id":440,"player_count":4,"max_players":24,"Bots":0,"server_type":"Dedicated","server_os":"Linux","password":true,"vac":true,"version":"7932396","steam_id":85568392924485349,"keywords":["nocrits","nodmgspread","payload","uncletopia"],"game_id":440,"stv_port":27016,"stv_name":"Uncletopia | SÃ£o Paulo | 2 | All Maps | STV","players":[{"user_id":8,"name":"Esqueleto mariachi","steam_id":76561199084379041,"connected_time":851000000000,"state":"active","ping":55},{"user_id":9,"name":"CJAIME01345","steam_id":76561199091599141,"connected_time":816000000000,"state":"active","ping":83},{"user_id":10,"name":"Kaisama21","steam_id":76561199212082497,"connected_time":565000000000,"state":"active","ping":105},{"user_id":12,"name":"JoÃ£o LimÃ£o","steam_id":76561198866969619,"connected_time":365000000000,"state":"active","ping":55}]},{"server_id":7,"name":"Uncletopia | Seattle | 1 | All Maps","name_short":"sea-1","host":"sea-1.us.uncletopia.com","port":27015,"enabled":true,"region":"us-west","cc":"us","latitude":47.608013,"longitude":-122.33517,"reserved":0,"last_update":"0001-01-01T00:00:00Z","name_a2s":"Uncletopia | Seattle | 1 | All Maps","protocol":17,"map":"pl_barnblitz","folder":"tf","game":"Team Fortress","app_id":440,"player_count":1,"max_players":24,"Bots":0,"server_type":"Dedicated","server_os":"Linux","password":true,"vac":true,"version":"7932396","steam_id":85568392924469997,"keywords":["nocrits","nodmgspread","payload","uncletopia"],"game_id":440,"stv_port":27016,"stv_name":"Uncletopia | Seattle | 1 | All Maps | STV","players":[{"user_id":9,"name":"ç«ç‚Žç“¶","steam_id":76561198280400617,"connected_time":160000000000,"state":"active","ping":75}]},{"server_id":119,"name":"Uncletopia | Seattle | 2 | All Maps","name_short":"sea-2","host":"sea-1.us.uncletopia.com","port":27025,"enabled":true,"region":"us-west","cc":"us","latitude":47.608013,"longitude":-122.33517,"reserved":0,"last_update":"0001-01-01T00:00:00Z","name_a2s":"Uncletopia | Seattle | 2 | All Maps","protocol":17,"map":"pl_barnblitz","folder":"tf","game":"Team Fortress","app_id":440,"player_count":24,"max_players":24,"Bots":0,"server_type":"Dedicated","server_os":"Linux","password":true,"vac":true,"version":"7932396","steam_id":85568392924469998,"keywords":["nocrits","nodmgspread","payload","uncletopia"],"game_id":440,"stv_port":27026,"stv_name":"Uncletopia | Seattle | 2 | All Maps | STV","players":[{"user_id":265,"name":"Mint Widget","steam_id":76561198036875245,"connected_time":2788000000000,"state":"active","ping":67},{"user_id":242,"name":"Flippityflop","steam_id":76561198086692908,"connected_time":4659000000000,"state":"active","ping":129},{"user_id":282,"name":"BlazedBunny","steam_id":76561198243610560,"connected_time":1295000000000,"state":"active","ping":76},{"user_id":293,"name":"Funky Kong Jr.","steam_id":76561199351137762,"connected_time":541000000000,"state":"active","ping":55},{"user_id":266,"name":"â—¥(â—¥â–¶_â—€â—¤)â—¤","steam_id":76561198007464245,"connected_time":2772000000000,"state":"active","ping":122},{"user_id":292,"name":"nella","steam_id":76561198079349621,"connected_time":652000000000,"state":"active","ping":74},{"user_id":290,"name":"dougrocks421","steam_id":76561198165063918,"connected_time":780000000000,"state":"active","ping":40},{"user_id":277,"name":"Little Linguine","steam_id":76561198816986370,"connected_time":1941000000000,"state":"active","ping":57},{"user_id":269,"name":"Wheaty","steam_id":76561198003553412,"connected_time":2673000000000,"state":"active","ping":51},{"user_id":288,"name":"Subject Delta","steam_id":76561199109118980,"connected_time":856000000000,"state":"active","ping":78},{"user_id":228,"name":"MispyCo","steam_id":76561199126443129,"connected_time":5790000000000,"state":"active","ping":63},{"user_id":281,"name":"Daddy Topps","steam_id":76561198203594332,"connected_time":1448000000000,"state":"active","ping":40},{"user_id":249,"name":"GuyInBronzeV","steam_id":76561198044922651,"connected_time":3887000000000,"state":"active","ping":49},{"user_id":283,"name":"rat obliterater","steam_id":76561199147385953,"connected_time":1249000000000,"state":"active","ping":55},{"user_id":159,"name":"Mattacam","steam_id":76561198862289471,"connected_time":10079000000000,"state":"active","ping":129},{"user_id":275,"name":"FI LO","steam_id":76561198976530881,"connected_time":1946000000000,"state":"active","ping":73},{"user_id":276,"name":"jayeskae","steam_id":76561198144220801,"connected_time":1945000000000,"state":"active","ping":52},{"user_id":252,"name":"Pissing'Runt","steam_id":76561198268078235,"connected_time":3755000000000,"state":"active","ping":66},{"user_id":289,"name":"æµ…é™‹é„™è–„ ä¸è¶³è§‚çœ","steam_id":76561198068672882,"connected_time":848000000000,"state":"active","ping":96},{"user_id":206,"name":"Nibotshooter","steam_id":76561199284825579,"connected_time":7365000000000,"state":"active","ping":91},{"user_id":272,"name":"Zobozo","steam_id":76561198028954297,"connected_time":1957000000000,"state":"active","ping":72},{"user_id":284,"name":"Dogg wader","steam_id":76561199090314340,"connected_time":1038000000000,"state":"active","ping":69},{"user_id":295,"name":"Jokezonyu","steam_id":76561198213167893,"connected_time":440000000000,"state":"active","ping":94},{"user_id":279,"name":"Luca","steam_id":76561198125087140,"connected_time":1582000000000,"state":"active","ping":52}]},{"server_id":406,"name":"Uncletopia | Seattle | 3 | Stopwatch Beta","name_short":"sea-3","host":"sea-1.us.uncletopia.com","port":27035,"enabled":true,"region":"us-west","cc":"us","latitude":47.608013,"longitude":-122.33517,"reserved":0,"last_update":"0001-01-01T00:00:00Z","name_a2s":"Uncletopia | Seattle | 3 | Stopwatch Beta","protocol":17,"map":"workshop/koth_bagel_rc6.ugc2514036946","folder":"tf","game":"Team Fortress","app_id":440,"player_count":0,"max_players":24,"Bots":0,"server_type":"Dedicated","server_os":"Linux","password":true,"vac":true,"version":"7932396","steam_id":85568392924515217,"keywords":["cp","nocrits","nodmgspread","uncletopia"],"game_id":440,"stv_port":27036,"stv_name":"Uncletopia | Seattle | 3 | Stopwatch Beta | STV","players":null},{"server_id":17,"name":"Uncletopia | San Francisco | 1 | All Maps","name_short":"sfo-1","host":"sfo-1.us.uncletopia.com","port":27015,"enabled":true,"region":"us-west","cc":"us","latitude":37.77397,"longitude":-122.4313,"reserved":0,"last_update":"0001-01-01T00:00:00Z","name_a2s":"Uncletopia | San Francisco | 1 | All Maps","protocol":17,"map":"pl_badwater","folder":"tf","game":"Team Fortress","app_id":440,"player_count":0,"max_players":24,"Bots":0,"server_type":"Dedicated","server_os":"Linux","password":true,"vac":true,"version":"7932396","steam_id":85568392924469999,"keywords":["nocrits","nodmgspread","payload","uncletopia"],"game_id":440,"stv_port":27016,"stv_name":"Uncletopia | San Francisco | 1 | All Maps | STV","players":null},{"server_id":18,"name":"Uncletopia | San Francisco | 2 | All Maps","name_short":"sfo-2","host":"sfo-1.us.uncletopia.com","port":27025,"enabled":true,"region":"us-west","cc":"us","latitude":37.77397,"longitude":-122.4313,"reserved":0,"last_update":"0001-01-01T00:00:00Z","name_a2s":"Uncletopia | San Francisco | 2 | All Maps","protocol":17,"map":"cp_snakewater_final1","folder":"tf","game":"Team Fortress","app_id":440,"player_count":0,"max_players":24,"Bots":0,"server_type":"Dedicated","server_os":"Linux","password":true,"vac":true,"version":"7932396","steam_id":85568392924470000,"keywords":["cp","nocrits","nodmgspread","uncletopia"],"game_id":440,"stv_port":27026,"stv_name":"Uncletopia | San Francisco | 2 | All Maps | STV","players":null},{"server_id":19,"name":"Uncletopia | San Francisco | 3 | Stopwatch Beta","name_short":"sfo-3","host":"sfo-1.us.uncletopia.com","port":27035,"enabled":true,"region":"us-west","cc":"us","latitude":37.77397,"longitude":-122.4313,"reserved":0,"last_update":"0001-01-01T00:00:00Z","name_a2s":"Uncletopia | San Francisco | 3 | Stopwatch Beta","protocol":17,"map":"workshop/pl_vigil_rc9.ugc1266210012","folder":"tf","game":"Team Fortress","app_id":440,"player_count":0,"max_players":24,"Bots":0,"server_type":"Dedicated","server_os":"Linux","password":true,"vac":true,"version":"7932396","steam_id":85568392924742824,"keywords":["nocrits","nodmgspread","payload","uncletopia"],"game_id":440,"stv_port":27036,"stv_name":"Uncletopia | San Francisco | 3 | Stopwatch Beta | STV","players":null},{"server_id":20,"name":"Uncletopia | San Francisco | 4 | Community","name_short":"sfo-4","host":"sfo-1.us.uncletopia.com","port":27045,"enabled":true,"region":"us-west","cc":"us","latitude":37.77397,"longitude":-122.4313,"reserved":0,"last_update":"0001-01-01T00:00:00Z","name_a2s":"Uncletopia | San Francisco | 4 | Community","protocol":17,"map":"pl_borneo","folder":"tf","game":"Team Fortress","app_id":440,"player_count":0,"max_players":24,"Bots":0,"server_type":"Dedicated","server_os":"Linux","password":true,"vac":true,"version":"7932396","steam_id":85568392924742826,"keywords":["nocrits","nodmgspread","payload","uncletopia"],"game_id":440,"stv_port":27046,"stv_name":"Uncletopia | San Francisco | 4 | Community | STV","players":null},{"server_id":141,"name":"Uncletopia | Sydney | 1 | All Maps","name_short":"syd-1","host":"syd-1.au.uncletopia.com","port":27015,"enabled":true,"region":"au","cc":"au","latitude":-33.865143,"longitude":151.2099,"reserved":0,"last_update":"0001-01-01T00:00:00Z","name_a2s":"Uncletopia | Sydney | 1 | All Maps","protocol":17,"map":"koth_cascade","folder":"tf","game":"Team Fortress","app_id":440,"player_count":0,"max_players":24,"Bots":0,"server_type":"Dedicated","server_os":"Linux","password":true,"vac":true,"version":"7932396","steam_id":85568392924470001,"keywords":["cp","nocrits","nodmgspread","uncletopia"],"game_id":440,"stv_port":27016,"stv_name":"Uncletopia | Sydney | 1 | All Maps | STV","players":null},{"server_id":123,"name":"Uncletopia | Sydney | 2 | All Maps","name_short":"syd-2","host":"syd-1.au.uncletopia.com","port":27025,"enabled":true,"region":"au","cc":"au","latitude":-33.865143,"longitude":151.2099,"reserved":0,"last_update":"0001-01-01T00:00:00Z","name_a2s":"Uncletopia | Sydney | 2 | All Maps","protocol":17,"map":"koth_cascade","folder":"tf","game":"Team Fortress","app_id":440,"player_count":0,"max_players":24,"Bots":0,"server_type":"Dedicated","server_os":"Linux","password":true,"vac":true,"version":"7932396","steam_id":85568392924470002,"keywords":["cp","nocrits","nodmgspread","uncletopia"],"game_id":440,"stv_port":27026,"stv_name":"Uncletopia | Sydney | 2 | All Maps | STV","players":null},{"server_id":395,"name":"Uncletopia | Sydney | 3 | All Maps","name_short":"syd-3","host":"syd-1.au.uncletopia.com","port":27035,"enabled":true,"region":"au","cc":"au","latitude":-33.865143,"longitude":151.2099,"reserved":0,"last_update":"0001-01-01T00:00:00Z","name_a2s":"Uncletopia | Sydney | 3 | All Maps","protocol":17,"map":"cp_sunshine","folder":"tf","game":"Team Fortress","app_id":440,"player_count":0,"max_players":24,"Bots":0,"server_type":"Dedicated","server_os":"Linux","password":true,"vac":true,"version":"7932396","steam_id":85568392925194467,"keywords":["cp","nocrits","nodmgspread","uncletopia"],"game_id":440,"stv_port":27036,"stv_name":"Uncletopia | Sydney | 3 | All Maps | STV","players":null},{"server_id":396,"name":"Uncletopia | Sydney | 4 | All Maps","name_short":"syd-4","host":"syd-1.au.uncletopia.com","port":27045,"enabled":true,"region":"au","cc":"au","latitude":-33.865143,"longitude":151.2099,"reserved":0,"last_update":"0001-01-01T00:00:00Z","name_a2s":"Uncletopia | Sydney | 4 | All Maps","protocol":17,"map":"pl_swiftwater_final1","folder":"tf","game":"Team Fortress","app_id":440,"player_count":0,"max_players":24,"Bots":0,"server_type":"Dedicated","server_os":"Linux","password":true,"vac":true,"version":"7932396","steam_id":85568392925397958,"keywords":["nocrits","nodmgspread","payload","uncletopia"],"game_id":440,"stv_port":27046,"stv_name":"Uncletopia | Sydney | 4 | All Maps | STV","players":null},{"server_id":58,"name":"Uncletopia | Sydney | 5 | Stopwatch Beta","name_short":"syd-5","host":"syd-1.au.uncletopia.com","port":27055,"enabled":true,"region":"au","cc":"au","latitude":-33.865143,"longitude":151.2099,"reserved":0,"last_update":"0001-01-01T00:00:00Z","name_a2s":"Uncletopia | Sydney | 5 | Stopwatch Beta","protocol":17,"map":"pl_borneo","folder":"tf","game":"Team Fortress","app_id":440,"player_count":0,"max_players":24,"Bots":0,"server_type":"Dedicated","server_os":"Linux","password":true,"vac":true,"version":"7932396","steam_id":85568392925397959,"keywords":["nocrits","nodmgspread","payload","uncletopia"],"game_id":440,"stv_port":27056,"stv_name":"Uncletopia | Sydney | 5 | Stopwatch Beta | STV","players":null},{"server_id":59,"name":"Uncletopia | Sydney | 6 | Community","name_short":"syd-6","host":"syd-1.au.uncletopia.com","port":27065,"enabled":true,"region":"au","cc":"au","latitude":-33.865143,"longitude":151.2099,"reserved":0,"last_update":"0001-01-01T00:00:00Z","name_a2s":"Uncletopia | Sydney | 6 | Community","protocol":17,"map":"workshop/pl_barnblitz_pro7.ugc582280235","folder":"tf","game":"Team Fortress","app_id":440,"player_count":0,"max_players":24,"Bots":0,"server_type":"Dedicated","server_os":"Linux","password":true,"vac":true,"version":"7932396","steam_id":85568392925397960,"keywords":["nocrits","nodmgspread","payload","uncletopia"],"game_id":440,"stv_port":27066,"stv_name":"Uncletopia | Sydney | 6 | Community | STV","players":null},{"server_id":49,"name":"Uncletopia | Warsaw | 1 | All Maps","name_short":"waw-1","host":"waw-1.pl.uncletopia.com","port":27015,"enabled":true,"region":"eu","cc":"pl","latitude":52.2297,"longitude":21.017532,"reserved":0,"last_update":"0001-01-01T00:00:00Z","name_a2s":"","protocol":0,"map":"","folder":"","game":"","app_id":0,"player_count":0,"max_players":0,"Bots":0,"server_type":"","server_os":"","password":false,"vac":false,"version":"","steam_id":0,"keywords":null,"game_id":0,"stv_port":0,"stv_name":"","players":null},{"server_id":50,"name":"Uncletopia | Warsaw | 2 | All Maps","name_short":"waw-2","host":"waw-1.pl.uncletopia.com","port":27025,"enabled":true,"region":"eu","cc":"pl","latitude":52.2297,"longitude":21.017532,"reserved":0,"last_update":"0001-01-01T00:00:00Z","name_a2s":"Uncletopia | Warsaw | 2 | All Maps","protocol":17,"map":"pl_frontier_final","folder":"tf","game":"Team Fortress","app_id":440,"player_count":23,"max_players":24,"Bots":0,"server_type":"Dedicated","server_os":"Linux","password":true,"vac":true,"version":"7932396","steam_id":85568392925397851,"keywords":["nocrits","nodmgspread","payload","uncletopia"],"game_id":440,"stv_port":27026,"stv_name":"Uncletopia | Warsaw | 2 | All Maps | STV","players":[{"user_id":125,"name":"siarczan (VI) miedzi (II)","steam_id":76561198327848460,"connected_time":1790000000000,"state":"active","ping":48},{"user_id":34,"name":"lagzer","steam_id":76561198029295449,"connected_time":7027000000000,"state":"active","ping":49},{"user_id":137,"name":"i dont boost bots","steam_id":76561197996468677,"connected_time":806000000000,"state":"active","ping":60},{"user_id":143,"name":"Fragirl #freefidus","steam_id":76561198323411853,"connected_time":103000000000,"state":"active","ping":54},{"user_id":21,"name":"bitkomet","steam_id":76561198058232147,"connected_time":11215000000000,"state":"active","ping":90},{"user_id":132,"name":"Toaster1337","steam_id":76561198103706881,"connected_time":1042000000000,"state":"active","ping":74},{"user_id":142,"name":"mr cock","steam_id":76561198857396812,"connected_time":457000000000,"state":"active","ping":47},{"user_id":70,"name":"Ixsus\u003c3","steam_id":76561198094756869,"connected_time":5592000000000,"state":"active","ping":75},{"user_id":119,"name":"Ewelinka Zniszczenia","steam_id":76561198307374456,"connected_time":3011000000000,"state":"active","ping":48},{"user_id":138,"name":"Professional facestab","steam_id":76561198258721056,"connected_time":693000000000,"state":"active","ping":67},{"user_id":122,"name":"SpaceCake","steam_id":76561198151394497,"connected_time":1950000000000,"state":"active","ping":77},{"user_id":103,"name":"NOMAN","steam_id":76561198413049358,"connected_time":3574000000000,"state":"active","ping":83},{"user_id":139,"name":"1914","steam_id":76561198257383813,"connected_time":573000000000,"state":"active","ping":57},{"user_id":140,"name":"now you're gone","steam_id":76561198148115584,"connected_time":555000000000,"state":"active","ping":93},{"user_id":84,"name":"Samus","steam_id":76561198045943019,"connected_time":4380000000000,"state":"active","ping":71},{"user_id":85,"name":"TurboTabs","steam_id":76561198009785131,"connected_time":4356000000000,"state":"active","ping":88},{"user_id":126,"name":"NO end to POOTIS","steam_id":76561198144879361,"connected_time":1760000000000,"state":"active","ping":96},{"user_id":133,"name":"LODIRA","steam_id":76561198380918983,"connected_time":999000000000,"state":"active","ping":121},{"user_id":136,"name":"That Brown Nerd","steam_id":76561198196685086,"connected_time":904000000000,"state":"active","ping":72},{"user_id":129,"name":"hot guy","steam_id":76561198083063005,"connected_time":1568000000000,"state":"active","ping":65},{"user_id":141,"name":"Marky","steam_id":76561199474556920,"connected_time":545000000000,"state":"active","ping":117},{"user_id":144,"name":"lore","steam_id":76561198120984188,"connected_time":42000000000,"state":"active","ping":87},{"user_id":120,"name":"APELOR","steam_id":76561198436284444,"connected_time":3005000000000,"state":"active","ping":83}]},{"server_id":51,"name":"Uncletopia | Warsaw | 3 | All Maps","name_short":"waw-3","host":"waw-1.pl.uncletopia.com","port":27035,"enabled":true,"region":"eu","cc":"pl","latitude":52.2297,"longitude":21.017532,"reserved":0,"last_update":"0001-01-01T00:00:00Z","name_a2s":"Uncletopia | Warsaw | 3 | All Maps","protocol":17,"map":"koth_lakeside_final","folder":"tf","game":"Team Fortress","app_id":440,"player_count":0,"max_players":24,"Bots":0,"server_type":"Dedicated","server_os":"Linux","password":true,"vac":true,"version":"7932396","steam_id":85568392925397852,"keywords":["cp","nocrits","nodmgspread","uncletopia"],"game_id":440,"stv_port":27036,"stv_name":"Uncletopia | Warsaw | 3 | All Maps | STV","players":null},{"server_id":52,"name":"Uncletopia | Warsaw | 4 | All Maps","name_short":"waw-4","host":"waw-1.pl.uncletopia.com","port":27045,"enabled":true,"region":"eu","cc":"pl","latitude":52.2297,"longitude":21.017532,"reserved":0,"last_update":"0001-01-01T00:00:00Z","name_a2s":"Uncletopia | Warsaw | 4 | All Maps","protocol":17,"map":"cp_mountainlab","folder":"tf","game":"Team Fortress","app_id":440,"player_count":0,"max_players":24,"Bots":0,"server_type":"Dedicated","server_os":"Linux","password":true,"vac":true,"version":"7932396","steam_id":85568392925397853,"keywords":["cp","nocrits","nodmgspread","uncletopia"],"game_id":440,"stv_port":27046,"stv_name":"Uncletopia | Warsaw | 4 | All Maps | STV","players":null},{"server_id":53,"name":"Uncletopia | Warsaw | 5 | Stopwatch Beta","name_short":"waw-5","host":"waw-1.pl.uncletopia.com","port":27055,"enabled":true,"region":"eu","cc":"pl","latitude":52.2297,"longitude":21.017532,"reserved":0,"last_update":"0001-01-01T00:00:00Z","name_a2s":"Uncletopia | Warsaw | 5 | Stopwatch Beta","protocol":17,"map":"pl_upward","folder":"tf","game":"Team Fortress","app_id":440,"player_count":0,"max_players":24,"Bots":0,"server_type":"Dedicated","server_os":"Linux","password":true,"vac":true,"version":"7932396","steam_id":85568392925397854,"keywords":["nocrits","nodmgspread","payload","uncletopia"],"game_id":440,"stv_port":27056,"stv_name":"Uncletopia | Warsaw | 5 | Stopwatch Beta | STV","players":null},{"server_id":54,"name":"Uncletopia | Warsaw | 6 | Community","name_short":"waw-6","host":"waw-1.pl.uncletopia.com","port":27065,"enabled":true,"region":"eu","cc":"pl","latitude":52.2297,"longitude":21.017532,"reserved":0,"last_update":"0001-01-01T00:00:00Z","name_a2s":"Uncletopia | Warsaw | 6 | Community","protocol":17,"map":"pl_upward","folder":"tf","game":"Team Fortress","app_id":440,"player_count":0,"max_players":24,"Bots":0,"server_type":"Dedicated","server_os":"Linux","password":true,"vac":true,"version":"7932396","steam_id":85568392925397856,"keywords":["nocrits","nodmgspread","payload","uncletopia"],"game_id":440,"stv_port":27066,"stv_name":"Uncletopia | Warsaw | 6 | Community | STV","players":null}]}