{"status":true,"message":"","result":[{"server_id":9,"name":"Uncletopia | Atlanta | 1 | All Maps","name_short":"atl-1","host":"atl-1.us.uncletopia.com","port":27015,"enabled":true,"region":"us-east","cc":"us","latitude":33.753746,"longitude":-84.38633,"reserved":0,"last_update":"0001-01-01T00:00:00Z","name_a2s":"Uncletopia | Atlanta | 1 | All Maps","protocol":17,"map":"koth_highpass","folder":"tf","game":"Team Fortress","app_id":440,"player_count":15,"max_players":24,"Bots":0,"server_type":"Dedicated","server_os":"Linux","password":true,"vac":true,"version":"7723704","steam_id":85568392924469982,"keywords":["cp","nocrits","nodmgspread","uncletopia"],"game_id":440,"stv_port":27016,"stv_name":"Uncletopia | Atlanta | 1 | All Maps | STV","players":[{"user_id":10,"name":"Onyx","steam_id":76561198275349640,"connected_time":265000000000,"state":"active","ping":144},{"user_id":4,"name":"GrunkK","steam_id":76561198353250544,"connected_time":277000000000,"state":"active","ping":40},{"user_id":14,"name":"lker","steam_id":76561197976975075,"connected_time":180000000000,"state":"active","ping":40},{"user_id":6,"name":"bubbie","steam_id":76561198860460013,"connected_time":271000000000,"state":"active","ping":76},{"user_id":8,"name":"kira","steam_id":76561198277979851,"connected_time":268000000000,"state":"active","ping":69},{"user_id":9,"name":"festive pork trooper","steam_id":76561198150327877,"connected_time":267000000000,"state":"active","ping":33},{"user_id":11,"name":"ATL1 | Lancer Fan Club","steam_id":76561198355495948,"connected_time":248000000000,"state":"active","ping":79},{"user_id":12,"name":"Cappuccino","steam_id":76561198046658536,"connected_time":248000000000,"state":"active","ping":60},{"user_id":13,"name":"Stampdawg","steam_id":76561198050500060,"connected_time":224000000000,"state":"active","ping":76},{"user_id":15,"name":"Space bar ¬©","steam_id":76561199405318831,"connected_time":169000000000,"state":"active","ping":92},{"user_id":16,"name":"„ÄåSaint„Äç","steam_id":76561198241943070,"connected_time":99000000000,"state":"active","ping":76},{"user_id":17,"name":"Sputnix","steam_id":76561198236857310,"connected_time":91000000000,"state":"active","ping":49},{"user_id":18,"name":"sock","steam_id":76561199117597830,"connected_time":64000000000,"state":"spawning","ping":56},{"user_id":19,"name":"HARRY","steam_id":76561198842067238,"connected_time":46000000000,"state":"active","ping":57}]},{"server_id":400,"name":"Uncletopia | Atlanta | 3 | Stopwatch Beta","name_short":"atl-3","host":"atl-1.us.uncletopia.com","port":27035,"enabled":true,"region":"us-east","cc":"us","latitude":33.753746,"longitude":-84.38633,"reserved":0,"last_update":"0001-01-01T00:00:00Z","name_a2s":"Uncletopia | Atlanta | 3 | Stopwatch Beta","protocol":17,"map":"koth_viaduct","folder":"tf","game":"Team Fortress","app_id":440,"player_count":0,"max_players":24,"Bots":0,"server_type":"Dedicated","server_os":"Linux","password":true,"vac":true,"version":"7723704","steam_id":85568392924515187,"keywords":["cp","nocrits","nodmgspread","uncletopia"],"game_id":440,"stv_port":27036,"stv_name":"Uncletopia | Atlanta | 3 | Stopwatch Beta | STV","players":null},{"server_id":401,"name":"Uncletopia | Atlanta | 4 | No Payload","name_short":"atl-4","host":"atl-1.us.uncletopia.com","port":27045,"enabled":true,"region":"us-east","cc":"us","latitude":33.753746,"longitude":-84.38633,"reserved":0,"last_update":"0001-01-01T00:00:00Z","name_a2s":"Uncletopia | Atlanta | 4 | No Payload","protocol":17,"map":"koth_sawmill","folder":"tf","game":"Team Fortress","app_id":440,"player_count":22,"max_players":24,"Bots":0,"server_type":"Dedicated","server_os":"Linux","password":true,"vac":true,"version":"7723704","steam_id":85568392924515188,"keywords":["cp","nocrits","nodmgspread","uncletopia"],"game_id":440,"stv_port":27046,"stv_name":"Uncletopia | Atlanta | 4 | No Payload | STV","players":[{"user_id":79,"name":"ShnozBerry","steam_id":76561198011917278,"connected_time":305000000000,"state":"active","ping":52},{"user_id":94,"name":"Captain Zyrin","steam_id":76561197983121824,"connected_time":58000000000,"state":"active","ping":70},{"user_id":95,"name":"devamar","steam_id":76561198069115467,"connected_time":22000000000,"state":"active","ping":83},{"user_id":80,"name":"Vision Spire","steam_id":76561198095923905,"connected_time":299000000000,"state":"active","ping":69},{"user_id":75,"name":"Governor Muffin","steam_id":76561198015034641,"connected_time":597000000000,"state":"active","ping":99},{"user_id":81,"name":"[]{}#^*+=","steam_id":76561198127039453,"connected_time":297000000000,"state":"active","ping":80},{"user_id":62,"name":"xfhEgo","steam_id":76561198451947821,"connected_time":1238000000000,"state":"active","ping":68},{"user_id":82,"name":"lp","steam_id":76561198058469527,"connected_time":264000000000,"state":"active","ping":76},{"user_id":69,"name":"PROFILE NAME","steam_id":76561199438851854,"connected_time":1002000000000,"state":"active","ping":114},{"user_id":76,"name":"dj bop","steam_id":76561198178971894,"connected_time":583000000000,"state":"active","ping":101},{"user_id":70,"name":"DimethylHydra„Äê=‚óàÔ∏ø‚óà=„Äë","steam_id":76561198044664670,"connected_time":962000000000,"state":"active","ping":72},{"user_id":71,"name":"CMOSERROR","steam_id":76561197998504275,"connected_time":950000000000,"state":"active","ping":107},{"user_id":83,"name":"Hacking in progress","steam_id":76561198060296782,"connected_time":261000000000,"state":"active","ping":99},{"user_id":84,"name":"Smuggley","steam_id":76561198078130271,"connected_time":248000000000,"state":"active","ping":98},{"user_id":85,"name":"RumetCoke","steam_id":76561198125922681,"connected_time":237000000000,"state":"active","ping":70},{"user_id":86,"name":"PinkDizaster","steam_id":76561198112512523,"connected_time":231000000000,"state":"active","ping":94},{"user_id":87,"name":"Soap","steam_id":76561197994893383,"connected_time":230000000000,"state":"active","ping":89},{"user_id":89,"name":"Barack Hussein Obama","steam_id":76561198285509527,"connected_time":219000000000,"state":"active","ping":62},{"user_id":90,"name":"mr.edderkopper","steam_id":76561198152614478,"connected_time":206000000000,"state":"active","ping":97},{"user_id":91,"name":"Sleepy Brady","steam_id":76561198867378129,"connected_time":204000000000,"state":"active","ping":81},{"user_id":92,"name":"A Puppy","steam_id":76561198828184456,"connected_time":163000000000,"state":"active","ping":54},{"user_id":93,"name":"HanakoToast","steam_id":76561198045233131,"connected_time":133000000000,"state":"active","ping":109}]},{"server_id":2,"name":"Uncletopia | Chicago | 1 | All Maps","name_short":"chi-1","host":"chi-1.us.uncletopia.com","port":27015,"enabled":true,"region":"us-central","cc":"us","latitude":41.881832,"longitude":-87.62318,"reserved":0,"last_update":"0001-01-01T00:00:00Z","name_a2s":"Uncletopia | Chicago | 1 | All Maps","protocol":17,"map":"cp_process_final","folder":"tf","game":"Team Fortress","app_id":440,"player_count":23,"max_players":24,"Bots":0,"server_type":"Dedicated","server_os":"Linux","password":true,"vac":true,"version":"7723704","steam_id":85568392924469984,"keywords":["cp","nocrits","nodmgspread","uncletopia"],"game_id":440,"stv_port":27016,"stv_name":"Uncletopia | Chicago | 1 | All Maps | STV","players":[{"user_id":11,"name":"Listify","steam_id":76561198315688753,"connected_time":255000000000,"state":"active","ping":74},{"user_id":4,"name":"Snom","steam_id":76561198333827920,"connected_time":280000000000,"state":"active","ping":82},{"user_id":9,"name":"motorized bar of soap","steam_id":76561198882404753,"connected_time":263000000000,"state":"active","ping":71},{"user_id":13,"name":"Chezburgures","steam_id":76561198173043730,"connected_time":236000000000,"state":"active","ping":92},{"user_id":7,"name":"Hylic","steam_id":76561199051314589,"connected_time":272000000000,"state":"active","ping":69},{"user_id":8,"name":"[slug]","steam_id":76561197989592178,"connected_time":269000000000,"state":"active","ping":60},{"user_id":10,"name":"Astori√¶!","steam_id":76561199090168858,"connected_time":259000000000,"state":"active","ping":60},{"user_id":12,"name":"Ms. Take","steam_id":76561198268742730,"connected_time":240000000000,"state":"active","ping":69},{"user_id":14,"name":"FluX_AP","steam_id":76561198057888879,"connected_time":223000000000,"state":"active","ping":108},{"user_id":15,"name":"Now I'm a Little Motivated","steam_id":76561198069580305,"connected_time":223000000000,"state":"active","ping":51},{"user_id":18,"name":"The Penguin of Doom","steam_id":76561198320383082,"connected_time":190000000000,"state":"active","ping":69},{"user_id":17,"name":"Ademar","steam_id":76561199391802581,"connected_time":198000000000,"state":"active","ping":65},{"user_id":19,"name":"leumas","steam_id":76561198240408540,"connected_time":184000000000,"state":"active","ping":129},{"user_id":20,"name":"uzr","steam_id":76561198799343084,"connected_time":174000000000,"state":"active","ping":106},{"user_id":21,"name":"Loafus","steam_id":76561198154561111,"connected_time":151000000000,"state":"active","ping":73},{"user_id":22,"name":"rude resting cow","steam_id":76561199229169396,"connected_time":149000000000,"state":"active","ping":65},{"user_id":23,"name":"trashed","steam_id":76561197961095970,"connected_time":146000000000,"state":"active","ping":79},{"user_id":24,"name":"christmas silly","steam_id":76561199009200975,"connected_time":133000000000,"state":"active","ping":85},{"user_id":26,"name":"gyozaking","steam_id":76561197972312696,"connected_time":115000000000,"state":"active","ping":39},{"user_id":27,"name":"SorenMaximus","steam_id":76561198962936832,"connected_time":110000000000,"state":"active","ping":95},{"user_id":28,"name":"squid game","steam_id":76561199248960166,"connected_time":103000000000,"state":"active","ping":89},{"user_id":29,"name":"jablomi","steam_id":76561198106690989,"connected_time":101000000000,"state":"active","ping":65},{"user_id":30,"name":"veteranof100psychicwars","steam_id":76561198070903458,"connected_time":90000000000,"state":"active","ping":69}]},{"server_id":106,"name":"Uncletopia | Chicago | 2 | All Maps","name_short":"chi-2","host":"chi-1.us.uncletopia.com","port":27025,"enabled":true,"region":"us-central","cc":"us","latitude":41.881832,"longitude":-87.62318,"reserved":0,"last_update":"0001-01-01T00:00:00Z","name_a2s":"Uncletopia | Chicago | 2 | All Maps","protocol":17,"map":"pl_snowycoast","folder":"tf","game":"Team Fortress","app_id":440,"player_count":24,"max_players":24,"Bots":0,"server_type":"Dedicated","server_os":"Linux","password":true,"vac":true,"version":"7723704","steam_id":85568392924469985,"keywords":["nocrits","nodmgspread","payload","uncletopia"],"game_id":440,"stv_port":27026,"stv_name":"Uncletopia | Chicago | 2 | All Maps | STV","players":[{"user_id":3,"name":"TheGamingCobra","steam_id":76561198077403309,"connected_time":280000000000,"state":"active","ping":100},{"user_id":4,"name":"Mr. Ruckus","steam_id":76561198339566190,"connected_time":280000000000,"state":"active","ping":79},{"user_id":5,"name":"GAY WORLD ORDER","steam_id":76561198036916669,"connected_time":279000000000,"state":"active","ping":65},{"user_id":6,"name":"rat smacker","steam_id":76561198053164901,"connected_time":279000000000,"state":"active","ping":59},{"user_id":7,"name":"turnip","steam_id":76561197999375941,"connected_time":277000000000,"state":"active","ping":75},{"user_id":12,"name":"big sword","steam_id":76561198285264050,"connected_time":267000000000,"state":"active","ping":59},{"user_id":9,"name":"Tucker \"Retard\" Carlson","steam_id":76561198078386761,"connected_time":274000000000,"state":"active","ping":81},{"user_id":10,"name":"deepmeta","steam_id":76561199053600691,"connected_time":273000000000,"state":"active","ping":51},{"user_id":11,"name":"finn (he/him)","steam_id":76561198257531708,"connected_time":272000000000,"state":"active","ping":72},{"user_id":13,"name":"Aspxts","steam_id":76561199125254746,"connected_time":264000000000,"state":"active","ping":62},{"user_id":18,"name":"scratchnrollnyc","steam_id":76561199171854707,"connected_time":237000000000,"state":"active","ping":76},{"user_id":15,"name":"48","steam_id":76561198156422760,"connected_time":258000000000,"state":"active","ping":58},{"user_id":16,"name":"6t26j","steam_id":76561198278282836,"connected_time":250000000000,"state":"active","ping":54},{"user_id":17,"name":"thundermuffin","steam_id":76561198067770965,"connected_time":239000000000,"state":"active","ping":55},{"user_id":20,"name":"poey","steam_id":76561198865346767,"connected_time":230000000000,"state":"active","ping":91},{"user_id":21,"name":"eWVra2Vy","steam_id":76561198453565942,"connected_time":216000000000,"state":"active","ping":73},{"user_id":22,"name":"Rat","steam_id":76561198128926034,"connected_time":210000000000,"state":"active","ping":72},{"user_id":23,"name":"The Animated Gamer","steam_id":76561198120639995,"connected_time":194000000000,"state":"active","ping":96},{"user_id":24,"name":"honked off the bobo","steam_id":76561198123287268,"connected_time":182000000000,"state":"active","ping":45},{"user_id":25,"name":"lemon","steam_id":76561198085571748,"connected_time":181000000000,"state":"active","ping":64},{"user_id":26,"name":"GooniOoni","steam_id":76561198102154561,"connected_time":159000000000,"state":"active","ping":51},{"user_id":27,"name":"Baphy","steam_id":76561199088719865,"connected_time":153000000000,"state":"active","ping":150},{"user_id":28,"name":"Dark Lord","steam_id":76561198044199150,"connected_time":153000000000,"state":"active","ping":81},{"user_id":29,"name":"IIP","steam_id":76561198286102406,"connected_time":150000000000,"state":"active","ping":72}]},{"server_id":402,"name":"Uncletopia | Chicago | 3 | All Maps","name_short":"chi-3","host":"chi-1.us.uncletopia.com","port":27035,"enabled":true,"region":"us-central","cc":"us","latitude":41.881832,"longitude":-87.62318,"reserved":0,"last_update":"0001-01-01T00:00:00Z","name_a2s":"Uncletopia | Chicago | 3 | All Maps","protocol":17,"map":"koth_highpass","folder":"tf","game":"Team Fortress","app_id":440,"player_count":0,"max_players":24,"Bots":0,"server_type":"Dedicated","server_os":"Linux","password":true,"vac":true,"version":"7723704","steam_id":85568392924515191,"keywords":["cp","nocrits","nodmgspread","uncletopia"],"game_id":440,"stv_port":27036,"stv_name":"Uncletopia | Chicago | 3 | All Maps | STV","players":null},{"server_id":403,"name":"Uncletopia | Chicago | 4 | All Maps","name_short":"chi-4","host":"chi-1.us.uncletopia.com","port":27045,"enabled":true,"region":"us-central","cc":"us","latitude":41.881832,"longitude":-87.62318,"reserved":0,"last_update":"0001-01-01T00:00:00Z","name_a2s":"Uncletopia | Chicago | 4 | All Maps","protocol":17,"map":"pl_barnblitz","folder":"tf","game":"Team Fortress","app_id":440,"player_count":19,"max_players":24,"Bots":0,"server_type":"Dedicated","server_os":"Linux","password":true,"vac":true,"version":"7723704","steam_id":85568392924515193,"keywords":["nocrits","nodmgspread","payload","uncletopia"],"game_id":440,"stv_port":27046,"stv_name":"Uncletopia | Chicago | 4 | All Maps | STV","players":[{"user_id":14,"name":"Jojoker","steam_id":76561198049833406,"connected_time":168000000000,"state":"active","ping":72},{"user_id":4,"name":"TheAilingSword","steam_id":76561198250350844,"connected_time":274000000000,"state":"active","ping":60},{"user_id":5,"name":"FUSION","steam_id":76561197972659738,"connected_time":273000000000,"state":"active","ping":58},{"user_id":6,"name":"Lumpy","steam_id":76561198058840585,"connected_time":270000000000,"state":"active","ping":66},{"user_id":7,"name":"Peruvian Puff Pepper","steam_id":76561198048279231,"connected_time":270000000000,"state":"active","ping":34},{"user_id":9,"name":"qiulongtao","steam_id":76561198977558717,"connected_time":260000000000,"state":"active","ping":65},{"user_id":10,"name":"ÿßŸÜÿ™ÿ≠ÿ± Ÿäÿß ÿßÿ®ŸÜ ÿßŸÑŸÖÿ™","steam_id":76561198326987939,"connected_time":258000000000,"state":"active","ping":75},{"user_id":12,"name":"namaste at home dad","steam_id":76561198056971063,"connected_time":247000000000,"state":"active","ping":52},{"user_id":13,"name":"Santa","steam_id":76561198044130442,"connected_time":210000000000,"state":"active","ping":69},{"user_id":16,"name":"Drunk on Sodium","steam_id":76561199016285746,"connected_time":142000000000,"state":"active","ping":83},{"user_id":17,"name":"Roz257","steam_id":76561198842844532,"connected_time":136000000000,"state":"active","ping":68},{"user_id":18,"name":"C papi","steam_id":76561198027779564,"connected_time":119000000000,"state":"active","ping":51},{"user_id":19,"name":"√∂¬ør√∂  √π œÄ (NG√Ø‚óã√° x 21","steam_id":76561198069589278,"connected_time":109000000000,"state":"active","ping":86},{"user_id":20,"name":"Smiley","steam_id":76561198836523202,"connected_time":93000000000,"state":"active","ping":69},{"user_id":21,"name":"-W3E- grim10465","steam_id":76561198045698581,"connected_time":80000000000,"state":"active","ping":60},{"user_id":22,"name":"GreenApples","steam_id":76561198120559543,"connected_time":78000000000,"state":"active","ping":98},{"user_id":23,"name":"asterismz","steam_id":76561198271895997,"connected_time":61000000000,"state":"active","ping":110},{"user_id":24,"name":"ghostedghost","steam_id":76561198111410905,"connected_time":56000000000,"state":"active","ping":86},{"user_id":25,"name":"Womb Raider","steam_id":76561198170056543,"connected_time":53000000000,"state":"active","ping":69}]},{"server_id":36,"name":"Uncletopia | Chicago | 5 | All Maps","name_short":"chi-5","host":"chi-2.us.uncletopia.com","port":27015,"enabled":true,"region":"us-central","cc":"us","latitude":41.881832,"longitude":-87.62318,"reserved":0,"last_update":"0001-01-01T00:00:00Z","name_a2s":"Uncletopia | Chicago | 5 | All Maps","protocol":17,"map":"cp_sunshine","folder":"tf","game":"Team Fortress","app_id":440,"player_count":0,"max_players":24,"Bots":0,"server_type":"Dedicated","server_os":"Linux","password":true,"vac":true,"version":"7723704","steam_id":85568392924866362,"keywords":["cp","nocrits","nodmgspread","uncletopia"],"game_id":440,"stv_port":27016,"stv_name":"Uncletopia | Chicago | 5 | All Maps | STV","players":null},{"server_id":37,"name":"Uncletopia | Chicago | 6 | All Maps","name_short":"chi-6","host":"chi-2.us.uncletopia.com","port":27025,"enabled":true,"region":"us-central","cc":"us","latitude":41.881832,"longitude":-87.62318,"reserved":0,"last_update":"0001-01-01T00:00:00Z","name_a2s":"Uncletopia | Chicago | 6 | All Maps","protocol":17,"map":"pl_barnblitz","folder":"tf","game":"Team Fortress","app_id":440,"player_count":24,"max_players":24,"Bots":0,"server_type":"Dedicated","server_os":"Linux","password":true,"vac":true,"version":"7723704","steam_id":85568392924866363,"keywords":["nocrits","nodmgspread","payload","uncletopia"],"game_id":440,"stv_port":27026,"stv_name":"Uncletopia | Chicago | 6 | All Maps | STV","players":[{"user_id":86,"name":"Definitely Not A Replicant.","steam_id":76561198087464370,"connected_time":575000000000,"state":"active","ping":125},{"user_id":62,"name":"Croxodile","steam_id":76561198215822949,"connected_time":2067000000000,"state":"active","ping":51},{"user_id":59,"name":"hej","steam_id":76561197996366940,"connected_time":2304000000000,"state":"active","ping":64},{"user_id":76,"name":"Thog","steam_id":76561198093699060,"connected_time":817000000000,"state":"active","ping":73},{"user_id":78,"name":"Sup","steam_id":76561198384763147,"connected_time":759000000000,"state":"active","ping":152},{"user_id":70,"name":"the grunch","steam_id":76561199013160273,"connected_time":1377000000000,"state":"active","ping":72},{"user_id":90,"name":"flappyflap2","steam_id":76561198285048973,"connected_time":96000000000,"state":"active","ping":60},{"user_id":63,"name":"Plant","steam_id":76561198892328663,"connected_time":2001000000000,"state":"active","ping":94},{"user_id":75,"name":"bigturr","steam_id":76561199043827112,"connected_time":848000000000,"state":"active","ping":59},{"user_id":33,"name":"SpheeKy","steam_id":76561198143214132,"connected_time":3278000000000,"state":"active","ping":97},{"user_id":80,"name":"Pompourin","steam_id":76561198808418464,"connected_time":708000000000,"state":"active","ping":76},{"user_id":67,"name":"scooterre","steam_id":76561198055068182,"connected_time":1613000000000,"state":"active","ping":56},{"user_id":74,"name":"MedRed‚Ñ¢ #IATAH","steam_id":76561198002962970,"connected_time":895000000000,"state":"active","ping":99},{"user_id":88,"name":"JACOB","steam_id":76561198211874895,"connected_time":469000000000,"state":"active","ping":66},{"user_id":89,"name":"football.king.scotland.official","steam_id":76561198075510786,"connected_time":377000000000,"state":"active","ping":74},{"user_id":42,"name":"Aldinach","steam_id":76561198079912615,"connected_time":2973000000000,"state":"active","ping":52},{"user_id":68,"name":"Myagic","steam_id":76561198123746755,"connected_time":1564000000000,"state":"active","ping":76},{"user_id":81,"name":"Vaudeville Villain","steam_id":76561199212093339,"connected_time":682000000000,"state":"active","ping":71},{"user_id":47,"name":"Shiny Dunsparce","steam_id":76561197999111354,"connected_time":2906000000000,"state":"active","ping":80},{"user_id":92,"name":"Magneto","steam_id":76561199151206130,"connected_time":40000000000,"state":"active","ping":60},{"user_id":54,"name":"*Mister Bubbles","steam_id":76561197998837410,"connected_time":2649000000000,"state":"active","ping":107},{"user_id":83,"name":"Woke Bush","steam_id":76561198047994501,"connected_time":670000000000,"state":"active","ping":60},{"user_id":84,"name":"Sharper Spoon","steam_id":76561198877130687,"connected_time":638000000000,"state":"active","ping":64},{"user_id":91,"name":"Discourse","steam_id":76561198984286678,"connected_time":94000000000,"state":"active","ping":53}]},{"server_id":38,"name":"Uncletopia | Chicago | 7 | Stopwatch Beta","name_short":"chi-7","host":"chi-2.us.uncletopia.com","port":27035,"enabled":true,"region":"us-central","cc":"us","latitude":41.881832,"longitude":-87.62318,"reserved":0,"last_update":"0001-01-01T00:00:00Z","name_a2s":"Uncletopia | Chicago | 7 | Stopwatch Beta","protocol":17,"map":"pl_badwater","folder":"tf","game":"Team Fortress","app_id":440,"player_count":14,"max_players":24,"Bots":0,"server_type":"Dedicated","server_os":"Linux","password":true,"vac":true,"version":"7723704","steam_id":85568392924866364,"keywords":["nocrits","nodmgspread","payload","uncletopia"],"game_id":440,"stv_port":27036,"stv_name":"Uncletopia | Chicago | 7 | Stopwatch Beta | STV","players":[{"user_id":3,"name":"king_nebblit","steam_id":76561199183321935,"connected_time":3680000000000,"state":"active","ping":80},{"user_id":4,"name":"confused","steam_id":76561198042236165,"connected_time":3329000000000,"state":"active","ping":53},{"user_id":6,"name":"Soundproof","steam_id":76561198133392504,"connected_time":2446000000000,"state":"active","ping":57},{"user_id":7,"name":"Gunkzilla","steam_id":76561198068228415,"connected_time":2428000000000,"state":"active","ping":59},{"user_id":8,"name":"SoqwiK","steam_id":76561199013193499,"connected_time":2422000000000,"state":"active","ping":61},{"user_id":21,"name":"Scum Knight","steam_id":76561198282444763,"connected_time":805000000000,"state":"active","ping":63},{"user_id":22,"name":"[DATS‚û°] Sugar Meowth","steam_id":76561197995251793,"connected_time":267000000000,"state":"active","ping":89},{"user_id":23,"name":"Dave's Sushi Addict","steam_id":76561199134895220,"connected_time":263000000000,"state":"active","ping":66},{"user_id":24,"name":"Lolaa","steam_id":76561198122807068,"connected_time":241000000000,"state":"active","ping":82},{"user_id":25,"name":"Epha","steam_id":76561198079379951,"connected_time":166000000000,"state":"active","ping":60},{"user_id":15,"name":"Mythos #SaveTF2","steam_id":76561198050243068,"connected_time":1857000000000,"state":"active","ping":64},{"user_id":26,"name":"SuperBurgerBoy","steam_id":76561198856387197,"connected_time":123000000000,"state":"active","ping":91},{"user_id":27,"name":"David Bowie's Left Nut","steam_id":76561198273203726,"connected_time":22000000000,"state":"spawning","ping":139},{"user_id":28,"name":"Streetwise","steam_id":76561197971684268,"connected_time":11000000000,"state":"spawning","ping":86}]},{"server_id":39,"name":"Uncletopia | Chicago | 8 | Community","name_short":"chi-8","host":"chi-2.us.uncletopia.com","port":27045,"enabled":true,"region":"us-central","cc":"us","latitude":41.881832,"longitude":-87.62318,"reserved":0,"last_update":"0001-01-01T00:00:00Z","name_a2s":"Uncletopia | Chicago | 8 | Community","protocol":17,"map":"workshop/pl_barnblitz_pro7.ugc582280235","folder":"tf","game":"Team Fortress","app_id":440,"player_count":24,"max_players":24,"Bots":0,"server_type":"Dedicated","server_os":"Linux","password":true,"vac":true,"version":"7723704","steam_id":85568392924866365,"keywords":["nocrits","nodmgspread","payload","uncletopia"],"game_id":440,"stv_port":27046,"stv_name":"Uncletopia | Chicago | 8 | Community | STV","players":[{"user_id":3,"name":"CD Cyber Dragon","steam_id":76561198275727749,"connected_time":4019000000000,"state":"active","ping":87},{"user_id":78,"name":"Your Pal, Vegeta","steam_id":76561198064916816,"connected_time":282000000000,"state":"active","ping":79},{"user_id":5,"name":"Jules","steam_id":76561199065191952,"connected_time":4007000000000,"state":"active","ping":90},{"user_id":45,"name":"Qinxnix","steam_id":76561198091538771,"connected_time":2052000000000,"state":"active","ping":91},{"user_id":31,"name":"KyleJackMcGee","steam_id":76561198101198704,"connected_time":3464000000000,"state":"active","ping":59},{"user_id":72,"name":"Quietsharp","steam_id":76561198277968438,"connected_time":315000000000,"state":"active","ping":109},{"user_id":73,"name":"OFF DA GLOOP!!","steam_id":76561198126549311,"connected_time":306000000000,"state":"active","ping":79},{"user_id":71,"name":"LYTEWERK","steam_id":76561198002819791,"connected_time":321000000000,"state":"active","ping":75},{"user_id":74,"name":"Pizza Party","steam_id":76561198165730754,"connected_time":301000000000,"state":"active","ping":73},{"user_id":75,"name":"Parpa","steam_id":76561198066252787,"connected_time":293000000000,"state":"active","ping":61},{"user_id":47,"name":"pupy dogy","steam_id":76561198173128765,"connected_time":1985000000000,"state":"active","ping":54},{"user_id":15,"name":"Lord Scrubling","steam_id":76561198263744445,"connected_time":3945000000000,"state":"active","ping":75},{"user_id":55,"name":"lemon","steam_id":76561198086406706,"connected_time":1269000000000,"state":"active","ping":45},{"user_id":17,"name":"Diegorkus","steam_id":76561198076956980,"connected_time":3888000000000,"state":"active","ping":94},{"user_id":54,"name":"Mommy Cloud Audios Gaming","steam_id":76561198880304614,"connected_time":1291000000000,"state":"active","ping":60},{"user_id":40,"name":"The Westboro Baptist Church","steam_id":76561198076375659,"connected_time":2258000000000,"state":"active","ping":66},{"user_id":41,"name":"smuffy","steam_id":76561198091459506,"connected_time":2252000000000,"state":"active","ping":73},{"user_id":22,"name":"Goofball","steam_id":76561198061211537,"connected_time":3779000000000,"state":"active","ping":62},{"user_id":43,"name":"Doowid","steam_id":76561198145419024,"connected_time":2238000000000,"state":"active","ping":59},{"user_id":24,"name":"Oomitch","steam_id":76561198071702759,"connected_time":3753000000000,"state":"active","ping":100},{"user_id":30,"name":"Epicgamer92","steam_id":76561198312448484,"connected_time":3649000000000,"state":"active","ping":57},{"user_id":38,"name":"Admiral Shackleford","steam_id":76561198051952755,"connected_time":2723000000000,"state":"active","ping":81},{"user_id":77,"name":"Zolo","steam_id":76561198088444038,"connected_time":290000000000,"state":"active","ping":64},{"user_id":79,"name":"globular goo gob","steam_id":76561198353451768,"connected_time":239000000000,"state":"active","ping":82}]},{"server_id":8,"name":"Uncletopia | Dallas | 1 | All Maps","name_short":"dal-1","host":"dal-1.us.uncletopia.com","port":27015,"enabled":true,"region":"us-central","cc":"us","latitude":32.779167,"longitude":-96.80889,"reserved":0,"last_update":"0001-01-01T00:00:00Z","name_a2s":"Uncletopia | Dallas | 1 | All Maps","protocol":17,"map":"koth_highpass","folder":"tf","game":"Team Fortress","app_id":440,"player_count":6,"max_players":24,"Bots":0,"server_type":"Dedicated","server_os":"Linux","password":true,"vac":true,"version":"7723704","steam_id":85568392924469986,"keywords":["cp","nocrits","nodmgspread","uncletopia"],"game_id":440,"stv_port":27016,"stv_name":"Uncletopia | Dallas | 1 | All Maps | STV","players":[{"user_id":3,"name":"The Ultimate Coomer","steam_id":76561199128833757,"connected_time":271000000000,"state":"active","ping":40},{"user_id":4,"name":"CloverOverDoverüçÄ","steam_id":76561198354292689,"connected_time":265000000000,"state":"active","ping":41},{"user_id":5,"name":"El Benjador","steam_id":76561198345883103,"connected_time":258000000000,"state":"active","ping":66},{"user_id":6,"name":"r0ck","steam_id":76561198141716764,"connected_time":184000000000,"state":"active","ping":83},{"user_id":7,"name":"B R O U T","steam_id":76561199161322235,"connected_time":178000000000,"state":"active","ping":60},{"user_id":8,"name":"Zorlovo","steam_id":76561198006443283,"connected_time":84000000000,"state":"active","ping":96}]},{"server_id":108,"name":"Uncletopia | Dallas | 2 | All Maps","name_short":"dal-2","host":"dal-1.us.uncletopia.com","port":27025,"enabled":true,"region":"us-central","cc":"us","latitude":32.779167,"longitude":-96.80889,"reserved":0,"last_update":"0001-01-01T00:00:00Z","name_a2s":"Uncletopia | Dallas | 2 | All Maps","protocol":17,"map":"pl_upward","folder":"tf","game":"Team Fortress","app_id":440,"player_count":24,"max_players":24,"Bots":0,"server_type":"Dedicated","server_os":"Linux","password":true,"vac":true,"version":"7723704","steam_id":85568392924469988,"keywords":["nocrits","nodmgspread","payload","uncletopia"],"game_id":440,"stv_port":27026,"stv_name":"Uncletopia | Dallas | 2 | All Maps | STV","players":[{"user_id":3,"name":"remedu","steam_id":76561198005152587,"connected_time":283000000000,"state":"active","ping":39},{"user_id":12,"name":"Toottoot","steam_id":76561197992404836,"connected_time":270000000000,"state":"active","ping":61},{"user_id":5,"name":"HEFTY HOG","steam_id":76561198079923652,"connected_time":280000000000,"state":"active","ping":53},{"user_id":6,"name":"Berry Festive Vlad","steam_id":76561198149616270,"connected_time":280000000000,"state":"active","ping":75},{"user_id":7,"name":"Temper","steam_id":76561198044123690,"connected_time":276000000000,"state":"active","ping":80},{"user_id":30,"name":"Astro","steam_id":76561198035676106,"connected_time":8000000000,"state":"spawning","ping":78},{"user_id":9,"name":"Thewaffleman141","steam_id":76561198083068694,"connected_time":272000000000,"state":"active","ping":49},{"user_id":10,"name":"chirp","steam_id":76561198109916563,"connected_time":272000000000,"state":"active","ping":75},{"user_id":11,"name":"Lezabel","steam_id":76561198970753261,"connected_time":271000000000,"state":"active","ping":74},{"user_id":13,"name":"selarom | trade.tf | TF2EASY.CO","steam_id":76561199069219350,"connected_time":262000000000,"state":"active","ping":76},{"user_id":29,"name":"what","steam_id":76561198082336619,"connected_time":168000000000,"state":"active","ping":91},{"user_id":15,"name":"moe","steam_id":76561198929586245,"connected_time":258000000000,"state":"active","ping":76},{"user_id":16,"name":"bladees saddest, realest verse","steam_id":76561198098099826,"connected_time":258000000000,"state":"active","ping":65},{"user_id":19,"name":"thecpg","steam_id":76561198216448919,"connected_time":249000000000,"state":"active","ping":90},{"user_id":18,"name":"‚ù§ Ashley ‚ù§","steam_id":76561198056428303,"connected_time":251000000000,"state":"active","ping":74},{"user_id":20,"name":"Chill Out","steam_id":76561198184602655,"connected_time":248000000000,"state":"active","ping":64},{"user_id":21,"name":"Chalks","steam_id":76561198045978275,"connected_time":245000000000,"state":"active","ping":92},{"user_id":22,"name":"00 MEATY AGENT","steam_id":76561198131014098,"connected_time":245000000000,"state":"active","ping":105},{"user_id":23,"name":"Zee‚ù§","steam_id":76561198274550638,"connected_time":241000000000,"state":"active","ping":50},{"user_id":24,"name":"Theory-Y","steam_id":76561198116419931,"connected_time":238000000000,"state":"active","ping":110},{"user_id":25,"name":"The Winter Medic","steam_id":76561198197112922,"connected_time":234000000000,"state":"active","ping":88},{"user_id":26,"name":"mommy claus","steam_id":76561199230929836,"connected_time":221000000000,"state":"active","ping":78},{"user_id":27,"name":"Nerdiate","steam_id":76561198089102281,"connected_time":220000000000,"state":"active","ping":52},{"user_id":28,"name":"Silvercoat's Stargazer","steam_id":76561198399525329,"connected_time":218000000000,"state":"active","ping":86}]},{"server_id":5,"name":"Uncletopia | Frankfurt | 1 | All Maps","name_short":"frk-1","host":"frk-1.de.uncletopia.com","port":27015,"enabled":true,"region":"eu","cc":"de","latitude":50.110924,"longitude":8.682127,"reserved":0,"last_update":"0001-01-01T00:00:00Z","name_a2s":"Uncletopia | Frankfurt | 1 | All Maps","protocol":17,"map":"koth_cascade","folder":"tf","game":"Team Fortress","app_id":440,"player_count":0,"max_players":24,"Bots":0,"server_type":"Dedicated","server_os":"Linux","password":true,"vac":true,"version":"7723704","steam_id":85568392924469989,"keywords":["cp","nocrits","nodmgspread","uncletopia"],"game_id":440,"stv_port":27016,"stv_name":"Uncletopia | Frankfurt | 1 | All Maps | STV","players":null},{"server_id":110,"name":"Uncletopia | Frankfurt | 2 | All Maps","name_short":"frk-2","host":"frk-1.de.uncletopia.com","port":27025,"enabled":true,"region":"eu","cc":"de","latitude":50.110924,"longitude":8.682127,"reserved":0,"last_update":"0001-01-01T00:00:00Z","name_a2s":"Uncletopia | Frankfurt | 2 | All Maps","protocol":17,"map":"koth_viaduct","folder":"tf","game":"Team Fortress","app_id":440,"player_count":0,"max_players":24,"Bots":0,"server_type":"Dedicated","server_os":"Linux","password":true,"vac":true,"version":"7723704","steam_id":85568392924469990,"keywords":["cp","nocrits","nodmgspread","uncletopia"],"game_id":440,"stv_port":27026,"stv_name":"Uncletopia | Frankfurt | 2 | All Maps | STV","players":null},{"server_id":308,"name":"Uncletopia | Frankfurt | 3 | All Maps","name_short":"frk-3","host":"frk-1.de.uncletopia.com","port":27035,"enabled":true,"region":"eu","cc":"de","latitude":50.110924,"longitude":8.682127,"reserved":0,"last_update":"0001-01-01T00:00:00Z","name_a2s":"Uncletopia | Frankfurt | 3 | All Maps","protocol":17,"map":"pl_snowycoast","folder":"tf","game":"Team Fortress","app_id":440,"player_count":0,"max_players":24,"Bots":0,"server_type":"Dedicated","server_os":"Linux","password":true,"vac":true,"version":"7723704","steam_id":85568392924504274,"keywords":["nocrits","nodmgspread","payload","uncletopia"],"game_id":440,"stv_port":27036,"stv_name":"Uncletopia | Frankfurt | 3 | All Maps | STV","players":null},{"server_id":309,"name":"Uncletopia | Frankfurt | 4 | All Maps","name_short":"frk-4","host":"frk-1.de.uncletopia.com","port":27045,"enabled":true,"region":"eu","cc":"de","latitude":50.110924,"longitude":8.682127,"reserved":0,"last_update":"0001-01-01T00:00:00Z","name_a2s":"Uncletopia | Frankfurt | 4 | All Maps","protocol":17,"map":"cp_altitude","folder":"tf","game":"Team Fortress","app_id":440,"player_count":0,"max_players":24,"Bots":0,"server_type":"Dedicated","server_os":"Linux","password":true,"vac":true,"version":"7723704","steam_id":85568392924504275,"keywords":["cp","nocrits","nodmgspread","uncletopia"],"game_id":440,"stv_port":27046,"stv_name":"Uncletopia | Frankfurt | 4 | All Maps | STV","players":null},{"server_id":310,"name":"Uncletopia | Frankfurt | 5 | All Maps","name_short":"frk-5","host":"frk-1.de.uncletopia.com","port":27055,"enabled":true,"region":"eu","cc":"de","latitude":50.110924,"longitude":8.682127,"reserved":0,"last_update":"0001-01-01T00:00:00Z","name_a2s":"Uncletopia | Frankfurt | 5 | All Maps","protocol":17,"map":"pl_pier","folder":"tf","game":"Team Fortress","app_id":440,"player_count":0,"max_players":24,"Bots":0,"server_type":"Dedicated","server_os":"Linux","password":true,"vac":true,"version":"7723704","steam_id":85568392924504277,"keywords":["nocrits","nodmgspread","payload","uncletopia"],"game_id":440,"stv_port":27056,"stv_name":"Uncletopia | Frankfurt | 5 | All Maps | STV","players":null},{"server_id":311,"name":"Uncletopia | Frankfurt | 6 | All Maps","name_short":"frk-6","host":"frk-1.de.uncletopia.com","port":27065,"enabled":true,"region":"eu","cc":"de","latitude":50.110924,"longitude":8.682127,"reserved":0,"last_update":"0001-01-01T00:00:00Z","name_a2s":"Uncletopia | Frankfurt | 6 | All Maps","protocol":17,"map":"pl_borneo","folder":"tf","game":"Team Fortress","app_id":440,"player_count":0,"max_players":24,"Bots":0,"server_type":"Dedicated","server_os":"Linux","password":true,"vac":true,"version":"7723704","steam_id":85568392924504278,"keywords":["nocrits","nodmgspread","payload","uncletopia"],"game_id":440,"stv_port":27066,"stv_name":"Uncletopia | Frankfurt | 6 | All Maps | STV","players":null},{"server_id":23,"name":"Uncletopia | Frankfurt | 7 | No Payload","name_short":"frk-7","host":"frk-1.de.uncletopia.com","port":27075,"enabled":true,"region":"eu","cc":"de","latitude":50.110924,"longitude":8.682127,"reserved":0,"last_update":"0001-01-01T00:00:00Z","name_a2s":"Uncletopia | Frankfurt | 7 | No Payload","protocol":17,"map":"cp_mountainlab","folder":"tf","game":"Team Fortress","app_id":440,"player_count":0,"max_players":24,"Bots":0,"server_type":"Dedicated","server_os":"Linux","password":true,"vac":true,"version":"7723704","steam_id":85568392924742827,"keywords":["cp","nocrits","nodmgspread","uncletopia"],"game_id":440,"stv_port":27076,"stv_name":"Uncletopia | Frankfurt | 7 | No Payload | STV","players":null},{"server_id":24,"name":"Uncletopia | Frankfurt | 8 | Community","name_short":"frk-8","host":"frk-1.de.uncletopia.com","port":27085,"enabled":true,"region":"eu","cc":"de","latitude":50.110924,"longitude":8.682127,"reserved":0,"last_update":"0001-01-01T00:00:00Z","name_a2s":"Uncletopia | Frankfurt | 8 | Community","protocol":17,"map":"workshop/koth_ashville_final.ugc2130459942","folder":"tf","game":"Team Fortress","app_id":440,"player_count":0,"max_players":24,"Bots":0,"server_type":"Dedicated","server_os":"Linux","password":true,"vac":true,"version":"7723704","steam_id":85568392924742828,"keywords":["cp","nocrits","nodmgspread","uncletopia"],"game_id":440,"stv_port":27086,"stv_name":"Uncletopia | Frankfurt | 8 | Community | STV","players":null},{"server_id":202,"name":"Uncletopia | Hong Kong | 1 | All Maps","name_short":"hgk-1","host":"hgk-1.hk.uncletopia.com","port":27015,"enabled":true,"region":"asia","cc":"hk","latitude":22.302711,"longitude":114.177216,"reserved":0,"last_update":"0001-01-01T00:00:00Z","name_a2s":"Uncletopia | Hong Kong | 1 | All Maps","protocol":17,"map":"pl_borneo","folder":"tf","game":"Team Fortress","app_id":440,"player_count":24,"max_players":24,"Bots":0,"server_type":"Dedicated","server_os":"Linux","password":true,"vac":true,"version":"7723704","steam_id":85568392924494504,"keywords":["nocrits","nodmgspread","payload","uncletopia"],"game_id":440,"stv_port":27016,"stv_name":"Uncletopia | Hong Kong | 1 | All Maps | STV","players":[{"user_id":46,"name":"r/leroy","steam_id":76561199137927625,"connected_time":3934000000000,"state":"active","ping":105},{"user_id":12,"name":"Du57Y","steam_id":76561198120973476,"connected_time":6160000000000,"state":"active","ping":87},{"user_id":34,"name":"cat","steam_id":76561198404718200,"connected_time":4580000000000,"state":"active","ping":112},{"user_id":29,"name":"Firefang099","steam_id":76561198136685157,"connected_time":4984000000000,"state":"active","ping":56},{"user_id":47,"name":"Hallelujah","steam_id":76561199024326941,"connected_time":3716000000000,"state":"active","ping":68},{"user_id":152,"name":"‚≠êA Random Guy „ÉÑ","steam_id":76561199076452888,"connected_time":716000000000,"state":"active","ping":92},{"user_id":144,"name":"Talkk More","steam_id":76561198305424433,"connected_time":1244000000000,"state":"active","ping":99},{"user_id":71,"name":"Wx","steam_id":76561199217780897,"connected_time":2834000000000,"state":"active","ping":144},{"user_id":76,"name":"master glu eater","steam_id":76561198069402937,"connected_time":2768000000000,"state":"active","ping":88},{"user_id":18,"name":"Bertengkar","steam_id":76561198213031155,"connected_time":5862000000000,"state":"active","ping":102},{"user_id":146,"name":"godhood","steam_id":76561198412329672,"connected_time":1138000000000,"state":"active","ping":99},{"user_id":53,"name":"juggernaut","steam_id":76561199205319751,"connected_time":3558000000000,"state":"active","ping":97},{"user_id":154,"name":"(1)cat","steam_id":76561198260896310,"connected_time":43000000000,"state":"active","ping":72},{"user_id":139,"name":"Corhix","steam_id":76561198968706355,"connected_time":1464000000000,"state":"active","ping":47},{"user_id":126,"name":"JayJ","steam_id":76561198324008555,"connected_time":1699000000000,"state":"active","ping":55},{"user_id":148,"name":"festivized goth girl","steam_id":76561198118989010,"connected_time":906000000000,"state":"active","ping":63},{"user_id":27,"name":"CoatedInFire","steam_id":76561199070760845,"connected_time":5072000000000,"state":"active","ping":158},{"user_id":153,"name":"dogman","steam_id":76561198072835914,"connected_time":273000000000,"state":"active","ping":78},{"user_id":121,"name":"it chrmis time","steam_id":76561198055553140,"connected_time":1841000000000,"state":"active","ping":79},{"user_id":134,"name":"AzureWares","steam_id":76561199439340850,"connected_time":1616000000000,"state":"active","ping":70},{"user_id":145,"name":"The Cake is a lie","steam_id":76561198190738610,"connected_time":1151000000000,"state":"active","ping":72},{"user_id":58,"name":"Kall","steam_id":76561197993608660,"connected_time":3320000000000,"state":"active","ping":91},{"user_id":61,"name":"Spy Crab","steam_id":76561199090200486,"connected_time":3238000000000,"state":"active","ping":88},{"user_id":140,"name":"MAGNUS","steam_id":76561198208990721,"connected_time":1450000000000,"state":"active","ping":146}]},{"server_id":1,"name":"Uncletopia | Los Angeles | 1 | All Maps","name_short":"lax-1","host":"lax-1.us.uncletopia.com","port":27015,"enabled":true,"region":"us-west","cc":"us","latitude":33.94279,"longitude":-118.41004,"reserved":0,"last_update":"0001-01-01T00:00:00Z","name_a2s":"Uncletopia | Los Angeles | 1 | All Maps","protocol":17,"map":"pl_badwater","folder":"tf","game":"Team Fortress","app_id":440,"player_count":23,"max_players":24,"Bots":0,"server_type":"Dedicated","server_os":"Linux","password":true,"vac":true,"version":"7723704","steam_id":85568392924469991,"keywords":["nocrits","nodmgspread","payload","uncletopia"],"game_id":440,"stv_port":27016,"stv_name":"Uncletopia | Los Angeles | 1 | All Maps | STV","players":[{"user_id":52,"name":"NagitoTheLucky","steam_id":76561198065096327,"connected_time":101000000000,"state":"active","ping":60},{"user_id":55,"name":"poob","steam_id":76561198406728732,"connected_time":22000000000,"state":"active","ping":92},{"user_id":8,"name":"Bada Bingus","steam_id":76561198046743307,"connected_time":2203000000000,"state":"active","ping":123},{"user_id":9,"name":"Santa Claus","steam_id":76561199012771039,"connected_time":2134000000000,"state":"active","ping":89},{"user_id":50,"name":"hoodclips","steam_id":76561198253706796,"connected_time":146000000000,"state":"active","ping":49},{"user_id":34,"name":"Madvillain","steam_id":76561198037734204,"connected_time":1511000000000,"state":"active","ping":42},{"user_id":37,"name":"S p a f f y","steam_id":76561198047892151,"connected_time":1454000000000,"state":"active","ping":53},{"user_id":15,"name":"squid","steam_id":76561198070236972,"connected_time":1965000000000,"state":"active","ping":59},{"user_id":51,"name":"Veritox","steam_id":76561198075778026,"connected_time":144000000000,"state":"active","ping":61},{"user_id":17,"name":"Mothma","steam_id":76561198353789504,"connected_time":1938000000000,"state":"active","ping":64},{"user_id":44,"name":"huiei","steam_id":76561198073763735,"connected_time":951000000000,"state":"active","ping":44},{"user_id":20,"name":"Furious George","steam_id":76561198405111646,"connected_time":1863000000000,"state":"active","ping":54},{"user_id":21,"name":"Navigatxr","steam_id":76561199185153789,"connected_time":1850000000000,"state":"active","ping":59},{"user_id":22,"name":"Sudo","steam_id":76561198123714026,"connected_time":1834000000000,"state":"active","ping":63},{"user_id":24,"name":"ketsu","steam_id":76561197966171554,"connected_time":1767000000000,"state":"active","ping":161},{"user_id":26,"name":"lemon","steam_id":76561198129580744,"connected_time":1736000000000,"state":"active","ping":104},{"user_id":28,"name":"Atlas","steam_id":76561199049042851,"connected_time":1710000000000,"state":"active","ping":85},{"user_id":46,"name":"brentonimo","steam_id":76561198035282062,"connected_time":829000000000,"state":"active","ping":53},{"user_id":47,"name":"gamer_hater","steam_id":76561198973306314,"connected_time":547000000000,"state":"active","ping":48},{"user_id":32,"name":"Mr. Wrex","steam_id":76561198001843103,"connected_time":1563000000000,"state":"active","ping":46},{"user_id":53,"name":"Logan601 #savetf2","steam_id":76561198263116731,"connected_time":101000000000,"state":"active","ping":50},{"user_id":54,"name":"walrooos ‚úø","steam_id":76561198024521839,"connected_time":101000000000,"state":"active","ping":48},{"user_id":38,"name":"321","steam_id":76561198179529599,"connected_time":1454000000000,"state":"active","ping":59}]},{"server_id":112,"name":"Uncletopia | Los Angeles | 2 | All Maps","name_short":"lax-2","host":"lax-1.us.uncletopia.com","port":27025,"enabled":true,"region":"us-west","cc":"us","latitude":33.94279,"longitude":-118.41004,"reserved":0,"last_update":"0001-01-01T00:00:00Z","name_a2s":"Uncletopia | Los Angeles | 2 | All Maps","protocol":17,"map":"koth_highpass","folder":"tf","game":"Team Fortress","app_id":440,"player_count":0,"max_players":24,"Bots":0,"server_type":"Dedicated","server_os":"Linux","password":true,"vac":true,"version":"7723704","steam_id":85568392924469992,"keywords":["cp","nocrits","nodmgspread","uncletopia"],"game_id":440,"stv_port":27026,"stv_name":"Uncletopia | Los Angeles | 2 | All Maps | STV","players":null},{"server_id":324,"name":"Uncletopia | Los Angeles | 3 | All Maps","name_short":"lax-3","host":"lax-1.us.uncletopia.com","port":27035,"enabled":true,"region":"us-west","cc":"us","latitude":33.94279,"longitude":-118.41004,"reserved":0,"last_update":"0001-01-01T00:00:00Z","name_a2s":"Uncletopia | Los Angeles | 3 | All Maps","protocol":17,"map":"pl_badwater","folder":"tf","game":"Team Fortress","app_id":440,"player_count":0,"max_players":24,"Bots":0,"server_type":"Dedicated","server_os":"Linux","password":true,"vac":true,"version":"7723704","steam_id":85568392924510198,"keywords":["nocrits","nodmgspread","payload","uncletopia"],"game_id":440,"stv_port":27036,"stv_name":"Uncletopia | Los Angeles | 3 | All Maps | STV","players":null},{"server_id":25,"name":"Uncletopia | Los Angeles | 4 | Stopwatch Beta","name_short":"lax-4","host":"lax-1.us.uncletopia.com","port":27045,"enabled":true,"region":"us-west","cc":"us","latitude":33.94279,"longitude":-118.41004,"reserved":0,"last_update":"0001-01-01T00:00:00Z","name_a2s":"Uncletopia | Los Angeles | 4 | Stopwatch Beta","protocol":17,"map":"cp_snakewater_final1","folder":"tf","game":"Team Fortress","app_id":440,"player_count":0,"max_players":24,"Bots":0,"server_type":"Dedicated","server_os":"Linux","password":true,"vac":true,"version":"7723704","steam_id":85568392924510199,"keywords":["cp","nocrits","nodmgspread","uncletopia"],"game_id":440,"stv_port":27046,"stv_name":"Uncletopia | Los Angeles | 4 | Stopwatch Beta | STV","players":null},{"server_id":11,"name":"Uncletopia | London | 1 | All Maps","name_short":"lon-1","host":"lon-1.uk.uncletopia.com","port":27015,"enabled":true,"region":"eu","cc":"gb","latitude":51.509865,"longitude":-0.118092,"reserved":0,"last_update":"0001-01-01T00:00:00Z","name_a2s":"Uncletopia | London | 1 | All Maps","protocol":17,"map":"pl_swiftwater_final1","folder":"tf","game":"Team Fortress","app_id":440,"player_count":24,"max_players":24,"Bots":0,"server_type":"Dedicated","server_os":"Linux","password":true,"vac":true,"version":"7723704","steam_id":85568392924367362,"keywords":["nocrits","nodmgspread","payload","uncletopia"],"game_id":440,"stv_port":27016,"stv_name":"Uncletopia | London | 1 | All Maps | STV","players":[{"user_id":801,"name":"tilgep","steam_id":76561198125585734,"connected_time":2176000000000,"state":"active","ping":44},{"user_id":775,"name":"Yilow","steam_id":76561198040036642,"connected_time":4305000000000,"state":"active","ping":76},{"user_id":831,"name":"TradeDown","steam_id":76561199016426691,"connected_time":850000000000,"state":"active","ping":84},{"user_id":835,"name":"Domex","steam_id":76561198091313278,"connected_time":462000000000,"state":"active","ping":167},{"user_id":825,"name":"sjerruf","steam_id":76561198078434681,"connected_time":1068000000000,"state":"active","ping":51},{"user_id":815,"name":"The Stig","steam_id":76561198103908668,"connected_time":1776000000000,"state":"active","ping":85},{"user_id":810,"name":"Malte","steam_id":76561198326324739,"connected_time":2003000000000,"state":"active","ping":60},{"user_id":839,"name":"w√∂rb","steam_id":76561198159517104,"connected_time":41000000000,"state":"active","ping":89},{"user_id":838,"name":"Mogens Lightyear","steam_id":76561198024703004,"connected_time":197000000000,"state":"active","ping":61},{"user_id":817,"name":"name","steam_id":76561198152620745,"connected_time":1761000000000,"state":"active","ping":50},{"user_id":814,"name":"Danipp","steam_id":76561198027147377,"connected_time":1879000000000,"state":"active","ping":75},{"user_id":840,"name":"Vitamin Weee","steam_id":76561199183937747,"connected_time":17000000000,"state":"spawning","ping":85},{"user_id":778,"name":"rat performance","steam_id":76561198065854668,"connected_time":3845000000000,"state":"active","ping":40},{"user_id":826,"name":"stun","steam_id":76561198276681691,"connected_time":1020000000000,"state":"active","ping":44},{"user_id":803,"name":"worry about it","steam_id":76561199414716848,"connected_time":2136000000000,"state":"active","ping":75},{"user_id":804,"name":"Stitch","steam_id":76561198104613474,"connected_time":2126000000000,"state":"active","ping":74},{"user_id":805,"name":"Guardian","steam_id":76561198098932840,"connected_time":2111000000000,"state":"active","ping":84},{"user_id":834,"name":"gamerweed5","steam_id":76561198087651151,"connected_time":550000000000,"state":"active","ping":44},{"user_id":832,"name":"GoodGuyVv","steam_id":76561198256656295,"connected_time":850000000000,"state":"active","ping":73},{"user_id":836,"name":"Cherry Coke","steam_id":76561198531978435,"connected_time":374000000000,"state":"active","ping":55},{"user_id":808,"name":"MrClyde","steam_id":76561198132627420,"connected_time":2070000000000,"state":"active","ping":79},{"user_id":837,"name":"Cam","steam_id":76561198321715958,"connected_time":366000000000,"state":"active","ping":53},{"user_id":820,"name":"JoeysMunchkin","steam_id":76561199058793029,"connected_time":1524000000000,"state":"active","ping":149},{"user_id":822,"name":"papa pyro","steam_id":76561197961707932,"connected_time":1431000000000,"state":"active","ping":59}]},{"server_id":114,"name":"Uncletopia | London | 2 | All Maps","name_short":"lon-2","host":"lon-1.uk.uncletopia.com","port":27025,"enabled":true,"region":"eu","cc":"gb","latitude":51.509865,"longitude":-0.118092,"reserved":0,"last_update":"0001-01-01T00:00:00Z","name_a2s":"Uncletopia | London | 2 | All Maps","protocol":17,"map":"cp_dustbowl","folder":"tf","game":"Team Fortress","app_id":440,"player_count":0,"max_players":24,"Bots":0,"server_type":"Dedicated","server_os":"Linux","password":true,"vac":true,"version":"7723704","steam_id":85568392924470941,"keywords":["cp","nocrits","nodmgspread","uncletopia"],"game_id":440,"stv_port":27026,"stv_name":"Uncletopia | London | 2 | All Maps | STV","players":null},{"server_id":320,"name":"Uncletopia | London | 3 | All Maps","name_short":"lon-3","host":"lon-1.uk.uncletopia.com","port":27035,"enabled":true,"region":"eu","cc":"gb","latitude":51.509865,"longitude":-0.118092,"reserved":0,"last_update":"0001-01-01T00:00:00Z","name_a2s":"Uncletopia | London | 3 | All Maps","protocol":17,"map":"koth_lakeside_final","folder":"tf","game":"Team Fortress","app_id":440,"player_count":0,"max_players":24,"Bots":0,"server_type":"Dedicated","server_os":"Linux","password":true,"vac":true,"version":"7723704","steam_id":85568392924510192,"keywords":["cp","nocrits","nodmgspread","uncletopia"],"game_id":440,"stv_port":27036,"stv_name":"Uncletopia | London | 3 | All Maps | STV","players":null},{"server_id":321,"name":"Uncletopia | London | 4 | All Maps","name_short":"lon-4","host":"lon-1.uk.uncletopia.com","port":27045,"enabled":true,"region":"eu","cc":"gb","latitude":51.509865,"longitude":-0.118092,"reserved":0,"last_update":"0001-01-01T00:00:00Z","name_a2s":"Uncletopia | London | 4 | All Maps","protocol":17,"map":"koth_highpass","folder":"tf","game":"Team Fortress","app_id":440,"player_count":0,"max_players":24,"Bots":0,"server_type":"Dedicated","server_os":"Linux","password":true,"vac":true,"version":"7723704","steam_id":85568392924510193,"keywords":["cp","nocrits","nodmgspread","uncletopia"],"game_id":440,"stv_port":27046,"stv_name":"Uncletopia | London | 4 | All Maps | STV","players":null},{"server_id":21,"name":"Uncletopia | London | 5 | All Maps","name_short":"lon-5","host":"lon-1.uk.uncletopia.com","port":27055,"enabled":true,"region":"eu","cc":"gb","latitude":51.509865,"longitude":-0.118092,"reserved":0,"last_update":"0001-01-01T00:00:00Z","name_a2s":"Uncletopia | London | 5 | All Maps","protocol":17,"map":"koth_cascade","folder":"tf","game":"Team Fortress","app_id":440,"player_count":0,"max_players":24,"Bots":0,"server_type":"Dedicated","server_os":"Linux","password":true,"vac":true,"version":"7723704","steam_id":85568392924742829,"keywords":["cp","nocrits","nodmgspread","uncletopia"],"game_id":440,"stv_port":27056,"stv_name":"Uncletopia | London | 5 | All Maps | STV","players":null},{"server_id":22,"name":"Uncletopia | London | 6 | All Maps","name_short":"lon-6","host":"lon-1.uk.uncletopia.com","port":27065,"enabled":true,"region":"eu","cc":"gb","latitude":51.509865,"longitude":-0.118092,"reserved":0,"last_update":"0001-01-01T00:00:00Z","name_a2s":"Uncletopia | London | 6 | All Maps","protocol":17,"map":"cp_dustbowl","folder":"tf","game":"Team Fortress","app_id":440,"player_count":0,"max_players":24,"Bots":0,"server_type":"Dedicated","server_os":"Linux","password":true,"vac":true,"version":"7723704","steam_id":85568392924742830,"keywords":["cp","nocrits","nodmgspread","uncletopia"],"game_id":440,"stv_port":27066,"stv_name":"Uncletopia | London | 6 | All Maps | STV","players":null},{"server_id":40,"name":"Uncletopia | London | 7 | No Payload","name_short":"lon-7","host":"lon-1.uk.uncletopia.com","port":27075,"enabled":true,"region":"eu","cc":"gb","latitude":51.509865,"longitude":-0.118092,"reserved":0,"last_update":"0001-01-01T00:00:00Z","name_a2s":"Uncletopia | London | 7 | No Payload","protocol":17,"map":"plr_hightower","folder":"tf","game":"Team Fortress","app_id":440,"player_count":0,"max_players":24,"Bots":0,"server_type":"Dedicated","server_os":"Linux","password":true,"vac":true,"version":"7723704","steam_id":85568392924964314,"keywords":["nocrits","nodmgspread","payload","uncletopia"],"game_id":440,"stv_port":27076,"stv_name":"Uncletopia | London | 7 | No Payload | STV","players":null},{"server_id":41,"name":"Uncletopia | London | 8 | Community","name_short":"lon-8","host":"lon-1.uk.uncletopia.com","port":27085,"enabled":true,"region":"eu","cc":"gb","latitude":51.509865,"longitude":-0.118092,"reserved":0,"last_update":"0001-01-01T00:00:00Z","name_a2s":"Uncletopia | London | 8 | Community","protocol":17,"map":"workshop/koth_bagel_rc5.ugc2514036946","folder":"tf","game":"Team Fortress","app_id":440,"player_count":0,"max_players":24,"Bots":0,"server_type":"Dedicated","server_os":"Linux","password":true,"vac":true,"version":"7723704","steam_id":85568392924964315,"keywords":["cp","nocrits","nodmgspread","uncletopia"],"game_id":440,"stv_port":27086,"stv_name":"Uncletopia | London | 8 | Community | STV","players":null},{"server_id":300,"name":"Uncletopia | Montr√©al | 1 | All Maps","name_short":"mtl-1","host":"mtl-1.ca.uncletopia.com","port":27015,"enabled":true,"region":"us-east","cc":"ca","latitude":45.50889,"longitude":-73.56167,"reserved":0,"last_update":"0001-01-01T00:00:00Z","name_a2s":"Uncletopia | Montr√©al | 1 | All Maps","protocol":17,"map":"pl_pier","folder":"tf","game":"Team Fortress","app_id":440,"player_count":0,"max_players":24,"Bots":0,"server_type":"Dedicated","server_os":"Linux","password":true,"vac":true,"version":"7723704","steam_id":85568392924500087,"keywords":["nocrits","nodmgspread","payload","uncletopia"],"game_id":440,"stv_port":27016,"stv_name":"Uncletopia | Montr√©al | 1 | All Maps | STV","players":null},{"server_id":301,"name":"Uncletopia | Montr√©al | 2 | All Maps","name_short":"mtl-2","host":"mtl-1.ca.uncletopia.com","port":27025,"enabled":true,"region":"us-east","cc":"ca","latitude":45.50889,"longitude":-73.56167,"reserved":0,"last_update":"0001-01-01T00:00:00Z","name_a2s":"Uncletopia | Montr√©al | 2 | All Maps","protocol":17,"map":"cp_snakewater_final1","folder":"tf","game":"Team Fortress","app_id":440,"player_count":0,"max_players":24,"Bots":0,"server_type":"Dedicated","server_os":"Linux","password":true,"vac":true,"version":"7723704","steam_id":85568392924500088,"keywords":["cp","nocrits","nodmgspread","uncletopia"],"game_id":440,"stv_port":27026,"stv_name":"Uncletopia | Montr√©al | 2 | All Maps | STV","players":null},{"server_id":302,"name":"Uncletopia | Montr√©al | 3 | All Maps","name_short":"mtl-3","host":"mtl-1.ca.uncletopia.com","port":27035,"enabled":true,"region":"us-east","cc":"ca","latitude":45.50889,"longitude":-73.56167,"reserved":0,"last_update":"0001-01-01T00:00:00Z","name_a2s":"Uncletopia | Montr√©al | 3 | All Maps","protocol":17,"map":"koth_highpass","folder":"tf","game":"Team Fortress","app_id":440,"player_count":0,"max_players":24,"Bots":0,"server_type":"Dedicated","server_os":"Linux","password":true,"vac":true,"version":"7723704","steam_id":85568392924500089,"keywords":["cp","nocrits","nodmgspread","uncletopia"],"game_id":440,"stv_port":27036,"stv_name":"Uncletopia | Montr√©al | 3 | All Maps | STV","players":null},{"server_id":303,"name":"Uncletopia | Montr√©al | 4 | No Payload","name_short":"mtl-4","host":"mtl-1.ca.uncletopia.com","port":27045,"enabled":true,"region":"us-east","cc":"ca","latitude":45.50889,"longitude":-73.56167,"reserved":0,"last_update":"0001-01-01T00:00:00Z","name_a2s":"Uncletopia | Montr√©al | 4 | No Payload","protocol":17,"map":"koth_highpass","folder":"tf","game":"Team Fortress","app_id":440,"player_count":0,"max_players":24,"Bots":0,"server_type":"Dedicated","server_os":"Linux","password":true,"vac":true,"version":"7723704","steam_id":85568392924500090,"keywords":["cp","nocrits","nodmgspread","uncletopia"],"game_id":440,"stv_port":27046,"stv_name":"Uncletopia | Montr√©al | 4 | No Payload | STV","players":null},{"server_id":13,"name":"Uncletopia | New York City | 1 | All Maps","name_short":"nyc-1","host":"nyc-1.us.uncletopia.com","port":27015,"enabled":true,"region":"us-east","cc":"us","latitude":40.73061,"longitude":-73.93524,"reserved":0,"last_update":"0001-01-01T00:00:00Z","name_a2s":"Uncletopia | New York City | 1 | All Maps","protocol":17,"map":"cp_sunshine","folder":"tf","game":"Team Fortress","app_id":440,"player_count":5,"max_players":24,"Bots":0,"server_type":"Dedicated","server_os":"Linux","password":true,"vac":true,"version":"7723704","steam_id":85568392924469993,"keywords":["cp","nocrits","nodmgspread","uncletopia"],"game_id":440,"stv_port":27016,"stv_name":"Uncletopia | New York City | 1 | All Maps | STV","players":[{"user_id":3,"name":"Xx_PR3TTY_R4VE_G!R1_xX","steam_id":76561199059016425,"connected_time":141000000000,"state":"active","ping":61},{"user_id":5,"name":"PinkLemonade","steam_id":76561198799286228,"connected_time":125000000000,"state":"active","ping":49},{"user_id":6,"name":"basil","steam_id":76561198075758026,"connected_time":110000000000,"state":"active","ping":70},{"user_id":7,"name":"Xavibite","steam_id":76561198209380493,"connected_time":105000000000,"state":"active","ping":32},{"user_id":8,"name":"Noelle Holiday","steam_id":76561198359994674,"connected_time":73000000000,"state":"active","ping":108}]},{"server_id":14,"name":"Uncletopia | New York City | 2 | All Maps","name_short":"nyc-2","host":"nyc-1.us.uncletopia.com","port":27025,"enabled":true,"region":"us-east","cc":"us","latitude":40.73061,"longitude":-73.93524,"reserved":0,"last_update":"0001-01-01T00:00:00Z","name_a2s":"Uncletopia | New York City | 2 | All Maps","protocol":17,"map":"pl_frontier_final","folder":"tf","game":"Team Fortress","app_id":440,"player_count":13,"max_players":24,"Bots":0,"server_type":"Dedicated","server_os":"Linux","password":true,"vac":true,"version":"7723704","steam_id":85568392924469994,"keywords":["nocrits","nodmgspread","payload","uncletopia"],"game_id":440,"stv_port":27026,"stv_name":"Uncletopia | New York City | 2 | All Maps | STV","players":[{"user_id":3,"name":"give me your baby faces blaster","steam_id":76561199013442982,"connected_time":144000000000,"state":"active","ping":78},{"user_id":14,"name":"sweaterfan","steam_id":76561199389567214,"connected_time":132000000000,"state":"active","ping":63},{"user_id":5,"name":"Braamklauw","steam_id":76561198283287697,"connected_time":143000000000,"state":"active","ping":130},{"user_id":7,"name":"Medical Asshat","steam_id":76561198004584315,"connected_time":143000000000,"state":"active","ping":90},{"user_id":8,"name":"Snail","steam_id":76561198153026006,"connected_time":142000000000,"state":"active","ping":56},{"user_id":9,"name":"iL","steam_id":76561198086331015,"connected_time":140000000000,"state":"active","ping":32},{"user_id":10,"name":"Mr. Sauce","steam_id":76561198055512324,"connected_time":137000000000,"state":"active","ping":60},{"user_id":11,"name":"Wique","steam_id":76561198071217597,"connected_time":136000000000,"state":"active","ping":68},{"user_id":18,"name":"uncle dane's evil twin brother","steam_id":76561199021737235,"connected_time":32000000000,"state":"active","ping":56},{"user_id":16,"name":"aura girl","steam_id":76561198064873161,"connected_time":119000000000,"state":"active","ping":58},{"user_id":17,"name":"Toasti\u003c3","steam_id":76561198036238997,"connected_time":113000000000,"state":"active","ping":51},{"user_id":19,"name":"Ch4rl33","steam_id":76561198037008621,"connected_time":22000000000,"state":"active","ping":66},{"user_id":20,"name":"Diamond Jack","steam_id":76561198321304762,"connected_time":18000000000,"state":"active","ping":34}]},{"server_id":15,"name":"Uncletopia | New York City | 3 | Stopwatch Beta","name_short":"nyc-3","host":"nyc-1.us.uncletopia.com","port":27035,"enabled":true,"region":"us-east","cc":"us","latitude":40.73061,"longitude":-73.93524,"reserved":0,"last_update":"0001-01-01T00:00:00Z","name_a2s":"Uncletopia | New York City | 3 | Stopwatch Beta","protocol":17,"map":"cp_mountainlab","folder":"tf","game":"Team Fortress","app_id":440,"player_count":0,"max_players":24,"Bots":0,"server_type":"Dedicated","server_os":"Linux","password":true,"vac":true,"version":"7723704","steam_id":85568392924742820,"keywords":["cp","nocrits","nodmgspread","uncletopia"],"game_id":440,"stv_port":27036,"stv_name":"Uncletopia | New York City | 3 | Stopwatch Beta | STV","players":null},{"server_id":16,"name":"Uncletopia | New York City | 4 | Community","name_short":"nyc-4","host":"nyc-1.us.uncletopia.com","port":27045,"enabled":true,"region":"us-east","cc":"us","latitude":40.73061,"longitude":-73.93524,"reserved":0,"last_update":"0001-01-01T00:00:00Z","name_a2s":"Uncletopia | New York City | 4 | Community","protocol":17,"map":"pl_upward","folder":"tf","game":"Team Fortress","app_id":440,"player_count":0,"max_players":24,"Bots":0,"server_type":"Dedicated","server_os":"Linux","password":true,"vac":true,"version":"7723704","steam_id":85568392924742821,"keywords":["nocrits","nodmgspread","payload","uncletopia"],"game_id":440,"stv_port":27046,"stv_name":"Uncletopia | New York City | 4 | Community | STV","players":null},{"server_id":142,"name":"Uncletopia | S√£o Paulo | 1 | All Maps","name_short":"sao-1","host":"sao-1.br.uncletopia.com","port":27015,"enabled":true,"region":"sa","cc":"br","latitude":-23.533773,"longitude":-46.62529,"reserved":0,"last_update":"0001-01-01T00:00:00Z","name_a2s":"Uncletopia | S√£o Paulo | 1 | All Maps","protocol":17,"map":"koth_highpass","folder":"tf","game":"Team Fortress","app_id":440,"player_count":0,"max_players":24,"Bots":0,"server_type":"Dedicated","server_os":"Linux","password":true,"vac":true,"version":"7723704","steam_id":85568392924469996,"keywords":["cp","nocrits","nodmgspread","uncletopia"],"game_id":440,"stv_port":27016,"stv_name":"Uncletopia | S√£o Paulo | 1 | All Maps | STV","players":null},{"server_id":143,"name":"Uncletopia | S√£o Paulo | 2 | All Maps","name_short":"sao-2","host":"sao-2.br.uncletopia.com","port":27015,"enabled":true,"region":"sa","cc":"br","latitude":-23.533773,"longitude":-46.62529,"reserved":0,"last_update":"0001-01-01T00:00:00Z","name_a2s":"Uncletopia | S√£o Paulo | 2 | All Maps","protocol":17,"map":"koth_cascade","folder":"tf","game":"Team Fortress","app_id":440,"player_count":0,"max_players":24,"Bots":0,"server_type":"Dedicated","server_os":"Linux","password":true,"vac":true,"version":"7723704","steam_id":85568392924485349,"keywords":["cp","nocrits","nodmgspread","uncletopia"],"game_id":440,"stv_port":27016,"stv_name":"Uncletopia | S√£o Paulo | 2 | All Maps | STV","players":null},{"server_id":7,"name":"Uncletopia | Seattle | 1 | All Maps","name_short":"sea-1","host":"sea-1.us.uncletopia.com","port":27015,"enabled":true,"region":"us-west","cc":"us","latitude":47.608013,"longitude":-122.33517,"reserved":0,"last_update":"0001-01-01T00:00:00Z","name_a2s":"Uncletopia | Seattle | 1 | All Maps","protocol":17,"map":"pl_barnblitz","folder":"tf","game":"Team Fortress","app_id":440,"player_count":0,"max_players":24,"Bots":0,"server_type":"Dedicated","server_os":"Linux","password":true,"vac":true,"version":"7723704","steam_id":85568392924469997,"keywords":["nocrits","nodmgspread","payload","uncletopia"],"game_id":440,"stv_port":27016,"stv_name":"Uncletopia | Seattle | 1 | All Maps | STV","players":null},{"server_id":119,"name":"Uncletopia | Seattle | 2 | All Maps","name_short":"sea-2","host":"sea-1.us.uncletopia.com","port":27025,"enabled":true,"region":"us-west","cc":"us","latitude":47.608013,"longitude":-122.33517,"reserved":0,"last_update":"0001-01-01T00:00:00Z","name_a2s":"Uncletopia | Seattle | 2 | All Maps","protocol":17,"map":"pl_snowycoast","folder":"tf","game":"Team Fortress","app_id":440,"player_count":23,"max_players":24,"Bots":0,"server_type":"Dedicated","server_os":"Linux","password":true,"vac":true,"version":"7723704","steam_id":85568392924469998,"keywords":["nocrits","nodmgspread","payload","uncletopia"],"game_id":440,"stv_port":27026,"stv_name":"Uncletopia | Seattle | 2 | All Maps | STV","players":[{"user_id":3,"name":"Idontknow","steam_id":76561199207044048,"connected_time":1513000000000,"state":"active","ping":39},{"user_id":46,"name":"dysesthesia","steam_id":76561198027159018,"connected_time":390000000000,"state":"active","ping":141},{"user_id":44,"name":"Nalyk","steam_id":76561198043886843,"connected_time":463000000000,"state":"active","ping":54},{"user_id":47,"name":"sayad","steam_id":76561198080897870,"connected_time":390000000000,"state":"active","ping":120},{"user_id":14,"name":"iphone 7 plus","steam_id":76561198335836405,"connected_time":1359000000000,"state":"active","ping":75},{"user_id":41,"name":"rlty","steam_id":76561198009395055,"connected_time":855000000000,"state":"active","ping":117},{"user_id":42,"name":"Salazar9","steam_id":76561198049903973,"connected_time":793000000000,"state":"active","ping":46},{"user_id":11,"name":"BoomieMcBoomPants","steam_id":76561198144516828,"connected_time":1461000000000,"state":"active","ping":78},{"user_id":15,"name":"StarBrigade","steam_id":76561198150224428,"connected_time":1337000000000,"state":"active","ping":87},{"user_id":49,"name":"chilis baby back ribs","steam_id":76561198813516435,"connected_time":357000000000,"state":"active","ping":75},{"user_id":48,"name":"grape","steam_id":76561197993980328,"connected_time":389000000000,"state":"active","ping":58},{"user_id":19,"name":"Dreamzapp","steam_id":76561199084936632,"connected_time":1229000000000,"state":"active","ping":92},{"user_id":20,"name":"BasedGod","steam_id":76561198061177973,"connected_time":1228000000000,"state":"active","ping":61},{"user_id":21,"name":"The Muffin Man","steam_id":76561199088286427,"connected_time":1217000000000,"state":"active","ping":53},{"user_id":22,"name":"KeithStone","steam_id":76561197986083582,"connected_time":1214000000000,"state":"active","ping":116},{"user_id":38,"name":"Spy of 83","steam_id":76561199062242958,"connected_time":982000000000,"state":"active","ping":95},{"user_id":43,"name":"GenericMaleGamer","steam_id":76561198257271858,"connected_time":500000000000,"state":"active","ping":120},{"user_id":53,"name":"Fried","steam_id":76561198383441432,"connected_time":128000000000,"state":"active","ping":125},{"user_id":51,"name":"Caoticaos","steam_id":76561198114800227,"connected_time":251000000000,"state":"active","ping":199},{"user_id":32,"name":"Arrythmia","steam_id":76561198093748123,"connected_time":1128000000000,"state":"active","ping":60},{"user_id":33,"name":"BernardBull","steam_id":76561198036138813,"connected_time":1116000000000,"state":"active","ping":80},{"user_id":45,"name":"intek","steam_id":76561198052705291,"connected_time":461000000000,"state":"active","ping":88},{"user_id":40,"name":"steak","steam_id":76561198016941612,"connected_time":937000000000,"state":"active","ping":57}]},{"server_id":17,"name":"Uncletopia | San Francisco | 1 | All Maps","name_short":"sfo-1","host":"sfo-1.us.uncletopia.com","port":27015,"enabled":true,"region":"us-west","cc":"us","latitude":37.77397,"longitude":-122.4313,"reserved":0,"last_update":"0001-01-01T00:00:00Z","name_a2s":"Uncletopia | San Francisco | 1 | All Maps","protocol":17,"map":"pl_pier","folder":"tf","game":"Team Fortress","app_id":440,"player_count":6,"max_players":24,"Bots":0,"server_type":"Dedicated","server_os":"Linux","password":true,"vac":true,"version":"7723704","steam_id":85568392924469999,"keywords":["nocrits","nodmgspread","payload","uncletopia"],"game_id":440,"stv_port":27016,"stv_name":"Uncletopia | San Francisco | 1 | All Maps | STV","players":[{"user_id":3,"name":"Sabag3D","steam_id":76561198094402240,"connected_time":1423000000000,"state":"active","ping":75},{"user_id":5,"name":"OH JIMMY I'M HOME #SaveTf2","steam_id":76561198396658806,"connected_time":1294000000000,"state":"active","ping":57},{"user_id":9,"name":"Surprise Garlic Bread Party","steam_id":76561197995246546,"connected_time":106000000000,"state":"active","ping":44},{"user_id":8,"name":"SHADOW (he/him)","steam_id":76561198207768148,"connected_time":289000000000,"state":"active","ping":63},{"user_id":10,"name":"DefectiveWarhead","steam_id":76561198067746049,"connected_time":30000000000,"state":"active","ping":79},{"user_id":11,"name":"–ü–∞–≤–ª–æ –ü–∞—á–µ–Ω–∫–æ","steam_id":76561198314446564,"connected_time":27000000000,"state":"spawning","ping":57}]},{"server_id":18,"name":"Uncletopia | San Francisco | 2 | All Maps","name_short":"sfo-2","host":"sfo-1.us.uncletopia.com","port":27025,"enabled":true,"region":"us-west","cc":"us","latitude":37.77397,"longitude":-122.4313,"reserved":0,"last_update":"0001-01-01T00:00:00Z","name_a2s":"Uncletopia | San Francisco | 2 | All Maps","protocol":17,"map":"koth_viaduct","folder":"tf","game":"Team Fortress","app_id":440,"player_count":0,"max_players":24,"Bots":0,"server_type":"Dedicated","server_os":"Linux","password":true,"vac":true,"version":"7723704","steam_id":85568392924470000,"keywords":["cp","nocrits","nodmgspread","uncletopia"],"game_id":440,"stv_port":27026,"stv_name":"Uncletopia | San Francisco | 2 | All Maps | STV","players":null},{"server_id":19,"name":"Uncletopia | San Francisco | 3 | Stopwatch Beta","name_short":"sfo-3","host":"sfo-1.us.uncletopia.com","port":27035,"enabled":true,"region":"us-west","cc":"us","latitude":37.77397,"longitude":-122.4313,"reserved":0,"last_update":"0001-01-01T00:00:00Z","name_a2s":"Uncletopia | San Francisco | 3 | Stopwatch Beta","protocol":17,"map":"pl_swiftwater_final1","folder":"tf","game":"Team Fortress","app_id":440,"player_count":0,"max_players":24,"Bots":0,"server_type":"Dedicated","server_os":"Linux","password":true,"vac":true,"version":"7723704","steam_id":85568392924742824,"keywords":["nocrits","nodmgspread","payload","uncletopia"],"game_id":440,"stv_port":27036,"stv_name":"Uncletopia | San Francisco | 3 | Stopwatch Beta | STV","players":null},{"server_id":20,"name":"Uncletopia | San Francisco | 4 | Community","name_short":"sfo-4","host":"sfo-1.us.uncletopia.com","port":27045,"enabled":true,"region":"us-west","cc":"us","latitude":37.77397,"longitude":-122.4313,"reserved":0,"last_update":"0001-01-01T00:00:00Z","name_a2s":"Uncletopia | San Francisco | 4 | Community","protocol":17,"map":"pl_barnblitz","folder":"tf","game":"Team Fortress","app_id":440,"player_count":0,"max_players":24,"Bots":0,"server_type":"Dedicated","server_os":"Linux","password":true,"vac":true,"version":"7723704","steam_id":85568392924742826,"keywords":["nocrits","nodmgspread","payload","uncletopia"],"game_id":440,"stv_port":27046,"stv_name":"Uncletopia | San Francisco | 4 | Community | STV","players":null},{"server_id":141,"name":"Uncletopia | Sydney | 1 | All Maps","name_short":"syd-1","host":"syd-1.au.uncletopia.com","port":27015,"enabled":true,"region":"au","cc":"au","latitude":-33.865143,"longitude":151.2099,"reserved":0,"last_update":"0001-01-01T00:00:00Z","name_a2s":"Uncletopia | Sydney | 1 | All Maps","protocol":17,"map":"plr_bananabay","folder":"tf","game":"Team Fortress","app_id":440,"player_count":0,"max_players":24,"Bots":0,"server_type":"Dedicated","server_os":"Linux","password":true,"vac":true,"version":"7723704","steam_id":85568392924470001,"keywords":["nocrits","nodmgspread","payload","uncletopia"],"game_id":440,"stv_port":27016,"stv_name":"Uncletopia | Sydney | 1 | All Maps | STV","players":null},{"server_id":123,"name":"Uncletopia | Sydney | 2 | All Maps","name_short":"syd-2","host":"syd-1.au.uncletopia.com","port":27025,"enabled":true,"region":"au","cc":"au","latitude":-33.865143,"longitude":151.2099,"reserved":0,"last_update":"0001-01-01T00:00:00Z","name_a2s":"Uncletopia | Sydney | 2 | All Maps","protocol":17,"map":"pl_badwater","folder":"tf","game":"Team Fortress","app_id":440,"player_count":5,"max_players":24,"Bots":0,"server_type":"Dedicated","server_os":"Linux","password":true,"vac":true,"version":"7723704","steam_id":85568392924470002,"keywords":["nocrits","nodmgspread","payload","uncletopia"],"game_id":440,"stv_port":27026,"stv_name":"Uncletopia | Sydney | 2 | All Maps | STV","players":[{"user_id":16,"name":"f2p Spy","steam_id":76561198214232616,"connected_time":230000000000,"state":"active","ping":104},{"user_id":10,"name":"Nyda","steam_id":76561198152311904,"connected_time":1398000000000,"state":"active","ping":63},{"user_id":11,"name":"jcoll444","steam_id":76561198143025380,"connected_time":944000000000,"state":"active","ping":56},{"user_id":12,"name":"Pak'n'Save","steam_id":76561199199754055,"connected_time":910000000000,"state":"active","ping":56},{"user_id":13,"name":"Glockenspe (She/Her)","steam_id":76561199184115241,"connected_time":452000000000,"state":"active","ping":43}]},{"server_id":395,"name":"Uncletopia | Sydney | 3 | All Maps","name_short":"syd-3","host":"syd-1.au.uncletopia.com","port":27035,"enabled":true,"region":"au","cc":"au","latitude":-33.865143,"longitude":151.2099,"reserved":0,"last_update":"0001-01-01T00:00:00Z","name_a2s":"Uncletopia | Sydney | 3 | All Maps","protocol":17,"map":"koth_lakeside_final","folder":"tf","game":"Team Fortress","app_id":440,"player_count":0,"max_players":24,"Bots":0,"server_type":"Dedicated","server_os":"Linux","password":true,"vac":true,"version":"7723704","steam_id":85568392925194467,"keywords":["cp","nocrits","nodmgspread","uncletopia"],"game_id":440,"stv_port":27036,"stv_name":"Uncletopia | Sydney | 3 | All Maps | STV","players":null},{"server_id":396,"name":"Uncletopia | Sydney | 4 | All Maps","name_short":"syd-4","host":"syd-1.au.uncletopia.com","port":27045,"enabled":true,"region":"au","cc":"au","latitude":-33.865143,"longitude":151.2099,"reserved":0,"last_update":"0001-01-01T00:00:00Z","name_a2s":"Uncletopia | Sydney | 4 | All Maps","protocol":17,"map":"cp_snakewater_final1","folder":"tf","game":"Team Fortress","app_id":440,"player_count":0,"max_players":24,"Bots":0,"server_type":"Dedicated","server_os":"Linux","password":true,"vac":true,"version":"7723704","steam_id":85568392925397958,"keywords":["cp","nocrits","nodmgspread","uncletopia"],"game_id":440,"stv_port":27046,"stv_name":"Uncletopia | Sydney | 4 | All Maps | STV","players":null},{"server_id":58,"name":"Uncletopia | Sydney | 5 | No Payload","name_short":"syd-5","host":"syd-1.au.uncletopia.com","port":27055,"enabled":true,"region":"au","cc":"au","latitude":-33.865143,"longitude":151.2099,"reserved":0,"last_update":"0001-01-01T00:00:00Z","name_a2s":"Uncletopia | Sydney | 5 | No Payload","protocol":17,"map":"ctf_turbine","folder":"tf","game":"Team Fortress","app_id":440,"player_count":0,"max_players":24,"Bots":0,"server_type":"Dedicated","server_os":"Linux","password":true,"vac":true,"version":"7723704","steam_id":85568392925397959,"keywords":["ctf","nocrits","nodmgspread","uncletopia"],"game_id":440,"stv_port":27056,"stv_name":"Uncletopia | Sydney | 5 | No Payload | STV","players":null},{"server_id":59,"name":"Uncletopia | Sydney | 6 | Community","name_short":"syd-6","host":"syd-1.au.uncletopia.com","port":27065,"enabled":true,"region":"au","cc":"au","latitude":-33.865143,"longitude":151.2099,"reserved":0,"last_update":"0001-01-01T00:00:00Z","name_a2s":"Uncletopia | Sydney | 6 | Community","protocol":17,"map":"koth_lakeside_final","folder":"tf","game":"Team Fortress","app_id":440,"player_count":0,"max_players":24,"Bots":0,"server_type":"Dedicated","server_os":"Linux","password":true,"vac":true,"version":"7723704","steam_id":85568392925397960,"keywords":["cp","nocrits","nodmgspread","uncletopia"],"game_id":440,"stv_port":27066,"stv_name":"Uncletopia | Sydney | 6 | Community | STV","players":null},{"server_id":49,"name":"Uncletopia | Warsaw | 1 | All Maps","name_short":"waw-1","host":"waw-1.pl.uncletopia.com","port":27015,"enabled":true,"region":"eu","cc":"pl","latitude":52.2297,"longitude":21.017532,"reserved":0,"last_update":"0001-01-01T00:00:00Z","name_a2s":"Uncletopia | Warsaw | 1 | All Maps","protocol":17,"map":"koth_viaduct","folder":"tf","game":"Team Fortress","app_id":440,"player_count":0,"max_players":24,"Bots":0,"server_type":"Dedicated","server_os":"Linux","password":true,"vac":true,"version":"7723704","steam_id":85568392925397850,"keywords":["cp","nocrits","nodmgspread","uncletopia"],"game_id":440,"stv_port":27016,"stv_name":"Uncletopia | Warsaw | 1 | All Maps | STV","players":null},{"server_id":50,"name":"Uncletopia | Warsaw | 2 | All Maps","name_short":"waw-2","host":"waw-1.pl.uncletopia.com","port":27025,"enabled":true,"region":"eu","cc":"pl","latitude":52.2297,"longitude":21.017532,"reserved":0,"last_update":"0001-01-01T00:00:00Z","name_a2s":"Uncletopia | Warsaw | 2 | All Maps","protocol":17,"map":"pl_snowycoast","folder":"tf","game":"Team Fortress","app_id":440,"player_count":2,"max_players":24,"Bots":0,"server_type":"Dedicated","server_os":"Linux","password":true,"vac":true,"version":"7723704","steam_id":85568392925397851,"keywords":["nocrits","nodmgspread","payload","uncletopia"],"game_id":440,"stv_port":27026,"stv_name":"Uncletopia | Warsaw | 2 | All Maps | STV","players":[{"user_id":5,"name":"grammerca2","steam_id":76561198993241319,"connected_time":188000000000,"state":"active","ping":173},{"user_id":6,"name":"LadyVodka","steam_id":76561198934740864,"connected_time":162000000000,"state":"active","ping":175}]},{"server_id":51,"name":"Uncletopia | Warsaw | 3 | All Maps","name_short":"waw-3","host":"waw-1.pl.uncletopia.com","port":27035,"enabled":true,"region":"eu","cc":"pl","latitude":52.2297,"longitude":21.017532,"reserved":0,"last_update":"0001-01-01T00:00:00Z","name_a2s":"Uncletopia | Warsaw | 3 | All Maps","protocol":17,"map":"cp_dustbowl","folder":"tf","game":"Team Fortress","app_id":440,"player_count":0,"max_players":24,"Bots":0,"server_type":"Dedicated","server_os":"Linux","password":true,"vac":true,"version":"7723704","steam_id":85568392925397852,"keywords":["cp","nocrits","nodmgspread","uncletopia"],"game_id":440,"stv_port":27036,"stv_name":"Uncletopia | Warsaw | 3 | All Maps | STV","players":null},{"server_id":52,"name":"Uncletopia | Warsaw | 4 | All Maps","name_short":"waw-4","host":"waw-1.pl.uncletopia.com","port":27045,"enabled":true,"region":"eu","cc":"pl","latitude":52.2297,"longitude":21.017532,"reserved":0,"last_update":"0001-01-01T00:00:00Z","name_a2s":"Uncletopia | Warsaw | 4 | All Maps","protocol":17,"map":"cp_snakewater_final1","folder":"tf","game":"Team Fortress","app_id":440,"player_count":0,"max_players":24,"Bots":0,"server_type":"Dedicated","server_os":"Linux","password":true,"vac":true,"version":"7723704","steam_id":85568392925397853,"keywords":["cp","nocrits","nodmgspread","uncletopia"],"game_id":440,"stv_port":27046,"stv_name":"Uncletopia | Warsaw | 4 | All Maps | STV","players":null},{"server_id":53,"name":"Uncletopia | Warsaw | 5 | No Payload","name_short":"waw-5","host":"waw-1.pl.uncletopia.com","port":27055,"enabled":true,"region":"eu","cc":"pl","latitude":52.2297,"longitude":21.017532,"reserved":0,"last_update":"0001-01-01T00:00:00Z","name_a2s":"Uncletopia | Warsaw | 5 | No Payload","protocol":17,"map":"cp_freight_final1","folder":"tf","game":"Team Fortress","app_id":440,"player_count":0,"max_players":24,"Bots":0,"server_type":"Dedicated","server_os":"Linux","password":true,"vac":true,"version":"7723704","steam_id":85568392925397854,"keywords":["cp","nocrits","nodmgspread","uncletopia"],"game_id":440,"stv_port":27056,"stv_name":"Uncletopia | Warsaw | 5 | No Payload | STV","players":null},{"server_id":54,"name":"Uncletopia | Warsaw | 6 | Community","name_short":"waw-6","host":"waw-1.pl.uncletopia.com","port":27065,"enabled":true,"region":"eu","cc":"pl","latitude":52.2297,"longitude":21.017532,"reserved":0,"last_update":"0001-01-01T00:00:00Z","name_a2s":"Uncletopia | Warsaw | 6 | Community","protocol":17,"map":"workshop/koth_ashville_final.ugc2130459942","folder":"tf","game":"Team Fortress","app_id":440,"player_count":0,"max_players":24,"Bots":0,"server_type":"Dedicated","server_os":"Linux","password":true,"vac":true,"version":"7723704","steam_id":85568392925397856,"keywords":["cp","nocrits","nodmgspread","uncletopia"],"game_id":440,"stv_port":27066,"stv_name":"Uncletopia | Warsaw | 6 | Community | STV","players":null}]}