{"status":true,"message":"","result":[{"server_id":9,"name":"Uncletopia | Atlanta | 1 | All Maps","name_short":"atl-1","host":"atl-1.us.uncletopia.com","port":27015,"enabled":true,"region":"us-east","cc":"us","latitude":33.753746,"longitude":-84.38633,"reserved":0,"last_update":"0001-01-01T00:00:00Z","name_a2s":"Uncletopia | Atlanta | 1 | All Maps","protocol":17,"map":"pl_badwater","folder":"tf","game":"Team Fortress","app_id":440,"player_count":24,"max_players":24,"Bots":0,"server_type":"Dedicated","server_os":"Linux","password":true,"vac":true,"version":"7757534","steam_id":85568392924469982,"keywords":["nocrits","nodmgspread","payload","uncletopia"],"game_id":440,"stv_port":27016,"stv_name":"Uncletopia | Atlanta | 1 | All Maps | STV","players":[{"user_id":118,"name":"\u003c blank \u003e","steam_id":76561199468200174,"connected_time":2624000000000,"state":"active","ping":34},{"user_id":119,"name":"hunterbunney (TRUE BUT REAL)","steam_id":76561198070672899,"connected_time":2475000000000,"state":"active","ping":58},{"user_id":129,"name":"ÁÅ´Êòü | Marsy","steam_id":76561198014979892,"connected_time":1776000000000,"state":"active","ping":67},{"user_id":128,"name":"Im High","steam_id":76561198049954886,"connected_time":2057000000000,"state":"active","ping":72},{"user_id":134,"name":"RED1 | Avo","steam_id":76561197993340494,"connected_time":1080000000000,"state":"active","ping":60},{"user_id":143,"name":"Laura Palmer Gaming","steam_id":76561198282965733,"connected_time":94000000000,"state":"active","ping":61},{"user_id":130,"name":"Messy_","steam_id":76561199095580664,"connected_time":1502000000000,"state":"active","ping":121},{"user_id":109,"name":"ShakeFL","steam_id":76561198124045662,"connected_time":3428000000000,"state":"active","ping":59},{"user_id":139,"name":"bogginwater","steam_id":76561198155547142,"connected_time":321000000000,"state":"active","ping":68},{"user_id":58,"name":"Rio\u003c3 | they/them","steam_id":76561198299175965,"connected_time":8095000000000,"state":"active","ping":56},{"user_id":137,"name":"BLU1 | Shame","steam_id":76561198100490994,"connected_time":337000000000,"state":"active","ping":59},{"user_id":138,"name":"BLU1 l Epifiny","steam_id":76561198027958086,"connected_time":337000000000,"state":"active","ping":86},{"user_id":17,"name":"blu lil hog","steam_id":76561199230929836,"connected_time":12033000000000,"state":"active","ping":84},{"user_id":87,"name":"Ohtheirony44","steam_id":76561198065114608,"connected_time":5415000000000,"state":"active","ping":152},{"user_id":89,"name":"ShiYor","steam_id":76561199117260032,"connected_time":5282000000000,"state":"active","ping":138},{"user_id":140,"name":"big ol' buford","steam_id":76561198290675957,"connected_time":295000000000,"state":"active","ping":60},{"user_id":48,"name":"RED1 | eish","steam_id":76561198089463603,"connected_time":9336000000000,"state":"active","ping":119},{"user_id":142,"name":"stink","steam_id":76561198099318923,"connected_time":156000000000,"state":"active","ping":75},{"user_id":78,"name":"MIA1 | TuaTooter","steam_id":76561198133033974,"connected_time":6033000000000,"state":"active","ping":79},{"user_id":132,"name":"Quiggles","steam_id":76561199177247655,"connected_time":1500000000000,"state":"active","ping":59},{"user_id":114,"name":"OrangeCrab","steam_id":76561198982248872,"connected_time":3011000000000,"state":"active","ping":68},{"user_id":102,"name":"shaderoses","steam_id":76561198070800500,"connected_time":4171000000000,"state":"active","ping":61},{"user_id":120,"name":"DFR Wingm4n","steam_id":76561198064127012,"connected_time":2475000000000,"state":"active","ping":58},{"user_id":82,"name":"hyuck","steam_id":76561198319990195,"connected_time":5540000000000,"state":"active","ping":77}]},{"server_id":400,"name":"Uncletopia | Atlanta | 3 | Community","name_short":"atl-3","host":"atl-1.us.uncletopia.com","port":27035,"enabled":true,"region":"us-east","cc":"us","latitude":33.753746,"longitude":-84.38633,"reserved":0,"last_update":"0001-01-01T00:00:00Z","name_a2s":"Uncletopia | Atlanta | 3 | Community","protocol":17,"map":"workshop/cp_overgrown_rc7b.ugc503939302","folder":"tf","game":"Team Fortress","app_id":440,"player_count":10,"max_players":24,"Bots":0,"server_type":"Dedicated","server_os":"Linux","password":true,"vac":true,"version":"7757534","steam_id":85568392924515187,"keywords":["cp","nocrits","nodmgspread","uncletopia"],"game_id":440,"stv_port":27036,"stv_name":"Uncletopia | Atlanta | 3 | Community | STV","players":[{"user_id":11,"name":"owen608","steam_id":76561198439272360,"connected_time":1658000000000,"state":"active","ping":56},{"user_id":31,"name":"Alonso","steam_id":76561198968690968,"connected_time":46000000000,"state":"active","ping":74},{"user_id":29,"name":"GuyGuy","steam_id":76561198237817232,"connected_time":107000000000,"state":"active","ping":86},{"user_id":30,"name":"Aunty Frazzle","steam_id":76561198145596626,"connected_time":96000000000,"state":"active","ping":104},{"user_id":20,"name":"Soviet Raccoon","steam_id":76561199092507263,"connected_time":371000000000,"state":"active","ping":105},{"user_id":22,"name":"Ulrich Stern","steam_id":76561198101739682,"connected_time":340000000000,"state":"spawning","ping":208},{"user_id":23,"name":"\u003c blank \u003e","steam_id":76561198257139257,"connected_time":256000000000,"state":"active","ping":107},{"user_id":24,"name":"player","steam_id":76561198191881433,"connected_time":244000000000,"state":"active","ping":105},{"user_id":27,"name":"The Man with The Pan","steam_id":76561198169268750,"connected_time":145000000000,"state":"active","ping":70},{"user_id":28,"name":"Partnersincrim","steam_id":76561198841133594,"connected_time":138000000000,"state":"active","ping":91}]},{"server_id":401,"name":"Uncletopia | Atlanta | 4 | No Payload","name_short":"atl-4","host":"atl-1.us.uncletopia.com","port":27045,"enabled":true,"region":"us-east","cc":"us","latitude":33.753746,"longitude":-84.38633,"reserved":0,"last_update":"0001-01-01T00:00:00Z","name_a2s":"","protocol":0,"map":"","folder":"","game":"","app_id":0,"player_count":0,"max_players":0,"Bots":0,"server_type":"","server_os":"","password":false,"vac":false,"version":"","steam_id":0,"keywords":null,"game_id":0,"stv_port":0,"stv_name":"","players":null},{"server_id":2,"name":"Uncletopia | Chicago | 1 | All Maps","name_short":"chi-1","host":"chi-1.us.uncletopia.com","port":27015,"enabled":true,"region":"us-central","cc":"us","latitude":41.881832,"longitude":-87.62318,"reserved":0,"last_update":"0001-01-01T00:00:00Z","name_a2s":"Uncletopia | Chicago | 1 | All Maps","protocol":17,"map":"pl_swiftwater_final1","folder":"tf","game":"Team Fortress","app_id":440,"player_count":24,"max_players":24,"Bots":0,"server_type":"Dedicated","server_os":"Linux","password":true,"vac":true,"version":"7757534","steam_id":85568392924469984,"keywords":["nocrits","nodmgspread","payload","uncletopia"],"game_id":440,"stv_port":27016,"stv_name":"Uncletopia | Chicago | 1 | All Maps | STV","players":[{"user_id":699,"name":"thecal","steam_id":76561198307893384,"connected_time":1231000000000,"state":"active","ping":54},{"user_id":709,"name":"My 600 lbs gaming","steam_id":76561198027968822,"connected_time":575000000000,"state":"active","ping":75},{"user_id":694,"name":"Scab Collector","steam_id":76561198346425545,"connected_time":2059000000000,"state":"active","ping":50},{"user_id":684,"name":"[DEEP] Fitts1099","steam_id":76561198044986906,"connected_time":2674000000000,"state":"active","ping":37},{"user_id":702,"name":"‚úßÔΩ•Ôæühooligan!!","steam_id":76561198874149130,"connected_time":824000000000,"state":"active","ping":73},{"user_id":710,"name":"YungChefMingus","steam_id":76561198087122048,"connected_time":564000000000,"state":"active","ping":44},{"user_id":690,"name":"Chromatic Bliss","steam_id":76561198252604816,"connected_time":2349000000000,"state":"active","ping":69},{"user_id":711,"name":"A Pyro Main","steam_id":76561198421760112,"connected_time":530000000000,"state":"active","ping":54},{"user_id":714,"name":"Dangerous_Dave76","steam_id":76561199230056550,"connected_time":87000000000,"state":"active","ping":123},{"user_id":701,"name":"Silly Scientist","steam_id":76561199199886079,"connected_time":1133000000000,"state":"active","ping":73},{"user_id":666,"name":"Chode Mode","steam_id":76561198353840477,"connected_time":3400000000000,"state":"active","ping":47},{"user_id":713,"name":"Sailor","steam_id":76561199081983517,"connected_time":249000000000,"state":"active","ping":94},{"user_id":673,"name":"PKBEAST_7","steam_id":76561198177136537,"connected_time":3081000000000,"state":"active","ping":89},{"user_id":695,"name":"[DEEP] Roz257","steam_id":76561198842844532,"connected_time":1398000000000,"state":"active","ping":72},{"user_id":708,"name":"the deadliest pyroshark","steam_id":76561198374227766,"connected_time":637000000000,"state":"active","ping":72},{"user_id":682,"name":"Ruusty","steam_id":76561198327249755,"connected_time":2710000000000,"state":"active","ping":70},{"user_id":683,"name":"kairOs.fk","steam_id":76561197972421260,"connected_time":2707000000000,"state":"active","ping":60},{"user_id":697,"name":"The Animated Gamer","steam_id":76561198120639995,"connected_time":1360000000000,"state":"active","ping":133},{"user_id":700,"name":"rice white","steam_id":76561198320732910,"connected_time":1204000000000,"state":"active","ping":72},{"user_id":675,"name":"MMAD","steam_id":76561198026446420,"connected_time":3077000000000,"state":"active","ping":85},{"user_id":696,"name":"engie","steam_id":76561199229629045,"connected_time":1374000000000,"state":"active","ping":115},{"user_id":686,"name":"MrPoopy","steam_id":76561199456009540,"connected_time":2518000000000,"state":"active","ping":86},{"user_id":698,"name":"Steen","steam_id":76561198122992510,"connected_time":1355000000000,"state":"active","ping":141},{"user_id":635,"name":"4+1MyriadFuturesCosMo@BousouFC","steam_id":76561198181929019,"connected_time":6363000000000,"state":"active","ping":49}]},{"server_id":106,"name":"Uncletopia | Chicago | 2 | All Maps","name_short":"chi-2","host":"chi-1.us.uncletopia.com","port":27025,"enabled":true,"region":"us-central","cc":"us","latitude":41.881832,"longitude":-87.62318,"reserved":0,"last_update":"0001-01-01T00:00:00Z","name_a2s":"Uncletopia | Chicago | 2 | All Maps","protocol":17,"map":"pl_upward","folder":"tf","game":"Team Fortress","app_id":440,"player_count":24,"max_players":24,"Bots":0,"server_type":"Dedicated","server_os":"Linux","password":true,"vac":true,"version":"7757534","steam_id":85568392924469985,"keywords":["nocrits","nodmgspread","payload","uncletopia"],"game_id":440,"stv_port":27026,"stv_name":"Uncletopia | Chicago | 2 | All Maps | STV","players":[{"user_id":538,"name":"CPUnit","steam_id":76561198162881878,"connected_time":3931000000000,"state":"active","ping":75},{"user_id":571,"name":"hotline bling","steam_id":76561198984131011,"connected_time":1223000000000,"state":"active","ping":74},{"user_id":529,"name":"FemboyNate","steam_id":76561198146636410,"connected_time":4503000000000,"state":"active","ping":102},{"user_id":576,"name":"Maxxycat","steam_id":76561198194062681,"connected_time":372000000000,"state":"active","ping":64},{"user_id":557,"name":"Pan Leadership","steam_id":76561198310951440,"connected_time":2296000000000,"state":"active","ping":98},{"user_id":568,"name":"Ness","steam_id":76561198059091340,"connected_time":1489000000000,"state":"active","ping":59},{"user_id":564,"name":"costco food court","steam_id":76561198971838406,"connected_time":2100000000000,"state":"active","ping":58},{"user_id":575,"name":"Zicky Nee","steam_id":76561198042601111,"connected_time":382000000000,"state":"active","ping":71},{"user_id":558,"name":"Bad Medic Buddy","steam_id":76561198093222632,"connected_time":2292000000000,"state":"active","ping":85},{"user_id":547,"name":"easy men finish first","steam_id":76561198063970639,"connected_time":2956000000000,"state":"active","ping":69},{"user_id":581,"name":"Thundermonkey (SMOKE)","steam_id":76561198017631728,"connected_time":202000000000,"state":"active","ping":65},{"user_id":577,"name":"silly little feller","steam_id":76561198041975003,"connected_time":369000000000,"state":"active","ping":80},{"user_id":578,"name":"Spike","steam_id":76561198141356571,"connected_time":361000000000,"state":"active","ping":60},{"user_id":560,"name":"LobsterPot","steam_id":76561198072225973,"connected_time":2292000000000,"state":"active","ping":111},{"user_id":566,"name":"Ralman Noodles","steam_id":76561198085528542,"connected_time":1993000000000,"state":"active","ping":89},{"user_id":580,"name":"gonk","steam_id":76561198061206732,"connected_time":307000000000,"state":"active","ping":88},{"user_id":574,"name":"Kipernicus","steam_id":76561197998180212,"connected_time":420000000000,"state":"active","ping":56},{"user_id":562,"name":"phone","steam_id":76561198029268743,"connected_time":2217000000000,"state":"active","ping":70},{"user_id":544,"name":"An old sandwich on the floor!","steam_id":76561198108791583,"connected_time":3059000000000,"state":"active","ping":72},{"user_id":541,"name":"starfungus","steam_id":76561198158312789,"connected_time":3630000000000,"state":"active","ping":84},{"user_id":569,"name":"MEATBALL","steam_id":76561198028499312,"connected_time":1486000000000,"state":"active","ping":60},{"user_id":563,"name":"FMJ","steam_id":76561198056871257,"connected_time":2212000000000,"state":"active","ping":75},{"user_id":584,"name":"Funky Kazoo","steam_id":76561198972379484,"connected_time":130000000000,"state":"active","ping":79}]},{"server_id":402,"name":"Uncletopia | Chicago | 3 | All Maps","name_short":"chi-3","host":"chi-1.us.uncletopia.com","port":27035,"enabled":true,"region":"us-central","cc":"us","latitude":41.881832,"longitude":-87.62318,"reserved":0,"last_update":"0001-01-01T00:00:00Z","name_a2s":"Uncletopia | Chicago | 3 | All Maps","protocol":17,"map":"pl_snowycoast","folder":"tf","game":"Team Fortress","app_id":440,"player_count":24,"max_players":24,"Bots":0,"server_type":"Dedicated","server_os":"Linux","password":true,"vac":true,"version":"7757534","steam_id":85568392924515191,"keywords":["nocrits","nodmgspread","payload","uncletopia"],"game_id":440,"stv_port":27036,"stv_name":"Uncletopia | Chicago | 3 | All Maps | STV","players":[{"user_id":303,"name":"xiii","steam_id":76561198079416036,"connected_time":289000000000,"state":"active","ping":37},{"user_id":304,"name":"‚ú™kook ‚ô•  ‚ô•","steam_id":76561198037846151,"connected_time":276000000000,"state":"active","ping":59},{"user_id":308,"name":"Jesse Thinkman","steam_id":76561198061675475,"connected_time":234000000000,"state":"active","ping":83},{"user_id":294,"name":"üòéSIGMA_MANüòé","steam_id":76561199299095652,"connected_time":654000000000,"state":"active","ping":76},{"user_id":310,"name":"Bread Baker","steam_id":76561198185335103,"connected_time":3000000000,"state":"spawning","ping":63},{"user_id":259,"name":"roseytyler","steam_id":76561198363632970,"connected_time":3795000000000,"state":"active","ping":80},{"user_id":302,"name":"Dinosaur","steam_id":76561198854695804,"connected_time":295000000000,"state":"active","ping":74},{"user_id":293,"name":"Space‚≠êTaffy","steam_id":76561198002271720,"connected_time":676000000000,"state":"active","ping":66},{"user_id":305,"name":"Enron Hubbard","steam_id":76561198012951411,"connected_time":257000000000,"state":"active","ping":61},{"user_id":261,"name":"Owned","steam_id":76561198426350355,"connected_time":3721000000000,"state":"active","ping":83},{"user_id":257,"name":"HEX","steam_id":76561198331229114,"connected_time":4053000000000,"state":"active","ping":117},{"user_id":286,"name":"Uncle Meat","steam_id":76561198012534850,"connected_time":1544000000000,"state":"active","ping":69},{"user_id":271,"name":"Bloodrayne","steam_id":76561198116808497,"connected_time":2880000000000,"state":"active","ping":75},{"user_id":290,"name":"Ur gf's pubic hair","steam_id":76561198046928474,"connected_time":1438000000000,"state":"active","ping":61},{"user_id":276,"name":"Banana","steam_id":76561198321485249,"connected_time":2102000000000,"state":"active","ping":60},{"user_id":239,"name":"FellowGamer","steam_id":76561198089600392,"connected_time":5527000000000,"state":"active","ping":71},{"user_id":296,"name":"Six","steam_id":76561198052472822,"connected_time":553000000000,"state":"active","ping":69},{"user_id":267,"name":"XinPing","steam_id":76561198174498174,"connected_time":3308000000000,"state":"active","ping":95},{"user_id":225,"name":"Cyber Cylon","steam_id":76561198048972781,"connected_time":6384000000000,"state":"active","ping":59},{"user_id":309,"name":"Eins","steam_id":76561199030343810,"connected_time":132000000000,"state":"active","ping":80},{"user_id":218,"name":"Wilhelmktx","steam_id":76561198158102295,"connected_time":6906000000000,"state":"active","ping":55},{"user_id":226,"name":"Razz","steam_id":76561198158027533,"connected_time":6383000000000,"state":"active","ping":42},{"user_id":307,"name":"weed lesbian","steam_id":76561198042263805,"connected_time":243000000000,"state":"active","ping":80},{"user_id":298,"name":"Emperor Dankatine","steam_id":76561198044741086,"connected_time":341000000000,"state":"active","ping":85}]},{"server_id":403,"name":"Uncletopia | Chicago | 4 | All Maps","name_short":"chi-4","host":"chi-1.us.uncletopia.com","port":27045,"enabled":true,"region":"us-central","cc":"us","latitude":41.881832,"longitude":-87.62318,"reserved":0,"last_update":"0001-01-01T00:00:00Z","name_a2s":"Uncletopia | Chicago | 4 | All Maps","protocol":17,"map":"cp_process_final","folder":"tf","game":"Team Fortress","app_id":440,"player_count":24,"max_players":24,"Bots":0,"server_type":"Dedicated","server_os":"Linux","password":true,"vac":true,"version":"7757534","steam_id":85568392924515193,"keywords":["cp","nocrits","nodmgspread","uncletopia"],"game_id":440,"stv_port":27046,"stv_name":"Uncletopia | Chicago | 4 | All Maps | STV","players":[{"user_id":341,"name":"f0xh0le 0ne","steam_id":76561199471269566,"connected_time":2972000000000,"state":"active","ping":75},{"user_id":365,"name":"Stew Eater","steam_id":76561198978307159,"connected_time":1009000000000,"state":"active","ping":70},{"user_id":295,"name":"Shaper Loks","steam_id":76561198207958144,"connected_time":6255000000000,"state":"active","ping":70},{"user_id":372,"name":"Quark","steam_id":76561198328155605,"connected_time":69000000000,"state":"active","ping":56},{"user_id":368,"name":"KaizerCalamaki","steam_id":76561198028206911,"connected_time":846000000000,"state":"active","ping":47},{"user_id":355,"name":"Owl Pacino","steam_id":76561197979970666,"connected_time":1487000000000,"state":"active","ping":53},{"user_id":349,"name":"YASAI JUICE","steam_id":76561198131971992,"connected_time":2055000000000,"state":"active","ping":41},{"user_id":357,"name":"pepin","steam_id":76561198072179483,"connected_time":1431000000000,"state":"active","ping":83},{"user_id":358,"name":"Shock Trooper","steam_id":76561199086731683,"connected_time":1415000000000,"state":"active","ping":86},{"user_id":347,"name":"bloon.popper.2009","steam_id":76561198839205387,"connected_time":2643000000000,"state":"active","ping":80},{"user_id":373,"name":"dyce.","steam_id":76561199273443432,"connected_time":68000000000,"state":"active","ping":87},{"user_id":342,"name":"Luffy","steam_id":76561198120914343,"connected_time":2864000000000,"state":"active","ping":67},{"user_id":364,"name":"ecks","steam_id":76561197978114705,"connected_time":1227000000000,"state":"active","ping":60},{"user_id":362,"name":"soundwave | sfm comms open!","steam_id":76561198454725718,"connected_time":1366000000000,"state":"active","ping":46},{"user_id":328,"name":"Themme Fatale","steam_id":76561198096221632,"connected_time":3323000000000,"state":"active","ping":73},{"user_id":375,"name":"Kzjytsugn","steam_id":76561198130241974,"connected_time":27000000000,"state":"active","ping":82},{"user_id":363,"name":"threethree","steam_id":76561198177354155,"connected_time":1359000000000,"state":"active","ping":56},{"user_id":340,"name":"kangaroo wife","steam_id":76561198040455711,"connected_time":2974000000000,"state":"active","ping":99},{"user_id":320,"name":"Black hole level head","steam_id":76561198085813708,"connected_time":4314000000000,"state":"active","ping":68},{"user_id":366,"name":"aversa","steam_id":76561198840460101,"connected_time":916000000000,"state":"active","ping":73},{"user_id":350,"name":"LalitoTV","steam_id":76561198334302951,"connected_time":2003000000000,"state":"active","ping":119},{"user_id":321,"name":"Zeora","steam_id":76561198799145251,"connected_time":4312000000000,"state":"active","ping":77},{"user_id":376,"name":"poseidon","steam_id":76561199085441984,"connected_time":18000000000,"state":"active","ping":65},{"user_id":354,"name":"Cheesy","steam_id":76561199229617447,"connected_time":1764000000000,"state":"active","ping":61}]},{"server_id":36,"name":"Uncletopia | Chicago | 5 | All Maps","name_short":"chi-5","host":"chi-2.us.uncletopia.com","port":27015,"enabled":true,"region":"us-central","cc":"us","latitude":41.881832,"longitude":-87.62318,"reserved":0,"last_update":"0001-01-01T00:00:00Z","name_a2s":"Uncletopia | Chicago | 5 | All Maps","protocol":17,"map":"cp_mountainlab","folder":"tf","game":"Team Fortress","app_id":440,"player_count":24,"max_players":24,"Bots":0,"server_type":"Dedicated","server_os":"Linux","password":true,"vac":true,"version":"7757534","steam_id":85568392924866362,"keywords":["cp","nocrits","nodmgspread","uncletopia"],"game_id":440,"stv_port":27016,"stv_name":"Uncletopia | Chicago | 5 | All Maps | STV","players":[{"user_id":458,"name":"Doctor Glocktorpus [NGC]","steam_id":76561198049194645,"connected_time":2472000000000,"state":"active","ping":66},{"user_id":478,"name":"a big beautiful world","steam_id":76561198023324513,"connected_time":330000000000,"state":"active","ping":87},{"user_id":477,"name":"AJones97","steam_id":76561198028973438,"connected_time":347000000000,"state":"active","ping":62},{"user_id":447,"name":"Alter","steam_id":76561198108167726,"connected_time":2973000000000,"state":"active","ping":72},{"user_id":469,"name":"themankeys","steam_id":76561198149339536,"connected_time":1296000000000,"state":"active","ping":66},{"user_id":479,"name":"Goku","steam_id":76561198064143198,"connected_time":300000000000,"state":"active","ping":46},{"user_id":482,"name":"Murgatroyd","steam_id":76561198077350331,"connected_time":36000000000,"state":"active","ping":101},{"user_id":439,"name":"Sasu","steam_id":76561198893447505,"connected_time":3565000000000,"state":"active","ping":76},{"user_id":470,"name":"woul","steam_id":76561199134296565,"connected_time":1255000000000,"state":"active","ping":81},{"user_id":453,"name":"eWVra2Vy","steam_id":76561198453565942,"connected_time":2586000000000,"state":"active","ping":77},{"user_id":467,"name":"HOTA","steam_id":76561199002778841,"connected_time":1630000000000,"state":"active","ping":101},{"user_id":410,"name":"Whoa","steam_id":76561197970353496,"connected_time":5506000000000,"state":"active","ping":75},{"user_id":474,"name":"AER0.exe","steam_id":76561198062940197,"connected_time":1069000000000,"state":"active","ping":57},{"user_id":481,"name":"Whoplops","steam_id":76561197977188933,"connected_time":115000000000,"state":"active","ping":85},{"user_id":459,"name":"trappy (showered)","steam_id":76561198402801140,"connected_time":2447000000000,"state":"active","ping":65},{"user_id":280,"name":"Bird","steam_id":76561198247484514,"connected_time":11973000000000,"state":"active","ping":78},{"user_id":420,"name":"WHATISYOURNAME","steam_id":76561198342560783,"connected_time":4477000000000,"state":"active","ping":84},{"user_id":440,"name":"abomination","steam_id":76561198167974713,"connected_time":3539000000000,"state":"active","ping":75},{"user_id":473,"name":"the grape thief","steam_id":76561198862785401,"connected_time":1202000000000,"state":"active","ping":109},{"user_id":433,"name":"Angry Ginger","steam_id":76561198256929349,"connected_time":3597000000000,"state":"active","ping":73},{"user_id":460,"name":"TheCheeseWizard","steam_id":76561198058931315,"connected_time":2410000000000,"state":"active","ping":57},{"user_id":446,"name":"CobyNoHoes","steam_id":76561198122236594,"connected_time":3091000000000,"state":"active","ping":106},{"user_id":429,"name":"Rad Dog","steam_id":76561198300703000,"connected_time":4086000000000,"state":"active","ping":80},{"user_id":461,"name":"Rappitor (washed)","steam_id":76561198105613110,"connected_time":2218000000000,"state":"active","ping":66}]},{"server_id":37,"name":"Uncletopia | Chicago | 6 | All Maps","name_short":"chi-6","host":"chi-2.us.uncletopia.com","port":27025,"enabled":true,"region":"us-central","cc":"us","latitude":41.881832,"longitude":-87.62318,"reserved":0,"last_update":"0001-01-01T00:00:00Z","name_a2s":"Uncletopia | Chicago | 6 | All Maps","protocol":17,"map":"cp_dustbowl","folder":"tf","game":"Team Fortress","app_id":440,"player_count":24,"max_players":24,"Bots":0,"server_type":"Dedicated","server_os":"Linux","password":true,"vac":true,"version":"7757534","steam_id":85568392924866363,"keywords":["cp","nocrits","nodmgspread","uncletopia"],"game_id":440,"stv_port":27026,"stv_name":"Uncletopia | Chicago | 6 | All Maps | STV","players":[{"user_id":341,"name":"gaming elliptical","steam_id":76561198013456569,"connected_time":15441000000000,"state":"active","ping":47},{"user_id":505,"name":"Gluten-Free Toast","steam_id":76561198426287971,"connected_time":3793000000000,"state":"active","ping":77},{"user_id":500,"name":"flappyflap2","steam_id":76561198285048973,"connected_time":4488000000000,"state":"active","ping":60},{"user_id":516,"name":"Soju","steam_id":76561198044130442,"connected_time":3439000000000,"state":"active","ping":68},{"user_id":531,"name":"Grape Juice","steam_id":76561198380337568,"connected_time":2039000000000,"state":"active","ping":84},{"user_id":523,"name":"Lancer47","steam_id":76561198020481475,"connected_time":2670000000000,"state":"active","ping":81},{"user_id":527,"name":"Irontothecore","steam_id":76561198387384844,"connected_time":2239000000000,"state":"active","ping":64},{"user_id":488,"name":"SilentFootba11","steam_id":76561199006570947,"connected_time":5154000000000,"state":"active","ping":69},{"user_id":515,"name":"God's Cutest Twink","steam_id":76561198053164901,"connected_time":3462000000000,"state":"active","ping":61},{"user_id":499,"name":"Room","steam_id":76561199174579733,"connected_time":4567000000000,"state":"active","ping":129},{"user_id":528,"name":"JRB","steam_id":76561198054629439,"connected_time":2218000000000,"state":"active","ping":57},{"user_id":481,"name":"Madrox Who?","steam_id":76561197988859134,"connected_time":5654000000000,"state":"active","ping":71},{"user_id":539,"name":"Soldier Impact","steam_id":76561198157004224,"connected_time":684000000000,"state":"active","ping":68},{"user_id":509,"name":"DREW PEACOCK","steam_id":76561198065057392,"connected_time":3623000000000,"state":"active","ping":88},{"user_id":519,"name":"EchoReplayz","steam_id":76561198229366892,"connected_time":2849000000000,"state":"active","ping":46},{"user_id":503,"name":"Toaster","steam_id":76561198110748463,"connected_time":4196000000000,"state":"active","ping":60},{"user_id":490,"name":"Sexyrevolver","steam_id":76561199058132505,"connected_time":5134000000000,"state":"active","ping":62},{"user_id":529,"name":"Ejaculation Zach","steam_id":76561198203765200,"connected_time":2215000000000,"state":"active","ping":58},{"user_id":540,"name":"Turtlin'","steam_id":76561198885096042,"connected_time":43000000000,"state":"active","ping":65},{"user_id":526,"name":"ScoutMoment420","steam_id":76561199316368867,"connected_time":2270000000000,"state":"active","ping":73},{"user_id":536,"name":"Mug Maniac","steam_id":76561198120866920,"connected_time":1663000000000,"state":"active","ping":83},{"user_id":533,"name":"ballsack gaming","steam_id":76561198117839474,"connected_time":1972000000000,"state":"active","ping":75},{"user_id":538,"name":"All 24 Pok√©mon movies at once","steam_id":76561198164738311,"connected_time":938000000000,"state":"active","ping":63},{"user_id":537,"name":"FOX927011","steam_id":76561198117831095,"connected_time":1553000000000,"state":"active","ping":83}]},{"server_id":38,"name":"Uncletopia | Chicago | 7 | Stopwatch Beta","name_short":"chi-7","host":"chi-2.us.uncletopia.com","port":27035,"enabled":true,"region":"us-central","cc":"us","latitude":41.881832,"longitude":-87.62318,"reserved":0,"last_update":"0001-01-01T00:00:00Z","name_a2s":"Uncletopia | Chicago | 7 | Stopwatch Beta","protocol":17,"map":"workshop/pl_barnblitz_pro7.ugc582280235","folder":"tf","game":"Team Fortress","app_id":440,"player_count":0,"max_players":24,"Bots":0,"server_type":"Dedicated","server_os":"Linux","password":true,"vac":true,"version":"7757534","steam_id":85568392924866364,"keywords":["nocrits","nodmgspread","payload","uncletopia"],"game_id":440,"stv_port":27036,"stv_name":"Uncletopia | Chicago | 7 | Stopwatch Beta | STV","players":null},{"server_id":39,"name":"Uncletopia | Chicago | 8 | Community","name_short":"chi-8","host":"chi-2.us.uncletopia.com","port":27045,"enabled":true,"region":"us-central","cc":"us","latitude":41.881832,"longitude":-87.62318,"reserved":0,"last_update":"0001-01-01T00:00:00Z","name_a2s":"Uncletopia | Chicago | 8 | Community","protocol":17,"map":"workshop/cp_sulfur_rc2.ugc619869471","folder":"tf","game":"Team Fortress","app_id":440,"player_count":17,"max_players":24,"Bots":0,"server_type":"Dedicated","server_os":"Linux","password":true,"vac":true,"version":"7757534","steam_id":85568392924866365,"keywords":["cp","nocrits","nodmgspread","uncletopia"],"game_id":440,"stv_port":27046,"stv_name":"Uncletopia | Chicago | 8 | Community | STV","players":[{"user_id":327,"name":"Mr. SeaSIde Never Ate a Fish","steam_id":76561198058689094,"connected_time":32000000000,"state":"active","ping":52},{"user_id":322,"name":"strikeflyer","steam_id":76561198271931846,"connected_time":483000000000,"state":"active","ping":87},{"user_id":280,"name":"uh oh, SOCIETY","steam_id":76561198112078985,"connected_time":2976000000000,"state":"active","ping":110},{"user_id":290,"name":"Koi","steam_id":76561198064411172,"connected_time":1731000000000,"state":"active","ping":54},{"user_id":310,"name":"Jatt","steam_id":76561198822011219,"connected_time":854000000000,"state":"active","ping":71},{"user_id":214,"name":"Communist Party of Wutville","steam_id":76561198844003641,"connected_time":6913000000000,"state":"active","ping":103},{"user_id":318,"name":"KeithStone","steam_id":76561197986083582,"connected_time":730000000000,"state":"active","ping":73},{"user_id":306,"name":"tranquildarth","steam_id":76561199176155186,"connected_time":1031000000000,"state":"active","ping":105},{"user_id":326,"name":"Tostada","steam_id":76561198383206211,"connected_time":50000000000,"state":"spawning","ping":801},{"user_id":248,"name":"TheGreatDong","steam_id":76561198000634178,"connected_time":4602000000000,"state":"active","ping":111},{"user_id":293,"name":"Cloudman","steam_id":76561198041389138,"connected_time":1632000000000,"state":"active","ping":79},{"user_id":323,"name":"Misterwipeout","steam_id":76561198068900320,"connected_time":226000000000,"state":"active","ping":102},{"user_id":302,"name":"Eating like The Rock","steam_id":76561198280114512,"connected_time":1143000000000,"state":"active","ping":51},{"user_id":289,"name":"AK","steam_id":76561198030659305,"connected_time":1904000000000,"state":"active","ping":76},{"user_id":297,"name":"eBay","steam_id":76561198061214569,"connected_time":1295000000000,"state":"active","ping":92},{"user_id":314,"name":"[S]Mr. X [No Monitor]","steam_id":76561197963746035,"connected_time":793000000000,"state":"active","ping":114},{"user_id":315,"name":"Yes","steam_id":76561198140170655,"connected_time":793000000000,"state":"active","ping":76}]},{"server_id":8,"name":"Uncletopia | Dallas | 1 | All Maps","name_short":"dal-1","host":"dal-1.us.uncletopia.com","port":27015,"enabled":true,"region":"us-central","cc":"us","latitude":32.779167,"longitude":-96.80889,"reserved":0,"last_update":"0001-01-01T00:00:00Z","name_a2s":"Uncletopia | Dallas | 1 | All Maps","protocol":17,"map":"pl_swiftwater_final1","folder":"tf","game":"Team Fortress","app_id":440,"player_count":24,"max_players":24,"Bots":0,"server_type":"Dedicated","server_os":"Linux","password":true,"vac":true,"version":"7757534","steam_id":85568392924469986,"keywords":["nocrits","nodmgspread","payload","uncletopia"],"game_id":440,"stv_port":27016,"stv_name":"Uncletopia | Dallas | 1 | All Maps | STV","players":[{"user_id":463,"name":"Rendoas","steam_id":76561198002105259,"connected_time":431000000000,"state":"active","ping":45},{"user_id":446,"name":"CFGU || RAWRWAFL","steam_id":76561198032118386,"connected_time":1488000000000,"state":"active","ping":73},{"user_id":470,"name":"Etomb","steam_id":76561198210017208,"connected_time":41000000000,"state":"active","ping":96},{"user_id":464,"name":"Spazz","steam_id":76561198036167494,"connected_time":281000000000,"state":"active","ping":57},{"user_id":468,"name":"Iroquois Pliskin","steam_id":76561198056704533,"connected_time":99000000000,"state":"active","ping":73},{"user_id":465,"name":"water bottle","steam_id":76561199056005027,"connected_time":203000000000,"state":"active","ping":103},{"user_id":466,"name":".9 lg","steam_id":76561198092238353,"connected_time":200000000000,"state":"active","ping":62},{"user_id":428,"name":"B.Luga‚Ñ¢","steam_id":76561198046473460,"connected_time":2842000000000,"state":"active","ping":55},{"user_id":458,"name":"Casaaterrizador","steam_id":76561199388911950,"connected_time":697000000000,"state":"active","ping":75},{"user_id":404,"name":"Legal Name Change","steam_id":76561198045309016,"connected_time":4376000000000,"state":"active","ping":65},{"user_id":460,"name":"Meh but good","steam_id":76561199005772246,"connected_time":648000000000,"state":"active","ping":61},{"user_id":449,"name":"radiohead enjoyer","steam_id":76561198397662124,"connected_time":1364000000000,"state":"active","ping":62},{"user_id":469,"name":"Marth","steam_id":76561198079462516,"connected_time":42000000000,"state":"spawning","ping":81},{"user_id":391,"name":"Greg Boberton 2012","steam_id":76561198983566026,"connected_time":5055000000000,"state":"active","ping":82},{"user_id":453,"name":"Not a Can","steam_id":76561198064264767,"connected_time":1189000000000,"state":"active","ping":76},{"user_id":459,"name":"mola","steam_id":76561198036283992,"connected_time":676000000000,"state":"active","ping":80},{"user_id":471,"name":"DragonHeart","steam_id":76561198013245625,"connected_time":11000000000,"state":"spawning","ping":45},{"user_id":447,"name":"Pebbled","steam_id":76561199390347605,"connected_time":1456000000000,"state":"active","ping":99},{"user_id":423,"name":"The Color Cyan idk im blind","steam_id":76561198978548208,"connected_time":3317000000000,"state":"active","ping":93},{"user_id":467,"name":"Jelpo","steam_id":76561198406920072,"connected_time":142000000000,"state":"active","ping":73},{"user_id":380,"name":"Geloman","steam_id":76561198005501322,"connected_time":5784000000000,"state":"active","ping":93},{"user_id":454,"name":"Ballista","steam_id":76561197983182562,"connected_time":946000000000,"state":"active","ping":60},{"user_id":433,"name":"FoamyPirate.h","steam_id":76561197970312151,"connected_time":1975000000000,"state":"active","ping":65},{"user_id":472,"name":"Fredrick","steam_id":76561197981419964,"connected_time":3000000000,"state":"spawning","ping":114}]},{"server_id":108,"name":"Uncletopia | Dallas | 2 | All Maps","name_short":"dal-2","host":"dal-1.us.uncletopia.com","port":27025,"enabled":true,"region":"us-central","cc":"us","latitude":32.779167,"longitude":-96.80889,"reserved":0,"last_update":"0001-01-01T00:00:00Z","name_a2s":"Uncletopia | Dallas | 2 | All Maps","protocol":17,"map":"pl_badwater","folder":"tf","game":"Team Fortress","app_id":440,"player_count":20,"max_players":24,"Bots":0,"server_type":"Dedicated","server_os":"Linux","password":true,"vac":true,"version":"7757534","steam_id":85568392924469988,"keywords":["nocrits","nodmgspread","payload","uncletopia"],"game_id":440,"stv_port":27026,"stv_name":"Uncletopia | Dallas | 2 | All Maps | STV","players":[{"user_id":635,"name":"karbomb","steam_id":76561198120744480,"connected_time":347000000000,"state":"active","ping":44},{"user_id":596,"name":"Spiffyputt","steam_id":76561198439345687,"connected_time":3052000000000,"state":"active","ping":73},{"user_id":637,"name":"Ferguson","steam_id":76561198121349387,"connected_time":10000000000,"state":"spawning","ping":44},{"user_id":613,"name":"Uncle Boozy","steam_id":76561198301054092,"connected_time":2040000000000,"state":"active","ping":90},{"user_id":599,"name":"Gr8butnotreally","steam_id":76561198133924450,"connected_time":2972000000000,"state":"active","ping":92},{"user_id":525,"name":"Jasmine Rice","steam_id":76561198163163590,"connected_time":6475000000000,"state":"active","ping":60},{"user_id":638,"name":"Knavish","steam_id":76561198073434372,"connected_time":4000000000,"state":"spawning","ping":77},{"user_id":589,"name":"Drew_","steam_id":76561199062943430,"connected_time":3453000000000,"state":"active","ping":69},{"user_id":623,"name":"SonnyMarsh","steam_id":76561198188103746,"connected_time":1640000000000,"state":"active","ping":92},{"user_id":612,"name":"CredibleFish","steam_id":76561199163102616,"connected_time":2071000000000,"state":"active","ping":77},{"user_id":615,"name":"The Panda Knight","steam_id":76561198150282587,"connected_time":1998000000000,"state":"active","ping":119},{"user_id":616,"name":"Galactamarx","steam_id":76561198028065755,"connected_time":1997000000000,"state":"active","ping":79},{"user_id":617,"name":"7thhelden","steam_id":76561198297428761,"connected_time":1978000000000,"state":"active","ping":94},{"user_id":588,"name":"i am clinically insane","steam_id":76561199013323529,"connected_time":3500000000000,"state":"active","ping":95},{"user_id":590,"name":"teatimesukka","steam_id":76561198978749594,"connected_time":3409000000000,"state":"active","ping":31},{"user_id":627,"name":"Yogurt Raisins","steam_id":76561198172748357,"connected_time":858000000000,"state":"active","ping":81},{"user_id":619,"name":"Mellou","steam_id":76561198212048740,"connected_time":1958000000000,"state":"active","ping":47},{"user_id":625,"name":"DrBenjas","steam_id":76561198345883103,"connected_time":1357000000000,"state":"active","ping":99},{"user_id":634,"name":"Ace","steam_id":76561199202306398,"connected_time":368000000000,"state":"active","ping":86},{"user_id":629,"name":"[12V] Marv","steam_id":76561198158638384,"connected_time":774000000000,"state":"active","ping":58}]},{"server_id":5,"name":"Uncletopia | Frankfurt | 1 | All Maps","name_short":"frk-1","host":"frk-1.de.uncletopia.com","port":27015,"enabled":true,"region":"eu","cc":"de","latitude":50.110924,"longitude":8.682127,"reserved":0,"last_update":"0001-01-01T00:00:00Z","name_a2s":"Uncletopia | Frankfurt | 1 | All Maps","protocol":17,"map":"koth_highpass","folder":"tf","game":"Team Fortress","app_id":440,"player_count":0,"max_players":24,"Bots":0,"server_type":"Dedicated","server_os":"Linux","password":true,"vac":true,"version":"7757534","steam_id":85568392924469989,"keywords":["cp","nocrits","nodmgspread","uncletopia"],"game_id":440,"stv_port":27016,"stv_name":"Uncletopia | Frankfurt | 1 | All Maps | STV","players":null},{"server_id":110,"name":"Uncletopia | Frankfurt | 2 | All Maps","name_short":"frk-2","host":"frk-1.de.uncletopia.com","port":27025,"enabled":true,"region":"eu","cc":"de","latitude":50.110924,"longitude":8.682127,"reserved":0,"last_update":"0001-01-01T00:00:00Z","name_a2s":"Uncletopia | Frankfurt | 2 | All Maps","protocol":17,"map":"koth_lakeside_final","folder":"tf","game":"Team Fortress","app_id":440,"player_count":0,"max_players":24,"Bots":0,"server_type":"Dedicated","server_os":"Linux","password":true,"vac":true,"version":"7757534","steam_id":85568392924469990,"keywords":["cp","nocrits","nodmgspread","uncletopia"],"game_id":440,"stv_port":27026,"stv_name":"Uncletopia | Frankfurt | 2 | All Maps | STV","players":null},{"server_id":308,"name":"Uncletopia | Frankfurt | 3 | All Maps","name_short":"frk-3","host":"frk-1.de.uncletopia.com","port":27035,"enabled":true,"region":"eu","cc":"de","latitude":50.110924,"longitude":8.682127,"reserved":0,"last_update":"0001-01-01T00:00:00Z","name_a2s":"Uncletopia | Frankfurt | 3 | All Maps","protocol":17,"map":"pl_pier","folder":"tf","game":"Team Fortress","app_id":440,"player_count":0,"max_players":24,"Bots":0,"server_type":"Dedicated","server_os":"Linux","password":true,"vac":true,"version":"7757534","steam_id":85568392924504274,"keywords":["nocrits","nodmgspread","payload","uncletopia"],"game_id":440,"stv_port":27036,"stv_name":"Uncletopia | Frankfurt | 3 | All Maps | STV","players":null},{"server_id":309,"name":"Uncletopia | Frankfurt | 4 | All Maps","name_short":"frk-4","host":"frk-1.de.uncletopia.com","port":27045,"enabled":true,"region":"eu","cc":"de","latitude":50.110924,"longitude":8.682127,"reserved":0,"last_update":"0001-01-01T00:00:00Z","name_a2s":"Uncletopia | Frankfurt | 4 | All Maps","protocol":17,"map":"pl_swiftwater_final1","folder":"tf","game":"Team Fortress","app_id":440,"player_count":0,"max_players":24,"Bots":0,"server_type":"Dedicated","server_os":"Linux","password":true,"vac":true,"version":"7757534","steam_id":85568392924504275,"keywords":["nocrits","nodmgspread","payload","uncletopia"],"game_id":440,"stv_port":27046,"stv_name":"Uncletopia | Frankfurt | 4 | All Maps | STV","players":null},{"server_id":310,"name":"Uncletopia | Frankfurt | 5 | All Maps","name_short":"frk-5","host":"frk-1.de.uncletopia.com","port":27055,"enabled":true,"region":"eu","cc":"de","latitude":50.110924,"longitude":8.682127,"reserved":0,"last_update":"0001-01-01T00:00:00Z","name_a2s":"Uncletopia | Frankfurt | 5 | All Maps","protocol":17,"map":"pl_borneo","folder":"tf","game":"Team Fortress","app_id":440,"player_count":0,"max_players":24,"Bots":0,"server_type":"Dedicated","server_os":"Linux","password":true,"vac":true,"version":"7757534","steam_id":85568392924504277,"keywords":["nocrits","nodmgspread","payload","uncletopia"],"game_id":440,"stv_port":27056,"stv_name":"Uncletopia | Frankfurt | 5 | All Maps | STV","players":null},{"server_id":311,"name":"Uncletopia | Frankfurt | 6 | All Maps","name_short":"frk-6","host":"frk-1.de.uncletopia.com","port":27065,"enabled":true,"region":"eu","cc":"de","latitude":50.110924,"longitude":8.682127,"reserved":0,"last_update":"0001-01-01T00:00:00Z","name_a2s":"Uncletopia | Frankfurt | 6 | All Maps","protocol":17,"map":"koth_highpass","folder":"tf","game":"Team Fortress","app_id":440,"player_count":0,"max_players":24,"Bots":0,"server_type":"Dedicated","server_os":"Linux","password":true,"vac":true,"version":"7757534","steam_id":85568392924504278,"keywords":["cp","nocrits","nodmgspread","uncletopia"],"game_id":440,"stv_port":27066,"stv_name":"Uncletopia | Frankfurt | 6 | All Maps | STV","players":null},{"server_id":23,"name":"Uncletopia | Frankfurt | 7 | Stopwatch Beta","name_short":"frk-7","host":"frk-1.de.uncletopia.com","port":27075,"enabled":true,"region":"eu","cc":"de","latitude":50.110924,"longitude":8.682127,"reserved":0,"last_update":"0001-01-01T00:00:00Z","name_a2s":"Uncletopia | Frankfurt | 7 | Stopwatch Beta","protocol":17,"map":"pl_frontier_final","folder":"tf","game":"Team Fortress","app_id":440,"player_count":0,"max_players":24,"Bots":0,"server_type":"Dedicated","server_os":"Linux","password":true,"vac":true,"version":"7757534","steam_id":85568392924742827,"keywords":["nocrits","nodmgspread","payload","uncletopia"],"game_id":440,"stv_port":27076,"stv_name":"Uncletopia | Frankfurt | 7 | Stopwatch Beta | STV","players":null},{"server_id":24,"name":"Uncletopia | Frankfurt | 8 | Community","name_short":"frk-8","host":"frk-1.de.uncletopia.com","port":27085,"enabled":true,"region":"eu","cc":"de","latitude":50.110924,"longitude":8.682127,"reserved":0,"last_update":"0001-01-01T00:00:00Z","name_a2s":"Uncletopia | Frankfurt | 8 | Community","protocol":17,"map":"workshop/koth_kemptown_rc1.ugc767410655","folder":"tf","game":"Team Fortress","app_id":440,"player_count":0,"max_players":24,"Bots":0,"server_type":"Dedicated","server_os":"Linux","password":true,"vac":true,"version":"7757534","steam_id":85568392924742828,"keywords":["cp","nocrits","nodmgspread","uncletopia"],"game_id":440,"stv_port":27086,"stv_name":"Uncletopia | Frankfurt | 8 | Community | STV","players":null},{"server_id":202,"name":"Uncletopia | Hong Kong | 1 | All Maps","name_short":"hgk-1","host":"hgk-1.hk.uncletopia.com","port":27015,"enabled":true,"region":"asia","cc":"hk","latitude":22.302711,"longitude":114.177216,"reserved":0,"last_update":"0001-01-01T00:00:00Z","name_a2s":"Uncletopia | Hong Kong | 1 | All Maps","protocol":17,"map":"cp_altitude","folder":"tf","game":"Team Fortress","app_id":440,"player_count":0,"max_players":24,"Bots":0,"server_type":"Dedicated","server_os":"Linux","password":true,"vac":true,"version":"7757534","steam_id":85568392924494504,"keywords":["cp","nocrits","nodmgspread","uncletopia"],"game_id":440,"stv_port":27016,"stv_name":"Uncletopia | Hong Kong | 1 | All Maps | STV","players":null},{"server_id":1,"name":"Uncletopia | Los Angeles | 1 | All Maps","name_short":"lax-1","host":"lax-1.us.uncletopia.com","port":27015,"enabled":true,"region":"us-west","cc":"us","latitude":33.94279,"longitude":-118.41004,"reserved":0,"last_update":"0001-01-01T00:00:00Z","name_a2s":"Uncletopia | Los Angeles | 1 | All Maps","protocol":17,"map":"pl_badwater","folder":"tf","game":"Team Fortress","app_id":440,"player_count":24,"max_players":24,"Bots":0,"server_type":"Dedicated","server_os":"Linux","password":true,"vac":true,"version":"7757534","steam_id":85568392924469991,"keywords":["nocrits","nodmgspread","payload","uncletopia"],"game_id":440,"stv_port":27016,"stv_name":"Uncletopia | Los Angeles | 1 | All Maps | STV","players":[{"user_id":127,"name":"Tibetan Pop Star","steam_id":76561198844903984,"connected_time":2390000000000,"state":"active","ping":58},{"user_id":132,"name":"Moose","steam_id":76561198138017760,"connected_time":2267000000000,"state":"active","ping":53},{"user_id":140,"name":"EatSomeBEES","steam_id":76561198047334307,"connected_time":1524000000000,"state":"active","ping":74},{"user_id":124,"name":"monji","steam_id":76561198239598834,"connected_time":2692000000000,"state":"active","ping":95},{"user_id":137,"name":"NooBHatteR","steam_id":76561198077662703,"connected_time":1982000000000,"state":"active","ping":62},{"user_id":131,"name":"AnimeBoobs","steam_id":76561198101548776,"connected_time":2294000000000,"state":"active","ping":67},{"user_id":141,"name":"swag","steam_id":76561198094615739,"connected_time":1161000000000,"state":"active","ping":100},{"user_id":150,"name":"Vladimir Chirgin","steam_id":76561198170035235,"connected_time":1102000000000,"state":"active","ping":77},{"user_id":94,"name":"Sabag3D","steam_id":76561198094402240,"connected_time":4141000000000,"state":"active","ping":90},{"user_id":153,"name":"Frazzer","steam_id":76561198088679707,"connected_time":708000000000,"state":"active","ping":45},{"user_id":134,"name":"Supawaffle","steam_id":76561198090922807,"connected_time":2240000000000,"state":"active","ping":50},{"user_id":157,"name":"June","steam_id":76561198141803658,"connected_time":172000000000,"state":"active","ping":45},{"user_id":154,"name":"Delimeat","steam_id":76561198043824595,"connected_time":510000000000,"state":"active","ping":45},{"user_id":92,"name":"A Can of Arizona Green Tea","steam_id":76561198062481133,"connected_time":4377000000000,"state":"active","ping":87},{"user_id":119,"name":"Guavaz!","steam_id":76561198282290924,"connected_time":3026000000000,"state":"active","ping":45},{"user_id":66,"name":"‡πá‡πá‡πá‡πá‡πá","steam_id":76561198118859752,"connected_time":5418000000000,"state":"active","ping":51},{"user_id":135,"name":"EmmLoaf","steam_id":76561198022097954,"connected_time":2202000000000,"state":"active","ping":55},{"user_id":122,"name":"Morpheus","steam_id":76561198363323750,"connected_time":2892000000000,"state":"active","ping":82},{"user_id":156,"name":"Douze","steam_id":76561198272934982,"connected_time":386000000000,"state":"active","ping":117},{"user_id":148,"name":"Yarema","steam_id":76561198067161181,"connected_time":1117000000000,"state":"active","ping":113},{"user_id":138,"name":"RlyTomato","steam_id":76561198011644876,"connected_time":1716000000000,"state":"active","ping":84},{"user_id":73,"name":"Drakon","steam_id":76561198078210822,"connected_time":5281000000000,"state":"active","ping":64},{"user_id":152,"name":"{·¥õ Ä_·¥Ñ·¥á Ä·¥ò} shullers","steam_id":76561198889997809,"connected_time":1023000000000,"state":"active","ping":59},{"user_id":100,"name":"garry","steam_id":76561199091007559,"connected_time":3893000000000,"state":"active","ping":55}]},{"server_id":112,"name":"Uncletopia | Los Angeles | 2 | All Maps","name_short":"lax-2","host":"lax-1.us.uncletopia.com","port":27025,"enabled":true,"region":"us-west","cc":"us","latitude":33.94279,"longitude":-118.41004,"reserved":0,"last_update":"0001-01-01T00:00:00Z","name_a2s":"Uncletopia | Los Angeles | 2 | All Maps","protocol":17,"map":"pl_barnblitz","folder":"tf","game":"Team Fortress","app_id":440,"player_count":0,"max_players":24,"Bots":0,"server_type":"Dedicated","server_os":"Linux","password":true,"vac":true,"version":"7757534","steam_id":85568392924469992,"keywords":["nocrits","nodmgspread","payload","uncletopia"],"game_id":440,"stv_port":27026,"stv_name":"Uncletopia | Los Angeles | 2 | All Maps | STV","players":null},{"server_id":324,"name":"Uncletopia | Los Angeles | 3 | All Maps","name_short":"lax-3","host":"lax-1.us.uncletopia.com","port":27035,"enabled":true,"region":"us-west","cc":"us","latitude":33.94279,"longitude":-118.41004,"reserved":0,"last_update":"0001-01-01T00:00:00Z","name_a2s":"Uncletopia | Los Angeles | 3 | All Maps","protocol":17,"map":"pl_frontier_final","folder":"tf","game":"Team Fortress","app_id":440,"player_count":22,"max_players":24,"Bots":0,"server_type":"Dedicated","server_os":"Linux","password":true,"vac":true,"version":"7757534","steam_id":85568392924510198,"keywords":["nocrits","nodmgspread","payload","uncletopia"],"game_id":440,"stv_port":27036,"stv_name":"Uncletopia | Los Angeles | 3 | All Maps | STV","players":[{"user_id":333,"name":"DerpFamous","steam_id":76561198046167888,"connected_time":972000000000,"state":"active","ping":98},{"user_id":347,"name":"JG Wentworth","steam_id":76561198025012508,"connected_time":393000000000,"state":"active","ping":42},{"user_id":326,"name":"Turtle","steam_id":76561198262110064,"connected_time":1858000000000,"state":"active","ping":99},{"user_id":334,"name":"Mall","steam_id":76561198436085386,"connected_time":956000000000,"state":"active","ping":89},{"user_id":344,"name":"me","steam_id":76561199468285784,"connected_time":474000000000,"state":"active","ping":45},{"user_id":346,"name":"clorb","steam_id":76561198316479347,"connected_time":459000000000,"state":"active","ping":59},{"user_id":227,"name":"ohton","steam_id":76561199033233448,"connected_time":8818000000000,"state":"active","ping":52},{"user_id":349,"name":"goldhed","steam_id":76561198051751133,"connected_time":105000000000,"state":"active","ping":89},{"user_id":350,"name":"Cinnifox","steam_id":76561198068773971,"connected_time":93000000000,"state":"active","ping":83},{"user_id":338,"name":"Tanner Jarring","steam_id":76561198172024365,"connected_time":917000000000,"state":"active","ping":111},{"user_id":277,"name":"bob1001","steam_id":76561198877685988,"connected_time":5309000000000,"state":"active","ping":76},{"user_id":285,"name":"c49aa4","steam_id":76561199099537250,"connected_time":4305000000000,"state":"active","ping":59},{"user_id":315,"name":"Mina's Ninas","steam_id":76561198046502179,"connected_time":2892000000000,"state":"active","ping":56},{"user_id":341,"name":"NWABA","steam_id":76561198073699764,"connected_time":853000000000,"state":"active","ping":53},{"user_id":351,"name":"OriOriOri (she/her)","steam_id":76561198302640481,"connected_time":93000000000,"state":"active","ping":119},{"user_id":325,"name":"AtsushiPocky ‚úø","steam_id":76561198073611549,"connected_time":2066000000000,"state":"active","ping":42},{"user_id":327,"name":"Monorchid","steam_id":76561199008858355,"connected_time":1827000000000,"state":"active","ping":69},{"user_id":295,"name":"zoitube","steam_id":76561198215813163,"connected_time":3896000000000,"state":"active","ping":56},{"user_id":353,"name":"AjProductions","steam_id":76561198217950125,"connected_time":58000000000,"state":"spawning","ping":90},{"user_id":319,"name":"game","steam_id":76561198334059206,"connected_time":2456000000000,"state":"active","ping":60},{"user_id":329,"name":"mepng","steam_id":76561199018758598,"connected_time":1765000000000,"state":"active","ping":125},{"user_id":343,"name":"saltyJeff","steam_id":76561198058563645,"connected_time":759000000000,"state":"active","ping":54}]},{"server_id":25,"name":"Uncletopia | Los Angeles | 4 | Stopwatch Beta","name_short":"lax-4","host":"lax-1.us.uncletopia.com","port":27045,"enabled":true,"region":"us-west","cc":"us","latitude":33.94279,"longitude":-118.41004,"reserved":0,"last_update":"0001-01-01T00:00:00Z","name_a2s":"Uncletopia | Los Angeles | 4 | Stopwatch Beta","protocol":17,"map":"pl_frontier_final","folder":"tf","game":"Team Fortress","app_id":440,"player_count":0,"max_players":24,"Bots":0,"server_type":"Dedicated","server_os":"Linux","password":true,"vac":true,"version":"7757534","steam_id":85568392924510199,"keywords":["nocrits","nodmgspread","payload","uncletopia"],"game_id":440,"stv_port":27046,"stv_name":"Uncletopia | Los Angeles | 4 | Stopwatch Beta | STV","players":null},{"server_id":11,"name":"Uncletopia | London | 1 | All Maps","name_short":"lon-1","host":"lon-1.uk.uncletopia.com","port":27015,"enabled":true,"region":"eu","cc":"gb","latitude":51.509865,"longitude":-0.118092,"reserved":0,"last_update":"0001-01-01T00:00:00Z","name_a2s":"Uncletopia | London | 1 | All Maps","protocol":17,"map":"koth_highpass","folder":"tf","game":"Team Fortress","app_id":440,"player_count":0,"max_players":24,"Bots":0,"server_type":"Dedicated","server_os":"Linux","password":true,"vac":true,"version":"7757534","steam_id":85568392924367362,"keywords":["cp","nocrits","nodmgspread","uncletopia"],"game_id":440,"stv_port":27016,"stv_name":"Uncletopia | London | 1 | All Maps | STV","players":null},{"server_id":114,"name":"Uncletopia | London | 2 | All Maps","name_short":"lon-2","host":"lon-1.uk.uncletopia.com","port":27025,"enabled":true,"region":"eu","cc":"gb","latitude":51.509865,"longitude":-0.118092,"reserved":0,"last_update":"0001-01-01T00:00:00Z","name_a2s":"Uncletopia | London | 2 | All Maps","protocol":17,"map":"pl_frontier_final","folder":"tf","game":"Team Fortress","app_id":440,"player_count":24,"max_players":24,"Bots":0,"server_type":"Dedicated","server_os":"Linux","password":true,"vac":true,"version":"7757534","steam_id":85568392924470941,"keywords":["nocrits","nodmgspread","payload","uncletopia"],"game_id":440,"stv_port":27026,"stv_name":"Uncletopia | London | 2 | All Maps | STV","players":[{"user_id":691,"name":"rez777ka","steam_id":76561198107605938,"connected_time":5059000000000,"state":"active","ping":91},{"user_id":730,"name":"DeKritteh","steam_id":76561198113945397,"connected_time":1576000000000,"state":"active","ping":63},{"user_id":707,"name":"Chilchuck","steam_id":76561198432445254,"connected_time":3266000000000,"state":"active","ping":90},{"user_id":737,"name":"S4mura!","steam_id":76561198374412262,"connected_time":1221000000000,"state":"active","ping":76},{"user_id":698,"name":"British Rage","steam_id":76561198009585209,"connected_time":4425000000000,"state":"active","ping":54},{"user_id":687,"name":"KittyKate ‚ù§","steam_id":76561198116340817,"connected_time":6022000000000,"state":"active","ping":62},{"user_id":740,"name":"Lucker","steam_id":76561198079469430,"connected_time":433000000000,"state":"active","ping":63},{"user_id":739,"name":"Backup","steam_id":76561197999557567,"connected_time":937000000000,"state":"active","ping":61},{"user_id":693,"name":"Kris","steam_id":76561198240638652,"connected_time":4653000000000,"state":"active","ping":44},{"user_id":725,"name":"Rave Robber","steam_id":76561199414716848,"connected_time":1658000000000,"state":"active","ping":73},{"user_id":727,"name":".pandemiC","steam_id":76561198015941460,"connected_time":1648000000000,"state":"active","ping":105},{"user_id":657,"name":"Penis Contortionist","steam_id":76561198073663784,"connected_time":6640000000000,"state":"active","ping":34},{"user_id":736,"name":"Johnny Cockroach","steam_id":76561198049648277,"connected_time":1350000000000,"state":"active","ping":103},{"user_id":721,"name":"stun","steam_id":76561198276681691,"connected_time":1973000000000,"state":"active","ping":45},{"user_id":742,"name":"Vezage","steam_id":76561198064916164,"connected_time":40000000000,"state":"active","ping":55},{"user_id":720,"name":"Amy2Cute","steam_id":76561198291015553,"connected_time":2579000000000,"state":"active","ping":57},{"user_id":717,"name":"Tsuruko","steam_id":76561198063618114,"connected_time":2997000000000,"state":"active","ping":76},{"user_id":607,"name":"BuzzBees ‚ù§","steam_id":76561198101502273,"connected_time":11643000000000,"state":"active","ping":45},{"user_id":728,"name":"Not Sussy Tanuki","steam_id":76561198137289375,"connected_time":1643000000000,"state":"active","ping":106},{"user_id":702,"name":"Infantile Pillock","steam_id":76561198283851362,"connected_time":3713000000000,"state":"active","ping":68},{"user_id":738,"name":"Lewylow","steam_id":76561198005425686,"connected_time":963000000000,"state":"active","ping":59},{"user_id":729,"name":"joe","steam_id":76561198026484403,"connected_time":1626000000000,"state":"active","ping":59},{"user_id":741,"name":"Earthlings","steam_id":76561197962847572,"connected_time":124000000000,"state":"active","ping":100},{"user_id":719,"name":"puck *18badies ^_^","steam_id":76561198121260981,"connected_time":2876000000000,"state":"active","ping":42}]},{"server_id":320,"name":"Uncletopia | London | 3 | All Maps","name_short":"lon-3","host":"lon-1.uk.uncletopia.com","port":27035,"enabled":true,"region":"eu","cc":"gb","latitude":51.509865,"longitude":-0.118092,"reserved":0,"last_update":"0001-01-01T00:00:00Z","name_a2s":"Uncletopia | London | 3 | All Maps","protocol":17,"map":"koth_cascade","folder":"tf","game":"Team Fortress","app_id":440,"player_count":0,"max_players":24,"Bots":0,"server_type":"Dedicated","server_os":"Linux","password":true,"vac":true,"version":"7757534","steam_id":85568392924510192,"keywords":["cp","nocrits","nodmgspread","uncletopia"],"game_id":440,"stv_port":27036,"stv_name":"Uncletopia | London | 3 | All Maps | STV","players":null},{"server_id":321,"name":"Uncletopia | London | 4 | All Maps","name_short":"lon-4","host":"lon-1.uk.uncletopia.com","port":27045,"enabled":true,"region":"eu","cc":"gb","latitude":51.509865,"longitude":-0.118092,"reserved":0,"last_update":"0001-01-01T00:00:00Z","name_a2s":"Uncletopia | London | 4 | All Maps","protocol":17,"map":"pl_badwater","folder":"tf","game":"Team Fortress","app_id":440,"player_count":0,"max_players":24,"Bots":0,"server_type":"Dedicated","server_os":"Linux","password":true,"vac":true,"version":"7757534","steam_id":85568392924510193,"keywords":["nocrits","nodmgspread","payload","uncletopia"],"game_id":440,"stv_port":27046,"stv_name":"Uncletopia | London | 4 | All Maps | STV","players":null},{"server_id":21,"name":"Uncletopia | London | 5 | All Maps","name_short":"lon-5","host":"lon-1.uk.uncletopia.com","port":27055,"enabled":true,"region":"eu","cc":"gb","latitude":51.509865,"longitude":-0.118092,"reserved":0,"last_update":"0001-01-01T00:00:00Z","name_a2s":"Uncletopia | London | 5 | All Maps","protocol":17,"map":"cp_mountainlab","folder":"tf","game":"Team Fortress","app_id":440,"player_count":0,"max_players":24,"Bots":0,"server_type":"Dedicated","server_os":"Linux","password":true,"vac":true,"version":"7757534","steam_id":85568392924742829,"keywords":["cp","nocrits","nodmgspread","uncletopia"],"game_id":440,"stv_port":27056,"stv_name":"Uncletopia | London | 5 | All Maps | STV","players":null},{"server_id":22,"name":"Uncletopia | London | 6 | All Maps","name_short":"lon-6","host":"lon-1.uk.uncletopia.com","port":27065,"enabled":true,"region":"eu","cc":"gb","latitude":51.509865,"longitude":-0.118092,"reserved":0,"last_update":"0001-01-01T00:00:00Z","name_a2s":"Uncletopia | London | 6 | All Maps","protocol":17,"map":"pl_pier","folder":"tf","game":"Team Fortress","app_id":440,"player_count":18,"max_players":24,"Bots":0,"server_type":"Dedicated","server_os":"Linux","password":true,"vac":true,"version":"7757534","steam_id":85568392924742830,"keywords":["nocrits","nodmgspread","payload","uncletopia"],"game_id":440,"stv_port":27066,"stv_name":"Uncletopia | London | 6 | All Maps | STV","players":[{"user_id":618,"name":"joecalmatt","steam_id":76561198172552015,"connected_time":871000000000,"state":"active","ping":45},{"user_id":609,"name":"AsuX","steam_id":76561197990333289,"connected_time":1871000000000,"state":"active","ping":60},{"user_id":638,"name":"Fart Sniffer","steam_id":76561198064513206,"connected_time":41000000000,"state":"active","ping":60},{"user_id":591,"name":"Bodhi","steam_id":76561198000606642,"connected_time":3546000000000,"state":"active","ping":56},{"user_id":634,"name":"Dreadnawght","steam_id":76561198000973506,"connected_time":259000000000,"state":"active","ping":57},{"user_id":599,"name":"WeArMature","steam_id":76561198046116420,"connected_time":2540000000000,"state":"active","ping":70},{"user_id":632,"name":"Toothless the Dragon","steam_id":76561198013678063,"connected_time":326000000000,"state":"active","ping":168},{"user_id":601,"name":"Shlongulator","steam_id":76561198149779201,"connected_time":2400000000000,"state":"active","ping":51},{"user_id":615,"name":"my drone died last week","steam_id":76561198834897089,"connected_time":992000000000,"state":"active","ping":71},{"user_id":620,"name":"Deathpunch212","steam_id":76561198019767288,"connected_time":687000000000,"state":"active","ping":64},{"user_id":621,"name":"Pako","steam_id":76561197961257668,"connected_time":667000000000,"state":"active","ping":74},{"user_id":610,"name":"Economic crisis","steam_id":76561198063562843,"connected_time":1830000000000,"state":"active","ping":60},{"user_id":622,"name":"Lt. Onyx","steam_id":76561199226950097,"connected_time":625000000000,"state":"active","ping":176},{"user_id":624,"name":"noire","steam_id":76561198426604784,"connected_time":496000000000,"state":"active","ping":42},{"user_id":499,"name":"DemonsSingLoSongs","steam_id":76561198372446616,"connected_time":10762000000000,"state":"active","ping":55},{"user_id":637,"name":"vaha","steam_id":76561198851860551,"connected_time":143000000000,"state":"active","ping":85},{"user_id":629,"name":"Pop Off Woke Leftist Femboy","steam_id":76561198983067523,"connected_time":382000000000,"state":"active","ping":56},{"user_id":635,"name":"‚ùÄsnorlax","steam_id":76561198051629288,"connected_time":240000000000,"state":"active","ping":59}]},{"server_id":40,"name":"Uncletopia | London | 7 | No Payload","name_short":"lon-7","host":"lon-1.uk.uncletopia.com","port":27075,"enabled":true,"region":"eu","cc":"gb","latitude":51.509865,"longitude":-0.118092,"reserved":0,"last_update":"0001-01-01T00:00:00Z","name_a2s":"Uncletopia | London | 7 | No Payload","protocol":17,"map":"koth_badlands","folder":"tf","game":"Team Fortress","app_id":440,"player_count":0,"max_players":24,"Bots":0,"server_type":"Dedicated","server_os":"Linux","password":true,"vac":true,"version":"7757534","steam_id":85568392924964314,"keywords":["cp","nocrits","nodmgspread","uncletopia"],"game_id":440,"stv_port":27076,"stv_name":"Uncletopia | London | 7 | No Payload | STV","players":null},{"server_id":41,"name":"Uncletopia | London | 8 | Community","name_short":"lon-8","host":"lon-1.uk.uncletopia.com","port":27085,"enabled":true,"region":"eu","cc":"gb","latitude":51.509865,"longitude":-0.118092,"reserved":0,"last_update":"0001-01-01T00:00:00Z","name_a2s":"Uncletopia | London | 8 | Community","protocol":17,"map":"workshop/koth_slaughter_rc1.ugc1712845210","folder":"tf","game":"Team Fortress","app_id":440,"player_count":0,"max_players":24,"Bots":0,"server_type":"Dedicated","server_os":"Linux","password":true,"vac":true,"version":"7757534","steam_id":85568392924964315,"keywords":["cp","nocrits","nodmgspread","uncletopia"],"game_id":440,"stv_port":27086,"stv_name":"Uncletopia | London | 8 | Community | STV","players":null},{"server_id":300,"name":"Uncletopia | Montr√©al | 1 | All Maps","name_short":"mtl-1","host":"mtl-1.ca.uncletopia.com","port":27015,"enabled":true,"region":"us-east","cc":"ca","latitude":45.50889,"longitude":-73.56167,"reserved":0,"last_update":"0001-01-01T00:00:00Z","name_a2s":"Uncletopia | Montr√©al | 1 | All Maps","protocol":17,"map":"pl_snowycoast","folder":"tf","game":"Team Fortress","app_id":440,"player_count":0,"max_players":24,"Bots":0,"server_type":"Dedicated","server_os":"Linux","password":true,"vac":true,"version":"7757534","steam_id":85568392924500087,"keywords":["nocrits","nodmgspread","payload","uncletopia"],"game_id":440,"stv_port":27016,"stv_name":"Uncletopia | Montr√©al | 1 | All Maps | STV","players":null},{"server_id":301,"name":"Uncletopia | Montr√©al | 2 | All Maps","name_short":"mtl-2","host":"mtl-1.ca.uncletopia.com","port":27025,"enabled":true,"region":"us-east","cc":"ca","latitude":45.50889,"longitude":-73.56167,"reserved":0,"last_update":"0001-01-01T00:00:00Z","name_a2s":"Uncletopia | Montr√©al | 2 | All Maps","protocol":17,"map":"pl_pier","folder":"tf","game":"Team Fortress","app_id":440,"player_count":24,"max_players":24,"Bots":0,"server_type":"Dedicated","server_os":"Linux","password":true,"vac":true,"version":"7757534","steam_id":85568392924500088,"keywords":["nocrits","nodmgspread","payload","uncletopia"],"game_id":440,"stv_port":27026,"stv_name":"Uncletopia | Montr√©al | 2 | All Maps | STV","players":[{"user_id":52,"name":"AtlantisSquirtle","steam_id":76561198245998502,"connected_time":454000000000,"state":"active","ping":166},{"user_id":13,"name":"Munchyjr","steam_id":76561198041498014,"connected_time":2677000000000,"state":"active","ping":52},{"user_id":14,"name":"mud drater","steam_id":76561198018680492,"connected_time":2674000000000,"state":"active","ping":59},{"user_id":24,"name":"SuperAngel","steam_id":76561198861482461,"connected_time":1551000000000,"state":"active","ping":71},{"user_id":36,"name":"Ipad Kid with Cheetos","steam_id":76561199187884924,"connected_time":826000000000,"state":"active","ping":59},{"user_id":15,"name":"CheddarCake","steam_id":76561198061993725,"connected_time":2671000000000,"state":"active","ping":60},{"user_id":30,"name":"powershovel","steam_id":76561198095268524,"connected_time":1070000000000,"state":"active","ping":77},{"user_id":26,"name":"gilligan374","steam_id":76561199073519836,"connected_time":1524000000000,"state":"active","ping":85},{"user_id":18,"name":"Yams","steam_id":76561198068084541,"connected_time":2466000000000,"state":"active","ping":85},{"user_id":27,"name":"Induceddata","steam_id":76561198868302455,"connected_time":1398000000000,"state":"active","ping":62},{"user_id":28,"name":"BlueRed27","steam_id":76561198199742546,"connected_time":1394000000000,"state":"active","ping":69},{"user_id":34,"name":"i have music playing rn","steam_id":76561198367019006,"connected_time":863000000000,"state":"active","ping":64},{"user_id":47,"name":"young sheldon","steam_id":76561198380018244,"connected_time":556000000000,"state":"active","ping":89},{"user_id":45,"name":"Spy","steam_id":76561199095040077,"connected_time":563000000000,"state":"active","ping":74},{"user_id":38,"name":"embattledturtle","steam_id":76561199000063864,"connected_time":746000000000,"state":"active","ping":85},{"user_id":35,"name":"t.tv/FamilyGuyFunnyMoments277","steam_id":76561198416047580,"connected_time":862000000000,"state":"active","ping":70},{"user_id":37,"name":"skelly jelly","steam_id":76561198059623564,"connected_time":818000000000,"state":"active","ping":69},{"user_id":46,"name":"pepsimanfan24","steam_id":76561198026523931,"connected_time":560000000000,"state":"active","ping":92},{"user_id":40,"name":"Razbhuryyup","steam_id":76561198377275560,"connected_time":702000000000,"state":"active","ping":57},{"user_id":54,"name":"nhbiker","steam_id":76561198081277675,"connected_time":79000000000,"state":"active","ping":70},{"user_id":42,"name":"Lime Zoo","steam_id":76561198303006492,"connected_time":671000000000,"state":"active","ping":46},{"user_id":48,"name":"Action Bastard","steam_id":76561198169113138,"connected_time":551000000000,"state":"active","ping":109},{"user_id":53,"name":"Gryppdongus","steam_id":76561198029758531,"connected_time":115000000000,"state":"active","ping":100},{"user_id":51,"name":"Divinitas","steam_id":76561199079034911,"connected_time":505000000000,"state":"active","ping":66}]},{"server_id":302,"name":"Uncletopia | Montr√©al | 3 | All Maps","name_short":"mtl-3","host":"mtl-1.ca.uncletopia.com","port":27035,"enabled":true,"region":"us-east","cc":"ca","latitude":45.50889,"longitude":-73.56167,"reserved":0,"last_update":"0001-01-01T00:00:00Z","name_a2s":"Uncletopia | Montr√©al | 3 | All Maps","protocol":17,"map":"koth_cascade","folder":"tf","game":"Team Fortress","app_id":440,"player_count":0,"max_players":24,"Bots":0,"server_type":"Dedicated","server_os":"Linux","password":true,"vac":true,"version":"7757534","steam_id":85568392924500089,"keywords":["cp","nocrits","nodmgspread","uncletopia"],"game_id":440,"stv_port":27036,"stv_name":"Uncletopia | Montr√©al | 3 | All Maps | STV","players":null},{"server_id":303,"name":"Uncletopia | Montr√©al | 4 | No Payload","name_short":"mtl-4","host":"mtl-1.ca.uncletopia.com","port":27045,"enabled":true,"region":"us-east","cc":"ca","latitude":45.50889,"longitude":-73.56167,"reserved":0,"last_update":"0001-01-01T00:00:00Z","name_a2s":"Uncletopia | Montr√©al | 4 | No Payload","protocol":17,"map":"pl_borneo","folder":"tf","game":"Team Fortress","app_id":440,"player_count":0,"max_players":24,"Bots":0,"server_type":"Dedicated","server_os":"Linux","password":true,"vac":true,"version":"7757534","steam_id":85568392924500090,"keywords":["nocrits","nodmgspread","payload","uncletopia"],"game_id":440,"stv_port":27046,"stv_name":"Uncletopia | Montr√©al | 4 | No Payload | STV","players":null},{"server_id":13,"name":"Uncletopia | New York City | 1 | All Maps","name_short":"nyc-1","host":"nyc-1.us.uncletopia.com","port":27015,"enabled":true,"region":"us-east","cc":"us","latitude":40.73061,"longitude":-73.93524,"reserved":0,"last_update":"0001-01-01T00:00:00Z","name_a2s":"Uncletopia | New York City | 1 | All Maps","protocol":17,"map":"pl_frontier_final","folder":"tf","game":"Team Fortress","app_id":440,"player_count":24,"max_players":24,"Bots":0,"server_type":"Dedicated","server_os":"Linux","password":true,"vac":true,"version":"7757534","steam_id":85568392924469993,"keywords":["nocrits","nodmgspread","payload","uncletopia"],"game_id":440,"stv_port":27016,"stv_name":"Uncletopia | New York City | 1 | All Maps | STV","players":[{"user_id":597,"name":"ndvr","steam_id":76561199379200102,"connected_time":515000000000,"state":"active","ping":53},{"user_id":577,"name":"Ettin","steam_id":76561198149851283,"connected_time":2282000000000,"state":"active","ping":67},{"user_id":579,"name":"„Äåtiananmen square tank man„Äç","steam_id":76561198085275982,"connected_time":1399000000000,"state":"active","ping":61},{"user_id":574,"name":"Locked","steam_id":76561198296069821,"connected_time":2840000000000,"state":"active","ping":55},{"user_id":548,"name":"Subway Fan","steam_id":76561198336372790,"connected_time":4977000000000,"state":"active","ping":43},{"user_id":552,"name":"REGICIDE","steam_id":76561198025377842,"connected_time":4098000000000,"state":"active","ping":125},{"user_id":580,"name":"Braamklauw","steam_id":76561198283287697,"connected_time":903000000000,"state":"active","ping":149},{"user_id":591,"name":"[OC2TM] CF-TF2","steam_id":76561198145893044,"connected_time":610000000000,"state":"active","ping":68},{"user_id":598,"name":"Your Local Jester","steam_id":76561199120223717,"connected_time":510000000000,"state":"active","ping":62},{"user_id":608,"name":"Pxls_","steam_id":76561198151150175,"connected_time":118000000000,"state":"active","ping":69},{"user_id":534,"name":"ArcanianArcher","steam_id":76561198088445076,"connected_time":5839000000000,"state":"active","ping":83},{"user_id":536,"name":"xXBigWingmanFanXx","steam_id":76561198067904392,"connected_time":5554000000000,"state":"active","ping":78},{"user_id":599,"name":"Concolor","steam_id":76561198027734150,"connected_time":459000000000,"state":"active","ping":89},{"user_id":604,"name":"Samsiel","steam_id":76561198094134951,"connected_time":430000000000,"state":"active","ping":94},{"user_id":569,"name":"Punkin","steam_id":76561198334301755,"connected_time":3144000000000,"state":"active","ping":55},{"user_id":606,"name":"new years hooters","steam_id":76561198068022595,"connected_time":379000000000,"state":"active","ping":47},{"user_id":609,"name":"Sir Quacksalot","steam_id":76561198048942777,"connected_time":113000000000,"state":"active","ping":95},{"user_id":607,"name":"Amoxacin","steam_id":76561198171121818,"connected_time":195000000000,"state":"active","ping":76},{"user_id":588,"name":"Shrub","steam_id":76561198268412944,"connected_time":665000000000,"state":"active","ping":60},{"user_id":547,"name":"StraySheep","steam_id":76561198256003811,"connected_time":5158000000000,"state":"active","ping":57},{"user_id":563,"name":"jnv1013","steam_id":76561198965549228,"connected_time":3526000000000,"state":"active","ping":57},{"user_id":602,"name":"Hydnhof","steam_id":76561198120989805,"connected_time":442000000000,"state":"active","ping":141},{"user_id":515,"name":"Wicket","steam_id":76561198044023036,"connected_time":7186000000000,"state":"active","ping":68},{"user_id":567,"name":"Glitchy stick","steam_id":76561199013429386,"connected_time":3316000000000,"state":"active","ping":60}]},{"server_id":14,"name":"Uncletopia | New York City | 2 | All Maps","name_short":"nyc-2","host":"nyc-1.us.uncletopia.com","port":27025,"enabled":true,"region":"us-east","cc":"us","latitude":40.73061,"longitude":-73.93524,"reserved":0,"last_update":"0001-01-01T00:00:00Z","name_a2s":"Uncletopia | New York City | 2 | All Maps","protocol":17,"map":"cp_dustbowl","folder":"tf","game":"Team Fortress","app_id":440,"player_count":24,"max_players":24,"Bots":0,"server_type":"Dedicated","server_os":"Linux","password":true,"vac":true,"version":"7757534","steam_id":85568392924469994,"keywords":["cp","nocrits","nodmgspread","uncletopia"],"game_id":440,"stv_port":27026,"stv_name":"Uncletopia | New York City | 2 | All Maps | STV","players":[{"user_id":419,"name":"Uncle Majic the Hip Hop Magicia","steam_id":76561198107924303,"connected_time":3112000000000,"state":"active","ping":60},{"user_id":429,"name":"tom fool","steam_id":76561198311704368,"connected_time":1953000000000,"state":"active","ping":65},{"user_id":403,"name":"al","steam_id":76561198117181511,"connected_time":4024000000000,"state":"active","ping":70},{"user_id":432,"name":"3fu23141wv6fn46y","steam_id":76561199383789041,"connected_time":1933000000000,"state":"active","ping":196},{"user_id":497,"name":"space is nice","steam_id":76561198080653023,"connected_time":757000000000,"state":"active","ping":71},{"user_id":431,"name":"ToughGuy311","steam_id":76561198131458027,"connected_time":1934000000000,"state":"active","ping":91},{"user_id":428,"name":"Chewbacca","steam_id":76561198041927925,"connected_time":1956000000000,"state":"active","ping":53},{"user_id":434,"name":"Dylanxp300","steam_id":76561198271974937,"connected_time":1892000000000,"state":"active","ping":68},{"user_id":437,"name":"AveraGeo","steam_id":76561198216949631,"connected_time":1869000000000,"state":"active","ping":78},{"user_id":425,"name":"Ebee","steam_id":76561198389831507,"connected_time":2598000000000,"state":"active","ping":86},{"user_id":512,"name":"Ash40000","steam_id":76561198092841526,"connected_time":342000000000,"state":"active","ping":86},{"user_id":456,"name":"vyx","steam_id":76561198037205391,"connected_time":1632000000000,"state":"active","ping":65},{"user_id":470,"name":"VendoTendo","steam_id":76561198135058035,"connected_time":1403000000000,"state":"active","ping":92},{"user_id":459,"name":"StrangeSaus","steam_id":76561198147790758,"connected_time":1580000000000,"state":"active","ping":63},{"user_id":453,"name":"TacticalGlizzy","steam_id":76561198144786171,"connected_time":1659000000000,"state":"active","ping":52},{"user_id":457,"name":"Huey","steam_id":76561198972816386,"connected_time":1617000000000,"state":"active","ping":81},{"user_id":511,"name":"evegioyidechadab","steam_id":76561198075991626,"connected_time":362000000000,"state":"active","ping":154},{"user_id":374,"name":"Riske","steam_id":76561198115840568,"connected_time":6615000000000,"state":"active","ping":69},{"user_id":471,"name":"layabout","steam_id":76561198130892117,"connected_time":1401000000000,"state":"active","ping":55},{"user_id":460,"name":"Super Noob","steam_id":76561199179611350,"connected_time":1564000000000,"state":"active","ping":85},{"user_id":475,"name":"HarryjusttHarry","steam_id":76561198982810452,"connected_time":1325000000000,"state":"active","ping":81},{"user_id":449,"name":"lofile :)","steam_id":76561198083798918,"connected_time":1750000000000,"state":"active","ping":48},{"user_id":286,"name":"localization files","steam_id":76561197997139225,"connected_time":13746000000000,"state":"active","ping":50},{"user_id":424,"name":"Russenluster","steam_id":76561198118016220,"connected_time":2757000000000,"state":"active","ping":142}]},{"server_id":15,"name":"Uncletopia | New York City | 3 | Stopwatch Beta","name_short":"nyc-3","host":"nyc-1.us.uncletopia.com","port":27035,"enabled":true,"region":"us-east","cc":"us","latitude":40.73061,"longitude":-73.93524,"reserved":0,"last_update":"0001-01-01T00:00:00Z","name_a2s":"Uncletopia | New York City | 3 | Stopwatch Beta","protocol":17,"map":"pl_swiftwater_final1","folder":"tf","game":"Team Fortress","app_id":440,"player_count":0,"max_players":24,"Bots":0,"server_type":"Dedicated","server_os":"Linux","password":true,"vac":true,"version":"7757534","steam_id":85568392924742820,"keywords":["nocrits","nodmgspread","payload","uncletopia"],"game_id":440,"stv_port":27036,"stv_name":"Uncletopia | New York City | 3 | Stopwatch Beta | STV","players":null},{"server_id":16,"name":"Uncletopia | New York City | 4 | Community","name_short":"nyc-4","host":"nyc-1.us.uncletopia.com","port":27045,"enabled":true,"region":"us-east","cc":"us","latitude":40.73061,"longitude":-73.93524,"reserved":0,"last_update":"0001-01-01T00:00:00Z","name_a2s":"Uncletopia | New York City | 4 | Community","protocol":17,"map":"workshop/koth_product_final.ugc454272353","folder":"tf","game":"Team Fortress","app_id":440,"player_count":24,"max_players":24,"Bots":0,"server_type":"Dedicated","server_os":"Linux","password":true,"vac":true,"version":"7757534","steam_id":85568392924742821,"keywords":["cp","nocrits","nodmgspread","uncletopia"],"game_id":440,"stv_port":27046,"stv_name":"Uncletopia | New York City | 4 | Community | STV","players":[{"user_id":166,"name":"knightsarecool","steam_id":76561198099475644,"connected_time":1961000000000,"state":"active","ping":70},{"user_id":181,"name":"–ì—É–Ω–Ω–∞—Ä","steam_id":76561198409761557,"connected_time":1353000000000,"state":"active","ping":87},{"user_id":137,"name":"Penis but it rhymes with Venice","steam_id":76561197986420836,"connected_time":3437000000000,"state":"active","ping":54},{"user_id":185,"name":"Fawful's Minion","steam_id":76561198090120779,"connected_time":879000000000,"state":"active","ping":142},{"user_id":162,"name":"Grouch","steam_id":76561198080790944,"connected_time":2030000000000,"state":"active","ping":58},{"user_id":172,"name":"SGT OwO","steam_id":76561198038480911,"connected_time":1722000000000,"state":"active","ping":91},{"user_id":132,"name":"party pooper","steam_id":76561198068760559,"connected_time":3839000000000,"state":"active","ping":44},{"user_id":141,"name":"jalapeno handjob","steam_id":76561198123298824,"connected_time":3406000000000,"state":"active","ping":89},{"user_id":173,"name":"Shmebulock","steam_id":76561198046941925,"connected_time":1693000000000,"state":"active","ping":74},{"user_id":174,"name":"Jolt","steam_id":76561198168669087,"connected_time":1642000000000,"state":"active","ping":46},{"user_id":171,"name":"Alex","steam_id":76561198116937513,"connected_time":1759000000000,"state":"active","ping":80},{"user_id":167,"name":"Pacifist Œµ","steam_id":76561198094307112,"connected_time":1951000000000,"state":"active","ping":81},{"user_id":175,"name":"JP","steam_id":76561198369992696,"connected_time":1588000000000,"state":"active","ping":71},{"user_id":182,"name":"Communist Killing Candy Cactus\ufffd","steam_id":76561198074980635,"connected_time":1343000000000,"state":"active","ping":132},{"user_id":188,"name":"Ed","steam_id":76561198140831854,"connected_time":120000000000,"state":"active","ping":68},{"user_id":160,"name":"Alcapwned","steam_id":76561198232958968,"connected_time":2198000000000,"state":"active","ping":62},{"user_id":180,"name":"Lifial","steam_id":76561198271885819,"connected_time":1388000000000,"state":"active","ping":88},{"user_id":189,"name":"LiamQuantum","steam_id":76561198801785638,"connected_time":87000000000,"state":"active","ping":54},{"user_id":184,"name":"Gary","steam_id":76561198147451346,"connected_time":930000000000,"state":"active","ping":81},{"user_id":124,"name":"'LaxAttack","steam_id":76561198044129346,"connected_time":4261000000000,"state":"active","ping":62},{"user_id":159,"name":"MontellWilliams","steam_id":76561198172143015,"connected_time":2367000000000,"state":"active","ping":52},{"user_id":186,"name":"Nico","steam_id":76561198125701869,"connected_time":876000000000,"state":"active","ping":63},{"user_id":183,"name":"A Civic driver","steam_id":76561198041090364,"connected_time":1310000000000,"state":"active","ping":146},{"user_id":187,"name":"monkey","steam_id":76561198099481645,"connected_time":697000000000,"state":"active","ping":41}]},{"server_id":142,"name":"Uncletopia | S√£o Paulo | 1 | All Maps","name_short":"sao-1","host":"sao-1.br.uncletopia.com","port":27015,"enabled":true,"region":"sa","cc":"br","latitude":-23.533773,"longitude":-46.62529,"reserved":0,"last_update":"0001-01-01T00:00:00Z","name_a2s":"Uncletopia | S√£o Paulo | 1 | All Maps","protocol":17,"map":"koth_viaduct","folder":"tf","game":"Team Fortress","app_id":440,"player_count":0,"max_players":24,"Bots":0,"server_type":"Dedicated","server_os":"Linux","password":true,"vac":true,"version":"7757534","steam_id":85568392924469996,"keywords":["cp","nocrits","nodmgspread","uncletopia"],"game_id":440,"stv_port":27016,"stv_name":"Uncletopia | S√£o Paulo | 1 | All Maps | STV","players":null},{"server_id":143,"name":"Uncletopia | S√£o Paulo | 2 | All Maps","name_short":"sao-2","host":"sao-2.br.uncletopia.com","port":27015,"enabled":true,"region":"sa","cc":"br","latitude":-23.533773,"longitude":-46.62529,"reserved":0,"last_update":"0001-01-01T00:00:00Z","name_a2s":"Uncletopia | S√£o Paulo | 2 | All Maps","protocol":17,"map":"cp_dustbowl","folder":"tf","game":"Team Fortress","app_id":440,"player_count":5,"max_players":24,"Bots":0,"server_type":"Dedicated","server_os":"Linux","password":true,"vac":true,"version":"7757534","steam_id":85568392924485349,"keywords":["cp","nocrits","nodmgspread","uncletopia"],"game_id":440,"stv_port":27016,"stv_name":"Uncletopia | S√£o Paulo | 2 | All Maps | STV","players":[{"user_id":85,"name":"Stoopid","steam_id":76561198126485401,"connected_time":822000000000,"state":"active","ping":58},{"user_id":86,"name":"Copa Pistao","steam_id":76561199240099576,"connected_time":803000000000,"state":"active","ping":32},{"user_id":87,"name":"matteus_","steam_id":76561198119027709,"connected_time":794000000000,"state":"active","ping":49},{"user_id":88,"name":"Ace","steam_id":76561198112033120,"connected_time":739000000000,"state":"active","ping":58},{"user_id":89,"name":"zix","steam_id":76561198996001181,"connected_time":492000000000,"state":"active","ping":92}]},{"server_id":7,"name":"Uncletopia | Seattle | 1 | All Maps","name_short":"sea-1","host":"sea-1.us.uncletopia.com","port":27015,"enabled":true,"region":"us-west","cc":"us","latitude":47.608013,"longitude":-122.33517,"reserved":0,"last_update":"0001-01-01T00:00:00Z","name_a2s":"Uncletopia | Seattle | 1 | All Maps","protocol":17,"map":"cp_dustbowl","folder":"tf","game":"Team Fortress","app_id":440,"player_count":24,"max_players":24,"Bots":0,"server_type":"Dedicated","server_os":"Linux","password":true,"vac":true,"version":"7757534","steam_id":85568392924469997,"keywords":["cp","nocrits","nodmgspread","uncletopia"],"game_id":440,"stv_port":27016,"stv_name":"Uncletopia | Seattle | 1 | All Maps | STV","players":[{"user_id":565,"name":"CDMacK","steam_id":76561198043909070,"connected_time":2128000000000,"state":"active","ping":64},{"user_id":497,"name":"whimmu","steam_id":76561198370839794,"connected_time":9368000000000,"state":"active","ping":102},{"user_id":534,"name":"NEBULA","steam_id":76561198086878595,"connected_time":5063000000000,"state":"active","ping":74},{"user_id":564,"name":"THIRDPIERCE","steam_id":76561198405366314,"connected_time":2169000000000,"state":"active","ping":121},{"user_id":535,"name":"egyptiangodcard","steam_id":76561198855935442,"connected_time":4917000000000,"state":"active","ping":60},{"user_id":571,"name":"5392vin","steam_id":76561198880493511,"connected_time":1143000000000,"state":"active","ping":60},{"user_id":536,"name":"amoebal;","steam_id":76561198970261784,"connected_time":4677000000000,"state":"active","ping":50},{"user_id":553,"name":"North","steam_id":76561199173696836,"connected_time":2944000000000,"state":"active","ping":75},{"user_id":561,"name":"Mike's Pimento Cheese Sandwich","steam_id":76561198978499219,"connected_time":2220000000000,"state":"active","ping":73},{"user_id":574,"name":"Elbis Premsly","steam_id":76561198067717795,"connected_time":26000000000,"state":"active","ping":74},{"user_id":549,"name":"Sam","steam_id":76561198146472900,"connected_time":3358000000000,"state":"active","ping":69},{"user_id":569,"name":"Glenn","steam_id":76561198059313367,"connected_time":1928000000000,"state":"active","ping":40},{"user_id":570,"name":"viciousbeatmaker","steam_id":76561198086876652,"connected_time":1200000000000,"state":"active","ping":86},{"user_id":572,"name":"Fh","steam_id":76561198000903511,"connected_time":112000000000,"state":"active","ping":60},{"user_id":573,"name":"[TrC] Dackstrus","steam_id":76561197973518509,"connected_time":80000000000,"state":"active","ping":54},{"user_id":567,"name":"aon135","steam_id":76561197966931637,"connected_time":2106000000000,"state":"active","ping":63},{"user_id":510,"name":"shiadyne","steam_id":76561198271939793,"connected_time":8164000000000,"state":"active","ping":45},{"user_id":516,"name":"IzzyHoP","steam_id":76561197995927883,"connected_time":6965000000000,"state":"active","ping":57},{"user_id":373,"name":"THE NUT","steam_id":76561198067813626,"connected_time":17949000000000,"state":"active","ping":49},{"user_id":492,"name":"rat gets the cheese","steam_id":76561198031234032,"connected_time":9685000000000,"state":"active","ping":103},{"user_id":545,"name":"Hassium","steam_id":76561198162541373,"connected_time":4080000000000,"state":"active","ping":55},{"user_id":562,"name":"mr. nine","steam_id":76561198097599414,"connected_time":2217000000000,"state":"active","ping":86},{"user_id":568,"name":"chunkysquare","steam_id":76561199076468383,"connected_time":2045000000000,"state":"active","ping":69},{"user_id":559,"name":"Mignyanne :3","steam_id":76561198048754056,"connected_time":2293000000000,"state":"active","ping":70}]},{"server_id":119,"name":"Uncletopia | Seattle | 2 | All Maps","name_short":"sea-2","host":"sea-1.us.uncletopia.com","port":27025,"enabled":true,"region":"us-west","cc":"us","latitude":47.608013,"longitude":-122.33517,"reserved":0,"last_update":"0001-01-01T00:00:00Z","name_a2s":"Uncletopia | Seattle | 2 | All Maps","protocol":17,"map":"pl_swiftwater_final1","folder":"tf","game":"Team Fortress","app_id":440,"player_count":24,"max_players":24,"Bots":0,"server_type":"Dedicated","server_os":"Linux","password":true,"vac":true,"version":"7757534","steam_id":85568392924469998,"keywords":["nocrits","nodmgspread","payload","uncletopia"],"game_id":440,"stv_port":27026,"stv_name":"Uncletopia | Seattle | 2 | All Maps | STV","players":[{"user_id":359,"name":":)gaming while retarded:)","steam_id":76561198166982558,"connected_time":645000000000,"state":"active","ping":89},{"user_id":344,"name":"Mysteryred12","steam_id":76561199206772814,"connected_time":1327000000000,"state":"active","ping":50},{"user_id":316,"name":"Goat","steam_id":76561198130683707,"connected_time":3356000000000,"state":"active","ping":75},{"user_id":349,"name":"Tom","steam_id":76561198070630154,"connected_time":750000000000,"state":"active","ping":84},{"user_id":358,"name":"jawnymac","steam_id":76561198179529599,"connected_time":666000000000,"state":"active","ping":74},{"user_id":338,"name":"Geight","steam_id":76561197991645292,"connected_time":1446000000000,"state":"active","ping":60},{"user_id":355,"name":"linux user sucking a doll leg","steam_id":76561198170276601,"connected_time":686000000000,"state":"active","ping":77},{"user_id":334,"name":"[DATS‚û°] Sugar Meowth","steam_id":76561197995251793,"connected_time":2545000000000,"state":"active","ping":44},{"user_id":350,"name":"Box","steam_id":76561198046638837,"connected_time":745000000000,"state":"active","ping":61},{"user_id":302,"name":"DK360","steam_id":76561198796783094,"connected_time":3943000000000,"state":"active","ping":64},{"user_id":337,"name":"soup","steam_id":76561198043209046,"connected_time":1727000000000,"state":"active","ping":80},{"user_id":351,"name":"peee pee man","steam_id":76561198044979205,"connected_time":728000000000,"state":"active","ping":133},{"user_id":363,"name":"Tallboi","steam_id":76561198274286470,"connected_time":144000000000,"state":"active","ping":126},{"user_id":360,"name":"Stranger Danger","steam_id":76561198115242460,"connected_time":258000000000,"state":"active","ping":55},{"user_id":345,"name":"Merach","steam_id":76561197994544587,"connected_time":1311000000000,"state":"active","ping":48},{"user_id":330,"name":"[GUT] RiDiK¬Æ","steam_id":76561197969756446,"connected_time":2652000000000,"state":"active","ping":87},{"user_id":362,"name":"MCman","steam_id":76561198412110305,"connected_time":182000000000,"state":"active","ping":77},{"user_id":347,"name":"Algibruh","steam_id":76561199221599415,"connected_time":1253000000000,"state":"active","ping":57},{"user_id":333,"name":"Chepu","steam_id":76561198821873384,"connected_time":2586000000000,"state":"active","ping":48},{"user_id":364,"name":"PhatGomeB0ss","steam_id":76561199039825099,"connected_time":127000000000,"state":"active","ping":54},{"user_id":320,"name":"Court Wizard, Sir Dr. Clydesdal","steam_id":76561198149267697,"connected_time":3193000000000,"state":"active","ping":70},{"user_id":297,"name":"Miner2495","steam_id":76561198445904523,"connected_time":4381000000000,"state":"active","ping":116},{"user_id":354,"name":"Gocel","steam_id":76561198071467515,"connected_time":723000000000,"state":"active","ping":130},{"user_id":340,"name":"Minerkid2004","steam_id":76561198044262827,"connected_time":1443000000000,"state":"active","ping":71}]},{"server_id":406,"name":"Uncletopia | Seattle | 3 | Stopwatch Beta","name_short":"sea-3","host":"sea-1.us.uncletopia.com","port":27035,"enabled":true,"region":"us-west","cc":"us","latitude":47.608013,"longitude":-122.33517,"reserved":0,"last_update":"0001-01-01T00:00:00Z","name_a2s":"Uncletopia | Seattle | 3 | Stopwatch Beta","protocol":17,"map":"pl_barnblitz","folder":"tf","game":"Team Fortress","app_id":440,"player_count":0,"max_players":24,"Bots":0,"server_type":"Dedicated","server_os":"Linux","password":true,"vac":true,"version":"7757534","steam_id":85568392924515217,"keywords":["nocrits","nodmgspread","payload","uncletopia"],"game_id":440,"stv_port":27036,"stv_name":"Uncletopia | Seattle | 3 | Stopwatch Beta | STV","players":null},{"server_id":17,"name":"Uncletopia | San Francisco | 1 | All Maps","name_short":"sfo-1","host":"sfo-1.us.uncletopia.com","port":27015,"enabled":true,"region":"us-west","cc":"us","latitude":37.77397,"longitude":-122.4313,"reserved":0,"last_update":"0001-01-01T00:00:00Z","name_a2s":"Uncletopia | San Francisco | 1 | All Maps","protocol":17,"map":"pl_borneo","folder":"tf","game":"Team Fortress","app_id":440,"player_count":23,"max_players":24,"Bots":0,"server_type":"Dedicated","server_os":"Linux","password":true,"vac":true,"version":"7757534","steam_id":85568392924469999,"keywords":["nocrits","nodmgspread","payload","uncletopia"],"game_id":440,"stv_port":27016,"stv_name":"Uncletopia | San Francisco | 1 | All Maps | STV","players":[{"user_id":494,"name":"StarGuyVI","steam_id":76561199366304746,"connected_time":391000000000,"state":"active","ping":114},{"user_id":361,"name":"Antzen","steam_id":76561198041343470,"connected_time":9266000000000,"state":"active","ping":50},{"user_id":468,"name":"Furious George","steam_id":76561198405111646,"connected_time":1886000000000,"state":"active","ping":43},{"user_id":450,"name":"The Sydney Sleeper Itself","steam_id":76561198180251763,"connected_time":3273000000000,"state":"active","ping":105},{"user_id":469,"name":"Navigatxr","steam_id":76561199185153789,"connected_time":1884000000000,"state":"active","ping":38},{"user_id":488,"name":"Human Person","steam_id":76561198283855440,"connected_time":1012000000000,"state":"active","ping":173},{"user_id":492,"name":"Sir_Cheddar","steam_id":76561198132354554,"connected_time":518000000000,"state":"active","ping":77},{"user_id":458,"name":"Tofu","steam_id":76561198083778611,"connected_time":2750000000000,"state":"active","ping":54},{"user_id":496,"name":"nathanwhite2903","steam_id":76561199469715546,"connected_time":369000000000,"state":"active","ping":143},{"user_id":495,"name":"Peepster","steam_id":76561198297854733,"connected_time":386000000000,"state":"active","ping":129},{"user_id":461,"name":"Greenland","steam_id":76561198860933958,"connected_time":2727000000000,"state":"active","ping":90},{"user_id":502,"name":"Gerald","steam_id":76561199084426801,"connected_time":190000000000,"state":"active","ping":82},{"user_id":438,"name":"Blankrq","steam_id":76561198261030763,"connected_time":3859000000000,"state":"active","ping":73},{"user_id":506,"name":"Thermo","steam_id":76561198978967412,"connected_time":40000000000,"state":"active","ping":57},{"user_id":475,"name":"Sad Sapling","steam_id":76561198075612150,"connected_time":1706000000000,"state":"active","ping":76},{"user_id":499,"name":"l_teri","steam_id":76561198853507579,"connected_time":240000000000,"state":"active","ping":76},{"user_id":485,"name":"Gordon Ramsay.","steam_id":76561199167165627,"connected_time":1076000000000,"state":"active","ping":77},{"user_id":501,"name":"Ignignokt","steam_id":76561198162207470,"connected_time":220000000000,"state":"active","ping":71},{"user_id":504,"name":"Danzuniverse","steam_id":76561198179817943,"connected_time":120000000000,"state":"active","ping":73},{"user_id":478,"name":"lolzjay124(B4SS SLU7)","steam_id":76561198141885851,"connected_time":1470000000000,"state":"active","ping":113},{"user_id":483,"name":"bergly","steam_id":76561198811650078,"connected_time":1217000000000,"state":"active","ping":124},{"user_id":484,"name":"ed","steam_id":76561198080475712,"connected_time":1214000000000,"state":"active","ping":48},{"user_id":491,"name":"BobBallin","steam_id":76561198355299724,"connected_time":575000000000,"state":"active","ping":45}]},{"server_id":18,"name":"Uncletopia | San Francisco | 2 | All Maps","name_short":"sfo-2","host":"sfo-1.us.uncletopia.com","port":27025,"enabled":true,"region":"us-west","cc":"us","latitude":37.77397,"longitude":-122.4313,"reserved":0,"last_update":"0001-01-01T00:00:00Z","name_a2s":"Uncletopia | San Francisco | 2 | All Maps","protocol":17,"map":"pl_borneo","folder":"tf","game":"Team Fortress","app_id":440,"player_count":0,"max_players":24,"Bots":0,"server_type":"Dedicated","server_os":"Linux","password":true,"vac":true,"version":"7757534","steam_id":85568392924470000,"keywords":["nocrits","nodmgspread","payload","uncletopia"],"game_id":440,"stv_port":27026,"stv_name":"Uncletopia | San Francisco | 2 | All Maps | STV","players":null},{"server_id":19,"name":"Uncletopia | San Francisco | 3 | Stopwatch Beta","name_short":"sfo-3","host":"sfo-1.us.uncletopia.com","port":27035,"enabled":true,"region":"us-west","cc":"us","latitude":37.77397,"longitude":-122.4313,"reserved":0,"last_update":"0001-01-01T00:00:00Z","name_a2s":"Uncletopia | San Francisco | 3 | Stopwatch Beta","protocol":17,"map":"pl_borneo","folder":"tf","game":"Team Fortress","app_id":440,"player_count":0,"max_players":24,"Bots":0,"server_type":"Dedicated","server_os":"Linux","password":true,"vac":true,"version":"7757534","steam_id":85568392924742824,"keywords":["nocrits","nodmgspread","payload","uncletopia"],"game_id":440,"stv_port":27036,"stv_name":"Uncletopia | San Francisco | 3 | Stopwatch Beta | STV","players":null},{"server_id":20,"name":"Uncletopia | San Francisco | 4 | Community","name_short":"sfo-4","host":"sfo-1.us.uncletopia.com","port":27045,"enabled":true,"region":"us-west","cc":"us","latitude":37.77397,"longitude":-122.4313,"reserved":0,"last_update":"0001-01-01T00:00:00Z","name_a2s":"Uncletopia | San Francisco | 4 | Community","protocol":17,"map":"workshop/koth_ramjam_rc1.ugc459778887","folder":"tf","game":"Team Fortress","app_id":440,"player_count":4,"max_players":24,"Bots":0,"server_type":"Dedicated","server_os":"Linux","password":true,"vac":true,"version":"7757534","steam_id":85568392924742826,"keywords":["cp","nocrits","nodmgspread","uncletopia"],"game_id":440,"stv_port":27046,"stv_name":"Uncletopia | San Francisco | 4 | Community | STV","players":[{"user_id":58,"name":"evril vvizard miku","steam_id":76561198164445414,"connected_time":873000000000,"state":"active","ping":77},{"user_id":59,"name":"GravyTrain37","steam_id":76561198216269256,"connected_time":863000000000,"state":"active","ping":54},{"user_id":56,"name":"O bez","steam_id":76561198841579939,"connected_time":1051000000000,"state":"active","ping":57},{"user_id":57,"name":"toodles","steam_id":76561198025463883,"connected_time":974000000000,"state":"active","ping":68}]},{"server_id":141,"name":"Uncletopia | Sydney | 1 | All Maps","name_short":"syd-1","host":"syd-1.au.uncletopia.com","port":27015,"enabled":true,"region":"au","cc":"au","latitude":-33.865143,"longitude":151.2099,"reserved":0,"last_update":"0001-01-01T00:00:00Z","name_a2s":"Uncletopia | Sydney | 1 | All Maps","protocol":17,"map":"pl_snowycoast","folder":"tf","game":"Team Fortress","app_id":440,"player_count":24,"max_players":24,"Bots":0,"server_type":"Dedicated","server_os":"Linux","password":true,"vac":true,"version":"7757534","steam_id":85568392924470001,"keywords":["nocrits","nodmgspread","payload","uncletopia"],"game_id":440,"stv_port":27016,"stv_name":"Uncletopia | Sydney | 1 | All Maps | STV","players":[{"user_id":81,"name":"Doctrine","steam_id":76561199050447792,"connected_time":1806000000000,"state":"active","ping":59},{"user_id":93,"name":"doi","steam_id":76561198220613712,"connected_time":962000000000,"state":"active","ping":44},{"user_id":83,"name":"n3dd","steam_id":76561198159412279,"connected_time":1455000000000,"state":"active","ping":45},{"user_id":94,"name":"kenji","steam_id":76561198120942479,"connected_time":916000000000,"state":"active","ping":47},{"user_id":42,"name":"ben","steam_id":76561198223331996,"connected_time":4645000000000,"state":"active","ping":60},{"user_id":95,"name":"Goggles","steam_id":76561199234821488,"connected_time":888000000000,"state":"active","ping":51},{"user_id":68,"name":"trash","steam_id":76561198110764631,"connected_time":2528000000000,"state":"active","ping":45},{"user_id":100,"name":"iesApac","steam_id":76561198176708635,"connected_time":425000000000,"state":"active","ping":59},{"user_id":101,"name":"Nyanderthal","steam_id":76561198843075573,"connected_time":407000000000,"state":"active","ping":61},{"user_id":105,"name":"cretin","steam_id":76561198127848228,"connected_time":256000000000,"state":"active","ping":71},{"user_id":106,"name":"Sinister80s","steam_id":76561198343540472,"connected_time":237000000000,"state":"active","ping":67},{"user_id":22,"name":"Gort","steam_id":76561198967244552,"connected_time":5538000000000,"state":"active","ping":57},{"user_id":36,"name":"SaltierThanYou","steam_id":76561198444395188,"connected_time":4935000000000,"state":"active","ping":83},{"user_id":85,"name":"hobo","steam_id":76561199046481213,"connected_time":1373000000000,"state":"active","ping":66},{"user_id":107,"name":"snackson","steam_id":76561198137286565,"connected_time":236000000000,"state":"active","ping":36},{"user_id":88,"name":"ki","steam_id":76561198241303512,"connected_time":1222000000000,"state":"active","ping":57},{"user_id":43,"name":"·†å·†åBepis","steam_id":76561198160379809,"connected_time":4494000000000,"state":"active","ping":90},{"user_id":71,"name":"normans on sabbatical honey","steam_id":76561198082423230,"connected_time":2248000000000,"state":"active","ping":78},{"user_id":98,"name":"Professional Model Railroader","steam_id":76561199249059042,"connected_time":471000000000,"state":"active","ping":96},{"user_id":99,"name":"Catalyst","steam_id":76561198065665731,"connected_time":461000000000,"state":"active","ping":75},{"user_id":79,"name":"freaky","steam_id":76561198061174192,"connected_time":1894000000000,"state":"active","ping":58},{"user_id":103,"name":"SHIT","steam_id":76561199184547017,"connected_time":359000000000,"state":"active","ping":43},{"user_id":104,"name":"SmexyChad","steam_id":76561198378883527,"connected_time":328000000000,"state":"active","ping":48},{"user_id":59,"name":"fido dido","steam_id":76561198017390541,"connected_time":2932000000000,"state":"active","ping":45}]},{"server_id":123,"name":"Uncletopia | Sydney | 2 | All Maps","name_short":"syd-2","host":"syd-1.au.uncletopia.com","port":27025,"enabled":true,"region":"au","cc":"au","latitude":-33.865143,"longitude":151.2099,"reserved":0,"last_update":"0001-01-01T00:00:00Z","name_a2s":"Uncletopia | Sydney | 2 | All Maps","protocol":17,"map":"koth_highpass","folder":"tf","game":"Team Fortress","app_id":440,"player_count":4,"max_players":24,"Bots":0,"server_type":"Dedicated","server_os":"Linux","password":true,"vac":true,"version":"7757534","steam_id":85568392924470002,"keywords":["cp","nocrits","nodmgspread","uncletopia"],"game_id":440,"stv_port":27026,"stv_name":"Uncletopia | Sydney | 2 | All Maps | STV","players":[{"user_id":34,"name":"trum_boned","steam_id":76561199450599387,"connected_time":1002000000000,"state":"active","ping":110},{"user_id":37,"name":"ShrekEnjoyer908","steam_id":76561198435882553,"connected_time":941000000000,"state":"active","ping":98},{"user_id":38,"name":"shrimp","steam_id":76561199122818831,"connected_time":864000000000,"state":"active","ping":57},{"user_id":28,"name":"The Bisoneer TF2","steam_id":76561199446773766,"connected_time":1821000000000,"state":"active","ping":109}]},{"server_id":395,"name":"Uncletopia | Sydney | 3 | All Maps","name_short":"syd-3","host":"syd-1.au.uncletopia.com","port":27035,"enabled":true,"region":"au","cc":"au","latitude":-33.865143,"longitude":151.2099,"reserved":0,"last_update":"0001-01-01T00:00:00Z","name_a2s":"Uncletopia | Sydney | 3 | All Maps","protocol":17,"map":"pl_barnblitz","folder":"tf","game":"Team Fortress","app_id":440,"player_count":0,"max_players":24,"Bots":0,"server_type":"Dedicated","server_os":"Linux","password":true,"vac":true,"version":"7757534","steam_id":85568392925194467,"keywords":["nocrits","nodmgspread","payload","uncletopia"],"game_id":440,"stv_port":27036,"stv_name":"Uncletopia | Sydney | 3 | All Maps | STV","players":null},{"server_id":396,"name":"Uncletopia | Sydney | 4 | All Maps","name_short":"syd-4","host":"syd-1.au.uncletopia.com","port":27045,"enabled":true,"region":"au","cc":"au","latitude":-33.865143,"longitude":151.2099,"reserved":0,"last_update":"0001-01-01T00:00:00Z","name_a2s":"Uncletopia | Sydney | 4 | All Maps","protocol":17,"map":"koth_lakeside_final","folder":"tf","game":"Team Fortress","app_id":440,"player_count":0,"max_players":24,"Bots":0,"server_type":"Dedicated","server_os":"Linux","password":true,"vac":true,"version":"7757534","steam_id":85568392925397958,"keywords":["cp","nocrits","nodmgspread","uncletopia"],"game_id":440,"stv_port":27046,"stv_name":"Uncletopia | Sydney | 4 | All Maps | STV","players":null},{"server_id":58,"name":"Uncletopia | Sydney | 5 | Stopwatch Beta","name_short":"syd-5","host":"syd-1.au.uncletopia.com","port":27055,"enabled":true,"region":"au","cc":"au","latitude":-33.865143,"longitude":151.2099,"reserved":0,"last_update":"0001-01-01T00:00:00Z","name_a2s":"Uncletopia | Sydney | 5 | Stopwatch Beta","protocol":17,"map":"koth_highpass","folder":"tf","game":"Team Fortress","app_id":440,"player_count":0,"max_players":24,"Bots":0,"server_type":"Dedicated","server_os":"Linux","password":true,"vac":true,"version":"7757534","steam_id":85568392925397959,"keywords":["cp","nocrits","nodmgspread","uncletopia"],"game_id":440,"stv_port":27056,"stv_name":"Uncletopia | Sydney | 5 | Stopwatch Beta | STV","players":null},{"server_id":59,"name":"Uncletopia | Sydney | 6 | Community","name_short":"syd-6","host":"syd-1.au.uncletopia.com","port":27065,"enabled":true,"region":"au","cc":"au","latitude":-33.865143,"longitude":151.2099,"reserved":0,"last_update":"0001-01-01T00:00:00Z","name_a2s":"Uncletopia | Sydney | 6 | Community","protocol":17,"map":"workshop/koth_synthetic_rc6a.ugc1549817316","folder":"tf","game":"Team Fortress","app_id":440,"player_count":0,"max_players":24,"Bots":0,"server_type":"Dedicated","server_os":"Linux","password":true,"vac":true,"version":"7757534","steam_id":85568392925397960,"keywords":["cp","nocrits","nodmgspread","uncletopia"],"game_id":440,"stv_port":27066,"stv_name":"Uncletopia | Sydney | 6 | Community | STV","players":null},{"server_id":49,"name":"Uncletopia | Warsaw | 1 | All Maps","name_short":"waw-1","host":"waw-1.pl.uncletopia.com","port":27015,"enabled":true,"region":"eu","cc":"pl","latitude":52.2297,"longitude":21.017532,"reserved":0,"last_update":"0001-01-01T00:00:00Z","name_a2s":"","protocol":0,"map":"","folder":"","game":"","app_id":0,"player_count":0,"max_players":0,"Bots":0,"server_type":"","server_os":"","password":false,"vac":false,"version":"","steam_id":0,"keywords":null,"game_id":0,"stv_port":0,"stv_name":"","players":null},{"server_id":50,"name":"Uncletopia | Warsaw | 2 | All Maps","name_short":"waw-2","host":"waw-1.pl.uncletopia.com","port":27025,"enabled":true,"region":"eu","cc":"pl","latitude":52.2297,"longitude":21.017532,"reserved":0,"last_update":"0001-01-01T00:00:00Z","name_a2s":"Uncletopia | Warsaw | 2 | All Maps","protocol":17,"map":"pl_barnblitz","folder":"tf","game":"Team Fortress","app_id":440,"player_count":0,"max_players":24,"Bots":0,"server_type":"Dedicated","server_os":"Linux","password":true,"vac":true,"version":"7757534","steam_id":85568392925397851,"keywords":["nocrits","nodmgspread","payload","uncletopia"],"game_id":440,"stv_port":27026,"stv_name":"Uncletopia | Warsaw | 2 | All Maps | STV","players":null},{"server_id":51,"name":"Uncletopia | Warsaw | 3 | All Maps","name_short":"waw-3","host":"waw-1.pl.uncletopia.com","port":27035,"enabled":true,"region":"eu","cc":"pl","latitude":52.2297,"longitude":21.017532,"reserved":0,"last_update":"0001-01-01T00:00:00Z","name_a2s":"Uncletopia | Warsaw | 3 | All Maps","protocol":17,"map":"pl_pier","folder":"tf","game":"Team Fortress","app_id":440,"player_count":0,"max_players":24,"Bots":0,"server_type":"Dedicated","server_os":"Linux","password":true,"vac":true,"version":"7757534","steam_id":85568392925397852,"keywords":["nocrits","nodmgspread","payload","uncletopia"],"game_id":440,"stv_port":27036,"stv_name":"Uncletopia | Warsaw | 3 | All Maps | STV","players":null},{"server_id":52,"name":"Uncletopia | Warsaw | 4 | All Maps","name_short":"waw-4","host":"waw-1.pl.uncletopia.com","port":27045,"enabled":true,"region":"eu","cc":"pl","latitude":52.2297,"longitude":21.017532,"reserved":0,"last_update":"0001-01-01T00:00:00Z","name_a2s":"Uncletopia | Warsaw | 4 | All Maps","protocol":17,"map":"koth_cascade","folder":"tf","game":"Team Fortress","app_id":440,"player_count":0,"max_players":24,"Bots":0,"server_type":"Dedicated","server_os":"Linux","password":true,"vac":true,"version":"7757534","steam_id":85568392925397853,"keywords":["cp","nocrits","nodmgspread","uncletopia"],"game_id":440,"stv_port":27046,"stv_name":"Uncletopia | Warsaw | 4 | All Maps | STV","players":null},{"server_id":53,"name":"Uncletopia | Warsaw | 5 | Stopwatch Beta","name_short":"waw-5","host":"waw-1.pl.uncletopia.com","port":27055,"enabled":true,"region":"eu","cc":"pl","latitude":52.2297,"longitude":21.017532,"reserved":0,"last_update":"0001-01-01T00:00:00Z","name_a2s":"Uncletopia | Warsaw | 5 | Stopwatch Beta","protocol":17,"map":"pl_barnblitz","folder":"tf","game":"Team Fortress","app_id":440,"player_count":0,"max_players":24,"Bots":0,"server_type":"Dedicated","server_os":"Linux","password":true,"vac":true,"version":"7757534","steam_id":85568392925397854,"keywords":["nocrits","nodmgspread","payload","uncletopia"],"game_id":440,"stv_port":27056,"stv_name":"Uncletopia | Warsaw | 5 | Stopwatch Beta | STV","players":null},{"server_id":54,"name":"Uncletopia | Warsaw | 6 | Community","name_short":"waw-6","host":"waw-1.pl.uncletopia.com","port":27065,"enabled":true,"region":"eu","cc":"pl","latitude":52.2297,"longitude":21.017532,"reserved":0,"last_update":"0001-01-01T00:00:00Z","name_a2s":"Uncletopia | Warsaw | 6 | Community","protocol":17,"map":"workshop/cp_overgrown_rc7b.ugc503939302","folder":"tf","game":"Team Fortress","app_id":440,"player_count":0,"max_players":24,"Bots":0,"server_type":"Dedicated","server_os":"Linux","password":true,"vac":true,"version":"7757534","steam_id":85568392925397856,"keywords":["cp","nocrits","nodmgspread","uncletopia"],"game_id":440,"stv_port":27066,"stv_name":"Uncletopia | Warsaw | 6 | Community | STV","players":null}]}