{"status":true,"message":"","result":[{"server_id":9,"name":"Uncletopia | Atlanta | 1 | All Maps","name_short":"atl-1","host":"atl-1.us.uncletopia.com","port":27015,"enabled":true,"region":"us-east","cc":"us","latitude":33.753746,"longitude":-84.38633,"reserved":0,"last_update":"0001-01-01T00:00:00Z","name_a2s":"Uncletopia | Atlanta | 1 | All Maps","protocol":17,"map":"koth_lakeside_final","folder":"tf","game":"Team Fortress","app_id":440,"player_count":15,"max_players":24,"Bots":0,"server_type":"Dedicated","server_os":"Linux","password":true,"vac":true,"version":"7961495","steam_id":85568392924469982,"keywords":["cp","nocrits","nodmgspread","uncletopia"],"game_id":440,"stv_port":27016,"stv_name":"Uncletopia | Atlanta | 1 | All Maps | STV","players":null},{"server_id":104,"name":"Uncletopia | Atlanta | 2 | All Maps","name_short":"atl-2","host":"atl-1.us.uncletopia.com","port":27025,"enabled":true,"region":"us-east","cc":"us","latitude":33.753746,"longitude":-84.38633,"reserved":0,"last_update":"0001-01-01T00:00:00Z","name_a2s":"Uncletopia | Atlanta | 2 | All Maps","protocol":17,"map":"koth_cascade","folder":"tf","game":"Team Fortress","app_id":440,"player_count":3,"max_players":24,"Bots":0,"server_type":"Dedicated","server_os":"Linux","password":true,"vac":true,"version":"7961495","steam_id":85568392924469983,"keywords":["cp","nocrits","nodmgspread","uncletopia"],"game_id":440,"stv_port":27026,"stv_name":"Uncletopia | Atlanta | 2 | All Maps | STV","players":null},{"server_id":400,"name":"Uncletopia | Atlanta | 3 | Stopwatch","name_short":"atl-3","host":"atl-1.us.uncletopia.com","port":27035,"enabled":true,"region":"us-east","cc":"us","latitude":33.753746,"longitude":-84.38633,"reserved":0,"last_update":"0001-01-01T00:00:00Z","name_a2s":"Uncletopia | Atlanta | 3 | Stopwatch","protocol":17,"map":"pl_badwater","folder":"tf","game":"Team Fortress","app_id":440,"player_count":0,"max_players":24,"Bots":0,"server_type":"Dedicated","server_os":"Linux","password":true,"vac":true,"version":"7961495","steam_id":85568392924515187,"keywords":["nocrits","nodmgspread","payload","uncletopia"],"game_id":440,"stv_port":27036,"stv_name":"Uncletopia | Atlanta | 3 | Stopwatch | STV","players":null},{"server_id":401,"name":"Uncletopia | Atlanta | 4 | Community","name_short":"atl-4","host":"atl-1.us.uncletopia.com","port":27045,"enabled":true,"region":"us-east","cc":"us","latitude":33.753746,"longitude":-84.38633,"reserved":0,"last_update":"0001-01-01T00:00:00Z","name_a2s":"Uncletopia | Atlanta | 4 | Community","protocol":17,"map":"koth_product_final","folder":"tf","game":"Team Fortress","app_id":440,"player_count":0,"max_players":24,"Bots":0,"server_type":"Dedicated","server_os":"Linux","password":true,"vac":true,"version":"7961495","steam_id":85568392924515188,"keywords":["cp","nocrits","nodmgspread","uncletopia"],"game_id":440,"stv_port":27046,"stv_name":"Uncletopia | Atlanta | 4 | Community | STV","players":null},{"server_id":2,"name":"Uncletopia | Chicago | 1 | All Maps","name_short":"chi-1","host":"chi-1.us.uncletopia.com","port":27015,"enabled":true,"region":"us-central","cc":"us","latitude":41.881832,"longitude":-87.62318,"reserved":0,"last_update":"0001-01-01T00:00:00Z","name_a2s":"Uncletopia | Chicago | 1 | All Maps","protocol":17,"map":"pl_upward","folder":"tf","game":"Team Fortress","app_id":440,"player_count":24,"max_players":24,"Bots":0,"server_type":"Dedicated","server_os":"Linux","password":true,"vac":true,"version":"7961495","steam_id":85568392924469984,"keywords":["nocrits","nodmgspread","payload","uncletopia"],"game_id":440,"stv_port":27016,"stv_name":"Uncletopia | Chicago | 1 | All Maps | STV","players":[{"user_id":167,"name":"Furious George","steam_id":76561198405111646,"connected_time":23000000000,"state":"active","ping":104},{"user_id":118,"name":"Xii","steam_id":76561198860209947,"connected_time":4778000000000,"state":"active","ping":49},{"user_id":166,"name":"lx_smoke_xl","steam_id":76561199485453065,"connected_time":62000000000,"state":"active","ping":91},{"user_id":152,"name":"Onyx","steam_id":76561198275349640,"connected_time":2051000000000,"state":"active","ping":80},{"user_id":163,"name":"Abysa.","steam_id":76561198424398862,"connected_time":420000000000,"state":"active","ping":125},{"user_id":147,"name":"Mr. Tickle","steam_id":76561198126684647,"connected_time":2528000000000,"state":"active","ping":49},{"user_id":151,"name":"kimchy101","steam_id":76561198202721584,"connected_time":2098000000000,"state":"active","ping":45},{"user_id":117,"name":"Your Local Queer Librarian","steam_id":76561198013077080,"connected_time":4789000000000,"state":"active","ping":56},{"user_id":165,"name":"Aspxts","steam_id":76561199125254746,"connected_time":88000000000,"state":"active","ping":59},{"user_id":139,"name":"kiryu","steam_id":76561198270926835,"connected_time":2867000000000,"state":"active","ping":108},{"user_id":132,"name":"floppy muppet","steam_id":76561198003076261,"connected_time":3238000000000,"state":"active","ping":80},{"user_id":158,"name":"Ras","steam_id":76561198123546775,"connected_time":1247000000000,"state":"active","ping":90},{"user_id":119,"name":"Burp 2600","steam_id":76561198044480181,"connected_time":4772000000000,"state":"active","ping":47},{"user_id":137,"name":"Milkmur","steam_id":76561198210043821,"connected_time":2995000000000,"state":"active","ping":61},{"user_id":162,"name":"HarryjusttHarry","steam_id":76561198982810452,"connected_time":561000000000,"state":"active","ping":86},{"user_id":121,"name":"the keebler","steam_id":76561199486326945,"connected_time":4764000000000,"state":"active","ping":76},{"user_id":164,"name":"chrissweep","steam_id":76561198072826791,"connected_time":238000000000,"state":"active","ping":67},{"user_id":160,"name":"McGruble","steam_id":76561198136317340,"connected_time":573000000000,"state":"active","ping":87},{"user_id":143,"name":"Suspicious Doggo","steam_id":76561198871853577,"connected_time":2750000000000,"state":"active","ping":89},{"user_id":156,"name":"Draauz","steam_id":76561198979026396,"connected_time":1271000000000,"state":"active","ping":80},{"user_id":115,"name":"Draconic Ballad","steam_id":76561198027191515,"connected_time":4911000000000,"state":"active","ping":49},{"user_id":154,"name":"Mighty","steam_id":76561198096569755,"connected_time":1947000000000,"state":"active","ping":100},{"user_id":126,"name":"twix","steam_id":76561198040912048,"connected_time":4448000000000,"state":"active","ping":50},{"user_id":161,"name":"Skin Tissue Gaming","steam_id":76561199088111891,"connected_time":571000000000,"state":"active","ping":94}]},{"server_id":106,"name":"Uncletopia | Chicago | 2 | All Maps","name_short":"chi-2","host":"chi-1.us.uncletopia.com","port":27025,"enabled":true,"region":"us-central","cc":"us","latitude":41.881832,"longitude":-87.62318,"reserved":0,"last_update":"0001-01-01T00:00:00Z","name_a2s":"Uncletopia | Chicago | 2 | All Maps","protocol":17,"map":"koth_cascade","folder":"tf","game":"Team Fortress","app_id":440,"player_count":1,"max_players":24,"Bots":0,"server_type":"Dedicated","server_os":"Linux","password":true,"vac":true,"version":"7961495","steam_id":85568392924469985,"keywords":["cp","nocrits","nodmgspread","uncletopia"],"game_id":440,"stv_port":27026,"stv_name":"Uncletopia | Chicago | 2 | All Maps | STV","players":[{"user_id":22,"name":"Shaper Loks","steam_id":76561198207958144,"connected_time":217000000000,"state":"active","ping":87}]},{"server_id":402,"name":"Uncletopia | Chicago | 3 | All Maps","name_short":"chi-3","host":"chi-1.us.uncletopia.com","port":27035,"enabled":true,"region":"us-central","cc":"us","latitude":41.881832,"longitude":-87.62318,"reserved":0,"last_update":"0001-01-01T00:00:00Z","name_a2s":"Uncletopia | Chicago | 3 | All Maps","protocol":17,"map":"pl_pier","folder":"tf","game":"Team Fortress","app_id":440,"player_count":24,"max_players":24,"Bots":0,"server_type":"Dedicated","server_os":"Linux","password":true,"vac":true,"version":"7961495","steam_id":85568392924515191,"keywords":["nocrits","nodmgspread","payload","uncletopia"],"game_id":440,"stv_port":27036,"stv_name":"Uncletopia | Chicago | 3 | All Maps | STV","players":[{"user_id":163,"name":"H C N","steam_id":76561198106290021,"connected_time":1050000000000,"state":"active","ping":70},{"user_id":177,"name":"soltuno","steam_id":76561198074430565,"connected_time":238000000000,"state":"active","ping":111},{"user_id":141,"name":"-œÄ- BakaD","steam_id":76561197960559169,"connected_time":2064000000000,"state":"active","ping":54},{"user_id":63,"name":"souVern","steam_id":76561198046940771,"connected_time":6805000000000,"state":"active","ping":71},{"user_id":161,"name":"maS","steam_id":76561198033846407,"connected_time":1083000000000,"state":"active","ping":55},{"user_id":162,"name":"Comfy!","steam_id":76561198008818346,"connected_time":1054000000000,"state":"active","ping":60},{"user_id":172,"name":"‚òÖStarlight‚òÖ","steam_id":76561198996165214,"connected_time":569000000000,"state":"active","ping":60},{"user_id":168,"name":"Omega Move","steam_id":76561198031577205,"connected_time":915000000000,"state":"active","ping":81},{"user_id":116,"name":"kingcool5678910","steam_id":76561199111173730,"connected_time":3877000000000,"state":"active","ping":80},{"user_id":150,"name":"A Very Confused Gentleman","steam_id":76561198051686391,"connected_time":1877000000000,"state":"active","ping":60},{"user_id":173,"name":"i only ubercharge snipers","steam_id":76561198003995600,"connected_time":561000000000,"state":"active","ping":100},{"user_id":170,"name":"THOTDADDY","steam_id":76561198069868942,"connected_time":657000000000,"state":"active","ping":61},{"user_id":169,"name":"Nefy","steam_id":76561198030017316,"connected_time":772000000000,"state":"active","ping":85},{"user_id":149,"name":"Trotsky Gaming","steam_id":76561199101638460,"connected_time":1886000000000,"state":"active","ping":73},{"user_id":96,"name":"Hypelipe","steam_id":76561199171330771,"connected_time":5383000000000,"state":"active","ping":101},{"user_id":174,"name":"boogie'n","steam_id":76561198026913053,"connected_time":378000000000,"state":"active","ping":158},{"user_id":164,"name":"Man too drunk to die","steam_id":76561198951183714,"connected_time":1034000000000,"state":"active","ping":174},{"user_id":165,"name":"the \"crab\"","steam_id":76561198027422512,"connected_time":1027000000000,"state":"active","ping":120},{"user_id":156,"name":"eaglesfan609","steam_id":76561198151032242,"connected_time":1454000000000,"state":"active","ping":71},{"user_id":176,"name":"triple_range_merge","steam_id":76561198991225026,"connected_time":255000000000,"state":"active","ping":81},{"user_id":154,"name":"Francis from L4d2","steam_id":76561199070877046,"connected_time":1802000000000,"state":"active","ping":115},{"user_id":140,"name":"JetZ","steam_id":76561199122488957,"connected_time":2083000000000,"state":"active","ping":68},{"user_id":171,"name":"ƒê√Ø…ê»ê…π…¶…Üa","steam_id":76561198981411945,"connected_time":582000000000,"state":"active","ping":93},{"user_id":158,"name":"Nephs","steam_id":76561198136763403,"connected_time":1357000000000,"state":"active","ping":94}]},{"server_id":403,"name":"Uncletopia | Chicago | 4 | All Maps","name_short":"chi-4","host":"chi-1.us.uncletopia.com","port":27045,"enabled":true,"region":"us-central","cc":"us","latitude":41.881832,"longitude":-87.62318,"reserved":0,"last_update":"0001-01-01T00:00:00Z","name_a2s":"Uncletopia | Chicago | 4 | All Maps","protocol":17,"map":"pl_frontier_final","folder":"tf","game":"Team Fortress","app_id":440,"player_count":24,"max_players":24,"Bots":0,"server_type":"Dedicated","server_os":"Linux","password":true,"vac":true,"version":"7961495","steam_id":85568392924515193,"keywords":["nocrits","nodmgspread","payload","uncletopia"],"game_id":440,"stv_port":27046,"stv_name":"Uncletopia | Chicago | 4 | All Maps | STV","players":[{"user_id":185,"name":"Nut Commander","steam_id":76561198065989058,"connected_time":468000000000,"state":"active","ping":56},{"user_id":188,"name":"my name jeff","steam_id":76561198179816898,"connected_time":455000000000,"state":"active","ping":73},{"user_id":126,"name":"Gigacheat","steam_id":76561198862843572,"connected_time":4252000000000,"state":"active","ping":84},{"user_id":184,"name":"canakblasteran","steam_id":76561199472518822,"connected_time":577000000000,"state":"active","ping":100},{"user_id":170,"name":"Baseball Billy","steam_id":76561199060742929,"connected_time":1417000000000,"state":"active","ping":88},{"user_id":187,"name":"The Noise","steam_id":76561199390353195,"connected_time":467000000000,"state":"active","ping":54},{"user_id":174,"name":"PEE ASS","steam_id":76561198063022178,"connected_time":1115000000000,"state":"active","ping":65},{"user_id":156,"name":"Hooked","steam_id":76561198007302139,"connected_time":2354000000000,"state":"active","ping":74},{"user_id":180,"name":"tsbro40","steam_id":76561199455605580,"connected_time":823000000000,"state":"active","ping":82},{"user_id":127,"name":"That one idiot","steam_id":76561198880506019,"connected_time":4249000000000,"state":"active","ping":79},{"user_id":159,"name":"skunch","steam_id":76561198069771288,"connected_time":2127000000000,"state":"active","ping":69},{"user_id":141,"name":"green bean","steam_id":76561198113099204,"connected_time":3893000000000,"state":"active","ping":87},{"user_id":151,"name":"cofi","steam_id":76561198077504898,"connected_time":2869000000000,"state":"active","ping":66},{"user_id":136,"name":"JGatsby","steam_id":76561198023307584,"connected_time":4067000000000,"state":"active","ping":49},{"user_id":150,"name":"Lunartik","steam_id":76561199004827382,"connected_time":2893000000000,"state":"active","ping":60},{"user_id":162,"name":"DrD","steam_id":76561198067266383,"connected_time":1763000000000,"state":"active","ping":83},{"user_id":147,"name":"Mavrick","steam_id":76561198039678150,"connected_time":3301000000000,"state":"active","ping":60},{"user_id":146,"name":"Bussy Bandit","steam_id":76561198034028769,"connected_time":3515000000000,"state":"active","ping":64},{"user_id":122,"name":"coffee bagel","steam_id":76561198141198352,"connected_time":4796000000000,"state":"active","ping":44},{"user_id":178,"name":"SuperStankyOne","steam_id":76561199474511198,"connected_time":869000000000,"state":"active","ping":96},{"user_id":183,"name":"freak ya nature","steam_id":76561198310502474,"connected_time":626000000000,"state":"active","ping":47},{"user_id":78,"name":"Lia_Rein","steam_id":76561198151569597,"connected_time":10087000000000,"state":"active","ping":142},{"user_id":173,"name":"Û†Å≥ ‚ÅßArgo","steam_id":76561198353725622,"connected_time":1216000000000,"state":"active","ping":78},{"user_id":189,"name":"DragonHaert","steam_id":76561198132516061,"connected_time":258000000000,"state":"active","ping":62}]},{"server_id":36,"name":"Uncletopia | Chicago | 5 | All Maps","name_short":"chi-5","host":"chi-2.us.uncletopia.com","port":27015,"enabled":true,"region":"us-central","cc":"us","latitude":41.881832,"longitude":-87.62318,"reserved":0,"last_update":"0001-01-01T00:00:00Z","name_a2s":"Uncletopia | Chicago | 5 | All Maps","protocol":17,"map":"koth_viaduct","folder":"tf","game":"Team Fortress","app_id":440,"player_count":0,"max_players":24,"Bots":0,"server_type":"Dedicated","server_os":"Linux","password":true,"vac":true,"version":"7961495","steam_id":85568392924866362,"keywords":["cp","nocrits","nodmgspread","uncletopia"],"game_id":440,"stv_port":27016,"stv_name":"Uncletopia | Chicago | 5 | All Maps | STV","players":null},{"server_id":37,"name":"Uncletopia | Chicago | 6 | All Maps","name_short":"chi-6","host":"chi-2.us.uncletopia.com","port":27025,"enabled":true,"region":"us-central","cc":"us","latitude":41.881832,"longitude":-87.62318,"reserved":0,"last_update":"0001-01-01T00:00:00Z","name_a2s":"Uncletopia | Chicago | 6 | All Maps","protocol":17,"map":"pl_barnblitz","folder":"tf","game":"Team Fortress","app_id":440,"player_count":24,"max_players":24,"Bots":0,"server_type":"Dedicated","server_os":"Linux","password":true,"vac":true,"version":"7961495","steam_id":85568392924866363,"keywords":["nocrits","nodmgspread","payload","uncletopia"],"game_id":440,"stv_port":27026,"stv_name":"Uncletopia | Chicago | 6 | All Maps | STV","players":[{"user_id":107,"name":"shambles","steam_id":76561198128473422,"connected_time":1015000000000,"state":"active","ping":103},{"user_id":126,"name":"Punchy","steam_id":76561198200000641,"connected_time":198000000000,"state":"active","ping":56},{"user_id":95,"name":"Rustyorion","steam_id":76561198439186347,"connected_time":2424000000000,"state":"active","ping":96},{"user_id":109,"name":"Adreeh","steam_id":76561198158492390,"connected_time":978000000000,"state":"active","ping":80},{"user_id":93,"name":"Not Guztaf","steam_id":76561198334924763,"connected_time":2734000000000,"state":"active","ping":82},{"user_id":117,"name":"Vegerot","steam_id":76561197997843710,"connected_time":501000000000,"state":"active","ping":60},{"user_id":116,"name":"Jasper‚Ñ¢","steam_id":76561198260018463,"connected_time":600000000000,"state":"active","ping":74},{"user_id":127,"name":"._.","steam_id":76561198300316801,"connected_time":196000000000,"state":"active","ping":56},{"user_id":123,"name":"sock","steam_id":76561199117597830,"connected_time":309000000000,"state":"active","ping":60},{"user_id":48,"name":"Aeri","steam_id":76561198041809495,"connected_time":5806000000000,"state":"active","ping":90},{"user_id":91,"name":"bobbymcbobington","steam_id":76561199089411172,"connected_time":2833000000000,"state":"active","ping":117},{"user_id":77,"name":"Soy King","steam_id":76561198263025614,"connected_time":3762000000000,"state":"active","ping":100},{"user_id":94,"name":"minecraftman28","steam_id":76561198063099828,"connected_time":2507000000000,"state":"active","ping":55},{"user_id":63,"name":"caption cool","steam_id":76561197990612056,"connected_time":4410000000000,"state":"active","ping":50},{"user_id":104,"name":"Pepüíî","steam_id":76561197995411109,"connected_time":1664000000000,"state":"active","ping":86},{"user_id":124,"name":"Bostonstapler","steam_id":76561197996334971,"connected_time":234000000000,"state":"active","ping":75},{"user_id":112,"name":"i remember you was cumflated","steam_id":76561198097330521,"connected_time":924000000000,"state":"active","ping":151},{"user_id":102,"name":"Xplicitt","steam_id":76561198005555084,"connected_time":1829000000000,"state":"active","ping":85},{"user_id":103,"name":"Mecha","steam_id":76561198014927379,"connected_time":1791000000000,"state":"active","ping":82},{"user_id":108,"name":"giant_dork","steam_id":76561199105606956,"connected_time":1012000000000,"state":"active","ping":74},{"user_id":113,"name":"Chezaus","steam_id":76561198317397837,"connected_time":888000000000,"state":"active","ping":63},{"user_id":115,"name":"HeavyMettleDick","steam_id":76561198001925087,"connected_time":842000000000,"state":"active","ping":75},{"user_id":60,"name":"corntent","steam_id":76561198824847948,"connected_time":5035000000000,"state":"active","ping":64},{"user_id":125,"name":"Crabby","steam_id":76561198942472512,"connected_time":233000000000,"state":"active","ping":78}]},{"server_id":38,"name":"Uncletopia | Chicago | 7 | Stopwatch","name_short":"chi-7","host":"chi-2.us.uncletopia.com","port":27035,"enabled":true,"region":"us-central","cc":"us","latitude":41.881832,"longitude":-87.62318,"reserved":0,"last_update":"0001-01-01T00:00:00Z","name_a2s":"Uncletopia | Chicago | 7 | Stopwatch","protocol":17,"map":"cp_gullywash_final1","folder":"tf","game":"Team Fortress","app_id":440,"player_count":0,"max_players":24,"Bots":0,"server_type":"Dedicated","server_os":"Linux","password":true,"vac":true,"version":"7961495","steam_id":85568392924866364,"keywords":["cp","nocrits","nodmgspread","uncletopia"],"game_id":440,"stv_port":27036,"stv_name":"Uncletopia | Chicago | 7 | Stopwatch | STV","players":null},{"server_id":39,"name":"Uncletopia | Chicago | 8 | Community","name_short":"chi-8","host":"chi-2.us.uncletopia.com","port":27045,"enabled":true,"region":"us-central","cc":"us","latitude":41.881832,"longitude":-87.62318,"reserved":0,"last_update":"0001-01-01T00:00:00Z","name_a2s":"Uncletopia | Chicago | 8 | Community","protocol":17,"map":"pl_pier","folder":"tf","game":"Team Fortress","app_id":440,"player_count":0,"max_players":24,"Bots":0,"server_type":"Dedicated","server_os":"Linux","password":true,"vac":true,"version":"7961495","steam_id":85568392924866365,"keywords":["nocrits","nodmgspread","payload","uncletopia"],"game_id":440,"stv_port":27046,"stv_name":"Uncletopia | Chicago | 8 | Community | STV","players":null},{"server_id":8,"name":"Uncletopia | Dallas | 1 | All Maps","name_short":"dal-1","host":"dal-1.us.uncletopia.com","port":27015,"enabled":true,"region":"us-central","cc":"us","latitude":32.779167,"longitude":-96.80889,"reserved":0,"last_update":"0001-01-01T00:00:00Z","name_a2s":"Uncletopia | Dallas | 1 | All Maps","protocol":17,"map":"pl_barnblitz","folder":"tf","game":"Team Fortress","app_id":440,"player_count":24,"max_players":24,"Bots":0,"server_type":"Dedicated","server_os":"Linux","password":true,"vac":true,"version":"7961495","steam_id":85568392924469986,"keywords":["nocrits","nodmgspread","payload","uncletopia"],"game_id":440,"stv_port":27016,"stv_name":"Uncletopia | Dallas | 1 | All Maps | STV","players":[{"user_id":273,"name":"corned beef","steam_id":76561199366782761,"connected_time":6020000000000,"state":"active","ping":146},{"user_id":338,"name":"space dog","steam_id":76561198153384032,"connected_time":400000000000,"state":"active","ping":84},{"user_id":325,"name":"Dr Oshawott","steam_id":76561198042021629,"connected_time":2019000000000,"state":"active","ping":89},{"user_id":340,"name":"lego star wars on the psp","steam_id":76561198148014773,"connected_time":303000000000,"state":"active","ping":97},{"user_id":331,"name":"Smittywerbenjager-manjenson","steam_id":76561198067060742,"connected_time":1498000000000,"state":"active","ping":55},{"user_id":329,"name":"The creator(made twitter)","steam_id":76561198870900265,"connected_time":1524000000000,"state":"active","ping":81},{"user_id":319,"name":"JaHeeK","steam_id":76561198056928613,"connected_time":2407000000000,"state":"active","ping":70},{"user_id":313,"name":"C^a^L","steam_id":76561198241124222,"connected_time":2691000000000,"state":"active","ping":91},{"user_id":328,"name":"Gelliterate","steam_id":76561198107233070,"connected_time":1917000000000,"state":"active","ping":58},{"user_id":311,"name":"Bacon","steam_id":76561199078407152,"connected_time":2714000000000,"state":"active","ping":82},{"user_id":268,"name":"Kirby.exe","steam_id":76561198242714582,"connected_time":6527000000000,"state":"active","ping":62},{"user_id":300,"name":"Terminally Ill Downie Brownie","steam_id":76561198356484354,"connected_time":3666000000000,"state":"active","ping":136},{"user_id":337,"name":"Kovox","steam_id":76561198972619900,"connected_time":668000000000,"state":"active","ping":49},{"user_id":327,"name":"yes","steam_id":76561199226277457,"connected_time":2010000000000,"state":"active","ping":76},{"user_id":341,"name":"porfer","steam_id":76561199118049168,"connected_time":110000000000,"state":"active","ping":81},{"user_id":339,"name":"Amy Roxwell","steam_id":76561198303391830,"connected_time":348000000000,"state":"active","ping":158},{"user_id":306,"name":"BrowniesCake","steam_id":76561198164081149,"connected_time":2990000000000,"state":"active","ping":88},{"user_id":301,"name":"Chicken Soup","steam_id":76561197989268948,"connected_time":3620000000000,"state":"active","ping":74},{"user_id":286,"name":"Circuit Breaker","steam_id":76561198041622040,"connected_time":4975000000000,"state":"active","ping":63},{"user_id":295,"name":"KentuckyFriedPossum","steam_id":76561198930277086,"connected_time":4078000000000,"state":"active","ping":76},{"user_id":317,"name":"Plague Dr.","steam_id":76561198142468986,"connected_time":2587000000000,"state":"active","ping":74},{"user_id":318,"name":"MrMind","steam_id":76561199321657653,"connected_time":2571000000000,"state":"active","ping":75},{"user_id":332,"name":"Lord Garrard","steam_id":76561198212184303,"connected_time":961000000000,"state":"active","ping":57},{"user_id":335,"name":"Training Arc","steam_id":76561198038832034,"connected_time":836000000000,"state":"active","ping":106}]},{"server_id":108,"name":"Uncletopia | Dallas | 2 | All Maps","name_short":"dal-2","host":"dal-1.us.uncletopia.com","port":27025,"enabled":true,"region":"us-central","cc":"us","latitude":32.779167,"longitude":-96.80889,"reserved":0,"last_update":"0001-01-01T00:00:00Z","name_a2s":"Uncletopia | Dallas | 2 | All Maps","protocol":17,"map":"cp_gorge","folder":"tf","game":"Team Fortress","app_id":440,"player_count":20,"max_players":24,"Bots":0,"server_type":"Dedicated","server_os":"Linux","password":true,"vac":true,"version":"7961495","steam_id":85568392924469988,"keywords":["cp","nocrits","nodmgspread","uncletopia"],"game_id":440,"stv_port":27026,"stv_name":"Uncletopia | Dallas | 2 | All Maps | STV","players":[{"user_id":105,"name":"Sagertooth","steam_id":76561198060863894,"connected_time":939000000000,"state":"active","ping":43},{"user_id":90,"name":"Whompert","steam_id":76561198042939624,"connected_time":1451000000000,"state":"active","ping":87},{"user_id":113,"name":"squaggles!","steam_id":76561197994995011,"connected_time":78000000000,"state":"active","ping":59},{"user_id":111,"name":"Big Yoshi","steam_id":76561199160576376,"connected_time":460000000000,"state":"active","ping":94},{"user_id":116,"name":"Metbol","steam_id":76561198001362410,"connected_time":27000000000,"state":"spawning","ping":62},{"user_id":98,"name":"Just Luck","steam_id":76561198294350105,"connected_time":1242000000000,"state":"active","ping":59},{"user_id":75,"name":"Grify","steam_id":76561198012292317,"connected_time":3173000000000,"state":"active","ping":87},{"user_id":86,"name":"WhippedHook","steam_id":76561198069581138,"connected_time":1628000000000,"state":"active","ping":89},{"user_id":71,"name":"Jayne Cobb","steam_id":76561198080585050,"connected_time":3702000000000,"state":"active","ping":86},{"user_id":115,"name":"BlueChinchompa","steam_id":76561199226988297,"connected_time":53000000000,"state":"active","ping":89},{"user_id":59,"name":"Smug","steam_id":76561198448205229,"connected_time":4592000000000,"state":"active","ping":74},{"user_id":102,"name":"SynSten","steam_id":76561199122281764,"connected_time":1020000000000,"state":"active","ping":74},{"user_id":110,"name":"tsz","steam_id":76561199246231090,"connected_time":495000000000,"state":"active","ping":111},{"user_id":94,"name":"Maurdakar","steam_id":76561197983420976,"connected_time":1385000000000,"state":"active","ping":82},{"user_id":95,"name":"Quebec","steam_id":76561198865760503,"connected_time":1357000000000,"state":"active","ping":84},{"user_id":96,"name":"Engineer","steam_id":76561199138738952,"connected_time":1331000000000,"state":"active","ping":93},{"user_id":40,"name":"Malinok","steam_id":76561198025681131,"connected_time":5440000000000,"state":"active","ping":70},{"user_id":83,"name":"Butcher Cakes ._.","steam_id":76561198243155576,"connected_time":2403000000000,"state":"active","ping":74},{"user_id":97,"name":"songcreator","steam_id":76561198076822464,"connected_time":1326000000000,"state":"active","ping":76},{"user_id":104,"name":"Letnap","steam_id":76561198025420549,"connected_time":975000000000,"state":"active","ping":48}]},{"server_id":404,"name":"Uncletopia | Dallas | 3 | All Maps","name_short":"dal-3","host":"dal-1.us.uncletopia.com","port":27035,"enabled":true,"region":"us-central","cc":"us","latitude":32.779167,"longitude":-96.80889,"reserved":0,"last_update":"0001-01-01T00:00:00Z","name_a2s":"Uncletopia | Dallas | 3 | All Maps","protocol":17,"map":"pl_upward","folder":"tf","game":"Team Fortress","app_id":440,"player_count":24,"max_players":24,"Bots":0,"server_type":"Dedicated","server_os":"Linux","password":true,"vac":true,"version":"7961495","steam_id":85568392924515219,"keywords":["nocrits","nodmgspread","payload","uncletopia"],"game_id":440,"stv_port":27036,"stv_name":"Uncletopia | Dallas | 3 | All Maps | STV","players":[{"user_id":45,"name":"walterfishing_17","steam_id":76561198976904099,"connected_time":205000000000,"state":"active","ping":71},{"user_id":17,"name":"8bean","steam_id":76561198239138132,"connected_time":1215000000000,"state":"active","ping":75},{"user_id":42,"name":"Wool","steam_id":76561198332704108,"connected_time":408000000000,"state":"active","ping":75},{"user_id":8,"name":"Your Local Festive Furry","steam_id":76561199030190462,"connected_time":2211000000000,"state":"active","ping":94},{"user_id":19,"name":"D","steam_id":76561198292908619,"connected_time":1157000000000,"state":"active","ping":108},{"user_id":37,"name":"Awesome_Alec1","steam_id":76561198071026552,"connected_time":512000000000,"state":"active","ping":75},{"user_id":12,"name":"Lazy Bones","steam_id":76561198198928941,"connected_time":1616000000000,"state":"active","ping":77},{"user_id":20,"name":"all_classics","steam_id":76561198012738913,"connected_time":1150000000000,"state":"active","ping":111},{"user_id":43,"name":"buns","steam_id":76561199087998822,"connected_time":393000000000,"state":"active","ping":75},{"user_id":15,"name":"Password is Taco","steam_id":76561198026092945,"connected_time":1420000000000,"state":"active","ping":73},{"user_id":21,"name":"Sugary","steam_id":76561198088267265,"connected_time":1132000000000,"state":"active","ping":96},{"user_id":22,"name":"webaline  =Ôºæ‚óè ‚ãè ‚óèÔºæ=","steam_id":76561199052450127,"connected_time":1002000000000,"state":"active","ping":74},{"user_id":35,"name":"Awesome Biscuit :0","steam_id":76561199123614910,"connected_time":582000000000,"state":"active","ping":95},{"user_id":24,"name":"Juice Box","steam_id":76561198322284568,"connected_time":831000000000,"state":"active","ping":62},{"user_id":25,"name":"Jetstream Sam","steam_id":76561198842076296,"connected_time":781000000000,"state":"active","ping":49},{"user_id":44,"name":"evan_is_sauce","steam_id":76561199086802383,"connected_time":308000000000,"state":"active","ping":64},{"user_id":27,"name":"Transbian mommy GF","steam_id":76561198153233822,"connected_time":752000000000,"state":"active","ping":92},{"user_id":28,"name":"O'brien","steam_id":76561198289339403,"connected_time":749000000000,"state":"active","ping":93},{"user_id":29,"name":"Voodo133","steam_id":76561198042670351,"connected_time":726000000000,"state":"active","ping":107},{"user_id":38,"name":"penguinever0","steam_id":76561198882179246,"connected_time":475000000000,"state":"active","ping":58},{"user_id":31,"name":"Kaiju","steam_id":76561198035703156,"connected_time":678000000000,"state":"active","ping":53},{"user_id":32,"name":"monkaHeal","steam_id":76561198127039453,"connected_time":672000000000,"state":"active","ping":78},{"user_id":33,"name":"sammy","steam_id":76561199001307670,"connected_time":664000000000,"state":"active","ping":105},{"user_id":34,"name":"kyso","steam_id":76561199011185438,"connected_time":650000000000,"state":"active","ping":75}]},{"server_id":405,"name":"Uncletopia | Dallas | 4 | Community","name_short":"dal-4","host":"dal-1.us.uncletopia.com","port":27045,"enabled":true,"region":"us-central","cc":"us","latitude":32.779167,"longitude":-96.80889,"reserved":0,"last_update":"0001-01-01T00:00:00Z","name_a2s":"Uncletopia | Dallas | 4 | Community","protocol":17,"map":"workshop/koth_product_final.ugc454272353","folder":"tf","game":"Team Fortress","app_id":440,"player_count":0,"max_players":24,"Bots":0,"server_type":"Dedicated","server_os":"Linux","password":true,"vac":true,"version":"7961495","steam_id":85568392924515220,"keywords":["cp","nocrits","nodmgspread","uncletopia"],"game_id":440,"stv_port":27046,"stv_name":"Uncletopia | Dallas | 4 | Community | STV","players":null},{"server_id":5,"name":"Uncletopia | Frankfurt | 1 | All Maps","name_short":"frk-1","host":"frk-1.de.uncletopia.com","port":27015,"enabled":true,"region":"eu","cc":"de","latitude":50.110924,"longitude":8.682127,"reserved":0,"last_update":"0001-01-01T00:00:00Z","name_a2s":"Uncletopia | Frankfurt | 1 | All Maps","protocol":17,"map":"pl_swiftwater_final1","folder":"tf","game":"Team Fortress","app_id":440,"player_count":24,"max_players":24,"Bots":0,"server_type":"Dedicated","server_os":"Linux","password":true,"vac":true,"version":"7961495","steam_id":85568392924469989,"keywords":["nocrits","nodmgspread","payload","uncletopia"],"game_id":440,"stv_port":27016,"stv_name":"Uncletopia | Frankfurt | 1 | All Maps | STV","players":[{"user_id":460,"name":"hedonic treadmill","steam_id":76561199114742711,"connected_time":691000000000,"state":"active","ping":86},{"user_id":474,"name":"F4.exe","steam_id":76561198278822807,"connected_time":131000000000,"state":"active","ping":61},{"user_id":468,"name":"jermany","steam_id":76561198126599355,"connected_time":299000000000,"state":"active","ping":71},{"user_id":429,"name":"xdeez","steam_id":76561198112312892,"connected_time":2338000000000,"state":"active","ping":79},{"user_id":455,"name":"I.C. Wiener","steam_id":76561197999912254,"connected_time":1353000000000,"state":"active","ping":85},{"user_id":476,"name":"puck","steam_id":76561198121260981,"connected_time":102000000000,"state":"active","ping":47},{"user_id":475,"name":"Pls.do.it!","steam_id":76561198211638119,"connected_time":128000000000,"state":"active","ping":65},{"user_id":472,"name":"Kirby has a gun","steam_id":76561198130146148,"connected_time":191000000000,"state":"active","ping":86},{"user_id":457,"name":"Alice","steam_id":76561198052410860,"connected_time":812000000000,"state":"active","ping":133},{"user_id":467,"name":"bananaincereal","steam_id":76561199312509902,"connected_time":346000000000,"state":"active","ping":113},{"user_id":456,"name":"I'm Pain","steam_id":76561199167781869,"connected_time":1020000000000,"state":"active","ping":60},{"user_id":477,"name":"howabe","steam_id":76561197996486818,"connected_time":98000000000,"state":"active","ping":50},{"user_id":473,"name":"MemeLord","steam_id":76561198135115524,"connected_time":184000000000,"state":"active","ping":55},{"user_id":458,"name":"Billen Boer Bart","steam_id":76561198854111713,"connected_time":802000000000,"state":"active","ping":47},{"user_id":452,"name":"HelwiiHill","steam_id":76561198066730552,"connected_time":1652000000000,"state":"active","ping":86},{"user_id":454,"name":"waddle dork","steam_id":76561198297349985,"connected_time":1605000000000,"state":"active","ping":61},{"user_id":461,"name":"medicinal man","steam_id":76561198202668788,"connected_time":664000000000,"state":"active","ping":59},{"user_id":478,"name":"MegaFox.not","steam_id":76561198036158737,"connected_time":88000000000,"state":"active","ping":140},{"user_id":418,"name":"live funny joke reaction cam","steam_id":76561198346324423,"connected_time":2779000000000,"state":"active","ping":108},{"user_id":471,"name":"lolimsogreat21","steam_id":76561199052033788,"connected_time":258000000000,"state":"active","ping":74},{"user_id":479,"name":"Maksim:)","steam_id":76561198816061842,"connected_time":86000000000,"state":"active","ping":72},{"user_id":450,"name":"blazeeight","steam_id":76561198159456502,"connected_time":1699000000000,"state":"active","ping":62},{"user_id":409,"name":"robu","steam_id":76561198113874116,"connected_time":3044000000000,"state":"active","ping":84},{"user_id":480,"name":"bogdan.pro.roblox.biodegradable","steam_id":76561199489020776,"connected_time":81000000000,"state":"active","ping":72}]},{"server_id":110,"name":"Uncletopia | Frankfurt | 2 | All Maps","name_short":"frk-2","host":"frk-1.de.uncletopia.com","port":27025,"enabled":true,"region":"eu","cc":"de","latitude":50.110924,"longitude":8.682127,"reserved":0,"last_update":"0001-01-01T00:00:00Z","name_a2s":"Uncletopia | Frankfurt | 2 | All Maps","protocol":17,"map":"koth_harvest_final","folder":"tf","game":"Team Fortress","app_id":440,"player_count":24,"max_players":24,"Bots":0,"server_type":"Dedicated","server_os":"Linux","password":true,"vac":true,"version":"7961495","steam_id":85568392924469990,"keywords":["cp","nocrits","nodmgspread","uncletopia"],"game_id":440,"stv_port":27026,"stv_name":"Uncletopia | Frankfurt | 2 | All Maps | STV","players":[{"user_id":384,"name":"deepnotic","steam_id":76561199154324805,"connected_time":153000000000,"state":"active","ping":79},{"user_id":352,"name":"_Shkoot","steam_id":76561198318170398,"connected_time":2341000000000,"state":"active","ping":47},{"user_id":349,"name":"squillisky","steam_id":76561198083569327,"connected_time":2388000000000,"state":"active","ping":61},{"user_id":374,"name":"Gibby","steam_id":76561198048213112,"connected_time":907000000000,"state":"active","ping":49},{"user_id":371,"name":"radek","steam_id":76561197998883721,"connected_time":1106000000000,"state":"active","ping":64},{"user_id":337,"name":"Cabbch","steam_id":76561198045955679,"connected_time":3137000000000,"state":"active","ping":60},{"user_id":385,"name":"fortnite balls","steam_id":76561198308885950,"connected_time":134000000000,"state":"active","ping":73},{"user_id":367,"name":"mossfan1","steam_id":76561198087525446,"connected_time":1784000000000,"state":"active","ping":80},{"user_id":360,"name":"Lev","steam_id":76561198125104877,"connected_time":1852000000000,"state":"active","ping":86},{"user_id":380,"name":"I am on the TF2 Scoreboard...","steam_id":76561198043850884,"connected_time":348000000000,"state":"active","ping":67},{"user_id":339,"name":"rwota","steam_id":76561198385769722,"connected_time":3060000000000,"state":"active","ping":107},{"user_id":345,"name":"Dr. Le Quack","steam_id":76561197995711176,"connected_time":2481000000000,"state":"active","ping":75},{"user_id":383,"name":"Ironic Butler","steam_id":76561198126813555,"connected_time":265000000000,"state":"active","ping":76},{"user_id":378,"name":"Real (Real)","steam_id":76561198323425034,"connected_time":548000000000,"state":"active","ping":83},{"user_id":350,"name":"Fat Pigeon","steam_id":76561198817940142,"connected_time":2381000000000,"state":"active","ping":49},{"user_id":341,"name":"SalCrabber deluxe","steam_id":76561198275942961,"connected_time":2876000000000,"state":"active","ping":45},{"user_id":379,"name":"Arsonist","steam_id":76561199087953833,"connected_time":502000000000,"state":"active","ping":96},{"user_id":310,"name":"hubert","steam_id":76561198057722639,"connected_time":5221000000000,"state":"active","ping":60},{"user_id":343,"name":"baballe","steam_id":76561198302448192,"connected_time":2774000000000,"state":"active","ping":42},{"user_id":338,"name":"Nittugai","steam_id":76561198067366462,"connected_time":3114000000000,"state":"active","ping":60},{"user_id":382,"name":"TJ1212","steam_id":76561199013575313,"connected_time":282000000000,"state":"active","ping":61},{"user_id":369,"name":"Heinrich","steam_id":76561198063897745,"connected_time":1183000000000,"state":"active","ping":69},{"user_id":375,"name":"Moshe","steam_id":76561198134116603,"connected_time":775000000000,"state":"active","ping":90},{"user_id":300,"name":"Trolling Man","steam_id":76561198044084210,"connected_time":5712000000000,"state":"active","ping":75}]},{"server_id":308,"name":"Uncletopia | Frankfurt | 3 | All Maps","name_short":"frk-3","host":"frk-1.de.uncletopia.com","port":27035,"enabled":true,"region":"eu","cc":"de","latitude":50.110924,"longitude":8.682127,"reserved":0,"last_update":"0001-01-01T00:00:00Z","name_a2s":"Uncletopia | Frankfurt | 3 | All Maps","protocol":17,"map":"cp_process_final","folder":"tf","game":"Team Fortress","app_id":440,"player_count":24,"max_players":24,"Bots":0,"server_type":"Dedicated","server_os":"Linux","password":true,"vac":true,"version":"7961495","steam_id":85568392924504274,"keywords":["cp","nocrits","nodmgspread","uncletopia"],"game_id":440,"stv_port":27036,"stv_name":"Uncletopia | Frankfurt | 3 | All Maps | STV","players":[{"user_id":157,"name":"W.A. the Anum","steam_id":76561198038310096,"connected_time":787000000000,"state":"active","ping":73},{"user_id":183,"name":"ImNotSimon","steam_id":76561197997921083,"connected_time":51000000000,"state":"active","ping":88},{"user_id":112,"name":"Nozzo","steam_id":76561198012367783,"connected_time":2991000000000,"state":"active","ping":72},{"user_id":177,"name":"Bobertthethird","steam_id":76561199153563722,"connected_time":289000000000,"state":"active","ping":76},{"user_id":158,"name":"Hexagon","steam_id":76561198151205758,"connected_time":762000000000,"state":"active","ping":45},{"user_id":161,"name":"Average Swiss Cult enjoyer","steam_id":76561199226729354,"connected_time":623000000000,"state":"active","ping":58},{"user_id":173,"name":"Thrain0282","steam_id":76561198771564597,"connected_time":378000000000,"state":"active","ping":190},{"user_id":152,"name":"mAx","steam_id":76561198449332498,"connected_time":956000000000,"state":"active","ping":77},{"user_id":100,"name":"s a i","steam_id":76561197970379754,"connected_time":3246000000000,"state":"active","ping":45},{"user_id":150,"name":"CEO of Racism","steam_id":76561198042317958,"connected_time":977000000000,"state":"active","ping":53},{"user_id":162,"name":"shoras","steam_id":76561198019680159,"connected_time":614000000000,"state":"active","ping":89},{"user_id":171,"name":"Fridge","steam_id":76561198071665589,"connected_time":403000000000,"state":"active","ping":91},{"user_id":146,"name":"bigwish | bmod.tf","steam_id":76561197997859723,"connected_time":1098000000000,"state":"active","ping":80},{"user_id":178,"name":"GoatLord1","steam_id":76561198157964544,"connected_time":275000000000,"state":"active","ping":61},{"user_id":169,"name":"Welder","steam_id":76561198355300561,"connected_time":537000000000,"state":"active","ping":73},{"user_id":181,"name":"PROFILE NAME","steam_id":76561198180056982,"connected_time":204000000000,"state":"active","ping":62},{"user_id":166,"name":"Drazabit","steam_id":76561199078588105,"connected_time":574000000000,"state":"active","ping":168},{"user_id":182,"name":"Burrito","steam_id":76561198023919089,"connected_time":130000000000,"state":"active","ping":84},{"user_id":151,"name":"Jannisxxl","steam_id":76561198048377916,"connected_time":970000000000,"state":"active","ping":68},{"user_id":176,"name":"Rynew","steam_id":76561199115327193,"connected_time":328000000000,"state":"active","ping":67},{"user_id":180,"name":"Urfangonultasadana","steam_id":76561199389286151,"connected_time":214000000000,"state":"active","ping":100},{"user_id":174,"name":"runcar222","steam_id":76561198077085528,"connected_time":332000000000,"state":"active","ping":69},{"user_id":170,"name":"Udinese Dion","steam_id":76561198067931573,"connected_time":510000000000,"state":"active","ping":52},{"user_id":140,"name":"‚ôÇ MGE ‚ôÇ PUPSIK ‚ôÇ","steam_id":76561198308302932,"connected_time":1184000000000,"state":"active","ping":89}]},{"server_id":309,"name":"Uncletopia | Frankfurt | 4 | All Maps","name_short":"frk-4","host":"frk-1.de.uncletopia.com","port":27045,"enabled":true,"region":"eu","cc":"de","latitude":50.110924,"longitude":8.682127,"reserved":0,"last_update":"0001-01-01T00:00:00Z","name_a2s":"Uncletopia | Frankfurt | 4 | All Maps","protocol":17,"map":"koth_lakeside_final","folder":"tf","game":"Team Fortress","app_id":440,"player_count":24,"max_players":24,"Bots":0,"server_type":"Dedicated","server_os":"Linux","password":true,"vac":true,"version":"7961495","steam_id":85568392924504275,"keywords":["cp","nocrits","nodmgspread","uncletopia"],"game_id":440,"stv_port":27046,"stv_name":"Uncletopia | Frankfurt | 4 | All Maps | STV","players":[{"user_id":521,"name":"IShagMyCat","steam_id":76561199384639549,"connected_time":279000000000,"state":"active","ping":69},{"user_id":456,"name":"Kiioto # iLoveJesus","steam_id":76561198990962542,"connected_time":2686000000000,"state":"active","ping":68},{"user_id":520,"name":"Gruset","steam_id":76561198327512432,"connected_time":393000000000,"state":"active","ping":89},{"user_id":506,"name":"kelm","steam_id":76561198027166144,"connected_time":855000000000,"state":"active","ping":77},{"user_id":511,"name":"NatOrPie","steam_id":76561198079501388,"connected_time":740000000000,"state":"active","ping":166},{"user_id":472,"name":"Helusion","steam_id":76561198207207269,"connected_time":2214000000000,"state":"active","ping":48},{"user_id":507,"name":"piano","steam_id":76561198353601160,"connected_time":831000000000,"state":"active","ping":100},{"user_id":512,"name":"ivanhus_","steam_id":76561199048134719,"connected_time":730000000000,"state":"active","ping":77},{"user_id":480,"name":"failed poet","steam_id":76561198987041283,"connected_time":1914000000000,"state":"active","ping":67},{"user_id":482,"name":"MagicTITIKAKA","steam_id":76561198129509548,"connected_time":1890000000000,"state":"active","ping":100},{"user_id":491,"name":"Supa Sharpshooter","steam_id":76561198029489838,"connected_time":1585000000000,"state":"active","ping":79},{"user_id":487,"name":"sock","steam_id":76561198211198731,"connected_time":1841000000000,"state":"active","ping":47},{"user_id":513,"name":"greezelag","steam_id":76561198053015949,"connected_time":719000000000,"state":"active","ping":61},{"user_id":475,"name":"zek","steam_id":76561198862763731,"connected_time":2098000000000,"state":"active","ping":54},{"user_id":470,"name":"GregerUlander","steam_id":76561198152375055,"connected_time":2336000000000,"state":"active","ping":84},{"user_id":457,"name":"the most annoying man on earth","steam_id":76561199059078922,"connected_time":2665000000000,"state":"active","ping":103},{"user_id":508,"name":"clean carp","steam_id":76561198127053294,"connected_time":827000000000,"state":"active","ping":73},{"user_id":519,"name":"Sir Sandvich","steam_id":76561198213908089,"connected_time":438000000000,"state":"active","ping":89},{"user_id":522,"name":"John Fortnite Kennedy","steam_id":76561198812473597,"connected_time":224000000000,"state":"active","ping":87},{"user_id":499,"name":"Xriasp","steam_id":76561198104721321,"connected_time":1135000000000,"state":"active","ping":88},{"user_id":492,"name":"Kn√∂sta","steam_id":76561198143422139,"connected_time":1562000000000,"state":"active","ping":106},{"user_id":515,"name":"Flying skyhigh","steam_id":76561198372971096,"connected_time":702000000000,"state":"active","ping":76},{"user_id":517,"name":"Sir Mega Pint","steam_id":76561198093177578,"connected_time":685000000000,"state":"active","ping":66},{"user_id":518,"name":"madrassen","steam_id":76561198279855271,"connected_time":651000000000,"state":"active","ping":78}]},{"server_id":310,"name":"Uncletopia | Frankfurt | 5 | All Maps","name_short":"frk-5","host":"frk-1.de.uncletopia.com","port":27055,"enabled":true,"region":"eu","cc":"de","latitude":50.110924,"longitude":8.682127,"reserved":0,"last_update":"0001-01-01T00:00:00Z","name_a2s":"Uncletopia | Frankfurt | 5 | All Maps","protocol":17,"map":"pl_pier","folder":"tf","game":"Team Fortress","app_id":440,"player_count":24,"max_players":24,"Bots":0,"server_type":"Dedicated","server_os":"Linux","password":true,"vac":true,"version":"7961495","steam_id":85568392924504277,"keywords":["nocrits","nodmgspread","payload","uncletopia"],"game_id":440,"stv_port":27056,"stv_name":"Uncletopia | Frankfurt | 5 | All Maps | STV","players":[{"user_id":466,"name":"Crotchless Sweater","steam_id":76561197960429394,"connected_time":5122000000000,"state":"active","ping":60},{"user_id":493,"name":"spudgun","steam_id":76561199119419738,"connected_time":3210000000000,"state":"active","ping":65},{"user_id":517,"name":"Random","steam_id":76561199079951047,"connected_time":937000000000,"state":"active","ping":91},{"user_id":453,"name":"Klown Beatbox","steam_id":76561198131125058,"connected_time":5964000000000,"state":"active","ping":49},{"user_id":518,"name":"puuksu_mees7","steam_id":76561198022616643,"connected_time":709000000000,"state":"active","ping":74},{"user_id":433,"name":"WhatKatziSein","steam_id":76561199383552805,"connected_time":7348000000000,"state":"active","ping":62},{"user_id":503,"name":"Tohtori gerhard (official)","steam_id":76561198835081622,"connected_time":2574000000000,"state":"active","ping":92},{"user_id":521,"name":"SYLOK","steam_id":76561198117257427,"connected_time":352000000000,"state":"active","ping":87},{"user_id":512,"name":"Niko","steam_id":76561199006295285,"connected_time":1108000000000,"state":"active","ping":70},{"user_id":495,"name":"le'pablo","steam_id":76561199009805208,"connected_time":3154000000000,"state":"active","ping":102},{"user_id":480,"name":"Bill_nye_epic","steam_id":76561199216249214,"connected_time":4520000000000,"state":"active","ping":131},{"user_id":522,"name":"Archive","steam_id":76561198071255385,"connected_time":158000000000,"state":"active","ping":91},{"user_id":468,"name":"EnchantedTap","steam_id":76561199007516083,"connected_time":5119000000000,"state":"active","ping":90},{"user_id":496,"name":"wah","steam_id":76561198831652772,"connected_time":3137000000000,"state":"active","ping":109},{"user_id":455,"name":"icy demons","steam_id":76561198131391052,"connected_time":5952000000000,"state":"active","ping":54},{"user_id":513,"name":"FOX","steam_id":76561199118103398,"connected_time":1097000000000,"state":"active","ping":72},{"user_id":509,"name":"BOLAXA","steam_id":76561198228406008,"connected_time":1195000000000,"state":"active","ping":81},{"user_id":502,"name":"Sidorovichs left ball","steam_id":76561199058102308,"connected_time":2857000000000,"state":"active","ping":64},{"user_id":472,"name":"Finnish Farmer","steam_id":76561198205366043,"connected_time":4991000000000,"state":"active","ping":84},{"user_id":514,"name":"The Empire Ant","steam_id":76561198082466790,"connected_time":1074000000000,"state":"active","ping":53},{"user_id":519,"name":"Ziy???","steam_id":76561197995765491,"connected_time":702000000000,"state":"active","ping":71},{"user_id":499,"name":"Da pidro's laif!","steam_id":76561198961095597,"connected_time":3130000000000,"state":"active","ping":106},{"user_id":500,"name":"Vivon","steam_id":76561198830042245,"connected_time":3117000000000,"state":"active","ping":129},{"user_id":516,"name":"Gabys","steam_id":76561198282892553,"connected_time":1043000000000,"state":"active","ping":74}]},{"server_id":311,"name":"Uncletopia | Frankfurt | 6 | All Maps","name_short":"frk-6","host":"frk-1.de.uncletopia.com","port":27065,"enabled":true,"region":"eu","cc":"de","latitude":50.110924,"longitude":8.682127,"reserved":0,"last_update":"0001-01-01T00:00:00Z","name_a2s":"Uncletopia | Frankfurt | 6 | All Maps","protocol":17,"map":"cp_mountainlab","folder":"tf","game":"Team Fortress","app_id":440,"player_count":0,"max_players":24,"Bots":0,"server_type":"Dedicated","server_os":"Linux","password":true,"vac":true,"version":"7961495","steam_id":85568392924504278,"keywords":["cp","nocrits","nodmgspread","uncletopia"],"game_id":440,"stv_port":27066,"stv_name":"Uncletopia | Frankfurt | 6 | All Maps | STV","players":null},{"server_id":23,"name":"Uncletopia | Frankfurt | 7 | Stopwatch","name_short":"frk-7","host":"frk-1.de.uncletopia.com","port":27075,"enabled":true,"region":"eu","cc":"de","latitude":50.110924,"longitude":8.682127,"reserved":0,"last_update":"0001-01-01T00:00:00Z","name_a2s":"Uncletopia | Frankfurt | 7 | Stopwatch","protocol":17,"map":"workshop/pl_summercoast_rc8e.ugc1761528829","folder":"tf","game":"Team Fortress","app_id":440,"player_count":0,"max_players":24,"Bots":0,"server_type":"Dedicated","server_os":"Linux","password":true,"vac":true,"version":"7961495","steam_id":85568392924742827,"keywords":["nocrits","nodmgspread","payload","uncletopia"],"game_id":440,"stv_port":27076,"stv_name":"Uncletopia | Frankfurt | 7 | Stopwatch | STV","players":null},{"server_id":24,"name":"Uncletopia | Frankfurt | 8 | Community","name_short":"frk-8","host":"frk-1.de.uncletopia.com","port":27085,"enabled":true,"region":"eu","cc":"de","latitude":50.110924,"longitude":8.682127,"reserved":0,"last_update":"0001-01-01T00:00:00Z","name_a2s":"Uncletopia | Frankfurt | 8 | Community","protocol":17,"map":"workshop/cp_glacier_rc6.ugc2905735376","folder":"tf","game":"Team Fortress","app_id":440,"player_count":0,"max_players":24,"Bots":0,"server_type":"Dedicated","server_os":"Linux","password":true,"vac":true,"version":"7961495","steam_id":85568392924742828,"keywords":["cp","nocrits","nodmgspread","uncletopia"],"game_id":440,"stv_port":27086,"stv_name":"Uncletopia | Frankfurt | 8 | Community | STV","players":null},{"server_id":202,"name":"Uncletopia | Hong Kong | 1 | All Maps","name_short":"hgk-1","host":"hgk-1.hk.uncletopia.com","port":27015,"enabled":true,"region":"asia","cc":"hk","latitude":22.302711,"longitude":114.177216,"reserved":0,"last_update":"0001-01-01T00:00:00Z","name_a2s":"Uncletopia | Hong Kong | 1 | All Maps","protocol":17,"map":"cp_altitude","folder":"tf","game":"Team Fortress","app_id":440,"player_count":2,"max_players":24,"Bots":0,"server_type":"Dedicated","server_os":"Linux","password":true,"vac":true,"version":"7961495","steam_id":85568392924494504,"keywords":["cp","nocrits","nodmgspread","uncletopia"],"game_id":440,"stv_port":27016,"stv_name":"Uncletopia | Hong Kong | 1 | All Maps | STV","players":[{"user_id":634,"name":"cxllap847","steam_id":76561199487748871,"connected_time":2175000000000,"state":"active","ping":368},{"user_id":635,"name":"kefteme","steam_id":76561199068178357,"connected_time":663000000000,"state":"active","ping":399}]},{"server_id":1,"name":"Uncletopia | Los Angeles | 1 | All Maps","name_short":"lax-1","host":"lax-1.us.uncletopia.com","port":27015,"enabled":true,"region":"us-west","cc":"us","latitude":33.94279,"longitude":-118.41004,"reserved":0,"last_update":"0001-01-01T00:00:00Z","name_a2s":"Uncletopia | Los Angeles | 1 | All Maps","protocol":17,"map":"pl_frontier_final","folder":"tf","game":"Team Fortress","app_id":440,"player_count":24,"max_players":24,"Bots":0,"server_type":"Dedicated","server_os":"Linux","password":true,"vac":true,"version":"7961495","steam_id":85568392924469991,"keywords":["nocrits","nodmgspread","payload","uncletopia"],"game_id":440,"stv_port":27016,"stv_name":"Uncletopia | Los Angeles | 1 | All Maps | STV","players":[{"user_id":51,"name":"Frank [LIVE ON TWITCH]","steam_id":76561198126681511,"connected_time":1472000000000,"state":"active","ping":69},{"user_id":52,"name":"Mr.Nostalgic","steam_id":76561198083240822,"connected_time":1421000000000,"state":"active","ping":67},{"user_id":62,"name":"Phoysh","steam_id":76561198137111021,"connected_time":550000000000,"state":"active","ping":86},{"user_id":46,"name":"pluto","steam_id":76561198199079731,"connected_time":1787000000000,"state":"active","ping":76},{"user_id":56,"name":"crowe","steam_id":76561198142185527,"connected_time":988000000000,"state":"active","ping":54},{"user_id":29,"name":"K2f","steam_id":76561198049600563,"connected_time":3078000000000,"state":"active","ping":56},{"user_id":63,"name":"rad killl raccoon","steam_id":76561198980975595,"connected_time":442000000000,"state":"active","ping":94},{"user_id":11,"name":"Mom","steam_id":76561198207936000,"connected_time":4025000000000,"state":"active","ping":45},{"user_id":45,"name":"[‚òØ] randomshagz*","steam_id":76561197968666646,"connected_time":1959000000000,"state":"active","ping":68},{"user_id":13,"name":"tiredfisherman69","steam_id":76561199228963816,"connected_time":3971000000000,"state":"active","ping":68},{"user_id":66,"name":"Nibotshooter","steam_id":76561199284825579,"connected_time":186000000000,"state":"active","ping":73},{"user_id":54,"name":"doobie the hutt","steam_id":76561198088873640,"connected_time":1025000000000,"state":"active","ping":81},{"user_id":57,"name":"AilurosMajor88","steam_id":76561198350900640,"connected_time":986000000000,"state":"active","ping":89},{"user_id":21,"name":"Satori Komeiji","steam_id":76561198158211423,"connected_time":3271000000000,"state":"active","ping":49},{"user_id":41,"name":"USDA Prime Beef","steam_id":76561198051630218,"connected_time":2150000000000,"state":"active","ping":130},{"user_id":61,"name":"d4ngerd4n","steam_id":76561198043758735,"connected_time":700000000000,"state":"active","ping":60},{"user_id":47,"name":"Dallas","steam_id":76561198066542919,"connected_time":1776000000000,"state":"active","ping":93},{"user_id":38,"name":"Waffle Wannabe","steam_id":76561198064510650,"connected_time":2650000000000,"state":"active","ping":114},{"user_id":31,"name":"Taco+Taco=Burrito","steam_id":76561198063128663,"connected_time":3037000000000,"state":"active","ping":43},{"user_id":64,"name":"Elim","steam_id":76561198136335802,"connected_time":240000000000,"state":"active","ping":45},{"user_id":35,"name":"wcclark","steam_id":76561198001607116,"connected_time":2943000000000,"state":"active","ping":110},{"user_id":36,"name":"Sprucelass","steam_id":76561197998391724,"connected_time":2942000000000,"state":"active","ping":115},{"user_id":37,"name":"Always Here for You","steam_id":76561198219252313,"connected_time":2900000000000,"state":"active","ping":102},{"user_id":49,"name":"Jpxfred","steam_id":76561199414783749,"connected_time":1722000000000,"state":"active","ping":75}]},{"server_id":112,"name":"Uncletopia | Los Angeles | 2 | All Maps","name_short":"lax-2","host":"lax-1.us.uncletopia.com","port":27025,"enabled":true,"region":"us-west","cc":"us","latitude":33.94279,"longitude":-118.41004,"reserved":0,"last_update":"0001-01-01T00:00:00Z","name_a2s":"Uncletopia | Los Angeles | 2 | All Maps","protocol":17,"map":"cp_altitude","folder":"tf","game":"Team Fortress","app_id":440,"player_count":0,"max_players":24,"Bots":0,"server_type":"Dedicated","server_os":"Linux","password":true,"vac":true,"version":"7961495","steam_id":85568392924469992,"keywords":["cp","nocrits","nodmgspread","uncletopia"],"game_id":440,"stv_port":27026,"stv_name":"Uncletopia | Los Angeles | 2 | All Maps | STV","players":null},{"server_id":324,"name":"Uncletopia | Los Angeles | 3 | All Maps","name_short":"lax-3","host":"lax-1.us.uncletopia.com","port":27035,"enabled":true,"region":"us-west","cc":"us","latitude":33.94279,"longitude":-118.41004,"reserved":0,"last_update":"0001-01-01T00:00:00Z","name_a2s":"Uncletopia | Los Angeles | 3 | All Maps","protocol":17,"map":"pl_pier","folder":"tf","game":"Team Fortress","app_id":440,"player_count":3,"max_players":24,"Bots":0,"server_type":"Dedicated","server_os":"Linux","password":true,"vac":true,"version":"7961495","steam_id":85568392924510198,"keywords":["nocrits","nodmgspread","payload","uncletopia"],"game_id":440,"stv_port":27036,"stv_name":"Uncletopia | Los Angeles | 3 | All Maps | STV","players":[{"user_id":12,"name":"uskthedwarf","steam_id":76561199076096095,"connected_time":765000000000,"state":"active","ping":95},{"user_id":15,"name":"Subderhenge","steam_id":76561198090955892,"connected_time":77000000000,"state":"active","ping":95},{"user_id":8,"name":"NINJA WOLF","steam_id":76561199367386860,"connected_time":1784000000000,"state":"active","ping":77}]},{"server_id":25,"name":"Uncletopia | Los Angeles | 4 | Stopwatch","name_short":"lax-4","host":"lax-1.us.uncletopia.com","port":27045,"enabled":true,"region":"us-west","cc":"us","latitude":33.94279,"longitude":-118.41004,"reserved":0,"last_update":"0001-01-01T00:00:00Z","name_a2s":"Uncletopia | Los Angeles | 4 | Stopwatch","protocol":17,"map":"pl_barnblitz","folder":"tf","game":"Team Fortress","app_id":440,"player_count":0,"max_players":24,"Bots":0,"server_type":"Dedicated","server_os":"Linux","password":true,"vac":true,"version":"7961495","steam_id":85568392924510199,"keywords":["nocrits","nodmgspread","payload","uncletopia"],"game_id":440,"stv_port":27046,"stv_name":"Uncletopia | Los Angeles | 4 | Stopwatch | STV","players":null},{"server_id":11,"name":"Uncletopia | London | 1 | All Maps","name_short":"lon-1","host":"lon-1.uk.uncletopia.com","port":27015,"enabled":true,"region":"eu","cc":"gb","latitude":51.509865,"longitude":-0.118092,"reserved":0,"last_update":"0001-01-01T00:00:00Z","name_a2s":"Uncletopia | London | 1 | All Maps","protocol":17,"map":"pl_upward","folder":"tf","game":"Team Fortress","app_id":440,"player_count":24,"max_players":24,"Bots":0,"server_type":"Dedicated","server_os":"Linux","password":true,"vac":true,"version":"7961495","steam_id":85568392924367362,"keywords":["nocrits","nodmgspread","payload","uncletopia"],"game_id":440,"stv_port":27016,"stv_name":"Uncletopia | London | 1 | All Maps | STV","players":[{"user_id":583,"name":"Gent","steam_id":76561198037167890,"connected_time":2331000000000,"state":"active","ping":85},{"user_id":585,"name":"Jonno","steam_id":76561198023443744,"connected_time":2315000000000,"state":"active","ping":44},{"user_id":535,"name":"2 gems 1 coal","steam_id":76561198043601838,"connected_time":6105000000000,"state":"active","ping":61},{"user_id":609,"name":"The indomitable human spirit","steam_id":76561198368339225,"connected_time":52000000000,"state":"active","ping":186},{"user_id":506,"name":"shooer!","steam_id":76561198110531281,"connected_time":8754000000000,"state":"active","ping":72},{"user_id":604,"name":"Atlas","steam_id":76561197991491283,"connected_time":970000000000,"state":"active","ping":59},{"user_id":607,"name":"pierogi","steam_id":76561198718760200,"connected_time":84000000000,"state":"active","ping":47},{"user_id":605,"name":"un poisson rouge","steam_id":76561199057953617,"connected_time":869000000000,"state":"active","ping":60},{"user_id":610,"name":"jackchan37","steam_id":76561199084555750,"connected_time":34000000000,"state":"active","ping":50},{"user_id":602,"name":"rets_","steam_id":76561198061551392,"connected_time":1035000000000,"state":"active","ping":60},{"user_id":606,"name":"Przemomalin","steam_id":76561197987528170,"connected_time":696000000000,"state":"active","ping":148},{"user_id":601,"name":"Gregorio","steam_id":76561198179463343,"connected_time":1089000000000,"state":"active","ping":45},{"user_id":600,"name":"owo","steam_id":76561198158209651,"connected_time":1287000000000,"state":"active","ping":75},{"user_id":579,"name":"ra","steam_id":76561198239927434,"connected_time":2962000000000,"state":"active","ping":87},{"user_id":597,"name":"Slifer the Acorn","steam_id":76561198062255803,"connected_time":1625000000000,"state":"active","ping":69},{"user_id":446,"name":"hyvakii705","steam_id":76561198086630552,"connected_time":12617000000000,"state":"active","ping":93},{"user_id":590,"name":"smell_my_cheese","steam_id":76561198008517427,"connected_time":1926000000000,"state":"active","ping":58},{"user_id":598,"name":"Mircoxi","steam_id":76561199407632710,"connected_time":1544000000000,"state":"active","ping":62},{"user_id":532,"name":"dash.","steam_id":76561198084796149,"connected_time":7029000000000,"state":"active","ping":46},{"user_id":578,"name":"jimmy bob","steam_id":76561198319583692,"connected_time":3038000000000,"state":"active","ping":61},{"user_id":570,"name":"glorpis","steam_id":76561199225333422,"connected_time":3456000000000,"state":"active","ping":55},{"user_id":592,"name":"‚ô•aura‚ô•","steam_id":76561198066258544,"connected_time":1855000000000,"state":"active","ping":68},{"user_id":594,"name":"Mr_Pulse_","steam_id":76561198095001602,"connected_time":1799000000000,"state":"active","ping":101},{"user_id":587,"name":"willus212","steam_id":76561199182615246,"connected_time":2207000000000,"state":"active","ping":86}]},{"server_id":114,"name":"Uncletopia | London | 2 | All Maps","name_short":"lon-2","host":"lon-1.uk.uncletopia.com","port":27025,"enabled":true,"region":"eu","cc":"gb","latitude":51.509865,"longitude":-0.118092,"reserved":0,"last_update":"0001-01-01T00:00:00Z","name_a2s":"Uncletopia | London | 2 | All Maps","protocol":17,"map":"pl_badwater","folder":"tf","game":"Team Fortress","app_id":440,"player_count":24,"max_players":24,"Bots":0,"server_type":"Dedicated","server_os":"Linux","password":true,"vac":true,"version":"7961495","steam_id":85568392924470941,"keywords":["nocrits","nodmgspread","payload","uncletopia"],"game_id":440,"stv_port":27026,"stv_name":"Uncletopia | London | 2 | All Maps | STV","players":[{"user_id":292,"name":"T0bias","steam_id":76561199256229877,"connected_time":1766000000000,"state":"active","ping":101},{"user_id":302,"name":"ÿ±ÿßŸäŸÜ","steam_id":76561199167206295,"connected_time":623000000000,"state":"active","ping":85},{"user_id":298,"name":"CerealKiller154","steam_id":76561198831177630,"connected_time":859000000000,"state":"active","ping":108},{"user_id":293,"name":"d","steam_id":76561198165550964,"connected_time":1746000000000,"state":"active","ping":62},{"user_id":253,"name":"BoBunny McGlitter","steam_id":76561198057403817,"connected_time":5524000000000,"state":"active","ping":61},{"user_id":270,"name":"Sirzen","steam_id":76561198170155434,"connected_time":4012000000000,"state":"active","ping":47},{"user_id":190,"name":"Ullr","steam_id":76561198140547483,"connected_time":9407000000000,"state":"active","ping":37},{"user_id":196,"name":"AWP Bodyshot :) ‚ù§","steam_id":76561198029928533,"connected_time":9277000000000,"state":"active","ping":59},{"user_id":305,"name":"Busta-Ma-Balls","steam_id":76561198005777658,"connected_time":536000000000,"state":"active","ping":136},{"user_id":303,"name":"mountainkug","steam_id":76561199491802535,"connected_time":575000000000,"state":"active","ping":133},{"user_id":259,"name":"SovietZombie‚Ñ¢","steam_id":76561198140093751,"connected_time":4941000000000,"state":"active","ping":43},{"user_id":283,"name":"Roman","steam_id":76561197967683724,"connected_time":2880000000000,"state":"active","ping":42},{"user_id":317,"name":"DarthPaul8181","steam_id":76561198373050455,"connected_time":50000000000,"state":"active","ping":52},{"user_id":294,"name":"Pierdu","steam_id":76561198028705770,"connected_time":1742000000000,"state":"active","ping":50},{"user_id":304,"name":"Sir Cauterize","steam_id":76561198047079422,"connected_time":559000000000,"state":"active","ping":54},{"user_id":306,"name":"Soul Of Caber","steam_id":76561198110395811,"connected_time":520000000000,"state":"active","ping":106},{"user_id":318,"name":"Castellan","steam_id":76561197994861142,"connected_time":11000000000,"state":"spawning","ping":47},{"user_id":308,"name":"Qdarks","steam_id":76561198013391340,"connected_time":492000000000,"state":"active","ping":142},{"user_id":299,"name":"JareJare","steam_id":76561199040893751,"connected_time":705000000000,"state":"active","ping":73},{"user_id":314,"name":"kipod616","steam_id":76561198431183777,"connected_time":369000000000,"state":"active","ping":95},{"user_id":309,"name":"My left foot itches","steam_id":76561198078411001,"connected_time":486000000000,"state":"active","ping":90},{"user_id":297,"name":"Mackjoe","steam_id":76561199160217709,"connected_time":1231000000000,"state":"active","ping":64},{"user_id":281,"name":"The Engineer","steam_id":76561199437330739,"connected_time":2923000000000,"state":"active","ping":67},{"user_id":311,"name":"Vesoljƒçek Dino","steam_id":76561198117141034,"connected_time":420000000000,"state":"active","ping":89}]},{"server_id":320,"name":"Uncletopia | London | 3 | All Maps","name_short":"lon-3","host":"lon-1.uk.uncletopia.com","port":27035,"enabled":true,"region":"eu","cc":"gb","latitude":51.509865,"longitude":-0.118092,"reserved":0,"last_update":"0001-01-01T00:00:00Z","name_a2s":"Uncletopia | London | 3 | All Maps","protocol":17,"map":"pl_upward","folder":"tf","game":"Team Fortress","app_id":440,"player_count":24,"max_players":24,"Bots":0,"server_type":"Dedicated","server_os":"Linux","password":true,"vac":true,"version":"7961495","steam_id":85568392924510192,"keywords":["nocrits","nodmgspread","payload","uncletopia"],"game_id":440,"stv_port":27036,"stv_name":"Uncletopia | London | 3 | All Maps | STV","players":[{"user_id":169,"name":"Voks_","steam_id":76561198159687785,"connected_time":2335000000000,"state":"active","ping":63},{"user_id":181,"name":"Cookies and Bakies","steam_id":76561198017442928,"connected_time":1341000000000,"state":"active","ping":73},{"user_id":183,"name":"wintrrs","steam_id":76561198803089656,"connected_time":1241000000000,"state":"active","ping":75},{"user_id":188,"name":"I have 42 pipe bombs in my ass","steam_id":76561199111979000,"connected_time":1046000000000,"state":"active","ping":56},{"user_id":189,"name":"akakez","steam_id":76561198095432821,"connected_time":1023000000000,"state":"active","ping":111},{"user_id":142,"name":"Unknown Round Object","steam_id":76561198000359584,"connected_time":3853000000000,"state":"active","ping":53},{"user_id":135,"name":"Bruschetta","steam_id":76561198251927162,"connected_time":4033000000000,"state":"active","ping":63},{"user_id":190,"name":"Master Of Noob","steam_id":76561198217926783,"connected_time":981000000000,"state":"active","ping":76},{"user_id":179,"name":"Skittles","steam_id":76561198024077569,"connected_time":1630000000000,"state":"active","ping":63},{"user_id":193,"name":"dank pank","steam_id":76561198995052713,"connected_time":503000000000,"state":"active","ping":65},{"user_id":160,"name":"gagalak","steam_id":76561198089979108,"connected_time":2855000000000,"state":"active","ping":100},{"user_id":185,"name":"Plep","steam_id":76561198840259819,"connected_time":1130000000000,"state":"active","ping":60},{"user_id":194,"name":"‚ó¢‚ó§ Joker ‚ó¢‚ó§","steam_id":76561198038325384,"connected_time":501000000000,"state":"active","ping":52},{"user_id":195,"name":"Barefoot Jake","steam_id":76561198332613778,"connected_time":371000000000,"state":"active","ping":77},{"user_id":180,"name":"RickRoller","steam_id":76561199221172552,"connected_time":1502000000000,"state":"active","ping":60},{"user_id":187,"name":"Superiumentarius","steam_id":76561198081642249,"connected_time":1055000000000,"state":"active","ping":60},{"user_id":158,"name":"Bird On Your Window","steam_id":76561198081933130,"connected_time":2956000000000,"state":"active","ping":65},{"user_id":164,"name":"Mymy","steam_id":76561198819871606,"connected_time":2671000000000,"state":"active","ping":97},{"user_id":176,"name":"FoOzTV","steam_id":76561197998636728,"connected_time":1953000000000,"state":"active","ping":68},{"user_id":191,"name":"mesŒª","steam_id":76561198324582918,"connected_time":976000000000,"state":"active","ping":86},{"user_id":184,"name":"PWizard","steam_id":76561198026458489,"connected_time":1177000000000,"state":"active","ping":70},{"user_id":186,"name":"H1DD3 gaming","steam_id":76561198855897385,"connected_time":1074000000000,"state":"active","ping":64},{"user_id":177,"name":"D0kai","steam_id":76561198389271720,"connected_time":1925000000000,"state":"active","ping":50},{"user_id":182,"name":"Gorp","steam_id":76561199095387705,"connected_time":1327000000000,"state":"active","ping":56}]},{"server_id":321,"name":"Uncletopia | London | 4 | All Maps","name_short":"lon-4","host":"lon-1.uk.uncletopia.com","port":27045,"enabled":true,"region":"eu","cc":"gb","latitude":51.509865,"longitude":-0.118092,"reserved":0,"last_update":"0001-01-01T00:00:00Z","name_a2s":"Uncletopia | London | 4 | All Maps","protocol":17,"map":"pl_upward","folder":"tf","game":"Team Fortress","app_id":440,"player_count":23,"max_players":24,"Bots":0,"server_type":"Dedicated","server_os":"Linux","password":true,"vac":true,"version":"7961495","steam_id":85568392924510193,"keywords":["nocrits","nodmgspread","payload","uncletopia"],"game_id":440,"stv_port":27046,"stv_name":"Uncletopia | London | 4 | All Maps | STV","players":[{"user_id":333,"name":"Flight of the Blonde Giraffes","steam_id":76561198451585571,"connected_time":5919000000000,"state":"active","ping":65},{"user_id":409,"name":"foureyesfries","steam_id":76561198271831555,"connected_time":889000000000,"state":"active","ping":69},{"user_id":397,"name":"[dopijus]","steam_id":76561198943009513,"connected_time":2243000000000,"state":"active","ping":96},{"user_id":399,"name":"Shine","steam_id":76561198136297981,"connected_time":2102000000000,"state":"active","ping":77},{"user_id":410,"name":"Kylul_","steam_id":76561198042981061,"connected_time":883000000000,"state":"active","ping":44},{"user_id":394,"name":"executive producer larry david","steam_id":76561198057868438,"connected_time":2716000000000,"state":"active","ping":63},{"user_id":407,"name":"Axter","steam_id":76561198118747192,"connected_time":909000000000,"state":"active","ping":84},{"user_id":416,"name":"jerf (iuh)","steam_id":76561199213901239,"connected_time":413000000000,"state":"active","ping":46},{"user_id":400,"name":"engineer drip","steam_id":76561198991032570,"connected_time":1833000000000,"state":"active","ping":96},{"user_id":404,"name":"etc","steam_id":76561197998394797,"connected_time":1002000000000,"state":"active","ping":50},{"user_id":415,"name":"niandits","steam_id":76561198419798900,"connected_time":471000000000,"state":"active","ping":198},{"user_id":390,"name":"Naeso","steam_id":76561198068602498,"connected_time":2969000000000,"state":"active","ping":48},{"user_id":417,"name":"cw446","steam_id":76561198056983371,"connected_time":386000000000,"state":"active","ping":54},{"user_id":419,"name":"lillunya ‚ô°","steam_id":76561198330418866,"connected_time":122000000000,"state":"active","ping":71},{"user_id":392,"name":"T4S3","steam_id":76561199105565603,"connected_time":2888000000000,"state":"active","ping":100},{"user_id":411,"name":"panakid","steam_id":76561198364121077,"connected_time":867000000000,"state":"active","ping":97},{"user_id":408,"name":"‚ù§G a n K","steam_id":76561199125995565,"connected_time":907000000000,"state":"active","ping":65},{"user_id":398,"name":"TheBeardedM1G","steam_id":76561198040208946,"connected_time":2233000000000,"state":"active","ping":43},{"user_id":412,"name":"Family guy try not to laugh","steam_id":76561198031455800,"connected_time":822000000000,"state":"active","ping":86},{"user_id":413,"name":"Vermin","steam_id":76561198045527771,"connected_time":819000000000,"state":"active","ping":56},{"user_id":328,"name":"VolcanicArts","steam_id":76561198063453246,"connected_time":6425000000000,"state":"active","ping":76},{"user_id":391,"name":"Ritzy","steam_id":76561198381955342,"connected_time":2954000000000,"state":"active","ping":52},{"user_id":418,"name":"TreatFly","steam_id":76561198069707362,"connected_time":172000000000,"state":"active","ping":51}]},{"server_id":21,"name":"Uncletopia | London | 5 | All Maps","name_short":"lon-5","host":"lon-1.uk.uncletopia.com","port":27055,"enabled":true,"region":"eu","cc":"gb","latitude":51.509865,"longitude":-0.118092,"reserved":0,"last_update":"0001-01-01T00:00:00Z","name_a2s":"Uncletopia | London | 5 | All Maps","protocol":17,"map":"pl_swiftwater_final1","folder":"tf","game":"Team Fortress","app_id":440,"player_count":24,"max_players":24,"Bots":0,"server_type":"Dedicated","server_os":"Linux","password":true,"vac":true,"version":"7961495","steam_id":85568392924742829,"keywords":["nocrits","nodmgspread","payload","uncletopia"],"game_id":440,"stv_port":27056,"stv_name":"Uncletopia | London | 5 | All Maps | STV","players":[{"user_id":263,"name":"IONYCH","steam_id":76561198378350040,"connected_time":2081000000000,"state":"active","ping":75},{"user_id":208,"name":"GMsU | Rebikas","steam_id":76561198077053764,"connected_time":5773000000000,"state":"active","ping":57},{"user_id":284,"name":"Ferrariracer5f1","steam_id":76561199229815098,"connected_time":244000000000,"state":"active","ping":61},{"user_id":275,"name":"Volt","steam_id":76561198237074532,"connected_time":788000000000,"state":"active","ping":109},{"user_id":235,"name":"hipster_doofus","steam_id":76561197970902697,"connected_time":4344000000000,"state":"active","ping":58},{"user_id":285,"name":"Maddox","steam_id":76561198026419869,"connected_time":243000000000,"state":"active","ping":75},{"user_id":269,"name":"Burbie","steam_id":76561198046069449,"connected_time":1273000000000,"state":"active","ping":45},{"user_id":283,"name":"Technic","steam_id":76561198128096130,"connected_time":311000000000,"state":"active","ping":59},{"user_id":270,"name":"Matte","steam_id":76561198081639384,"connected_time":1098000000000,"state":"active","ping":89},{"user_id":245,"name":"Hoff","steam_id":76561198138540938,"connected_time":4160000000000,"state":"active","ping":87},{"user_id":256,"name":"Ricey","steam_id":76561198832961307,"connected_time":2297000000000,"state":"active","ping":48},{"user_id":258,"name":"pingwinski","steam_id":76561199156218796,"connected_time":2292000000000,"state":"active","ping":118},{"user_id":266,"name":"GMsU | Acoul","steam_id":76561198229222992,"connected_time":1614000000000,"state":"active","ping":57},{"user_id":281,"name":"Tweedle","steam_id":76561198160141785,"connected_time":681000000000,"state":"active","ping":39},{"user_id":274,"name":"DelT","steam_id":76561198204007537,"connected_time":796000000000,"state":"active","ping":64},{"user_id":272,"name":"GMsU | Smiley","steam_id":76561198121494414,"connected_time":811000000000,"state":"active","ping":97},{"user_id":277,"name":"Dolcelatte","steam_id":76561198038501770,"connected_time":721000000000,"state":"active","ping":61},{"user_id":243,"name":"Simply Devine","steam_id":76561198079023104,"connected_time":4207000000000,"state":"active","ping":141},{"user_id":264,"name":"TKN_Paps997","steam_id":76561198419868465,"connected_time":1893000000000,"state":"active","ping":93},{"user_id":278,"name":"BELADIT","steam_id":76561198011911501,"connected_time":717000000000,"state":"active","ping":79},{"user_id":268,"name":"real videogamer (real)","steam_id":76561198053929269,"connected_time":1592000000000,"state":"active","ping":95},{"user_id":282,"name":"yuck","steam_id":76561197987249568,"connected_time":664000000000,"state":"active","ping":104},{"user_id":286,"name":"Kapitan Polska","steam_id":76561197968069413,"connected_time":235000000000,"state":"active","ping":86},{"user_id":252,"name":"Fu Manchu","steam_id":76561197995224539,"connected_time":3276000000000,"state":"active","ping":64}]},{"server_id":22,"name":"Uncletopia | London | 6 | All Maps","name_short":"lon-6","host":"lon-1.uk.uncletopia.com","port":27065,"enabled":true,"region":"eu","cc":"gb","latitude":51.509865,"longitude":-0.118092,"reserved":0,"last_update":"0001-01-01T00:00:00Z","name_a2s":"Uncletopia | London | 6 | All Maps","protocol":17,"map":"koth_viaduct","folder":"tf","game":"Team Fortress","app_id":440,"player_count":19,"max_players":24,"Bots":0,"server_type":"Dedicated","server_os":"Linux","password":true,"vac":true,"version":"7961495","steam_id":85568392924742830,"keywords":["cp","nocrits","nodmgspread","uncletopia"],"game_id":440,"stv_port":27066,"stv_name":"Uncletopia | London | 6 | All Maps | STV","players":[{"user_id":569,"name":"Tabasko","steam_id":76561197981311971,"connected_time":387000000000,"state":"active","ping":45},{"user_id":544,"name":"TomNoSocks","steam_id":76561198114071046,"connected_time":2236000000000,"state":"active","ping":67},{"user_id":573,"name":"toomas2018 gaming(real)","steam_id":76561199105796083,"connected_time":95000000000,"state":"active","ping":77},{"user_id":548,"name":"teddyplayzgames","steam_id":76561199055741408,"connected_time":1541000000000,"state":"active","ping":132},{"user_id":556,"name":"God's Goofiest Goober","steam_id":76561198103175187,"connected_time":1207000000000,"state":"active","ping":73},{"user_id":553,"name":"Panda","steam_id":76561198055811678,"connected_time":1376000000000,"state":"active","ping":59},{"user_id":554,"name":"Cybersex 2069","steam_id":76561198799097492,"connected_time":1351000000000,"state":"active","ping":45},{"user_id":555,"name":"tardigrade","steam_id":76561198874956671,"connected_time":1348000000000,"state":"active","ping":219},{"user_id":567,"name":"Lumos Bee","steam_id":76561197977251325,"connected_time":754000000000,"state":"active","ping":51},{"user_id":570,"name":"Deemask√©","steam_id":76561199225833593,"connected_time":336000000000,"state":"active","ping":51},{"user_id":559,"name":"sex defender","steam_id":76561198121816815,"connected_time":1155000000000,"state":"active","ping":77},{"user_id":560,"name":"inteli-keeper","steam_id":76561199011763306,"connected_time":1155000000000,"state":"active","ping":90},{"user_id":571,"name":"Egor Pomidor","steam_id":76561199175688390,"connected_time":107000000000,"state":"active","ping":78},{"user_id":572,"name":"StingyLettuce","steam_id":76561199010337406,"connected_time":98000000000,"state":"active","ping":119},{"user_id":564,"name":"padillacampos","steam_id":76561198161923970,"connected_time":965000000000,"state":"active","ping":78},{"user_id":565,"name":"skilltissues","steam_id":76561198025828664,"connected_time":930000000000,"state":"active","ping":53},{"user_id":574,"name":"—É—Ö –ê–ª–µ–∫—Å–∞–Ω–¥—Ä","steam_id":76561198995476261,"connected_time":66000000000,"state":"active","ping":102},{"user_id":575,"name":"tzlil","steam_id":76561198399916290,"connected_time":6000000000,"state":"spawning","ping":119},{"user_id":501,"name":"fischman","steam_id":76561199064142670,"connected_time":6382000000000,"state":"active","ping":68}]},{"server_id":40,"name":"Uncletopia | London | 7 | Stopwatch","name_short":"lon-7","host":"lon-1.uk.uncletopia.com","port":27075,"enabled":true,"region":"eu","cc":"gb","latitude":51.509865,"longitude":-0.118092,"reserved":0,"last_update":"0001-01-01T00:00:00Z","name_a2s":"Uncletopia | London | 7 | Stopwatch","protocol":17,"map":"workshop/pl_badwater_pro_v12.ugc2142942074","folder":"tf","game":"Team Fortress","app_id":440,"player_count":0,"max_players":24,"Bots":0,"server_type":"Dedicated","server_os":"Linux","password":true,"vac":true,"version":"7961495","steam_id":85568392924964314,"keywords":["nocrits","nodmgspread","payload","uncletopia"],"game_id":440,"stv_port":27076,"stv_name":"Uncletopia | London | 7 | Stopwatch | STV","players":null},{"server_id":41,"name":"Uncletopia | London | 8 | Community","name_short":"lon-8","host":"lon-1.uk.uncletopia.com","port":27085,"enabled":true,"region":"eu","cc":"gb","latitude":51.509865,"longitude":-0.118092,"reserved":0,"last_update":"0001-01-01T00:00:00Z","name_a2s":"Uncletopia | London | 8 | Community","protocol":17,"map":"workshop/koth_synthetic_rc6a.ugc1549817316","folder":"tf","game":"Team Fortress","app_id":440,"player_count":0,"max_players":24,"Bots":0,"server_type":"Dedicated","server_os":"Linux","password":true,"vac":true,"version":"7961495","steam_id":85568392924964315,"keywords":["cp","nocrits","nodmgspread","uncletopia"],"game_id":440,"stv_port":27086,"stv_name":"Uncletopia | London | 8 | Community | STV","players":null},{"server_id":300,"name":"Uncletopia | Montr√©al | 1 | All Maps","name_short":"mtl-1","host":"mtl-1.ca.uncletopia.com","port":27015,"enabled":true,"region":"us-east","cc":"ca","latitude":45.50889,"longitude":-73.56167,"reserved":0,"last_update":"0001-01-01T00:00:00Z","name_a2s":"","protocol":0,"map":"","folder":"","game":"","app_id":0,"player_count":18,"max_players":0,"Bots":0,"server_type":"","server_os":"","password":false,"vac":false,"version":"","steam_id":0,"keywords":null,"game_id":0,"stv_port":0,"stv_name":"","players":[{"user_id":99,"name":"Goober","steam_id":76561199026734167,"connected_time":281000000000,"state":"active","ping":56},{"user_id":102,"name":"notabox","steam_id":76561198083663640,"connected_time":145000000000,"state":"active","ping":58},{"user_id":103,"name":"Grzegorz Brzƒôczyszczykiewicz","steam_id":76561198229010452,"connected_time":116000000000,"state":"active","ping":119},{"user_id":69,"name":"GoatCatProductions","steam_id":76561199047077406,"connected_time":2872000000000,"state":"active","ping":85},{"user_id":72,"name":"3/4'' x 18'' industrial pipe","steam_id":76561198094042613,"connected_time":2823000000000,"state":"active","ping":45},{"user_id":82,"name":"lil homie gay ass","steam_id":76561198044804626,"connected_time":1926000000000,"state":"active","ping":103},{"user_id":41,"name":"RandomRainbow","steam_id":76561199107573588,"connected_time":4500000000000,"state":"active","ping":62},{"user_id":106,"name":"Vulcan","steam_id":76561198399735208,"connected_time":31000000000,"state":"active","ping":55},{"user_id":101,"name":"Glopex","steam_id":76561198067097889,"connected_time":204000000000,"state":"active","ping":49},{"user_id":40,"name":"jose.gonzales.2003","steam_id":76561199217620385,"connected_time":4582000000000,"state":"active","ping":67},{"user_id":96,"name":"Stormartillery","steam_id":76561198408982577,"connected_time":827000000000,"state":"active","ping":59},{"user_id":86,"name":"B.","steam_id":76561198040445907,"connected_time":1664000000000,"state":"active","ping":82},{"user_id":50,"name":"Noahthecrazy1","steam_id":76561199152995909,"connected_time":3736000000000,"state":"active","ping":56},{"user_id":98,"name":"Patriot Pills","steam_id":76561198381647349,"connected_time":331000000000,"state":"active","ping":94},{"user_id":49,"name":"RyInc","steam_id":76561198874261643,"connected_time":3911000000000,"state":"active","ping":37},{"user_id":87,"name":"Frontier Psychiatrist","steam_id":76561198038689088,"connected_time":1536000000000,"state":"active","ping":98},{"user_id":91,"name":"Shadowwalker","steam_id":76561198344642637,"connected_time":1189000000000,"state":"active","ping":90},{"user_id":61,"name":"Used Kleenex","steam_id":76561198105624372,"connected_time":3162000000000,"state":"active","ping":45}]},{"server_id":301,"name":"Uncletopia | Montr√©al | 2 | ???","name_short":"mtl-2","host":"mtl-1.ca.uncletopia.com","port":27025,"enabled":true,"region":"us-east","cc":"ca","latitude":45.50889,"longitude":-73.56167,"reserved":0,"last_update":"0001-01-01T00:00:00Z","name_a2s":"","protocol":0,"map":"","folder":"","game":"","app_id":0,"player_count":0,"max_players":0,"Bots":0,"server_type":"","server_os":"","password":false,"vac":false,"version":"","steam_id":0,"keywords":null,"game_id":0,"stv_port":0,"stv_name":"","players":null},{"server_id":13,"name":"Uncletopia | New York City | 1 | All Maps","name_short":"nyc-1","host":"nyc-1.us.uncletopia.com","port":27015,"enabled":true,"region":"us-east","cc":"us","latitude":40.73061,"longitude":-73.93524,"reserved":0,"last_update":"0001-01-01T00:00:00Z","name_a2s":"Uncletopia | New York City | 1 | All Maps","protocol":17,"map":"pl_borneo","folder":"tf","game":"Team Fortress","app_id":440,"player_count":24,"max_players":24,"Bots":0,"server_type":"Dedicated","server_os":"Linux","password":true,"vac":true,"version":"7961495","steam_id":85568392924469993,"keywords":["nocrits","nodmgspread","payload","uncletopia"],"game_id":440,"stv_port":27016,"stv_name":"Uncletopia | New York City | 1 | All Maps | STV","players":[{"user_id":220,"name":"Satanael","steam_id":76561198165252930,"connected_time":88000000000,"state":"active","ping":45},{"user_id":181,"name":"Aristotle Voulton","steam_id":76561198100174923,"connected_time":1722000000000,"state":"active","ping":71},{"user_id":214,"name":"momazos diegos","steam_id":76561199220257695,"connected_time":490000000000,"state":"active","ping":147},{"user_id":211,"name":"Getzinya","steam_id":76561199087918247,"connected_time":541000000000,"state":"active","ping":78},{"user_id":221,"name":"Nightman","steam_id":76561198089513762,"connected_time":71000000000,"state":"active","ping":71},{"user_id":217,"name":"Dr.StrangeGlove","steam_id":76561198286114229,"connected_time":193000000000,"state":"active","ping":75},{"user_id":218,"name":"RiflingShotgun","steam_id":76561198288209651,"connected_time":145000000000,"state":"active","ping":71},{"user_id":186,"name":"The Boss","steam_id":76561198855814591,"connected_time":1492000000000,"state":"active","ping":74},{"user_id":178,"name":"Dreszerg","steam_id":76561198838757422,"connected_time":1852000000000,"state":"active","ping":80},{"user_id":216,"name":"YOU WHAT?!","steam_id":76561198418679471,"connected_time":252000000000,"state":"active","ping":61},{"user_id":145,"name":"Riandox","steam_id":76561198130577326,"connected_time":4619000000000,"state":"active","ping":73},{"user_id":222,"name":"rip muhammad ali","steam_id":76561198072640720,"connected_time":57000000000,"state":"active","ping":105},{"user_id":215,"name":"demoman who drinks demoham","steam_id":76561198981593713,"connected_time":482000000000,"state":"active","ping":154},{"user_id":169,"name":"norphel08","steam_id":76561198174779475,"connected_time":2987000000000,"state":"active","ping":60},{"user_id":191,"name":"4ling","steam_id":76561197994398381,"connected_time":1251000000000,"state":"active","ping":57},{"user_id":134,"name":"Callawe","steam_id":76561198129785792,"connected_time":4869000000000,"state":"active","ping":128},{"user_id":219,"name":"Spirit","steam_id":76561199069322627,"connected_time":112000000000,"state":"active","ping":66},{"user_id":196,"name":"cactusdude","steam_id":76561198984917409,"connected_time":914000000000,"state":"active","ping":81},{"user_id":136,"name":"robsan","steam_id":76561198137375391,"connected_time":4863000000000,"state":"active","ping":161},{"user_id":137,"name":"McNamJam","steam_id":76561198028128686,"connected_time":4861000000000,"state":"active","ping":112},{"user_id":188,"name":"Blubbering Toad","steam_id":76561199489855499,"connected_time":1479000000000,"state":"active","ping":124},{"user_id":189,"name":"My Form Empties","steam_id":76561197993777553,"connected_time":1479000000000,"state":"active","ping":111},{"user_id":190,"name":"cass","steam_id":76561198074502046,"connected_time":1443000000000,"state":"active","ping":121},{"user_id":174,"name":"Crystron","steam_id":76561198880437428,"connected_time":2170000000000,"state":"active","ping":90}]},{"server_id":14,"name":"Uncletopia | New York City | 2 | All Maps","name_short":"nyc-2","host":"nyc-1.us.uncletopia.com","port":27025,"enabled":true,"region":"us-east","cc":"us","latitude":40.73061,"longitude":-73.93524,"reserved":0,"last_update":"0001-01-01T00:00:00Z","name_a2s":"Uncletopia | New York City | 2 | All Maps","protocol":17,"map":"pl_barnblitz","folder":"tf","game":"Team Fortress","app_id":440,"player_count":24,"max_players":24,"Bots":0,"server_type":"Dedicated","server_os":"Linux","password":true,"vac":true,"version":"7961495","steam_id":85568392924469994,"keywords":["nocrits","nodmgspread","payload","uncletopia"],"game_id":440,"stv_port":27026,"stv_name":"Uncletopia | New York City | 2 | All Maps | STV","players":[{"user_id":234,"name":"1000 Gigglebytes of clown girls","steam_id":76561198290719848,"connected_time":2908000000000,"state":"active","ping":91},{"user_id":235,"name":"D_Gamer","steam_id":76561198964808451,"connected_time":2601000000000,"state":"active","ping":62},{"user_id":241,"name":"Chord","steam_id":76561198110874021,"connected_time":1885000000000,"state":"active","ping":95},{"user_id":214,"name":"Awesome Evil Blue Flaming Skull","steam_id":76561198933598872,"connected_time":4576000000000,"state":"active","ping":94},{"user_id":231,"name":"TF2 players are crybabies","steam_id":76561199445629071,"connected_time":3035000000000,"state":"active","ping":46},{"user_id":205,"name":"kitchen goblin","steam_id":76561198271710504,"connected_time":5022000000000,"state":"active","ping":72},{"user_id":219,"name":"Whole Buncha Nothing","steam_id":76561199025356432,"connected_time":4265000000000,"state":"active","ping":55},{"user_id":252,"name":"pomino","steam_id":76561198071260143,"connected_time":684000000000,"state":"active","ping":54},{"user_id":223,"name":"xLeoparrd","steam_id":76561198940657194,"connected_time":3915000000000,"state":"active","ping":86},{"user_id":238,"name":"Big McThankies From McSpankies","steam_id":76561198020516880,"connected_time":2373000000000,"state":"active","ping":99},{"user_id":254,"name":"Discourse","steam_id":76561198984286678,"connected_time":428000000000,"state":"active","ping":74},{"user_id":240,"name":"breesey","steam_id":76561198341658826,"connected_time":1932000000000,"state":"active","ping":43},{"user_id":224,"name":"babe","steam_id":76561199057373810,"connected_time":3915000000000,"state":"active","ping":47},{"user_id":191,"name":"averted","steam_id":76561198067784310,"connected_time":6491000000000,"state":"active","ping":42},{"user_id":253,"name":"Grimm - (RIP Rick May/Kitty0706","steam_id":76561199050642411,"connected_time":671000000000,"state":"active","ping":105},{"user_id":208,"name":"Flying Chemist","steam_id":76561198085039837,"connected_time":4961000000000,"state":"active","ping":137},{"user_id":255,"name":"Okpar","steam_id":76561199221067945,"connected_time":296000000000,"state":"active","ping":97},{"user_id":243,"name":"Sammich Slinger","steam_id":76561198007644532,"connected_time":1881000000000,"state":"active","ping":113},{"user_id":251,"name":"Yvette420","steam_id":76561199472888498,"connected_time":701000000000,"state":"active","ping":98},{"user_id":209,"name":"HoneyOTU","steam_id":76561198200366607,"connected_time":4958000000000,"state":"active","ping":82},{"user_id":210,"name":"Jonah Hill from 21 Jump Street","steam_id":76561198811130843,"connected_time":4939000000000,"state":"active","ping":87},{"user_id":250,"name":"SmokyDank","steam_id":76561198045782886,"connected_time":769000000000,"state":"active","ping":100},{"user_id":244,"name":"Spicy Within Reason","steam_id":76561198066700370,"connected_time":1876000000000,"state":"active","ping":106},{"user_id":133,"name":"alexthecaptain","steam_id":76561198072632194,"connected_time":10868000000000,"state":"active","ping":100}]},{"server_id":15,"name":"Uncletopia | New York City | 3 | Stopwatch","name_short":"nyc-3","host":"nyc-1.us.uncletopia.com","port":27035,"enabled":true,"region":"us-east","cc":"us","latitude":40.73061,"longitude":-73.93524,"reserved":0,"last_update":"0001-01-01T00:00:00Z","name_a2s":"Uncletopia | New York City | 3 | Stopwatch","protocol":17,"map":"workshop/pl_vigil_rc10.ugc1266210012","folder":"tf","game":"Team Fortress","app_id":440,"player_count":19,"max_players":24,"Bots":0,"server_type":"Dedicated","server_os":"Linux","password":true,"vac":true,"version":"7961495","steam_id":85568392924742820,"keywords":["nocrits","nodmgspread","payload","uncletopia"],"game_id":440,"stv_port":27036,"stv_name":"Uncletopia | New York City | 3 | Stopwatch | STV","players":[{"user_id":205,"name":"skgmanuel","steam_id":76561198947005948,"connected_time":234000000000,"state":"active","ping":101},{"user_id":206,"name":"Post-It Paige","steam_id":76561198294059159,"connected_time":175000000000,"state":"active","ping":86},{"user_id":132,"name":"The World's Softest Sandwich","steam_id":76561198015577707,"connected_time":4472000000000,"state":"active","ping":96},{"user_id":186,"name":"HUESO","steam_id":76561198276383681,"connected_time":1194000000000,"state":"active","ping":74},{"user_id":189,"name":"Greg Stevey","steam_id":76561199236349858,"connected_time":868000000000,"state":"active","ping":126},{"user_id":176,"name":"Plasmoklo","steam_id":76561199071571167,"connected_time":1931000000000,"state":"active","ping":69},{"user_id":164,"name":"Dr. Underscore","steam_id":76561198097430579,"connected_time":2591000000000,"state":"active","ping":57},{"user_id":181,"name":"Cerebral Malfunction","steam_id":76561198885651598,"connected_time":1553000000000,"state":"active","ping":72},{"user_id":207,"name":"Freddy Fazbear","steam_id":76561199095570870,"connected_time":24000000000,"state":"spawning","ping":240},{"user_id":144,"name":"Peepster","steam_id":76561198297854733,"connected_time":3865000000000,"state":"active","ping":79},{"user_id":190,"name":"IanTheAwsm","steam_id":76561198093031738,"connected_time":851000000000,"state":"active","ping":72},{"user_id":193,"name":"Trace","steam_id":76561198009486000,"connected_time":832000000000,"state":"active","ping":79},{"user_id":180,"name":"Mr_SoulSlasher","steam_id":76561198936267613,"connected_time":1611000000000,"state":"active","ping":130},{"user_id":127,"name":"Fresh Lychee","steam_id":76561198045399559,"connected_time":4920000000000,"state":"active","ping":60},{"user_id":169,"name":"Cube","steam_id":76561199021614213,"connected_time":2240000000000,"state":"active","ping":159},{"user_id":204,"name":"Shrebbie","steam_id":76561198875230824,"connected_time":261000000000,"state":"active","ping":82},{"user_id":199,"name":"Kiphus","steam_id":76561198025289407,"connected_time":743000000000,"state":"active","ping":62},{"user_id":196,"name":"pyro","steam_id":76561198099451291,"connected_time":799000000000,"state":"active","ping":85},{"user_id":197,"name":"posted","steam_id":76561199017815013,"connected_time":797000000000,"state":"active","ping":102}]},{"server_id":16,"name":"Uncletopia | New York City | 4 | Community","name_short":"nyc-4","host":"nyc-1.us.uncletopia.com","port":27045,"enabled":true,"region":"us-east","cc":"us","latitude":40.73061,"longitude":-73.93524,"reserved":0,"last_update":"0001-01-01T00:00:00Z","name_a2s":"Uncletopia | New York City | 4 | Community","protocol":17,"map":"workshop/cp_sulfur_rc2.ugc619869471","folder":"tf","game":"Team Fortress","app_id":440,"player_count":0,"max_players":24,"Bots":0,"server_type":"Dedicated","server_os":"Linux","password":true,"vac":true,"version":"7961495","steam_id":85568392924742821,"keywords":["cp","nocrits","nodmgspread","uncletopia"],"game_id":440,"stv_port":27046,"stv_name":"Uncletopia | New York City | 4 | Community | STV","players":null},{"server_id":142,"name":"Uncletopia | S√£o Paulo | 1 | All Maps","name_short":"sao-1","host":"sao-1.br.uncletopia.com","port":27015,"enabled":true,"region":"sa","cc":"br","latitude":-23.533773,"longitude":-46.62529,"reserved":0,"last_update":"0001-01-01T00:00:00Z","name_a2s":"Uncletopia | S√£o Paulo | 1 | All Maps","protocol":17,"map":"pl_pier","folder":"tf","game":"Team Fortress","app_id":440,"player_count":0,"max_players":24,"Bots":0,"server_type":"Dedicated","server_os":"Linux","password":true,"vac":true,"version":"7961495","steam_id":85568392924469996,"keywords":["nocrits","nodmgspread","payload","uncletopia"],"game_id":440,"stv_port":27016,"stv_name":"Uncletopia | S√£o Paulo | 1 | All Maps | STV","players":null},{"server_id":143,"name":"Uncletopia | S√£o Paulo | 2 | Community","name_short":"sao-2","host":"sao-2.br.uncletopia.com","port":27015,"enabled":true,"region":"sa","cc":"br","latitude":-23.533773,"longitude":-46.62529,"reserved":0,"last_update":"0001-01-01T00:00:00Z","name_a2s":"Uncletopia | S√£o Paulo | 2 | Community","protocol":17,"map":"workshop/koth_ramjam_rc1.ugc459778887","folder":"tf","game":"Team Fortress","app_id":440,"player_count":0,"max_players":24,"Bots":0,"server_type":"Dedicated","server_os":"Linux","password":true,"vac":true,"version":"7961495","steam_id":85568392924485349,"keywords":["cp","nocrits","nodmgspread","uncletopia"],"game_id":440,"stv_port":27016,"stv_name":"Uncletopia | S√£o Paulo | 2 | Community | STV","players":null},{"server_id":7,"name":"Uncletopia | Seattle | 1 | All Maps","name_short":"sea-1","host":"sea-1.us.uncletopia.com","port":27015,"enabled":true,"region":"us-west","cc":"us","latitude":47.608013,"longitude":-122.33517,"reserved":0,"last_update":"0001-01-01T00:00:00Z","name_a2s":"Uncletopia | Seattle | 1 | All Maps","protocol":17,"map":"pl_barnblitz","folder":"tf","game":"Team Fortress","app_id":440,"player_count":24,"max_players":24,"Bots":0,"server_type":"Dedicated","server_os":"Linux","password":true,"vac":true,"version":"7961495","steam_id":85568392924469997,"keywords":["nocrits","nodmgspread","payload","uncletopia"],"game_id":440,"stv_port":27016,"stv_name":"Uncletopia | Seattle | 1 | All Maps | STV","players":[{"user_id":270,"name":"DontRunWithScissors","steam_id":76561198079662757,"connected_time":1175000000000,"state":"active","ping":81},{"user_id":275,"name":"Corbezy","steam_id":76561197993398349,"connected_time":778000000000,"state":"active","ping":120},{"user_id":245,"name":"√úberMorpth","steam_id":76561198086185573,"connected_time":3484000000000,"state":"active","ping":50},{"user_id":277,"name":"Karo","steam_id":76561199011823773,"connected_time":521000000000,"state":"active","ping":46},{"user_id":288,"name":"Toad Man","steam_id":76561198079673613,"connected_time":60000000000,"state":"active","ping":61},{"user_id":246,"name":"Pretentious Gunspy","steam_id":76561199241325005,"connected_time":3478000000000,"state":"active","ping":108},{"user_id":290,"name":"SpamTheAlien","steam_id":76561199122290968,"connected_time":34000000000,"state":"active","ping":78},{"user_id":254,"name":"jayeskae","steam_id":76561198144220801,"connected_time":3244000000000,"state":"active","ping":45},{"user_id":278,"name":"Robotferret87","steam_id":76561198259837716,"connected_time":488000000000,"state":"active","ping":131},{"user_id":279,"name":"Pathara44","steam_id":76561198048238620,"connected_time":483000000000,"state":"active","ping":94},{"user_id":280,"name":"Dongus","steam_id":76561197979056451,"connected_time":471000000000,"state":"active","ping":50},{"user_id":263,"name":"TheRkey","steam_id":76561198989187114,"connected_time":2110000000000,"state":"active","ping":124},{"user_id":250,"name":"Vanaduke","steam_id":76561198285311264,"connected_time":3447000000000,"state":"active","ping":51},{"user_id":267,"name":"amagicowl","steam_id":76561199060487814,"connected_time":1721000000000,"state":"active","ping":52},{"user_id":257,"name":"SwearWord","steam_id":76561199131184237,"connected_time":2946000000000,"state":"active","ping":62},{"user_id":215,"name":"cool beans","steam_id":76561198045758072,"connected_time":5887000000000,"state":"active","ping":60},{"user_id":287,"name":"TheMagicMrWaffle","steam_id":76561198104357256,"connected_time":102000000000,"state":"active","ping":64},{"user_id":282,"name":"drinking 40's \u0026 cranking 90's","steam_id":76561198068672882,"connected_time":454000000000,"state":"active","ping":75},{"user_id":276,"name":"Kazoo","steam_id":76561199229748300,"connected_time":554000000000,"state":"active","ping":75},{"user_id":273,"name":"can of Heinz Beans","steam_id":76561198806423231,"connected_time":1037000000000,"state":"active","ping":50},{"user_id":256,"name":"R Kay","steam_id":76561199107386147,"connected_time":3013000000000,"state":"active","ping":64},{"user_id":284,"name":"TinPotMan","steam_id":76561198453960950,"connected_time":293000000000,"state":"active","ping":113},{"user_id":289,"name":"Bylbameat","steam_id":76561199146468626,"connected_time":57000000000,"state":"active","ping":231},{"user_id":203,"name":"Snale","steam_id":76561198039517965,"connected_time":6533000000000,"state":"active","ping":60}]},{"server_id":119,"name":"Uncletopia | Seattle | 2 | All Maps","name_short":"sea-2","host":"sea-1.us.uncletopia.com","port":27025,"enabled":true,"region":"us-west","cc":"us","latitude":47.608013,"longitude":-122.33517,"reserved":0,"last_update":"0001-01-01T00:00:00Z","name_a2s":"Uncletopia | Seattle | 2 | All Maps","protocol":17,"map":"koth_cascade","folder":"tf","game":"Team Fortress","app_id":440,"player_count":0,"max_players":24,"Bots":0,"server_type":"Dedicated","server_os":"Linux","password":true,"vac":true,"version":"7961495","steam_id":85568392924469998,"keywords":["cp","nocrits","nodmgspread","uncletopia"],"game_id":440,"stv_port":27026,"stv_name":"Uncletopia | Seattle | 2 | All Maps | STV","players":null},{"server_id":406,"name":"Uncletopia | Seattle | 3 | Stopwatch","name_short":"sea-3","host":"sea-1.us.uncletopia.com","port":27035,"enabled":true,"region":"us-west","cc":"us","latitude":47.608013,"longitude":-122.33517,"reserved":0,"last_update":"0001-01-01T00:00:00Z","name_a2s":"Uncletopia | Seattle | 3 | Stopwatch","protocol":17,"map":"koth_lakeside_final","folder":"tf","game":"Team Fortress","app_id":440,"player_count":0,"max_players":24,"Bots":0,"server_type":"Dedicated","server_os":"Linux","password":true,"vac":true,"version":"7961495","steam_id":85568392924515217,"keywords":["cp","nocrits","nodmgspread","uncletopia"],"game_id":440,"stv_port":27036,"stv_name":"Uncletopia | Seattle | 3 | Stopwatch | STV","players":null},{"server_id":17,"name":"Uncletopia | San Francisco | 1 | All Maps","name_short":"sfo-1","host":"sfo-1.us.uncletopia.com","port":27015,"enabled":true,"region":"us-west","cc":"us","latitude":37.77397,"longitude":-122.4313,"reserved":0,"last_update":"0001-01-01T00:00:00Z","name_a2s":"Uncletopia | San Francisco | 1 | All Maps","protocol":17,"map":"pl_upward","folder":"tf","game":"Team Fortress","app_id":440,"player_count":10,"max_players":24,"Bots":0,"server_type":"Dedicated","server_os":"Linux","password":true,"vac":true,"version":"7961495","steam_id":85568392924469999,"keywords":["nocrits","nodmgspread","payload","uncletopia"],"game_id":440,"stv_port":27016,"stv_name":"Uncletopia | San Francisco | 1 | All Maps | STV","players":[{"user_id":4,"name":"BillytheKid1911","steam_id":76561198123975074,"connected_time":1846000000000,"state":"active","ping":31},{"user_id":5,"name":"BadMilk","steam_id":76561199235377794,"connected_time":1768000000000,"state":"active","ping":72},{"user_id":6,"name":"Borgor Boi","steam_id":76561199061388107,"connected_time":1627000000000,"state":"active","ping":60},{"user_id":8,"name":"lolzfrdawin21","steam_id":76561199006665979,"connected_time":1520000000000,"state":"active","ping":108},{"user_id":12,"name":"Big Blue","steam_id":76561198084930108,"connected_time":834000000000,"state":"active","ping":53},{"user_id":10,"name":"cool beans (dang greg)","steam_id":76561198321591685,"connected_time":1381000000000,"state":"active","ping":91},{"user_id":13,"name":"cookypuss","steam_id":76561197961275239,"connected_time":803000000000,"state":"active","ping":63},{"user_id":14,"name":"Flipeecup","steam_id":76561198100007863,"connected_time":480000000000,"state":"active","ping":60},{"user_id":15,"name":"Thequirka (regular trackpad use","steam_id":76561198968058652,"connected_time":134000000000,"state":"active","ping":62},{"user_id":16,"name":"! F I S H !","steam_id":76561198397755357,"connected_time":23000000000,"state":"active","ping":144}]},{"server_id":18,"name":"Uncletopia | San Francisco | 2 | All Maps","name_short":"sfo-2","host":"sfo-1.us.uncletopia.com","port":27025,"enabled":true,"region":"us-west","cc":"us","latitude":37.77397,"longitude":-122.4313,"reserved":0,"last_update":"0001-01-01T00:00:00Z","name_a2s":"Uncletopia | San Francisco | 2 | All Maps","protocol":17,"map":"cp_sunshine","folder":"tf","game":"Team Fortress","app_id":440,"player_count":0,"max_players":24,"Bots":0,"server_type":"Dedicated","server_os":"Linux","password":true,"vac":true,"version":"7961495","steam_id":85568392924470000,"keywords":["cp","nocrits","nodmgspread","uncletopia"],"game_id":440,"stv_port":27026,"stv_name":"Uncletopia | San Francisco | 2 | All Maps | STV","players":null},{"server_id":19,"name":"Uncletopia | San Francisco | 3 | Stopwatch","name_short":"sfo-3","host":"sfo-1.us.uncletopia.com","port":27035,"enabled":true,"region":"us-west","cc":"us","latitude":37.77397,"longitude":-122.4313,"reserved":0,"last_update":"0001-01-01T00:00:00Z","name_a2s":"Uncletopia | San Francisco | 3 | Stopwatch","protocol":17,"map":"pl_pier","folder":"tf","game":"Team Fortress","app_id":440,"player_count":0,"max_players":24,"Bots":0,"server_type":"Dedicated","server_os":"Linux","password":true,"vac":true,"version":"7961495","steam_id":85568392924742824,"keywords":["nocrits","nodmgspread","payload","uncletopia"],"game_id":440,"stv_port":27036,"stv_name":"Uncletopia | San Francisco | 3 | Stopwatch | STV","players":null},{"server_id":20,"name":"Uncletopia | San Francisco | 4 | Community","name_short":"sfo-4","host":"sfo-1.us.uncletopia.com","port":27045,"enabled":true,"region":"us-west","cc":"us","latitude":37.77397,"longitude":-122.4313,"reserved":0,"last_update":"0001-01-01T00:00:00Z","name_a2s":"Uncletopia | San Francisco | 4 | Community","protocol":17,"map":"workshop/koth_bagel_rc6.ugc2514036946","folder":"tf","game":"Team Fortress","app_id":440,"player_count":0,"max_players":24,"Bots":0,"server_type":"Dedicated","server_os":"Linux","password":true,"vac":true,"version":"7961495","steam_id":85568392924742826,"keywords":["cp","nocrits","nodmgspread","uncletopia"],"game_id":440,"stv_port":27046,"stv_name":"Uncletopia | San Francisco | 4 | Community | STV","players":null},{"server_id":141,"name":"Uncletopia | Sydney | 1 | All Maps","name_short":"syd-1","host":"syd-1.au.uncletopia.com","port":27015,"enabled":true,"region":"au","cc":"au","latitude":-33.865143,"longitude":151.2099,"reserved":0,"last_update":"0001-01-01T00:00:00Z","name_a2s":"Uncletopia | Sydney | 1 | All Maps","protocol":17,"map":"koth_lakeside_final","folder":"tf","game":"Team Fortress","app_id":440,"player_count":0,"max_players":24,"Bots":0,"server_type":"Dedicated","server_os":"Linux","password":true,"vac":true,"version":"7961495","steam_id":85568392924470001,"keywords":["cp","nocrits","nodmgspread","uncletopia"],"game_id":440,"stv_port":27016,"stv_name":"Uncletopia | Sydney | 1 | All Maps | STV","players":null},{"server_id":123,"name":"Uncletopia | Sydney | 2 | All Maps","name_short":"syd-2","host":"syd-1.au.uncletopia.com","port":27025,"enabled":true,"region":"au","cc":"au","latitude":-33.865143,"longitude":151.2099,"reserved":0,"last_update":"0001-01-01T00:00:00Z","name_a2s":"Uncletopia | Sydney | 2 | All Maps","protocol":17,"map":"pl_barnblitz","folder":"tf","game":"Team Fortress","app_id":440,"player_count":0,"max_players":24,"Bots":0,"server_type":"Dedicated","server_os":"Linux","password":true,"vac":true,"version":"7961495","steam_id":85568392924470002,"keywords":["nocrits","nodmgspread","payload","uncletopia"],"game_id":440,"stv_port":27026,"stv_name":"Uncletopia | Sydney | 2 | All Maps | STV","players":null},{"server_id":395,"name":"Uncletopia | Sydney | 3 | All Maps","name_short":"syd-3","host":"syd-1.au.uncletopia.com","port":27035,"enabled":true,"region":"au","cc":"au","latitude":-33.865143,"longitude":151.2099,"reserved":0,"last_update":"0001-01-01T00:00:00Z","name_a2s":"Uncletopia | Sydney | 3 | All Maps","protocol":17,"map":"koth_lakeside_final","folder":"tf","game":"Team Fortress","app_id":440,"player_count":0,"max_players":24,"Bots":0,"server_type":"Dedicated","server_os":"Linux","password":true,"vac":true,"version":"7961495","steam_id":85568392925194467,"keywords":["cp","nocrits","nodmgspread","uncletopia"],"game_id":440,"stv_port":27036,"stv_name":"Uncletopia | Sydney | 3 | All Maps | STV","players":null},{"server_id":396,"name":"Uncletopia | Sydney | 4 | All Maps","name_short":"syd-4","host":"syd-1.au.uncletopia.com","port":27045,"enabled":true,"region":"au","cc":"au","latitude":-33.865143,"longitude":151.2099,"reserved":0,"last_update":"0001-01-01T00:00:00Z","name_a2s":"Uncletopia | Sydney | 4 | All Maps","protocol":17,"map":"koth_highpass","folder":"tf","game":"Team Fortress","app_id":440,"player_count":0,"max_players":24,"Bots":0,"server_type":"Dedicated","server_os":"Linux","password":true,"vac":true,"version":"7961495","steam_id":85568392925397958,"keywords":["cp","nocrits","nodmgspread","uncletopia"],"game_id":440,"stv_port":27046,"stv_name":"Uncletopia | Sydney | 4 | All Maps | STV","players":null},{"server_id":58,"name":"Uncletopia | Sydney | 5 | Stopwatch","name_short":"syd-5","host":"syd-1.au.uncletopia.com","port":27055,"enabled":true,"region":"au","cc":"au","latitude":-33.865143,"longitude":151.2099,"reserved":0,"last_update":"0001-01-01T00:00:00Z","name_a2s":"Uncletopia | Sydney | 5 | Stopwatch","protocol":17,"map":"workshop/koth_clearcut_b15.ugc2107050255","folder":"tf","game":"Team Fortress","app_id":440,"player_count":0,"max_players":24,"Bots":0,"server_type":"Dedicated","server_os":"Linux","password":true,"vac":true,"version":"7961495","steam_id":85568392925397959,"keywords":["cp","nocrits","nodmgspread","uncletopia"],"game_id":440,"stv_port":27056,"stv_name":"Uncletopia | Sydney | 5 | Stopwatch | STV","players":null},{"server_id":59,"name":"Uncletopia | Sydney | 6 | Community","name_short":"syd-6","host":"syd-1.au.uncletopia.com","port":27065,"enabled":true,"region":"au","cc":"au","latitude":-33.865143,"longitude":151.2099,"reserved":0,"last_update":"0001-01-01T00:00:00Z","name_a2s":"Uncletopia | Sydney | 6 | Community","protocol":17,"map":"workshop/koth_ramjam_rc1.ugc459778887","folder":"tf","game":"Team Fortress","app_id":440,"player_count":0,"max_players":24,"Bots":0,"server_type":"Dedicated","server_os":"Linux","password":true,"vac":true,"version":"7961495","steam_id":85568392925397960,"keywords":["cp","nocrits","nodmgspread","uncletopia"],"game_id":440,"stv_port":27066,"stv_name":"Uncletopia | Sydney | 6 | Community | STV","players":null},{"server_id":49,"name":"Uncletopia | Warsaw | 1 | All Maps","name_short":"waw-1","host":"waw-1.pl.uncletopia.com","port":27015,"enabled":true,"region":"eu","cc":"pl","latitude":52.2297,"longitude":21.017532,"reserved":0,"last_update":"0001-01-01T00:00:00Z","name_a2s":"Uncletopia | Warsaw | 1 | All Maps","protocol":17,"map":"plr_hightower","folder":"tf","game":"Team Fortress","app_id":440,"player_count":0,"max_players":24,"Bots":0,"server_type":"Dedicated","server_os":"Linux","password":true,"vac":true,"version":"7961495","steam_id":85568392925397850,"keywords":["nocrits","nodmgspread","payload","uncletopia"],"game_id":440,"stv_port":27016,"stv_name":"Uncletopia | Warsaw | 1 | All Maps | STV","players":null},{"server_id":50,"name":"Uncletopia | Warsaw | 2 | All Maps","name_short":"waw-2","host":"waw-1.pl.uncletopia.com","port":27025,"enabled":true,"region":"eu","cc":"pl","latitude":52.2297,"longitude":21.017532,"reserved":0,"last_update":"0001-01-01T00:00:00Z","name_a2s":"Uncletopia | Warsaw | 2 | All Maps","protocol":17,"map":"cp_mountainlab","folder":"tf","game":"Team Fortress","app_id":440,"player_count":0,"max_players":24,"Bots":0,"server_type":"Dedicated","server_os":"Linux","password":true,"vac":true,"version":"7961495","steam_id":85568392925397851,"keywords":["cp","nocrits","nodmgspread","uncletopia"],"game_id":440,"stv_port":27026,"stv_name":"Uncletopia | Warsaw | 2 | All Maps | STV","players":null},{"server_id":51,"name":"Uncletopia | Warsaw | 3 | All Maps","name_short":"waw-3","host":"waw-1.pl.uncletopia.com","port":27035,"enabled":true,"region":"eu","cc":"pl","latitude":52.2297,"longitude":21.017532,"reserved":0,"last_update":"0001-01-01T00:00:00Z","name_a2s":"Uncletopia | Warsaw | 3 | All Maps","protocol":17,"map":"cp_sunshine","folder":"tf","game":"Team Fortress","app_id":440,"player_count":0,"max_players":24,"Bots":0,"server_type":"Dedicated","server_os":"Linux","password":true,"vac":true,"version":"7961495","steam_id":85568392925397852,"keywords":["cp","nocrits","nodmgspread","uncletopia"],"game_id":440,"stv_port":27036,"stv_name":"Uncletopia | Warsaw | 3 | All Maps | STV","players":null},{"server_id":52,"name":"Uncletopia | Warsaw | 4 | All Maps","name_short":"waw-4","host":"waw-1.pl.uncletopia.com","port":27045,"enabled":true,"region":"eu","cc":"pl","latitude":52.2297,"longitude":21.017532,"reserved":0,"last_update":"0001-01-01T00:00:00Z","name_a2s":"Uncletopia | Warsaw | 4 | All Maps","protocol":17,"map":"pl_snowycoast","folder":"tf","game":"Team Fortress","app_id":440,"player_count":0,"max_players":24,"Bots":0,"server_type":"Dedicated","server_os":"Linux","password":true,"vac":true,"version":"7961495","steam_id":85568392925397853,"keywords":["nocrits","nodmgspread","payload","uncletopia"],"game_id":440,"stv_port":27046,"stv_name":"Uncletopia | Warsaw | 4 | All Maps | STV","players":null},{"server_id":53,"name":"Uncletopia | Warsaw | 5 | Stopwatch","name_short":"waw-5","host":"waw-1.pl.uncletopia.com","port":27055,"enabled":true,"region":"eu","cc":"pl","latitude":52.2297,"longitude":21.017532,"reserved":0,"last_update":"0001-01-01T00:00:00Z","name_a2s":"Uncletopia | Warsaw | 5 | Stopwatch","protocol":17,"map":"workshop/cp_reckoner_rc6.ugc674719999","folder":"tf","game":"Team Fortress","app_id":440,"player_count":0,"max_players":24,"Bots":0,"server_type":"Dedicated","server_os":"Linux","password":true,"vac":true,"version":"7961495","steam_id":85568392925397854,"keywords":["cp","nocrits","nodmgspread","uncletopia"],"game_id":440,"stv_port":27056,"stv_name":"Uncletopia | Warsaw | 5 | Stopwatch | STV","players":null},{"server_id":54,"name":"Uncletopia | Warsaw | 6 | Community","name_short":"waw-6","host":"waw-1.pl.uncletopia.com","port":27065,"enabled":true,"region":"eu","cc":"pl","latitude":52.2297,"longitude":21.017532,"reserved":0,"last_update":"0001-01-01T00:00:00Z","name_a2s":"Uncletopia | Warsaw | 6 | Community","protocol":17,"map":"workshop/cp_hazyfort_rc6.ugc1365963729","folder":"tf","game":"Team Fortress","app_id":440,"player_count":0,"max_players":24,"Bots":0,"server_type":"Dedicated","server_os":"Linux","password":true,"vac":true,"version":"7961495","steam_id":85568392925397856,"keywords":["cp","nocrits","nodmgspread","uncletopia"],"game_id":440,"stv_port":27066,"stv_name":"Uncletopia | Warsaw | 6 | Community | STV","players":null}]}