{"status":true,"message":"","result":[{"server_id":9,"name":"Uncletopia | Atlanta | 1 | All Maps","name_short":"atl-1","host":"atl-1.us.uncletopia.com","port":27015,"enabled":true,"region":"us-east","cc":"us","latitude":33.753746,"longitude":-84.38633,"reserved":0,"last_update":"0001-01-01T00:00:00Z","name_a2s":"Uncletopia | Atlanta | 1 | All Maps","protocol":17,"map":"cp_mountainlab","folder":"tf","game":"Team Fortress","app_id":440,"player_count":0,"max_players":24,"Bots":0,"server_type":"Dedicated","server_os":"Linux","password":true,"vac":true,"version":"7961495","steam_id":85568392924469982,"keywords":["cp","nocrits","nodmgspread","uncletopia"],"game_id":440,"stv_port":27016,"stv_name":"Uncletopia | Atlanta | 1 | All Maps | STV","players":null},{"server_id":104,"name":"Uncletopia | Atlanta | 2 | All Maps","name_short":"atl-2","host":"atl-1.us.uncletopia.com","port":27025,"enabled":true,"region":"us-east","cc":"us","latitude":33.753746,"longitude":-84.38633,"reserved":0,"last_update":"0001-01-01T00:00:00Z","name_a2s":"Uncletopia | Atlanta | 2 | All Maps","protocol":17,"map":"koth_nucleus","folder":"tf","game":"Team Fortress","app_id":440,"player_count":0,"max_players":24,"Bots":0,"server_type":"Dedicated","server_os":"Linux","password":true,"vac":true,"version":"7961495","steam_id":85568392924469983,"keywords":["cp","nocrits","nodmgspread","uncletopia"],"game_id":440,"stv_port":27026,"stv_name":"Uncletopia | Atlanta | 2 | All Maps | STV","players":null},{"server_id":400,"name":"Uncletopia | Atlanta | 3 | Stopwatch","name_short":"atl-3","host":"atl-1.us.uncletopia.com","port":27035,"enabled":true,"region":"us-east","cc":"us","latitude":33.753746,"longitude":-84.38633,"reserved":0,"last_update":"0001-01-01T00:00:00Z","name_a2s":"Uncletopia | Atlanta | 3 | Stopwatch","protocol":17,"map":"pl_upward","folder":"tf","game":"Team Fortress","app_id":440,"player_count":0,"max_players":24,"Bots":0,"server_type":"Dedicated","server_os":"Linux","password":true,"vac":true,"version":"7961495","steam_id":85568392924515187,"keywords":["nocrits","nodmgspread","payload","uncletopia"],"game_id":440,"stv_port":27036,"stv_name":"Uncletopia | Atlanta | 3 | Stopwatch | STV","players":null},{"server_id":401,"name":"Uncletopia | Atlanta | 4 | Community","name_short":"atl-4","host":"atl-1.us.uncletopia.com","port":27045,"enabled":true,"region":"us-east","cc":"us","latitude":33.753746,"longitude":-84.38633,"reserved":0,"last_update":"0001-01-01T00:00:00Z","name_a2s":"Uncletopia | Atlanta | 4 | Community","protocol":17,"map":"workshop/koth_product_final.ugc454272353","folder":"tf","game":"Team Fortress","app_id":440,"player_count":0,"max_players":24,"Bots":0,"server_type":"Dedicated","server_os":"Linux","password":true,"vac":true,"version":"7961495","steam_id":85568392924515188,"keywords":["cp","nocrits","nodmgspread","uncletopia"],"game_id":440,"stv_port":27046,"stv_name":"Uncletopia | Atlanta | 4 | Community | STV","players":null},{"server_id":2,"name":"Uncletopia | Chicago | 1 | All Maps","name_short":"chi-1","host":"chi-1.us.uncletopia.com","port":27015,"enabled":true,"region":"us-central","cc":"us","latitude":41.881832,"longitude":-87.62318,"reserved":0,"last_update":"0001-01-01T00:00:00Z","name_a2s":"Uncletopia | Chicago | 1 | All Maps","protocol":17,"map":"pl_pier","folder":"tf","game":"Team Fortress","app_id":440,"player_count":0,"max_players":24,"Bots":0,"server_type":"Dedicated","server_os":"Linux","password":true,"vac":true,"version":"7961495","steam_id":85568392924469984,"keywords":["nocrits","nodmgspread","payload","uncletopia"],"game_id":440,"stv_port":27016,"stv_name":"Uncletopia | Chicago | 1 | All Maps | STV","players":null},{"server_id":106,"name":"Uncletopia | Chicago | 2 | All Maps","name_short":"chi-2","host":"chi-1.us.uncletopia.com","port":27025,"enabled":true,"region":"us-central","cc":"us","latitude":41.881832,"longitude":-87.62318,"reserved":0,"last_update":"0001-01-01T00:00:00Z","name_a2s":"Uncletopia | Chicago | 2 | All Maps","protocol":17,"map":"koth_lakeside_final","folder":"tf","game":"Team Fortress","app_id":440,"player_count":21,"max_players":24,"Bots":0,"server_type":"Dedicated","server_os":"Linux","password":true,"vac":true,"version":"7961495","steam_id":85568392924469985,"keywords":["cp","nocrits","nodmgspread","uncletopia"],"game_id":440,"stv_port":27026,"stv_name":"Uncletopia | Chicago | 2 | All Maps | STV","players":[{"user_id":700,"name":"Adenosine Triphosphate","steam_id":76561198053908725,"connected_time":273000000000,"state":"active","ping":88},{"user_id":701,"name":"Plushy Freeman","steam_id":76561198004935560,"connected_time":235000000000,"state":"active","ping":142},{"user_id":605,"name":"gyat","steam_id":76561198043684960,"connected_time":7711000000000,"state":"active","ping":69},{"user_id":599,"name":"HandsomeBoyCarlito","steam_id":76561199013892337,"connected_time":8011000000000,"state":"active","ping":54},{"user_id":693,"name":"Clear Sights","steam_id":76561198006215683,"connected_time":884000000000,"state":"active","ping":53},{"user_id":702,"name":"beautiful princess disorder","steam_id":76561198049258493,"connected_time":113000000000,"state":"active","ping":135},{"user_id":684,"name":"eish","steam_id":76561198089463603,"connected_time":1683000000000,"state":"active","ping":135},{"user_id":690,"name":"Pip","steam_id":76561198243520638,"connected_time":927000000000,"state":"active","ping":64},{"user_id":703,"name":"Glanderson booper","steam_id":76561198021223747,"connected_time":18000000000,"state":"active","ping":136},{"user_id":704,"name":"AwesomeMissB","steam_id":76561199066244584,"connected_time":7000000000,"state":"active","ping":201},{"user_id":661,"name":"Hey","steam_id":76561198447517893,"connected_time":3949000000000,"state":"active","ping":69},{"user_id":691,"name":"yem yem","steam_id":76561198157664566,"connected_time":920000000000,"state":"active","ping":69},{"user_id":692,"name":"cowboy","steam_id":76561198062993488,"connected_time":899000000000,"state":"active","ping":49},{"user_id":678,"name":"Sum0","steam_id":76561198260451626,"connected_time":2371000000000,"state":"active","ping":66},{"user_id":612,"name":"K","steam_id":76561198171446177,"connected_time":7243000000000,"state":"active","ping":94},{"user_id":629,"name":"Nestor","steam_id":76561198070782619,"connected_time":5797000000000,"state":"active","ping":57},{"user_id":699,"name":"CynForSin","steam_id":76561198094739849,"connected_time":458000000000,"state":"active","ping":57},{"user_id":682,"name":"Quick","steam_id":76561198170924194,"connected_time":1976000000000,"state":"active","ping":100},{"user_id":687,"name":"frank","steam_id":76561198137777483,"connected_time":1195000000000,"state":"active","ping":67},{"user_id":696,"name":"Phoysh","steam_id":76561198137111021,"connected_time":616000000000,"state":"active","ping":96},{"user_id":695,"name":"SuperEvilPasta","steam_id":76561198078258907,"connected_time":865000000000,"state":"active","ping":90}]},{"server_id":402,"name":"Uncletopia | Chicago | 3 | All Maps","name_short":"chi-3","host":"chi-1.us.uncletopia.com","port":27035,"enabled":true,"region":"us-central","cc":"us","latitude":41.881832,"longitude":-87.62318,"reserved":0,"last_update":"0001-01-01T00:00:00Z","name_a2s":"Uncletopia | Chicago | 3 | All Maps","protocol":17,"map":"pl_pier","folder":"tf","game":"Team Fortress","app_id":440,"player_count":24,"max_players":24,"Bots":0,"server_type":"Dedicated","server_os":"Linux","password":true,"vac":true,"version":"7961495","steam_id":85568392924515191,"keywords":["nocrits","nodmgspread","payload","uncletopia"],"game_id":440,"stv_port":27036,"stv_name":"Uncletopia | Chicago | 3 | All Maps | STV","players":[{"user_id":669,"name":"HalfDead","steam_id":76561198049700226,"connected_time":1684000000000,"state":"active","ping":85},{"user_id":627,"name":"GruntRule","steam_id":76561198039987143,"connected_time":3604000000000,"state":"active","ping":83},{"user_id":620,"name":"Yummy Kabobz","steam_id":76561198067661705,"connected_time":4462000000000,"state":"active","ping":68},{"user_id":670,"name":"sora","steam_id":76561198094256973,"connected_time":1664000000000,"state":"active","ping":99},{"user_id":679,"name":"funkeymonkey15","steam_id":76561198930961042,"connected_time":609000000000,"state":"active","ping":87},{"user_id":677,"name":"Matthew Phong","steam_id":76561198143132686,"connected_time":717000000000,"state":"active","ping":89},{"user_id":680,"name":"Asfedia","steam_id":76561199386836351,"connected_time":417000000000,"state":"active","ping":146},{"user_id":678,"name":"CupFruit","steam_id":76561198983993193,"connected_time":672000000000,"state":"active","ping":71},{"user_id":676,"name":"jams","steam_id":76561198131701290,"connected_time":792000000000,"state":"active","ping":105},{"user_id":645,"name":"Wenegade Waider","steam_id":76561198403649648,"connected_time":2667000000000,"state":"active","ping":52},{"user_id":657,"name":"cajun thotsauce","steam_id":76561198101636066,"connected_time":2405000000000,"state":"active","ping":101},{"user_id":606,"name":"Dzhoshua","steam_id":76561198071915251,"connected_time":5081000000000,"state":"active","ping":62},{"user_id":658,"name":"Team Fartpiss Poo","steam_id":76561199163591880,"connected_time":2402000000000,"state":"active","ping":96},{"user_id":632,"name":"Mud Horse Great Big Loud","steam_id":76561198067247951,"connected_time":3421000000000,"state":"active","ping":61},{"user_id":610,"name":"Ghost \"With the Most\" Toastee","steam_id":76561198085410969,"connected_time":4942000000000,"state":"active","ping":52},{"user_id":644,"name":"Elon Tusk","steam_id":76561198977359400,"connected_time":2697000000000,"state":"active","ping":74},{"user_id":611,"name":"uwahhhh","steam_id":76561198154449875,"connected_time":4936000000000,"state":"active","ping":99},{"user_id":674,"name":"Gargathor the Entity Catcher","steam_id":76561198189429665,"connected_time":1566000000000,"state":"active","ping":72},{"user_id":665,"name":"GarbageTruck","steam_id":76561198080019414,"connected_time":1784000000000,"state":"active","ping":79},{"user_id":646,"name":"pw","steam_id":76561198087945065,"connected_time":2665000000000,"state":"active","ping":57},{"user_id":659,"name":"PTR","steam_id":76561198237253772,"connected_time":2378000000000,"state":"active","ping":69},{"user_id":639,"name":"That Squiggly Guy","steam_id":76561197993321369,"connected_time":3155000000000,"state":"active","ping":87},{"user_id":668,"name":"njk","steam_id":76561199061380038,"connected_time":1716000000000,"state":"active","ping":75},{"user_id":683,"name":"walluu","steam_id":76561198121830870,"connected_time":314000000000,"state":"active","ping":167}]},{"server_id":403,"name":"Uncletopia | Chicago | 4 | All Maps","name_short":"chi-4","host":"chi-1.us.uncletopia.com","port":27045,"enabled":true,"region":"us-central","cc":"us","latitude":41.881832,"longitude":-87.62318,"reserved":0,"last_update":"0001-01-01T00:00:00Z","name_a2s":"Uncletopia | Chicago | 4 | All Maps","protocol":17,"map":"pl_pier","folder":"tf","game":"Team Fortress","app_id":440,"player_count":0,"max_players":24,"Bots":0,"server_type":"Dedicated","server_os":"Linux","password":true,"vac":true,"version":"7961495","steam_id":85568392924515193,"keywords":["nocrits","nodmgspread","payload","uncletopia"],"game_id":440,"stv_port":27046,"stv_name":"Uncletopia | Chicago | 4 | All Maps | STV","players":null},{"server_id":36,"name":"Uncletopia | Chicago | 5 | All Maps","name_short":"chi-5","host":"chi-2.us.uncletopia.com","port":27015,"enabled":true,"region":"us-central","cc":"us","latitude":41.881832,"longitude":-87.62318,"reserved":0,"last_update":"0001-01-01T00:00:00Z","name_a2s":"Uncletopia | Chicago | 5 | All Maps","protocol":17,"map":"pl_upward","folder":"tf","game":"Team Fortress","app_id":440,"player_count":24,"max_players":24,"Bots":0,"server_type":"Dedicated","server_os":"Linux","password":true,"vac":true,"version":"7961495","steam_id":85568392924866362,"keywords":["nocrits","nodmgspread","payload","uncletopia"],"game_id":440,"stv_port":27016,"stv_name":"Uncletopia | Chicago | 5 | All Maps | STV","players":[{"user_id":615,"name":"Female Gamer","steam_id":76561199366482682,"connected_time":1627000000000,"state":"active","ping":104},{"user_id":495,"name":"typical continental philosopher","steam_id":76561198007464245,"connected_time":9802000000000,"state":"active","ping":76},{"user_id":628,"name":"Lucil3 on Bandcamp","steam_id":76561198149063013,"connected_time":890000000000,"state":"active","ping":63},{"user_id":614,"name":"who ate the cheese","steam_id":76561198275408467,"connected_time":1672000000000,"state":"active","ping":46},{"user_id":627,"name":"âˆž 8 âˆž","steam_id":76561197973248859,"connected_time":1054000000000,"state":"active","ping":92},{"user_id":593,"name":"Howdee","steam_id":76561198081622174,"connected_time":4028000000000,"state":"active","ping":63},{"user_id":486,"name":"Birch","steam_id":76561198316231704,"connected_time":10219000000000,"state":"active","ping":60},{"user_id":475,"name":"Meskoozy","steam_id":76561198102394479,"connected_time":11596000000000,"state":"active","ping":71},{"user_id":634,"name":"Sweatshirt","steam_id":76561198087631219,"connected_time":362000000000,"state":"active","ping":102},{"user_id":621,"name":"â™¥ Pretty In Pink â™¥","steam_id":76561199021457810,"connected_time":1342000000000,"state":"active","ping":82},{"user_id":608,"name":"paetho YT","steam_id":76561198152690003,"connected_time":3166000000000,"state":"active","ping":57},{"user_id":524,"name":"RAD â˜†","steam_id":76561198321905478,"connected_time":7565000000000,"state":"active","ping":61},{"user_id":525,"name":"Outlander","steam_id":76561199032887232,"connected_time":7557000000000,"state":"active","ping":83},{"user_id":629,"name":"Zanartan","steam_id":76561198050528902,"connected_time":638000000000,"state":"active","ping":188},{"user_id":622,"name":"menta fresca","steam_id":76561198086666486,"connected_time":1315000000000,"state":"active","ping":117},{"user_id":450,"name":"The Professor","steam_id":76561198113760863,"connected_time":13812000000000,"state":"active","ping":64},{"user_id":623,"name":"No More What Ifs","steam_id":76561198410957728,"connected_time":1252000000000,"state":"active","ping":51},{"user_id":631,"name":"Balaka Tonka","steam_id":76561198386395778,"connected_time":622000000000,"state":"active","ping":136},{"user_id":633,"name":"what a fukkin","steam_id":76561198298442983,"connected_time":421000000000,"state":"active","ping":101},{"user_id":527,"name":"bios","steam_id":76561198063737238,"connected_time":7533000000000,"state":"active","ping":62},{"user_id":610,"name":"YASAI JUICE","steam_id":76561198131971992,"connected_time":2917000000000,"state":"active","ping":43},{"user_id":635,"name":"chicken pot pie gaming","steam_id":76561198104800182,"connected_time":303000000000,"state":"active","ping":44},{"user_id":613,"name":"HenryTopHat","steam_id":76561199095097985,"connected_time":2823000000000,"state":"active","ping":152},{"user_id":625,"name":"tgirl swag","steam_id":76561198128164970,"connected_time":1243000000000,"state":"active","ping":108}]},{"server_id":37,"name":"Uncletopia | Chicago | 6 | All Maps","name_short":"chi-6","host":"chi-2.us.uncletopia.com","port":27025,"enabled":true,"region":"us-central","cc":"us","latitude":41.881832,"longitude":-87.62318,"reserved":0,"last_update":"0001-01-01T00:00:00Z","name_a2s":"Uncletopia | Chicago | 6 | All Maps","protocol":17,"map":"koth_suijin","folder":"tf","game":"Team Fortress","app_id":440,"player_count":0,"max_players":24,"Bots":0,"server_type":"Dedicated","server_os":"Linux","password":true,"vac":true,"version":"7961495","steam_id":85568392924866363,"keywords":["cp","nocrits","nodmgspread","uncletopia"],"game_id":440,"stv_port":27026,"stv_name":"Uncletopia | Chicago | 6 | All Maps | STV","players":null},{"server_id":38,"name":"Uncletopia | Chicago | 7 | Stopwatch","name_short":"chi-7","host":"chi-2.us.uncletopia.com","port":27035,"enabled":true,"region":"us-central","cc":"us","latitude":41.881832,"longitude":-87.62318,"reserved":0,"last_update":"0001-01-01T00:00:00Z","name_a2s":"Uncletopia | Chicago | 7 | Stopwatch","protocol":17,"map":"pl_swiftwater_final1","folder":"tf","game":"Team Fortress","app_id":440,"player_count":0,"max_players":24,"Bots":0,"server_type":"Dedicated","server_os":"Linux","password":true,"vac":true,"version":"7961495","steam_id":85568392924866364,"keywords":["nocrits","nodmgspread","payload","uncletopia"],"game_id":440,"stv_port":27036,"stv_name":"Uncletopia | Chicago | 7 | Stopwatch | STV","players":null},{"server_id":39,"name":"Uncletopia | Chicago | 8 | Community","name_short":"chi-8","host":"chi-2.us.uncletopia.com","port":27045,"enabled":true,"region":"us-central","cc":"us","latitude":41.881832,"longitude":-87.62318,"reserved":0,"last_update":"0001-01-01T00:00:00Z","name_a2s":"Uncletopia | Chicago | 8 | Community","protocol":17,"map":"workshop/koth_ramjam_rc1.ugc459778887","folder":"tf","game":"Team Fortress","app_id":440,"player_count":0,"max_players":24,"Bots":0,"server_type":"Dedicated","server_os":"Linux","password":true,"vac":true,"version":"7961495","steam_id":85568392924866365,"keywords":["cp","nocrits","nodmgspread","uncletopia"],"game_id":440,"stv_port":27046,"stv_name":"Uncletopia | Chicago | 8 | Community | STV","players":null},{"server_id":8,"name":"Uncletopia | Dallas | 1 | All Maps","name_short":"dal-1","host":"dal-1.us.uncletopia.com","port":27015,"enabled":true,"region":"us-central","cc":"us","latitude":32.779167,"longitude":-96.80889,"reserved":0,"last_update":"0001-01-01T00:00:00Z","name_a2s":"Uncletopia | Dallas | 1 | All Maps","protocol":17,"map":"ctf_2fort","folder":"tf","game":"Team Fortress","app_id":440,"player_count":0,"max_players":24,"Bots":0,"server_type":"Dedicated","server_os":"Linux","password":true,"vac":true,"version":"7961495","steam_id":85568392924469986,"keywords":["ctf","nocrits","nodmgspread","uncletopia"],"game_id":440,"stv_port":27016,"stv_name":"Uncletopia | Dallas | 1 | All Maps | STV","players":null},{"server_id":108,"name":"Uncletopia | Dallas | 2 | All Maps","name_short":"dal-2","host":"dal-1.us.uncletopia.com","port":27025,"enabled":true,"region":"us-central","cc":"us","latitude":32.779167,"longitude":-96.80889,"reserved":0,"last_update":"0001-01-01T00:00:00Z","name_a2s":"Uncletopia | Dallas | 2 | All Maps","protocol":17,"map":"cp_dustbowl","folder":"tf","game":"Team Fortress","app_id":440,"player_count":24,"max_players":24,"Bots":0,"server_type":"Dedicated","server_os":"Linux","password":true,"vac":true,"version":"7961495","steam_id":85568392924469988,"keywords":["cp","nocrits","nodmgspread","uncletopia"],"game_id":440,"stv_port":27026,"stv_name":"Uncletopia | Dallas | 2 | All Maps | STV","players":[{"user_id":910,"name":"Owls = Government Drones","steam_id":76561198439793697,"connected_time":2489000000000,"state":"active","ping":85},{"user_id":934,"name":"Myra1090","steam_id":76561198060917191,"connected_time":705000000000,"state":"active","ping":85},{"user_id":904,"name":"dave :3","steam_id":76561198135961731,"connected_time":2625000000000,"state":"active","ping":61},{"user_id":930,"name":"ethan","steam_id":76561198171232129,"connected_time":1027000000000,"state":"active","ping":66},{"user_id":914,"name":"Confused Rock","steam_id":76561198051763034,"connected_time":2090000000000,"state":"active","ping":77},{"user_id":900,"name":"MasterGeek.MX","steam_id":76561198063355220,"connected_time":2992000000000,"state":"active","ping":89},{"user_id":923,"name":"CeLeb144","steam_id":76561199089907740,"connected_time":1616000000000,"state":"active","ping":72},{"user_id":895,"name":"Gason Homoa","steam_id":76561199000180522,"connected_time":3473000000000,"state":"active","ping":96},{"user_id":932,"name":"Bill Clinton","steam_id":76561198060011032,"connected_time":888000000000,"state":"active","ping":169},{"user_id":886,"name":"MaybeMars","steam_id":76561198084736804,"connected_time":4081000000000,"state":"active","ping":86},{"user_id":899,"name":"Killua","steam_id":76561198405299137,"connected_time":3043000000000,"state":"active","ping":37},{"user_id":937,"name":"RC","steam_id":76561198048127881,"connected_time":111000000000,"state":"active","ping":66},{"user_id":927,"name":"Kataklysm","steam_id":76561198403653602,"connected_time":1205000000000,"state":"active","ping":89},{"user_id":933,"name":"A.J. | trade.tf","steam_id":76561198171928419,"connected_time":733000000000,"state":"active","ping":58},{"user_id":870,"name":"adam0o0","steam_id":76561198052250279,"connected_time":4782000000000,"state":"active","ping":71},{"user_id":896,"name":"Vorpas Jabwak","steam_id":76561198112186064,"connected_time":3229000000000,"state":"active","ping":69},{"user_id":901,"name":"Barress","steam_id":76561198011728743,"connected_time":2900000000000,"state":"active","ping":85},{"user_id":875,"name":"\u003e:J","steam_id":76561198353456379,"connected_time":4554000000000,"state":"active","ping":61},{"user_id":907,"name":"Mooksie","steam_id":76561198073074064,"connected_time":2604000000000,"state":"active","ping":75},{"user_id":928,"name":"Generator","steam_id":76561198011762257,"connected_time":1193000000000,"state":"active","ping":121},{"user_id":935,"name":"tek lintowe fan","steam_id":76561198206177593,"connected_time":682000000000,"state":"active","ping":71},{"user_id":926,"name":"Scoops M'Gooch","steam_id":76561198048423812,"connected_time":1293000000000,"state":"active","ping":93},{"user_id":894,"name":"American Dad","steam_id":76561198059711448,"connected_time":3505000000000,"state":"active","ping":86},{"user_id":936,"name":"Milk T34","steam_id":76561198116115227,"connected_time":675000000000,"state":"active","ping":83}]},{"server_id":404,"name":"Uncletopia | Dallas | 3 | All Maps","name_short":"dal-3","host":"dal-1.us.uncletopia.com","port":27035,"enabled":true,"region":"us-central","cc":"us","latitude":32.779167,"longitude":-96.80889,"reserved":0,"last_update":"0001-01-01T00:00:00Z","name_a2s":"Uncletopia | Dallas | 3 | All Maps","protocol":17,"map":"pl_frontier_final","folder":"tf","game":"Team Fortress","app_id":440,"player_count":0,"max_players":24,"Bots":0,"server_type":"Dedicated","server_os":"Linux","password":true,"vac":true,"version":"7961495","steam_id":85568392924515219,"keywords":["nocrits","nodmgspread","payload","uncletopia"],"game_id":440,"stv_port":27036,"stv_name":"Uncletopia | Dallas | 3 | All Maps | STV","players":null},{"server_id":405,"name":"Uncletopia | Dallas | 4 | Community","name_short":"dal-4","host":"dal-1.us.uncletopia.com","port":27045,"enabled":true,"region":"us-central","cc":"us","latitude":32.779167,"longitude":-96.80889,"reserved":0,"last_update":"0001-01-01T00:00:00Z","name_a2s":"Uncletopia | Dallas | 4 | Community","protocol":17,"map":"workshop/cp_hazyfort_rc6.ugc1365963729","folder":"tf","game":"Team Fortress","app_id":440,"player_count":0,"max_players":24,"Bots":0,"server_type":"Dedicated","server_os":"Linux","password":true,"vac":true,"version":"7961495","steam_id":85568392924515220,"keywords":["cp","nocrits","nodmgspread","uncletopia"],"game_id":440,"stv_port":27046,"stv_name":"Uncletopia | Dallas | 4 | Community | STV","players":null},{"server_id":5,"name":"Uncletopia | Frankfurt | 1 | All Maps","name_short":"frk-1","host":"frk-1.de.uncletopia.com","port":27015,"enabled":true,"region":"eu","cc":"de","latitude":50.110924,"longitude":8.682127,"reserved":0,"last_update":"0001-01-01T00:00:00Z","name_a2s":"Uncletopia | Frankfurt | 1 | All Maps","protocol":17,"map":"pl_pier","folder":"tf","game":"Team Fortress","app_id":440,"player_count":24,"max_players":24,"Bots":0,"server_type":"Dedicated","server_os":"Linux","password":true,"vac":true,"version":"7961495","steam_id":85568392924469989,"keywords":["nocrits","nodmgspread","payload","uncletopia"],"game_id":440,"stv_port":27016,"stv_name":"Uncletopia | Frankfurt | 1 | All Maps | STV","players":[{"user_id":53,"name":"scar | URF.IM","steam_id":76561198927694734,"connected_time":1467000000000,"state":"active","ping":61},{"user_id":61,"name":"SaSSolino","steam_id":76561198011308018,"connected_time":572000000000,"state":"active","ping":57},{"user_id":60,"name":"ramedlaV^^","steam_id":76561198074352339,"connected_time":940000000000,"state":"active","ping":63},{"user_id":54,"name":"rower123","steam_id":76561198265062481,"connected_time":1402000000000,"state":"active","ping":73},{"user_id":50,"name":"OneSolidJunky","steam_id":76561199086682942,"connected_time":1566000000000,"state":"active","ping":99},{"user_id":40,"name":"Curls","steam_id":76561198079039937,"connected_time":1928000000000,"state":"active","ping":75},{"user_id":59,"name":"scott steiners strongest warrio","steam_id":76561198148888622,"connected_time":993000000000,"state":"active","ping":70},{"user_id":65,"name":"Can't outsmart bullet","steam_id":76561199239168617,"connected_time":269000000000,"state":"active","ping":57},{"user_id":30,"name":"night.s","steam_id":76561198326287823,"connected_time":2385000000000,"state":"active","ping":74},{"user_id":57,"name":"Chippo","steam_id":76561198343198306,"connected_time":1003000000000,"state":"active","ping":71},{"user_id":31,"name":"dumbest spy main alive","steam_id":76561199195985387,"connected_time":2334000000000,"state":"active","ping":167},{"user_id":38,"name":"AgurkesalatðŸ¥’","steam_id":76561198300501653,"connected_time":1964000000000,"state":"active","ping":48},{"user_id":41,"name":"Kraid","steam_id":76561198082387192,"connected_time":1923000000000,"state":"active","ping":100},{"user_id":34,"name":"Cg Studios","steam_id":76561198286908002,"connected_time":2178000000000,"state":"active","ping":73},{"user_id":44,"name":"CannedWither","steam_id":76561199143659442,"connected_time":1898000000000,"state":"active","ping":58},{"user_id":42,"name":"Coca162","steam_id":76561198230656540,"connected_time":1923000000000,"state":"active","ping":55},{"user_id":43,"name":"QuimKong","steam_id":76561198176501842,"connected_time":1918000000000,"state":"active","ping":84},{"user_id":63,"name":"a chimp with a keyboard","steam_id":76561198060270322,"connected_time":569000000000,"state":"active","ping":86},{"user_id":58,"name":".DatKai","steam_id":76561198023658913,"connected_time":999000000000,"state":"active","ping":41},{"user_id":47,"name":"stafor","steam_id":76561198078180804,"connected_time":1794000000000,"state":"active","ping":73},{"user_id":48,"name":"Citler","steam_id":76561199115241703,"connected_time":1744000000000,"state":"active","ping":86},{"user_id":56,"name":"Ace","steam_id":76561198193179149,"connected_time":1066000000000,"state":"active","ping":99},{"user_id":64,"name":"Soulman25 (FIN)","steam_id":76561198103611974,"connected_time":421000000000,"state":"active","ping":87},{"user_id":52,"name":"John0309","steam_id":76561198447428162,"connected_time":1551000000000,"state":"active","ping":73}]},{"server_id":110,"name":"Uncletopia | Frankfurt | 2 | All Maps","name_short":"frk-2","host":"frk-1.de.uncletopia.com","port":27025,"enabled":true,"region":"eu","cc":"de","latitude":50.110924,"longitude":8.682127,"reserved":0,"last_update":"0001-01-01T00:00:00Z","name_a2s":"Uncletopia | Frankfurt | 2 | All Maps","protocol":17,"map":"cp_dustbowl","folder":"tf","game":"Team Fortress","app_id":440,"player_count":0,"max_players":24,"Bots":0,"server_type":"Dedicated","server_os":"Linux","password":true,"vac":true,"version":"7961495","steam_id":85568392924469990,"keywords":["cp","nocrits","nodmgspread","uncletopia"],"game_id":440,"stv_port":27026,"stv_name":"Uncletopia | Frankfurt | 2 | All Maps | STV","players":null},{"server_id":308,"name":"Uncletopia | Frankfurt | 3 | All Maps","name_short":"frk-3","host":"frk-1.de.uncletopia.com","port":27035,"enabled":true,"region":"eu","cc":"de","latitude":50.110924,"longitude":8.682127,"reserved":0,"last_update":"0001-01-01T00:00:00Z","name_a2s":"Uncletopia | Frankfurt | 3 | All Maps","protocol":17,"map":"pl_frontier_final","folder":"tf","game":"Team Fortress","app_id":440,"player_count":0,"max_players":24,"Bots":0,"server_type":"Dedicated","server_os":"Linux","password":true,"vac":true,"version":"7961495","steam_id":85568392924504274,"keywords":["nocrits","nodmgspread","payload","uncletopia"],"game_id":440,"stv_port":27036,"stv_name":"Uncletopia | Frankfurt | 3 | All Maps | STV","players":null},{"server_id":309,"name":"Uncletopia | Frankfurt | 4 | All Maps","name_short":"frk-4","host":"frk-1.de.uncletopia.com","port":27045,"enabled":true,"region":"eu","cc":"de","latitude":50.110924,"longitude":8.682127,"reserved":0,"last_update":"0001-01-01T00:00:00Z","name_a2s":"Uncletopia | Frankfurt | 4 | All Maps","protocol":17,"map":"koth_highpass","folder":"tf","game":"Team Fortress","app_id":440,"player_count":0,"max_players":24,"Bots":0,"server_type":"Dedicated","server_os":"Linux","password":true,"vac":true,"version":"7961495","steam_id":85568392924504275,"keywords":["cp","nocrits","nodmgspread","uncletopia"],"game_id":440,"stv_port":27046,"stv_name":"Uncletopia | Frankfurt | 4 | All Maps | STV","players":null},{"server_id":310,"name":"Uncletopia | Frankfurt | 5 | All Maps","name_short":"frk-5","host":"frk-1.de.uncletopia.com","port":27055,"enabled":true,"region":"eu","cc":"de","latitude":50.110924,"longitude":8.682127,"reserved":0,"last_update":"0001-01-01T00:00:00Z","name_a2s":"Uncletopia | Frankfurt | 5 | All Maps","protocol":17,"map":"pl_badwater","folder":"tf","game":"Team Fortress","app_id":440,"player_count":0,"max_players":24,"Bots":0,"server_type":"Dedicated","server_os":"Linux","password":true,"vac":true,"version":"7961495","steam_id":85568392924504277,"keywords":["nocrits","nodmgspread","payload","uncletopia"],"game_id":440,"stv_port":27056,"stv_name":"Uncletopia | Frankfurt | 5 | All Maps | STV","players":null},{"server_id":311,"name":"Uncletopia | Frankfurt | 6 | All Maps","name_short":"frk-6","host":"frk-1.de.uncletopia.com","port":27065,"enabled":true,"region":"eu","cc":"de","latitude":50.110924,"longitude":8.682127,"reserved":0,"last_update":"0001-01-01T00:00:00Z","name_a2s":"Uncletopia | Frankfurt | 6 | All Maps","protocol":17,"map":"cp_altitude","folder":"tf","game":"Team Fortress","app_id":440,"player_count":0,"max_players":24,"Bots":0,"server_type":"Dedicated","server_os":"Linux","password":true,"vac":true,"version":"7961495","steam_id":85568392924504278,"keywords":["cp","nocrits","nodmgspread","uncletopia"],"game_id":440,"stv_port":27066,"stv_name":"Uncletopia | Frankfurt | 6 | All Maps | STV","players":null},{"server_id":23,"name":"Uncletopia | Frankfurt | 7 | Stopwatch","name_short":"frk-7","host":"frk-1.de.uncletopia.com","port":27075,"enabled":true,"region":"eu","cc":"de","latitude":50.110924,"longitude":8.682127,"reserved":0,"last_update":"0001-01-01T00:00:00Z","name_a2s":"Uncletopia | Frankfurt | 7 | Stopwatch","protocol":17,"map":"pl_frontier_final","folder":"tf","game":"Team Fortress","app_id":440,"player_count":0,"max_players":24,"Bots":0,"server_type":"Dedicated","server_os":"Linux","password":true,"vac":true,"version":"7961495","steam_id":85568392924742827,"keywords":["nocrits","nodmgspread","payload","uncletopia"],"game_id":440,"stv_port":27076,"stv_name":"Uncletopia | Frankfurt | 7 | Stopwatch | STV","players":null},{"server_id":24,"name":"Uncletopia | Frankfurt | 8 | Community","name_short":"frk-8","host":"frk-1.de.uncletopia.com","port":27085,"enabled":true,"region":"eu","cc":"de","latitude":50.110924,"longitude":8.682127,"reserved":0,"last_update":"0001-01-01T00:00:00Z","name_a2s":"Uncletopia | Frankfurt | 8 | Community","protocol":17,"map":"cp_mountainlab","folder":"tf","game":"Team Fortress","app_id":440,"player_count":0,"max_players":24,"Bots":0,"server_type":"Dedicated","server_os":"Linux","password":true,"vac":true,"version":"7961495","steam_id":85568392924742828,"keywords":["cp","nocrits","nodmgspread","uncletopia"],"game_id":440,"stv_port":27086,"stv_name":"Uncletopia | Frankfurt | 8 | Community | STV","players":null},{"server_id":202,"name":"Uncletopia | Hong Kong | 1 | All Maps","name_short":"hgk-1","host":"hgk-1.hk.uncletopia.com","port":27015,"enabled":true,"region":"asia","cc":"hk","latitude":22.302711,"longitude":114.177216,"reserved":0,"last_update":"0001-01-01T00:00:00Z","name_a2s":"Uncletopia | Hong Kong | 1 | All Maps","protocol":17,"map":"pl_badwater","folder":"tf","game":"Team Fortress","app_id":440,"player_count":24,"max_players":24,"Bots":0,"server_type":"Dedicated","server_os":"Linux","password":true,"vac":true,"version":"7961495","steam_id":85568392924494504,"keywords":["nocrits","nodmgspread","payload","uncletopia"],"game_id":440,"stv_port":27016,"stv_name":"Uncletopia | Hong Kong | 1 | All Maps | STV","players":[{"user_id":25,"name":"Paayo","steam_id":76561198952487234,"connected_time":3613000000000,"state":"active","ping":72},{"user_id":18,"name":"ê¹€ê´‘ë§Œ","steam_id":76561198295279503,"connected_time":4801000000000,"state":"active","ping":79},{"user_id":26,"name":"HF","steam_id":76561198873180855,"connected_time":3504000000000,"state":"active","ping":79},{"user_id":56,"name":"owl","steam_id":76561198088403016,"connected_time":1933000000000,"state":"active","ping":103},{"user_id":65,"name":"marisaloses","steam_id":76561199033032870,"connected_time":244000000000,"state":"active","ping":119},{"user_id":24,"name":"Dell Conagher","steam_id":76561198853001370,"connected_time":3743000000000,"state":"active","ping":59},{"user_id":57,"name":"xPhid","steam_id":76561199080808930,"connected_time":1838000000000,"state":"active","ping":93},{"user_id":29,"name":"what in tarnation","steam_id":76561199023360624,"connected_time":3419000000000,"state":"active","ping":105},{"user_id":66,"name":"Mystery cheese ðŸ§€","steam_id":76561198304002409,"connected_time":206000000000,"state":"active","ping":83},{"user_id":31,"name":"brizzard","steam_id":76561198048438653,"connected_time":3272000000000,"state":"active","ping":60},{"user_id":54,"name":"Hanta","steam_id":76561199031390218,"connected_time":2273000000000,"state":"active","ping":108},{"user_id":34,"name":"MS PowerPoint","steam_id":76561198369523192,"connected_time":3187000000000,"state":"active","ping":69},{"user_id":64,"name":"fumo","steam_id":76561199030883017,"connected_time":562000000000,"state":"active","ping":100},{"user_id":58,"name":"water tastes good","steam_id":76561199375947670,"connected_time":1673000000000,"state":"active","ping":82},{"user_id":39,"name":"Ivy","steam_id":76561198400698408,"connected_time":3081000000000,"state":"active","ping":93},{"user_id":60,"name":"Lu","steam_id":76561198320532821,"connected_time":843000000000,"state":"active","ping":69},{"user_id":61,"name":"å¸•","steam_id":76561198439343999,"connected_time":807000000000,"state":"active","ping":81},{"user_id":59,"name":"i am a F2P and my aim is shit","steam_id":76561199475974790,"connected_time":1391000000000,"state":"active","ping":89},{"user_id":43,"name":"quasarlords","steam_id":76561199076224451,"connected_time":2878000000000,"state":"active","ping":107},{"user_id":48,"name":"bad player","steam_id":76561198113401862,"connected_time":2700000000000,"state":"active","ping":92},{"user_id":49,"name":"UnwelcomSchool","steam_id":76561198145500026,"connected_time":2684000000000,"state":"active","ping":109},{"user_id":50,"name":"noob pyro of all time","steam_id":76561198074339034,"connected_time":2602000000000,"state":"active","ping":76},{"user_id":52,"name":"Joilee32","steam_id":76561199226255440,"connected_time":2525000000000,"state":"active","ping":81},{"user_id":62,"name":"Exclamator","steam_id":76561199065048552,"connected_time":807000000000,"state":"active","ping":107}]},{"server_id":1,"name":"Uncletopia | Los Angeles | 1 | All Maps","name_short":"lax-1","host":"lax-1.us.uncletopia.com","port":27015,"enabled":true,"region":"us-west","cc":"us","latitude":33.94279,"longitude":-118.41004,"reserved":0,"last_update":"0001-01-01T00:00:00Z","name_a2s":"Uncletopia | Los Angeles | 1 | All Maps","protocol":17,"map":"cp_mountainlab","folder":"tf","game":"Team Fortress","app_id":440,"player_count":24,"max_players":24,"Bots":0,"server_type":"Dedicated","server_os":"Linux","password":true,"vac":true,"version":"7961495","steam_id":85568392924469991,"keywords":["cp","nocrits","nodmgspread","uncletopia"],"game_id":440,"stv_port":27016,"stv_name":"Uncletopia | Los Angeles | 1 | All Maps | STV","players":[{"user_id":319,"name":"Cat on the Moon","steam_id":76561198272661627,"connected_time":2843000000000,"state":"active","ping":46},{"user_id":340,"name":"The Senate","steam_id":76561198143882626,"connected_time":396000000000,"state":"active","ping":86},{"user_id":306,"name":"Drone #0432 (they/it)","steam_id":76561198027321950,"connected_time":3745000000000,"state":"active","ping":101},{"user_id":338,"name":"sussycheese","steam_id":76561198384139570,"connected_time":497000000000,"state":"active","ping":56},{"user_id":285,"name":"crouching tiger heavy","steam_id":76561198121767390,"connected_time":4995000000000,"state":"active","ping":100},{"user_id":318,"name":"a chicken","steam_id":76561198313121580,"connected_time":2877000000000,"state":"active","ping":45},{"user_id":334,"name":"Subject Delta","steam_id":76561199109118980,"connected_time":768000000000,"state":"active","ping":54},{"user_id":332,"name":"FI LO","steam_id":76561198976530881,"connected_time":1248000000000,"state":"active","ping":30},{"user_id":281,"name":"Shazzy","steam_id":76561198145460523,"connected_time":5467000000000,"state":"active","ping":75},{"user_id":344,"name":"ShadowBolt","steam_id":76561198061610985,"connected_time":107000000000,"state":"active","ping":148},{"user_id":313,"name":"Mokap","steam_id":76561198799225362,"connected_time":3550000000000,"state":"active","ping":122},{"user_id":311,"name":"FoxDwagon","steam_id":76561198392268365,"connected_time":3569000000000,"state":"active","ping":61},{"user_id":341,"name":"Mocha Josie","steam_id":76561198066452726,"connected_time":282000000000,"state":"active","ping":95},{"user_id":277,"name":"Mr8bittripper","steam_id":76561198133894229,"connected_time":5537000000000,"state":"active","ping":72},{"user_id":335,"name":"PREMIUM BART","steam_id":76561198173255559,"connected_time":755000000000,"state":"active","ping":54},{"user_id":279,"name":"Hawksgamer","steam_id":76561198152405941,"connected_time":5488000000000,"state":"active","ping":81},{"user_id":330,"name":"Johnny","steam_id":76561198126676516,"connected_time":1478000000000,"state":"active","ping":69},{"user_id":342,"name":"Fred","steam_id":76561197983870604,"connected_time":279000000000,"state":"active","ping":50},{"user_id":294,"name":"KrylonHeretic","steam_id":76561198139811459,"connected_time":4288000000000,"state":"active","ping":67},{"user_id":295,"name":"HAT-WEARINGâ„¢ Maggot Gamer Cat","steam_id":76561197973992705,"connected_time":4270000000000,"state":"active","ping":69},{"user_id":322,"name":"look at me hector","steam_id":76561198168492250,"connected_time":2436000000000,"state":"active","ping":49},{"user_id":297,"name":"ThatOneGuy","steam_id":76561198416902755,"connected_time":4223000000000,"state":"active","ping":70},{"user_id":343,"name":"Gensin","steam_id":76561198010224854,"connected_time":222000000000,"state":"active","ping":76},{"user_id":333,"name":"Jack","steam_id":76561198087571347,"connected_time":1193000000000,"state":"active","ping":64}]},{"server_id":112,"name":"Uncletopia | Los Angeles | 2 | All Maps","name_short":"lax-2","host":"lax-1.us.uncletopia.com","port":27025,"enabled":true,"region":"us-west","cc":"us","latitude":33.94279,"longitude":-118.41004,"reserved":0,"last_update":"0001-01-01T00:00:00Z","name_a2s":"Uncletopia | Los Angeles | 2 | All Maps","protocol":17,"map":"pl_badwater","folder":"tf","game":"Team Fortress","app_id":440,"player_count":24,"max_players":24,"Bots":0,"server_type":"Dedicated","server_os":"Linux","password":true,"vac":true,"version":"7961495","steam_id":85568392924469992,"keywords":["nocrits","nodmgspread","payload","uncletopia"],"game_id":440,"stv_port":27026,"stv_name":"Uncletopia | Los Angeles | 2 | All Maps | STV","players":[{"user_id":680,"name":"A_Un1t_0","steam_id":76561197966223353,"connected_time":6016000000000,"state":"active","ping":39},{"user_id":738,"name":"Schizophrenic Lesbian","steam_id":76561198162559143,"connected_time":455000000000,"state":"active","ping":76},{"user_id":657,"name":"TeriyakiDynamite","steam_id":76561198050049346,"connected_time":7538000000000,"state":"active","ping":62},{"user_id":711,"name":"0akmask","steam_id":76561198239584280,"connected_time":2929000000000,"state":"active","ping":69},{"user_id":724,"name":"times table","steam_id":76561198341452558,"connected_time":1633000000000,"state":"active","ping":79},{"user_id":739,"name":"âœ¿ PoutyBun âœ¿","steam_id":76561197965762847,"connected_time":193000000000,"state":"active","ping":73},{"user_id":734,"name":"phoonwax","steam_id":76561198433114405,"connected_time":678000000000,"state":"active","ping":71},{"user_id":692,"name":"whiteout","steam_id":76561198049017271,"connected_time":5124000000000,"state":"active","ping":48},{"user_id":735,"name":"Beavis","steam_id":76561197970619638,"connected_time":649000000000,"state":"active","ping":52},{"user_id":729,"name":"011sra","steam_id":76561199489542125,"connected_time":1312000000000,"state":"active","ping":74},{"user_id":733,"name":"Mook","steam_id":76561198219800355,"connected_time":819000000000,"state":"active","ping":52},{"user_id":707,"name":"Nato #ClashGG","steam_id":76561198161062837,"connected_time":3139000000000,"state":"active","ping":55},{"user_id":726,"name":"mike","steam_id":76561198163265338,"connected_time":1386000000000,"state":"active","ping":73},{"user_id":736,"name":"castle in the sky","steam_id":76561198088665810,"connected_time":580000000000,"state":"active","ping":62},{"user_id":693,"name":"Context","steam_id":76561197972634187,"connected_time":5114000000000,"state":"active","ping":46},{"user_id":723,"name":"chesterwnimitz","steam_id":76561198062664377,"connected_time":1727000000000,"state":"active","ping":117},{"user_id":722,"name":"TheDope","steam_id":76561198867694731,"connected_time":1967000000000,"state":"active","ping":107},{"user_id":644,"name":"Under an Unquiet Skull","steam_id":76561198164782653,"connected_time":8867000000000,"state":"active","ping":120},{"user_id":737,"name":"Gasly The Red","steam_id":76561198397898297,"connected_time":506000000000,"state":"active","ping":138},{"user_id":728,"name":"ars110","steam_id":76561198030492435,"connected_time":1370000000000,"state":"active","ping":90},{"user_id":646,"name":"gerg","steam_id":76561197997127387,"connected_time":8632000000000,"state":"active","ping":64},{"user_id":661,"name":"skegeton","steam_id":76561198095581099,"connected_time":7401000000000,"state":"active","ping":99},{"user_id":714,"name":"Gary Sinfeld","steam_id":76561198042274074,"connected_time":2769000000000,"state":"active","ping":80},{"user_id":741,"name":"Creature","steam_id":76561198194585781,"connected_time":86000000000,"state":"active","ping":63}]},{"server_id":324,"name":"Uncletopia | Los Angeles | 3 | All Maps","name_short":"lax-3","host":"lax-1.us.uncletopia.com","port":27035,"enabled":true,"region":"us-west","cc":"us","latitude":33.94279,"longitude":-118.41004,"reserved":0,"last_update":"0001-01-01T00:00:00Z","name_a2s":"Uncletopia | Los Angeles | 3 | All Maps","protocol":17,"map":"koth_cascade","folder":"tf","game":"Team Fortress","app_id":440,"player_count":0,"max_players":24,"Bots":0,"server_type":"Dedicated","server_os":"Linux","password":true,"vac":true,"version":"7961495","steam_id":85568392924510198,"keywords":["cp","nocrits","nodmgspread","uncletopia"],"game_id":440,"stv_port":27036,"stv_name":"Uncletopia | Los Angeles | 3 | All Maps | STV","players":null},{"server_id":25,"name":"Uncletopia | Los Angeles | 4 | Stopwatch","name_short":"lax-4","host":"lax-1.us.uncletopia.com","port":27045,"enabled":true,"region":"us-west","cc":"us","latitude":33.94279,"longitude":-118.41004,"reserved":0,"last_update":"0001-01-01T00:00:00Z","name_a2s":"Uncletopia | Los Angeles | 4 | Stopwatch","protocol":17,"map":"koth_lakeside_final","folder":"tf","game":"Team Fortress","app_id":440,"player_count":0,"max_players":24,"Bots":0,"server_type":"Dedicated","server_os":"Linux","password":true,"vac":true,"version":"7961495","steam_id":85568392924510199,"keywords":["cp","nocrits","nodmgspread","uncletopia"],"game_id":440,"stv_port":27046,"stv_name":"Uncletopia | Los Angeles | 4 | Stopwatch | STV","players":null},{"server_id":11,"name":"Uncletopia | London | 1 | All Maps","name_short":"lon-1","host":"lon-1.uk.uncletopia.com","port":27015,"enabled":true,"region":"eu","cc":"gb","latitude":51.509865,"longitude":-0.118092,"reserved":0,"last_update":"0001-01-01T00:00:00Z","name_a2s":"Uncletopia | London | 1 | All Maps","protocol":17,"map":"koth_highpass","folder":"tf","game":"Team Fortress","app_id":440,"player_count":0,"max_players":24,"Bots":0,"server_type":"Dedicated","server_os":"Linux","password":true,"vac":true,"version":"7961495","steam_id":85568392924367362,"keywords":["cp","nocrits","nodmgspread","uncletopia"],"game_id":440,"stv_port":27016,"stv_name":"Uncletopia | London | 1 | All Maps | STV","players":null},{"server_id":114,"name":"Uncletopia | London | 2 | All Maps","name_short":"lon-2","host":"lon-1.uk.uncletopia.com","port":27025,"enabled":true,"region":"eu","cc":"gb","latitude":51.509865,"longitude":-0.118092,"reserved":0,"last_update":"0001-01-01T00:00:00Z","name_a2s":"Uncletopia | London | 2 | All Maps","protocol":17,"map":"koth_lakeside_final","folder":"tf","game":"Team Fortress","app_id":440,"player_count":0,"max_players":24,"Bots":0,"server_type":"Dedicated","server_os":"Linux","password":true,"vac":true,"version":"7961495","steam_id":85568392924470941,"keywords":["cp","nocrits","nodmgspread","uncletopia"],"game_id":440,"stv_port":27026,"stv_name":"Uncletopia | London | 2 | All Maps | STV","players":null},{"server_id":320,"name":"Uncletopia | London | 3 | All Maps","name_short":"lon-3","host":"lon-1.uk.uncletopia.com","port":27035,"enabled":true,"region":"eu","cc":"gb","latitude":51.509865,"longitude":-0.118092,"reserved":0,"last_update":"0001-01-01T00:00:00Z","name_a2s":"Uncletopia | London | 3 | All Maps","protocol":17,"map":"cp_process_final","folder":"tf","game":"Team Fortress","app_id":440,"player_count":0,"max_players":24,"Bots":0,"server_type":"Dedicated","server_os":"Linux","password":true,"vac":true,"version":"7961495","steam_id":85568392924510192,"keywords":["cp","nocrits","nodmgspread","uncletopia"],"game_id":440,"stv_port":27036,"stv_name":"Uncletopia | London | 3 | All Maps | STV","players":null},{"server_id":321,"name":"Uncletopia | London | 4 | All Maps","name_short":"lon-4","host":"lon-1.uk.uncletopia.com","port":27045,"enabled":true,"region":"eu","cc":"gb","latitude":51.509865,"longitude":-0.118092,"reserved":0,"last_update":"0001-01-01T00:00:00Z","name_a2s":"Uncletopia | London | 4 | All Maps","protocol":17,"map":"koth_cascade","folder":"tf","game":"Team Fortress","app_id":440,"player_count":0,"max_players":24,"Bots":0,"server_type":"Dedicated","server_os":"Linux","password":true,"vac":true,"version":"7961495","steam_id":85568392924510193,"keywords":["cp","nocrits","nodmgspread","uncletopia"],"game_id":440,"stv_port":27046,"stv_name":"Uncletopia | London | 4 | All Maps | STV","players":null},{"server_id":21,"name":"Uncletopia | London | 5 | All Maps","name_short":"lon-5","host":"lon-1.uk.uncletopia.com","port":27055,"enabled":true,"region":"eu","cc":"gb","latitude":51.509865,"longitude":-0.118092,"reserved":0,"last_update":"0001-01-01T00:00:00Z","name_a2s":"Uncletopia | London | 5 | All Maps","protocol":17,"map":"koth_lakeside_final","folder":"tf","game":"Team Fortress","app_id":440,"player_count":0,"max_players":24,"Bots":0,"server_type":"Dedicated","server_os":"Linux","password":true,"vac":true,"version":"7961495","steam_id":85568392924742829,"keywords":["cp","nocrits","nodmgspread","uncletopia"],"game_id":440,"stv_port":27056,"stv_name":"Uncletopia | London | 5 | All Maps | STV","players":null},{"server_id":22,"name":"Uncletopia | London | 6 | All Maps","name_short":"lon-6","host":"lon-1.uk.uncletopia.com","port":27065,"enabled":true,"region":"eu","cc":"gb","latitude":51.509865,"longitude":-0.118092,"reserved":0,"last_update":"0001-01-01T00:00:00Z","name_a2s":"Uncletopia | London | 6 | All Maps","protocol":17,"map":"pl_upward","folder":"tf","game":"Team Fortress","app_id":440,"player_count":0,"max_players":24,"Bots":0,"server_type":"Dedicated","server_os":"Linux","password":true,"vac":true,"version":"7961495","steam_id":85568392924742830,"keywords":["nocrits","nodmgspread","payload","uncletopia"],"game_id":440,"stv_port":27066,"stv_name":"Uncletopia | London | 6 | All Maps | STV","players":null},{"server_id":40,"name":"Uncletopia | London | 7 | Stopwatch","name_short":"lon-7","host":"lon-1.uk.uncletopia.com","port":27075,"enabled":true,"region":"eu","cc":"gb","latitude":51.509865,"longitude":-0.118092,"reserved":0,"last_update":"0001-01-01T00:00:00Z","name_a2s":"Uncletopia | London | 7 | Stopwatch","protocol":17,"map":"koth_highpass","folder":"tf","game":"Team Fortress","app_id":440,"player_count":0,"max_players":24,"Bots":0,"server_type":"Dedicated","server_os":"Linux","password":true,"vac":true,"version":"7961495","steam_id":85568392924964314,"keywords":["cp","nocrits","nodmgspread","uncletopia"],"game_id":440,"stv_port":27076,"stv_name":"Uncletopia | London | 7 | Stopwatch | STV","players":null},{"server_id":41,"name":"Uncletopia | London | 8 | Community","name_short":"lon-8","host":"lon-1.uk.uncletopia.com","port":27085,"enabled":true,"region":"eu","cc":"gb","latitude":51.509865,"longitude":-0.118092,"reserved":0,"last_update":"0001-01-01T00:00:00Z","name_a2s":"Uncletopia | London | 8 | Community","protocol":17,"map":"workshop/cp_indulge.ugc528106646","folder":"tf","game":"Team Fortress","app_id":440,"player_count":0,"max_players":24,"Bots":0,"server_type":"Dedicated","server_os":"Linux","password":true,"vac":true,"version":"7961495","steam_id":85568392924964315,"keywords":["cp","nocrits","nodmgspread","uncletopia"],"game_id":440,"stv_port":27086,"stv_name":"Uncletopia | London | 8 | Community | STV","players":null},{"server_id":300,"name":"Uncletopia | MontrÃ©al | 1 | One Thousand Uncles","name_short":"mtl-1","host":"mtl-1.ca.uncletopia.com","port":27015,"enabled":true,"region":"us-east","cc":"ca","latitude":45.50889,"longitude":-73.56167,"reserved":0,"last_update":"0001-01-01T00:00:00Z","name_a2s":"","protocol":0,"map":"","folder":"","game":"","app_id":0,"player_count":8,"max_players":0,"Bots":0,"server_type":"","server_os":"","password":false,"vac":false,"version":"","steam_id":0,"keywords":null,"game_id":0,"stv_port":0,"stv_name":"","players":[{"user_id":130,"name":"line","steam_id":76561198086222096,"connected_time":2974000000000,"state":"active","ping":65},{"user_id":147,"name":"Pretty Cool Fish","steam_id":76561198080606426,"connected_time":2953000000000,"state":"active","ping":74},{"user_id":148,"name":"Kagenza","steam_id":76561198032497533,"connected_time":2950000000000,"state":"active","ping":75},{"user_id":150,"name":"Krabby","steam_id":76561198038002264,"connected_time":1945000000000,"state":"active","ping":69},{"user_id":151,"name":"i toggled","steam_id":76561198353905388,"connected_time":1898000000000,"state":"active","ping":59},{"user_id":152,"name":"Bren20225","steam_id":76561198174421550,"connected_time":1372000000000,"state":"active","ping":79},{"user_id":153,"name":"teckton","steam_id":76561198067417892,"connected_time":1356000000000,"state":"active","ping":93},{"user_id":154,"name":"eepy kitty uwu","steam_id":76561198106313563,"connected_time":753000000000,"state":"active","ping":75}]},{"server_id":301,"name":"Uncletopia | MontrÃ©al | 2 | One Thousand Uncles","name_short":"mtl-2","host":"mtl-1.ca.uncletopia.com","port":27025,"enabled":true,"region":"us-east","cc":"ca","latitude":45.50889,"longitude":-73.56167,"reserved":0,"last_update":"0001-01-01T00:00:00Z","name_a2s":"","protocol":0,"map":"","folder":"","game":"","app_id":0,"player_count":0,"max_players":0,"Bots":0,"server_type":"","server_os":"","password":false,"vac":false,"version":"","steam_id":0,"keywords":null,"game_id":0,"stv_port":0,"stv_name":"","players":null},{"server_id":302,"name":"Uncletopia | MontrÃ©al | 3 | One Thousand Uncles","name_short":"mtl-3","host":"mtl-1.ca.uncletopia.com","port":27035,"enabled":true,"region":"us-east","cc":"ca","latitude":45.50889,"longitude":-73.56167,"reserved":0,"last_update":"0001-01-01T00:00:00Z","name_a2s":"","protocol":0,"map":"","folder":"","game":"","app_id":0,"player_count":0,"max_players":0,"Bots":0,"server_type":"","server_os":"","password":false,"vac":false,"version":"","steam_id":0,"keywords":null,"game_id":0,"stv_port":0,"stv_name":"","players":null},{"server_id":13,"name":"Uncletopia | New York City | 1 | All Maps","name_short":"nyc-1","host":"nyc-1.us.uncletopia.com","port":27015,"enabled":true,"region":"us-east","cc":"us","latitude":40.73061,"longitude":-73.93524,"reserved":0,"last_update":"0001-01-01T00:00:00Z","name_a2s":"Uncletopia | New York City | 1 | All Maps","protocol":17,"map":"pl_snowycoast","folder":"tf","game":"Team Fortress","app_id":440,"player_count":3,"max_players":24,"Bots":0,"server_type":"Dedicated","server_os":"Linux","password":true,"vac":true,"version":"7961495","steam_id":85568392924469993,"keywords":["nocrits","nodmgspread","payload","uncletopia"],"game_id":440,"stv_port":27016,"stv_name":"Uncletopia | New York City | 1 | All Maps | STV","players":[{"user_id":623,"name":"SpaceSanctum","steam_id":76561198805242305,"connected_time":1294000000000,"state":"active","ping":42},{"user_id":624,"name":"googa","steam_id":76561198133130452,"connected_time":1281000000000,"state":"active","ping":30},{"user_id":625,"name":"mraow","steam_id":76561199200969139,"connected_time":1021000000000,"state":"active","ping":114}]},{"server_id":14,"name":"Uncletopia | New York City | 2 | All Maps","name_short":"nyc-2","host":"nyc-1.us.uncletopia.com","port":27025,"enabled":true,"region":"us-east","cc":"us","latitude":40.73061,"longitude":-73.93524,"reserved":0,"last_update":"0001-01-01T00:00:00Z","name_a2s":"Uncletopia | New York City | 2 | All Maps","protocol":17,"map":"pl_upward","folder":"tf","game":"Team Fortress","app_id":440,"player_count":24,"max_players":24,"Bots":0,"server_type":"Dedicated","server_os":"Linux","password":true,"vac":true,"version":"7961495","steam_id":85568392924469994,"keywords":["nocrits","nodmgspread","payload","uncletopia"],"game_id":440,"stv_port":27026,"stv_name":"Uncletopia | New York City | 2 | All Maps | STV","players":[{"user_id":618,"name":"aurro","steam_id":76561198315692300,"connected_time":1768000000000,"state":"active","ping":51},{"user_id":636,"name":"curls the pig","steam_id":76561198210182196,"connected_time":736000000000,"state":"active","ping":109},{"user_id":617,"name":"Cutlession","steam_id":76561198243124624,"connected_time":1800000000000,"state":"active","ping":88},{"user_id":621,"name":"ultralisk52","steam_id":76561198051666604,"connected_time":1703000000000,"state":"active","ping":74},{"user_id":619,"name":"Therapy Goth","steam_id":76561198048448497,"connected_time":1746000000000,"state":"active","ping":53},{"user_id":610,"name":"Lemoncurry","steam_id":76561198045356414,"connected_time":3208000000000,"state":"active","ping":70},{"user_id":609,"name":"_GOOSE","steam_id":76561198013747901,"connected_time":3306000000000,"state":"active","ping":63},{"user_id":640,"name":"?go Bananzas?Banana joe","steam_id":76561198995258377,"connected_time":507000000000,"state":"active","ping":164},{"user_id":429,"name":"Geodude","steam_id":76561198113364714,"connected_time":18960000000000,"state":"active","ping":49},{"user_id":641,"name":"NecroHash","steam_id":76561198158007618,"connected_time":454000000000,"state":"active","ping":50},{"user_id":623,"name":"MDEEEEE","steam_id":76561198058460585,"connected_time":1575000000000,"state":"active","ping":109},{"user_id":488,"name":"daemon","steam_id":76561198001541433,"connected_time":13346000000000,"state":"active","ping":74},{"user_id":628,"name":"Gentoo Linux Gaming","steam_id":76561197999657118,"connected_time":1417000000000,"state":"active","ping":62},{"user_id":608,"name":"drakedeadwife","steam_id":76561198149134998,"connected_time":3425000000000,"state":"active","ping":45},{"user_id":534,"name":"C Papi","steam_id":76561198027779564,"connected_time":10099000000000,"state":"active","ping":58},{"user_id":629,"name":"dark108","steam_id":76561198030052475,"connected_time":1397000000000,"state":"active","ping":92},{"user_id":626,"name":"TTVPlumSmug","steam_id":76561198103960265,"connected_time":1553000000000,"state":"active","ping":74},{"user_id":627,"name":"Violet The Derg","steam_id":76561198002525691,"connected_time":1517000000000,"state":"active","ping":115},{"user_id":631,"name":"gretchling","steam_id":76561198046111695,"connected_time":1174000000000,"state":"active","ping":89},{"user_id":632,"name":"Morten49","steam_id":76561199375618712,"connected_time":1156000000000,"state":"active","ping":128},{"user_id":642,"name":"Blade","steam_id":76561198385077836,"connected_time":397000000000,"state":"active","ping":83},{"user_id":633,"name":"Anomic","steam_id":76561198044000414,"connected_time":1124000000000,"state":"active","ping":135},{"user_id":562,"name":"cure","steam_id":76561199174450788,"connected_time":7942000000000,"state":"active","ping":98},{"user_id":638,"name":"euph","steam_id":76561199092936721,"connected_time":726000000000,"state":"active","ping":87}]},{"server_id":15,"name":"Uncletopia | New York City | 3 | Stopwatch","name_short":"nyc-3","host":"nyc-1.us.uncletopia.com","port":27035,"enabled":true,"region":"us-east","cc":"us","latitude":40.73061,"longitude":-73.93524,"reserved":0,"last_update":"0001-01-01T00:00:00Z","name_a2s":"Uncletopia | New York City | 3 | Stopwatch","protocol":17,"map":"workshop/koth_ashville_final.ugc2130459942","folder":"tf","game":"Team Fortress","app_id":440,"player_count":0,"max_players":24,"Bots":0,"server_type":"Dedicated","server_os":"Linux","password":true,"vac":true,"version":"7961495","steam_id":85568392924742820,"keywords":["cp","nocrits","nodmgspread","uncletopia"],"game_id":440,"stv_port":27036,"stv_name":"Uncletopia | New York City | 3 | Stopwatch | STV","players":null},{"server_id":16,"name":"Uncletopia | New York City | 4 | Community","name_short":"nyc-4","host":"nyc-1.us.uncletopia.com","port":27045,"enabled":true,"region":"us-east","cc":"us","latitude":40.73061,"longitude":-73.93524,"reserved":0,"last_update":"0001-01-01T00:00:00Z","name_a2s":"Uncletopia | New York City | 4 | Community","protocol":17,"map":"workshop/rd_asteroid_redux_b1.ugc2154902912","folder":"tf","game":"Team Fortress","app_id":440,"player_count":0,"max_players":24,"Bots":0,"server_type":"Dedicated","server_os":"Linux","password":true,"vac":true,"version":"7961495","steam_id":85568392924742821,"keywords":["beta","nocrits","nodmgspread","rd","uncletopia"],"game_id":440,"stv_port":27046,"stv_name":"Uncletopia | New York City | 4 | Community | STV","players":null},{"server_id":142,"name":"Uncletopia | SÃ£o Paulo | 1 | All Maps","name_short":"sao-1","host":"sao-1.br.uncletopia.com","port":27015,"enabled":true,"region":"sa","cc":"br","latitude":-23.533773,"longitude":-46.62529,"reserved":0,"last_update":"0001-01-01T00:00:00Z","name_a2s":"Uncletopia | SÃ£o Paulo | 1 | All Maps","protocol":17,"map":"koth_highpass","folder":"tf","game":"Team Fortress","app_id":440,"player_count":0,"max_players":24,"Bots":0,"server_type":"Dedicated","server_os":"Linux","password":true,"vac":true,"version":"7961495","steam_id":85568392924469996,"keywords":["cp","nocrits","nodmgspread","uncletopia"],"game_id":440,"stv_port":27016,"stv_name":"Uncletopia | SÃ£o Paulo | 1 | All Maps | STV","players":null},{"server_id":143,"name":"Uncletopia | SÃ£o Paulo | 2 | Community","name_short":"sao-2","host":"sao-2.br.uncletopia.com","port":27015,"enabled":true,"region":"sa","cc":"br","latitude":-23.533773,"longitude":-46.62529,"reserved":0,"last_update":"0001-01-01T00:00:00Z","name_a2s":"Uncletopia | SÃ£o Paulo | 2 | Community","protocol":17,"map":"workshop/pl_boundary_final1.ugc456799153","folder":"tf","game":"Team Fortress","app_id":440,"player_count":0,"max_players":24,"Bots":0,"server_type":"Dedicated","server_os":"Linux","password":true,"vac":true,"version":"7961495","steam_id":85568392924485349,"keywords":["nocrits","nodmgspread","payload","uncletopia"],"game_id":440,"stv_port":27016,"stv_name":"Uncletopia | SÃ£o Paulo | 2 | Community | STV","players":null},{"server_id":7,"name":"Uncletopia | Seattle | 1 | All Maps","name_short":"sea-1","host":"sea-1.us.uncletopia.com","port":27015,"enabled":true,"region":"us-west","cc":"us","latitude":47.608013,"longitude":-122.33517,"reserved":0,"last_update":"0001-01-01T00:00:00Z","name_a2s":"Uncletopia | Seattle | 1 | All Maps","protocol":17,"map":"pl_badwater","folder":"tf","game":"Team Fortress","app_id":440,"player_count":24,"max_players":24,"Bots":0,"server_type":"Dedicated","server_os":"Linux","password":true,"vac":true,"version":"7961495","steam_id":85568392924469997,"keywords":["nocrits","nodmgspread","payload","uncletopia"],"game_id":440,"stv_port":27016,"stv_name":"Uncletopia | Seattle | 1 | All Maps | STV","players":[{"user_id":376,"name":"Sweets","steam_id":76561198998446307,"connected_time":18263000000000,"state":"active","ping":68},{"user_id":869,"name":"Noah1k","steam_id":76561199428633514,"connected_time":2704000000000,"state":"active","ping":57},{"user_id":877,"name":"Dapper","steam_id":76561198103189993,"connected_time":1978000000000,"state":"active","ping":71},{"user_id":879,"name":"ArjayTheWeenie","steam_id":76561198275999294,"connected_time":1966000000000,"state":"active","ping":53},{"user_id":878,"name":"Mudkip","steam_id":76561198164192160,"connected_time":1978000000000,"state":"active","ping":66},{"user_id":828,"name":"Varrock Guard #7","steam_id":76561198097178599,"connected_time":8738000000000,"state":"active","ping":49},{"user_id":865,"name":"Havi","steam_id":76561198197832829,"connected_time":3256000000000,"state":"active","ping":45},{"user_id":872,"name":"[TrC] Nosy","steam_id":76561197978859310,"connected_time":2585000000000,"state":"active","ping":58},{"user_id":839,"name":"Arsonist Goose","steam_id":76561198147441830,"connected_time":7061000000000,"state":"active","ping":73},{"user_id":639,"name":"Lord Hater","steam_id":76561199158148782,"connected_time":13373000000000,"state":"active","ping":61},{"user_id":859,"name":"[TrC] Dackstrus","steam_id":76561197973518509,"connected_time":3754000000000,"state":"active","ping":54},{"user_id":830,"name":"Zeeâœž","steam_id":76561198274550638,"connected_time":8737000000000,"state":"active","ping":105},{"user_id":809,"name":"NEBULA","steam_id":76561198086878595,"connected_time":11276000000000,"state":"active","ping":72},{"user_id":881,"name":"Stev the Hypergamous Pebble","steam_id":76561197999442625,"connected_time":893000000000,"state":"active","ping":47},{"user_id":885,"name":"peachy","steam_id":76561198028721790,"connected_time":839000000000,"state":"active","ping":60},{"user_id":883,"name":"Petey0712","steam_id":76561199401008981,"connected_time":862000000000,"state":"active","ping":67},{"user_id":880,"name":"Daz","steam_id":76561198041431938,"connected_time":1963000000000,"state":"active","ping":49},{"user_id":824,"name":"camp3r","steam_id":76561197992870439,"connected_time":9583000000000,"state":"active","ping":31},{"user_id":831,"name":"toes","steam_id":76561198221151676,"connected_time":8724000000000,"state":"active","ping":59},{"user_id":421,"name":"Ayayayayayayayayahuasca","steam_id":76561199002906056,"connected_time":16899000000000,"state":"active","ping":47},{"user_id":648,"name":"John Calibur","steam_id":76561197999986606,"connected_time":13254000000000,"state":"active","ping":68},{"user_id":888,"name":"Icon","steam_id":76561198087404580,"connected_time":288000000000,"state":"active","ping":119},{"user_id":875,"name":"Dog","steam_id":76561198041841128,"connected_time":2476000000000,"state":"active","ping":76},{"user_id":876,"name":"rushy :))","steam_id":76561198065825165,"connected_time":2446000000000,"state":"active","ping":132}]},{"server_id":119,"name":"Uncletopia | Seattle | 2 | All Maps","name_short":"sea-2","host":"sea-1.us.uncletopia.com","port":27025,"enabled":true,"region":"us-west","cc":"us","latitude":47.608013,"longitude":-122.33517,"reserved":0,"last_update":"0001-01-01T00:00:00Z","name_a2s":"Uncletopia | Seattle | 2 | All Maps","protocol":17,"map":"cp_dustbowl","folder":"tf","game":"Team Fortress","app_id":440,"player_count":0,"max_players":24,"Bots":0,"server_type":"Dedicated","server_os":"Linux","password":true,"vac":true,"version":"7961495","steam_id":85568392924469998,"keywords":["cp","nocrits","nodmgspread","uncletopia"],"game_id":440,"stv_port":27026,"stv_name":"Uncletopia | Seattle | 2 | All Maps | STV","players":null},{"server_id":406,"name":"Uncletopia | Seattle | 3 | Stopwatch","name_short":"sea-3","host":"sea-1.us.uncletopia.com","port":27035,"enabled":true,"region":"us-west","cc":"us","latitude":47.608013,"longitude":-122.33517,"reserved":0,"last_update":"0001-01-01T00:00:00Z","name_a2s":"Uncletopia | Seattle | 3 | Stopwatch","protocol":17,"map":"workshop/koth_ashville_final.ugc2130459942","folder":"tf","game":"Team Fortress","app_id":440,"player_count":0,"max_players":24,"Bots":0,"server_type":"Dedicated","server_os":"Linux","password":true,"vac":true,"version":"7961495","steam_id":85568392924515217,"keywords":["cp","nocrits","nodmgspread","uncletopia"],"game_id":440,"stv_port":27036,"stv_name":"Uncletopia | Seattle | 3 | Stopwatch | STV","players":null},{"server_id":17,"name":"Uncletopia | San Francisco | 1 | All Maps","name_short":"sfo-1","host":"sfo-1.us.uncletopia.com","port":27015,"enabled":true,"region":"us-west","cc":"us","latitude":37.77397,"longitude":-122.4313,"reserved":0,"last_update":"0001-01-01T00:00:00Z","name_a2s":"Uncletopia | San Francisco | 1 | All Maps","protocol":17,"map":"koth_brazil","folder":"tf","game":"Team Fortress","app_id":440,"player_count":0,"max_players":24,"Bots":0,"server_type":"Dedicated","server_os":"Linux","password":true,"vac":true,"version":"7961495","steam_id":85568392924469999,"keywords":["cp","nocrits","nodmgspread","uncletopia"],"game_id":440,"stv_port":27016,"stv_name":"Uncletopia | San Francisco | 1 | All Maps | STV","players":null},{"server_id":18,"name":"Uncletopia | San Francisco | 2 | All Maps","name_short":"sfo-2","host":"sfo-1.us.uncletopia.com","port":27025,"enabled":true,"region":"us-west","cc":"us","latitude":37.77397,"longitude":-122.4313,"reserved":0,"last_update":"0001-01-01T00:00:00Z","name_a2s":"Uncletopia | San Francisco | 2 | All Maps","protocol":17,"map":"cp_process_final","folder":"tf","game":"Team Fortress","app_id":440,"player_count":0,"max_players":24,"Bots":0,"server_type":"Dedicated","server_os":"Linux","password":true,"vac":true,"version":"7961495","steam_id":85568392924470000,"keywords":["cp","nocrits","nodmgspread","uncletopia"],"game_id":440,"stv_port":27026,"stv_name":"Uncletopia | San Francisco | 2 | All Maps | STV","players":null},{"server_id":19,"name":"Uncletopia | San Francisco | 3 | Stopwatch","name_short":"sfo-3","host":"sfo-1.us.uncletopia.com","port":27035,"enabled":true,"region":"us-west","cc":"us","latitude":37.77397,"longitude":-122.4313,"reserved":0,"last_update":"0001-01-01T00:00:00Z","name_a2s":"Uncletopia | San Francisco | 3 | Stopwatch","protocol":17,"map":"pl_pier","folder":"tf","game":"Team Fortress","app_id":440,"player_count":0,"max_players":24,"Bots":0,"server_type":"Dedicated","server_os":"Linux","password":true,"vac":true,"version":"7961495","steam_id":85568392924742824,"keywords":["nocrits","nodmgspread","payload","uncletopia"],"game_id":440,"stv_port":27036,"stv_name":"Uncletopia | San Francisco | 3 | Stopwatch | STV","players":null},{"server_id":20,"name":"Uncletopia | San Francisco | 4 | Community","name_short":"sfo-4","host":"sfo-1.us.uncletopia.com","port":27045,"enabled":true,"region":"us-west","cc":"us","latitude":37.77397,"longitude":-122.4313,"reserved":0,"last_update":"0001-01-01T00:00:00Z","name_a2s":"Uncletopia | San Francisco | 4 | Community","protocol":17,"map":"workshop/koth_trenchfoot_ab1.ugc731436616","folder":"tf","game":"Team Fortress","app_id":440,"player_count":0,"max_players":24,"Bots":0,"server_type":"Dedicated","server_os":"Linux","password":true,"vac":true,"version":"7961495","steam_id":85568392924742826,"keywords":["cp","nocrits","nodmgspread","uncletopia"],"game_id":440,"stv_port":27046,"stv_name":"Uncletopia | San Francisco | 4 | Community | STV","players":null},{"server_id":141,"name":"Uncletopia | Sydney | 1 | All Maps","name_short":"syd-1","host":"syd-1.au.uncletopia.com","port":27015,"enabled":true,"region":"au","cc":"au","latitude":-33.865143,"longitude":151.2099,"reserved":0,"last_update":"0001-01-01T00:00:00Z","name_a2s":"Uncletopia | Sydney | 1 | All Maps","protocol":17,"map":"pl_snowycoast","folder":"tf","game":"Team Fortress","app_id":440,"player_count":8,"max_players":24,"Bots":0,"server_type":"Dedicated","server_os":"Linux","password":true,"vac":true,"version":"7961495","steam_id":85568392924470001,"keywords":["nocrits","nodmgspread","payload","uncletopia"],"game_id":440,"stv_port":27016,"stv_name":"Uncletopia | Sydney | 1 | All Maps | STV","players":[{"user_id":16,"name":"fred","steam_id":76561199496222946,"connected_time":1970000000000,"state":"active","ping":166},{"user_id":15,"name":"The Feared","steam_id":76561198380825547,"connected_time":1995000000000,"state":"active","ping":90},{"user_id":18,"name":"you got gump'd","steam_id":76561198306660831,"connected_time":917000000000,"state":"active","ping":62},{"user_id":19,"name":"\u003e.\u003c","steam_id":76561198331246231,"connected_time":876000000000,"state":"active","ping":46},{"user_id":20,"name":"maximind123","steam_id":76561199237473824,"connected_time":737000000000,"state":"active","ping":54},{"user_id":22,"name":"Rodan","steam_id":76561198038401873,"connected_time":623000000000,"state":"active","ping":81},{"user_id":23,"name":"dpm","steam_id":76561198241303512,"connected_time":495000000000,"state":"active","ping":50},{"user_id":24,"name":"DIY Miracle","steam_id":76561198046228152,"connected_time":424000000000,"state":"active","ping":58}]},{"server_id":123,"name":"Uncletopia | Sydney | 2 | All Maps","name_short":"syd-2","host":"syd-1.au.uncletopia.com","port":27025,"enabled":true,"region":"au","cc":"au","latitude":-33.865143,"longitude":151.2099,"reserved":0,"last_update":"0001-01-01T00:00:00Z","name_a2s":"Uncletopia | Sydney | 2 | All Maps","protocol":17,"map":"pl_borneo","folder":"tf","game":"Team Fortress","app_id":440,"player_count":21,"max_players":24,"Bots":0,"server_type":"Dedicated","server_os":"Linux","password":true,"vac":true,"version":"7961495","steam_id":85568392924470002,"keywords":["nocrits","nodmgspread","payload","uncletopia"],"game_id":440,"stv_port":27026,"stv_name":"Uncletopia | Sydney | 2 | All Maps | STV","players":[{"user_id":190,"name":"ABDUL_PROPHET","steam_id":76561199020488015,"connected_time":193000000000,"state":"active","ping":90},{"user_id":160,"name":"-Ech0-","steam_id":76561199121536801,"connected_time":2190000000000,"state":"active","ping":60},{"user_id":195,"name":"Asl:3x","steam_id":76561198972095766,"connected_time":35000000000,"state":"active","ping":32},{"user_id":191,"name":"T-10a","steam_id":76561198054765522,"connected_time":186000000000,"state":"active","ping":46},{"user_id":194,"name":"cunning chris","steam_id":76561197972510204,"connected_time":77000000000,"state":"active","ping":62},{"user_id":178,"name":"whiteshaq","steam_id":76561198131988811,"connected_time":1084000000000,"state":"active","ping":78},{"user_id":185,"name":"Pixley","steam_id":76561198107806702,"connected_time":458000000000,"state":"active","ping":54},{"user_id":196,"name":"Tomboslinger","steam_id":76561199216201591,"connected_time":35000000000,"state":"active","ping":35},{"user_id":197,"name":"KiwiJiwi","steam_id":76561198262081410,"connected_time":11000000000,"state":"active","ping":68},{"user_id":181,"name":"Penguinator5000","steam_id":76561198038183553,"connected_time":933000000000,"state":"active","ping":49},{"user_id":171,"name":"SoftPoint1223","steam_id":76561198073390389,"connected_time":1325000000000,"state":"active","ping":40},{"user_id":165,"name":"Snuky","steam_id":76561198117902338,"connected_time":1728000000000,"state":"active","ping":32},{"user_id":193,"name":"lavanderpumpernickle","steam_id":76561199093611800,"connected_time":162000000000,"state":"active","ping":69},{"user_id":151,"name":"sam_tf2_2007","steam_id":76561198069626429,"connected_time":2413000000000,"state":"active","ping":89},{"user_id":187,"name":"adammagee","steam_id":76561197972653972,"connected_time":416000000000,"state":"active","ping":48},{"user_id":182,"name":"Oswald","steam_id":76561198798313627,"connected_time":770000000000,"state":"active","ping":57},{"user_id":163,"name":"fart","steam_id":76561198354978872,"connected_time":1885000000000,"state":"active","ping":49},{"user_id":174,"name":"no teles 4 u","steam_id":76561198018478297,"connected_time":1263000000000,"state":"active","ping":76},{"user_id":179,"name":"True God","steam_id":76561198047632259,"connected_time":1071000000000,"state":"active","ping":71},{"user_id":139,"name":"diamond","steam_id":76561198206754736,"connected_time":3031000000000,"state":"active","ping":45},{"user_id":180,"name":"Snowy","steam_id":76561198255720598,"connected_time":1004000000000,"state":"active","ping":49}]},{"server_id":395,"name":"Uncletopia | Sydney | 3 | All Maps","name_short":"syd-3","host":"syd-1.au.uncletopia.com","port":27035,"enabled":true,"region":"au","cc":"au","latitude":-33.865143,"longitude":151.2099,"reserved":0,"last_update":"0001-01-01T00:00:00Z","name_a2s":"Uncletopia | Sydney | 3 | All Maps","protocol":17,"map":"pl_frontier_final","folder":"tf","game":"Team Fortress","app_id":440,"player_count":0,"max_players":24,"Bots":0,"server_type":"Dedicated","server_os":"Linux","password":true,"vac":true,"version":"7961495","steam_id":85568392925194467,"keywords":["nocrits","nodmgspread","payload","uncletopia"],"game_id":440,"stv_port":27036,"stv_name":"Uncletopia | Sydney | 3 | All Maps | STV","players":null},{"server_id":396,"name":"Uncletopia | Sydney | 4 | All Maps","name_short":"syd-4","host":"syd-1.au.uncletopia.com","port":27045,"enabled":true,"region":"au","cc":"au","latitude":-33.865143,"longitude":151.2099,"reserved":0,"last_update":"0001-01-01T00:00:00Z","name_a2s":"Uncletopia | Sydney | 4 | All Maps","protocol":17,"map":"koth_lakeside_final","folder":"tf","game":"Team Fortress","app_id":440,"player_count":0,"max_players":24,"Bots":0,"server_type":"Dedicated","server_os":"Linux","password":true,"vac":true,"version":"7961495","steam_id":85568392925397958,"keywords":["cp","nocrits","nodmgspread","uncletopia"],"game_id":440,"stv_port":27046,"stv_name":"Uncletopia | Sydney | 4 | All Maps | STV","players":null},{"server_id":58,"name":"Uncletopia | Sydney | 5 | Stopwatch","name_short":"syd-5","host":"syd-1.au.uncletopia.com","port":27055,"enabled":true,"region":"au","cc":"au","latitude":-33.865143,"longitude":151.2099,"reserved":0,"last_update":"0001-01-01T00:00:00Z","name_a2s":"Uncletopia | Sydney | 5 | Stopwatch","protocol":17,"map":"pl_frontier_final","folder":"tf","game":"Team Fortress","app_id":440,"player_count":0,"max_players":24,"Bots":0,"server_type":"Dedicated","server_os":"Linux","password":true,"vac":true,"version":"7961495","steam_id":85568392925397959,"keywords":["nocrits","nodmgspread","payload","uncletopia"],"game_id":440,"stv_port":27056,"stv_name":"Uncletopia | Sydney | 5 | Stopwatch | STV","players":null},{"server_id":59,"name":"Uncletopia | Sydney | 6 | Community","name_short":"syd-6","host":"syd-1.au.uncletopia.com","port":27065,"enabled":true,"region":"au","cc":"au","latitude":-33.865143,"longitude":151.2099,"reserved":0,"last_update":"0001-01-01T00:00:00Z","name_a2s":"Uncletopia | Sydney | 6 | Community","protocol":17,"map":"cp_sunshine","folder":"tf","game":"Team Fortress","app_id":440,"player_count":0,"max_players":24,"Bots":0,"server_type":"Dedicated","server_os":"Linux","password":true,"vac":true,"version":"7961495","steam_id":85568392925397960,"keywords":["cp","nocrits","nodmgspread","uncletopia"],"game_id":440,"stv_port":27066,"stv_name":"Uncletopia | Sydney | 6 | Community | STV","players":null},{"server_id":49,"name":"Uncletopia | Warsaw | 1 | One Thousand Uncles","name_short":"waw-1","host":"waw-1.pl.uncletopia.com","port":27015,"enabled":true,"region":"eu","cc":"pl","latitude":52.2297,"longitude":21.017532,"reserved":0,"last_update":"0001-01-01T00:00:00Z","name_a2s":"Uncletopia | Warsaw | 1 | One Thousand Uncles","protocol":17,"map":"pl_thundermountain","folder":"tf","game":"Team Fortress","app_id":440,"player_count":21,"max_players":32,"Bots":16,"server_type":"Dedicated","server_os":"Linux","password":true,"vac":true,"version":"7961495","steam_id":85568392925397850,"keywords":["alltalk","bots","danepve","increased_maxplayers","nocrits","norespawntime","payload","uncletopia"],"game_id":440,"stv_port":0,"stv_name":"","players":[{"user_id":113,"name":"Wiliam275","steam_id":76561198875274691,"connected_time":1542000000000,"state":"active","ping":83},{"user_id":115,"name":"lulu","steam_id":76561199147764133,"connected_time":640000000000,"state":"active","ping":75},{"user_id":116,"name":"Truegr","steam_id":76561198811912339,"connected_time":229000000000,"state":"active","ping":63},{"user_id":85,"name":"Doctor Sex","steam_id":76561199403229056,"connected_time":4199000000000,"state":"active","ping":76},{"user_id":89,"name":"ð•¯ð–†ð–“ð–Šð–‘ð–†ð–œ","steam_id":76561198875073644,"connected_time":3945000000000,"state":"active","ping":70}]},{"server_id":50,"name":"Uncletopia | Warsaw | 2 | One Thousand Uncles","name_short":"waw-2","host":"waw-1.pl.uncletopia.com","port":27025,"enabled":true,"region":"eu","cc":"pl","latitude":52.2297,"longitude":21.017532,"reserved":0,"last_update":"0001-01-01T00:00:00Z","name_a2s":"Uncletopia | Warsaw | 2 | One Thousand Uncles","protocol":17,"map":"pl_goldrush","folder":"tf","game":"Team Fortress","app_id":440,"player_count":0,"max_players":32,"Bots":0,"server_type":"Dedicated","server_os":"Linux","password":true,"vac":true,"version":"7961495","steam_id":85568392925397851,"keywords":["alltalk","danepve","increased_maxplayers","nocrits","norespawntime","payload","uncletopia"],"game_id":440,"stv_port":0,"stv_name":"","players":null},{"server_id":51,"name":"Uncletopia | Warsaw | 3 | All Maps","name_short":"waw-3","host":"waw-1.pl.uncletopia.com","port":27035,"enabled":true,"region":"eu","cc":"pl","latitude":52.2297,"longitude":21.017532,"reserved":0,"last_update":"0001-01-01T00:00:00Z","name_a2s":"Uncletopia | Warsaw | 3 | All Maps","protocol":17,"map":"plr_pipeline","folder":"tf","game":"Team Fortress","app_id":440,"player_count":0,"max_players":24,"Bots":0,"server_type":"Dedicated","server_os":"Linux","password":true,"vac":true,"version":"7961495","steam_id":85568392925397852,"keywords":["nocrits","nodmgspread","payload","uncletopia"],"game_id":440,"stv_port":27036,"stv_name":"Uncletopia | Warsaw | 3 | All Maps | STV","players":null},{"server_id":52,"name":"Uncletopia | Warsaw | 4 | All Maps","name_short":"waw-4","host":"waw-1.pl.uncletopia.com","port":27045,"enabled":true,"region":"eu","cc":"pl","latitude":52.2297,"longitude":21.017532,"reserved":0,"last_update":"0001-01-01T00:00:00Z","name_a2s":"Uncletopia | Warsaw | 4 | All Maps","protocol":17,"map":"cp_coldfront","folder":"tf","game":"Team Fortress","app_id":440,"player_count":0,"max_players":24,"Bots":0,"server_type":"Dedicated","server_os":"Linux","password":true,"vac":true,"version":"7961495","steam_id":85568392925397853,"keywords":["cp","nocrits","nodmgspread","uncletopia"],"game_id":440,"stv_port":27046,"stv_name":"Uncletopia | Warsaw | 4 | All Maps | STV","players":null},{"server_id":53,"name":"Uncletopia | Warsaw | 5 | Stopwatch","name_short":"waw-5","host":"waw-1.pl.uncletopia.com","port":27055,"enabled":true,"region":"eu","cc":"pl","latitude":52.2297,"longitude":21.017532,"reserved":0,"last_update":"0001-01-01T00:00:00Z","name_a2s":"Uncletopia | Warsaw | 5 | Stopwatch","protocol":17,"map":"workshop/koth_bagel_rc6.ugc2514036946","folder":"tf","game":"Team Fortress","app_id":440,"player_count":0,"max_players":24,"Bots":0,"server_type":"Dedicated","server_os":"Linux","password":true,"vac":true,"version":"7961495","steam_id":85568392925397854,"keywords":["cp","nocrits","nodmgspread","uncletopia"],"game_id":440,"stv_port":27056,"stv_name":"Uncletopia | Warsaw | 5 | Stopwatch | STV","players":null},{"server_id":54,"name":"Uncletopia | Warsaw | 6 | Community","name_short":"waw-6","host":"waw-1.pl.uncletopia.com","port":27065,"enabled":true,"region":"eu","cc":"pl","latitude":52.2297,"longitude":21.017532,"reserved":0,"last_update":"0001-01-01T00:00:00Z","name_a2s":"Uncletopia | Warsaw | 6 | Community","protocol":17,"map":"workshop/cp_caldera_rc3.ugc2834196889","folder":"tf","game":"Team Fortress","app_id":440,"player_count":0,"max_players":24,"Bots":0,"server_type":"Dedicated","server_os":"Linux","password":true,"vac":true,"version":"7961495","steam_id":85568392925397856,"keywords":["cp","nocrits","nodmgspread","uncletopia"],"game_id":440,"stv_port":27066,"stv_name":"Uncletopia | Warsaw | 6 | Community | STV","players":null}]}