{"status":true,"message":"","result":[{"server_id":9,"name":"Uncletopia | Atlanta | 1 | All Maps","name_short":"atl-1","host":"atl-1.us.uncletopia.com","port":27015,"enabled":true,"region":"us-east","cc":"us","latitude":33.753746,"longitude":-84.38633,"reserved":0,"last_update":"0001-01-01T00:00:00Z","name_a2s":"Uncletopia | Atlanta | 1 | All Maps","protocol":17,"map":"pl_snowycoast","folder":"tf","game":"Team Fortress","app_id":440,"player_count":24,"max_players":24,"Bots":0,"server_type":"Dedicated","server_os":"Linux","password":true,"vac":true,"version":"7757534","steam_id":85568392924469982,"keywords":["nocrits","nodmgspread","payload","uncletopia"],"game_id":440,"stv_port":27016,"stv_name":"Uncletopia | Atlanta | 1 | All Maps | STV","players":[{"user_id":293,"name":"BLU1 | Flint","steam_id":76561198066547582,"connected_time":349000000000,"state":"active","ping":114},{"user_id":271,"name":"Fantasmané","steam_id":76561198179059239,"connected_time":1940000000000,"state":"active","ping":168},{"user_id":266,"name":"Sigma Spy","steam_id":76561198253181773,"connected_time":2032000000000,"state":"active","ping":67},{"user_id":280,"name":"ATLS1 | SparkStorm","steam_id":76561198095817025,"connected_time":999000000000,"state":"active","ping":40},{"user_id":244,"name":"fortnite.jimmy.2014","steam_id":76561199177672325,"connected_time":3744000000000,"state":"active","ping":60},{"user_id":274,"name":"lil hog","steam_id":76561199230929836,"connected_time":1878000000000,"state":"active","ping":79},{"user_id":263,"name":"Zho Biden","steam_id":76561198079224101,"connected_time":2395000000000,"state":"active","ping":42},{"user_id":291,"name":"TheGreatDong","steam_id":76561198000634178,"connected_time":398000000000,"state":"active","ping":140},{"user_id":295,"name":"^_^","steam_id":76561198971354161,"connected_time":195000000000,"state":"active","ping":54},{"user_id":262,"name":"sweppy","steam_id":76561198035457667,"connected_time":2440000000000,"state":"active","ping":50},{"user_id":294,"name":"Spiderfight1","steam_id":76561199189991528,"connected_time":285000000000,"state":"active","ping":77},{"user_id":289,"name":"BLU1 | Lav4ie They/Them","steam_id":76561198825997674,"connected_time":418000000000,"state":"active","ping":49},{"user_id":286,"name":"what","steam_id":76561198082336619,"connected_time":716000000000,"state":"active","ping":81},{"user_id":260,"name":"Topper","steam_id":76561198033547563,"connected_time":2566000000000,"state":"active","ping":75},{"user_id":268,"name":"TÖZI","steam_id":76561198045268695,"connected_time":2026000000000,"state":"active","ping":86},{"user_id":287,"name":"Im High","steam_id":76561198049954886,"connected_time":440000000000,"state":"active","ping":73},{"user_id":277,"name":"Do People Actually Like Me","steam_id":76561198838757422,"connected_time":1131000000000,"state":"active","ping":80},{"user_id":290,"name":"Oddball","steam_id":76561198040440984,"connected_time":415000000000,"state":"active","ping":84},{"user_id":276,"name":"BLU1 l Epifiny","steam_id":76561198027958086,"connected_time":1554000000000,"state":"active","ping":86},{"user_id":296,"name":"smile","steam_id":76561198166710027,"connected_time":195000000000,"state":"active","ping":73},{"user_id":258,"name":"O'Keearns","steam_id":76561198042213797,"connected_time":2697000000000,"state":"active","ping":46},{"user_id":285,"name":"sevanial","steam_id":76561198071532126,"connected_time":806000000000,"state":"active","ping":69},{"user_id":298,"name":"--_Cook_--","steam_id":76561198080855748,"connected_time":153000000000,"state":"active","ping":56},{"user_id":152,"name":"Soul Garg Plushy","steam_id":76561198044480181,"connected_time":10899000000000,"state":"active","ping":62}]},{"server_id":400,"name":"Uncletopia | Atlanta | 3 | Community","name_short":"atl-3","host":"atl-1.us.uncletopia.com","port":27035,"enabled":true,"region":"us-east","cc":"us","latitude":33.753746,"longitude":-84.38633,"reserved":0,"last_update":"0001-01-01T00:00:00Z","name_a2s":"Uncletopia | Atlanta | 3 | Community","protocol":17,"map":"workshop/cp_reckoner_rc6.ugc674719999","folder":"tf","game":"Team Fortress","app_id":440,"player_count":0,"max_players":32,"Bots":0,"server_type":"Dedicated","server_os":"Linux","password":true,"vac":true,"version":"7757534","steam_id":85568392924515187,"keywords":["cp","increased_maxplayers","nocrits","nodmgspread","uncletopia"],"game_id":440,"stv_port":27036,"stv_name":"Uncletopia | Atlanta | 3 | Community | STV","players":null},{"server_id":401,"name":"Uncletopia | Atlanta | 4 | No Payload","name_short":"atl-4","host":"atl-1.us.uncletopia.com","port":27045,"enabled":true,"region":"us-east","cc":"us","latitude":33.753746,"longitude":-84.38633,"reserved":0,"last_update":"0001-01-01T00:00:00Z","name_a2s":"","protocol":0,"map":"","folder":"","game":"","app_id":0,"player_count":0,"max_players":0,"Bots":0,"server_type":"","server_os":"","password":false,"vac":false,"version":"","steam_id":0,"keywords":null,"game_id":0,"stv_port":0,"stv_name":"","players":null},{"server_id":2,"name":"Uncletopia | Chicago | 1 | All Maps","name_short":"chi-1","host":"chi-1.us.uncletopia.com","port":27015,"enabled":true,"region":"us-central","cc":"us","latitude":41.881832,"longitude":-87.62318,"reserved":0,"last_update":"0001-01-01T00:00:00Z","name_a2s":"Uncletopia | Chicago | 1 | All Maps","protocol":17,"map":"pl_badwater","folder":"tf","game":"Team Fortress","app_id":440,"player_count":24,"max_players":24,"Bots":0,"server_type":"Dedicated","server_os":"Linux","password":true,"vac":true,"version":"7757534","steam_id":85568392924469984,"keywords":["nocrits","nodmgspread","payload","uncletopia"],"game_id":440,"stv_port":27016,"stv_name":"Uncletopia | Chicago | 1 | All Maps | STV","players":[{"user_id":71,"name":"TheGrassMan (He/Him)","steam_id":76561198118984048,"connected_time":1500000000000,"state":"active","ping":52},{"user_id":36,"name":"magickxanadu","steam_id":76561199117360103,"connected_time":2610000000000,"state":"active","ping":72},{"user_id":85,"name":"Universe Man","steam_id":76561197997710655,"connected_time":455000000000,"state":"active","ping":88},{"user_id":69,"name":"Tyrone","steam_id":76561198189429665,"connected_time":1750000000000,"state":"active","ping":69},{"user_id":63,"name":"FWEEEEEEE","steam_id":76561198316344769,"connected_time":1856000000000,"state":"active","ping":60},{"user_id":39,"name":"jerma enthusiast","steam_id":76561198359466264,"connected_time":2266000000000,"state":"active","ping":72},{"user_id":40,"name":"Blue Collar","steam_id":76561198354781722,"connected_time":2231000000000,"state":"active","ping":93},{"user_id":41,"name":"Rex","steam_id":76561198138365053,"connected_time":2200000000000,"state":"active","ping":123},{"user_id":57,"name":"Furry Saul Goodman","steam_id":76561198069580305,"connected_time":1993000000000,"state":"active","ping":53},{"user_id":82,"name":"Snail BoB","steam_id":76561198152672443,"connected_time":661000000000,"state":"active","ping":98},{"user_id":86,"name":"Johnny Lawrence #JohnnyMaxxing","steam_id":76561199367141671,"connected_time":449000000000,"state":"active","ping":60},{"user_id":88,"name":"ElementalClockWork","steam_id":76561198833440372,"connected_time":445000000000,"state":"active","ping":80},{"user_id":89,"name":"drippy man","steam_id":76561199074936388,"connected_time":444000000000,"state":"active","ping":78},{"user_id":78,"name":"BroBuck3","steam_id":76561198119436987,"connected_time":839000000000,"state":"active","ping":72},{"user_id":75,"name":"c64guy","steam_id":76561198023022744,"connected_time":1184000000000,"state":"active","ping":74},{"user_id":97,"name":"Medic Gaming","steam_id":76561199275406250,"connected_time":235000000000,"state":"active","ping":89},{"user_id":96,"name":"warpig","steam_id":76561199226313309,"connected_time":263000000000,"state":"active","ping":66},{"user_id":94,"name":"☼  gamble","steam_id":76561198074180953,"connected_time":424000000000,"state":"active","ping":72},{"user_id":53,"name":"rudy","steam_id":76561198088712799,"connected_time":2040000000000,"state":"active","ping":76},{"user_id":98,"name":"Huggle","steam_id":76561198141491662,"connected_time":214000000000,"state":"active","ping":70},{"user_id":101,"name":"Iggy Dogg","steam_id":76561198059602545,"connected_time":180000000000,"state":"active","ping":58},{"user_id":102,"name":"Ham Mann","steam_id":76561199104461744,"connected_time":127000000000,"state":"active","ping":80},{"user_id":68,"name":"Bocchi","steam_id":76561198066451725,"connected_time":1768000000000,"state":"active","ping":68},{"user_id":100,"name":"CapnKris22","steam_id":76561198049010994,"connected_time":203000000000,"state":"active","ping":75}]},{"server_id":106,"name":"Uncletopia | Chicago | 2 | All Maps","name_short":"chi-2","host":"chi-1.us.uncletopia.com","port":27025,"enabled":true,"region":"us-central","cc":"us","latitude":41.881832,"longitude":-87.62318,"reserved":0,"last_update":"0001-01-01T00:00:00Z","name_a2s":"Uncletopia | Chicago | 2 | All Maps","protocol":17,"map":"koth_viaduct","folder":"tf","game":"Team Fortress","app_id":440,"player_count":12,"max_players":24,"Bots":0,"server_type":"Dedicated","server_os":"Linux","password":true,"vac":true,"version":"7757534","steam_id":85568392924469985,"keywords":["cp","nocrits","nodmgspread","uncletopia"],"game_id":440,"stv_port":27026,"stv_name":"Uncletopia | Chicago | 2 | All Maps | STV","players":[{"user_id":21,"name":"Skeleton Hotel","steam_id":76561198041704727,"connected_time":996000000000,"state":"active","ping":83},{"user_id":19,"name":"king_nebblit","steam_id":76561199183321935,"connected_time":1041000000000,"state":"active","ping":88},{"user_id":26,"name":"Dark Saturday","steam_id":76561198152056777,"connected_time":756000000000,"state":"active","ping":444},{"user_id":27,"name":"Transformer6000","steam_id":76561199261627100,"connected_time":633000000000,"state":"active","ping":69},{"user_id":24,"name":"game enhjoyer","steam_id":76561198079172980,"connected_time":903000000000,"state":"active","ping":93},{"user_id":30,"name":"Patton","steam_id":76561198087871688,"connected_time":410000000000,"state":"active","ping":52},{"user_id":31,"name":"BONESAW Lombardi","steam_id":76561198158124937,"connected_time":382000000000,"state":"active","ping":76},{"user_id":33,"name":"Jbomb","steam_id":76561199197866625,"connected_time":287000000000,"state":"active","ping":80},{"user_id":34,"name":"baguette","steam_id":76561198066048980,"connected_time":130000000000,"state":"active","ping":32},{"user_id":35,"name":"maS","steam_id":76561198033846407,"connected_time":120000000000,"state":"active","ping":59},{"user_id":36,"name":"Karma's Camera","steam_id":76561198059385185,"connected_time":34000000000,"state":"active","ping":70},{"user_id":37,"name":"Astrocircuit","steam_id":76561198014437544,"connected_time":15000000000,"state":"active","ping":66}]},{"server_id":402,"name":"Uncletopia | Chicago | 3 | All Maps","name_short":"chi-3","host":"chi-1.us.uncletopia.com","port":27035,"enabled":true,"region":"us-central","cc":"us","latitude":41.881832,"longitude":-87.62318,"reserved":0,"last_update":"0001-01-01T00:00:00Z","name_a2s":"Uncletopia | Chicago | 3 | All Maps","protocol":17,"map":"cp_steel","folder":"tf","game":"Team Fortress","app_id":440,"player_count":24,"max_players":24,"Bots":0,"server_type":"Dedicated","server_os":"Linux","password":true,"vac":true,"version":"7757534","steam_id":85568392924515191,"keywords":["cp","nocrits","nodmgspread","uncletopia"],"game_id":440,"stv_port":27036,"stv_name":"Uncletopia | Chicago | 3 | All Maps | STV","players":[{"user_id":366,"name":"Room_237","steam_id":76561199135081315,"connected_time":215000000000,"state":"active","ping":82},{"user_id":359,"name":"FT","steam_id":76561198010452388,"connected_time":1149000000000,"state":"active","ping":78},{"user_id":373,"name":"huh6750","steam_id":76561199094058555,"connected_time":115000000000,"state":"active","ping":53},{"user_id":364,"name":"M@verick","steam_id":76561198006363519,"connected_time":796000000000,"state":"active","ping":73},{"user_id":365,"name":"Heats","steam_id":76561198029719720,"connected_time":364000000000,"state":"active","ping":89},{"user_id":334,"name":"Dr. Dick","steam_id":76561198138011922,"connected_time":3633000000000,"state":"active","ping":85},{"user_id":374,"name":"Alexthegreat","steam_id":76561197996796222,"connected_time":111000000000,"state":"active","ping":60},{"user_id":367,"name":"RedSock","steam_id":76561198161243404,"connected_time":192000000000,"state":"active","ping":42},{"user_id":360,"name":"Medic gaming","steam_id":76561199053687718,"connected_time":1136000000000,"state":"active","ping":123},{"user_id":368,"name":"h","steam_id":76561198092186935,"connected_time":191000000000,"state":"active","ping":129},{"user_id":369,"name":"Chechens Spotted","steam_id":76561199028910893,"connected_time":183000000000,"state":"active","ping":83},{"user_id":324,"name":"Soap Man","steam_id":76561198000490235,"connected_time":4718000000000,"state":"active","ping":117},{"user_id":338,"name":"Boyos","steam_id":76561197995225368,"connected_time":3572000000000,"state":"active","ping":39},{"user_id":375,"name":"DJ Spit","steam_id":76561198186637025,"connected_time":97000000000,"state":"active","ping":86},{"user_id":339,"name":"so low my halo","steam_id":76561198034141393,"connected_time":3567000000000,"state":"active","ping":64},{"user_id":370,"name":"Rat","steam_id":76561199102985277,"connected_time":183000000000,"state":"active","ping":102},{"user_id":371,"name":"Fhpass banditcamp.com","steam_id":76561198269219953,"connected_time":175000000000,"state":"active","ping":86},{"user_id":372,"name":"carrot cake","steam_id":76561198055174915,"connected_time":175000000000,"state":"active","ping":62},{"user_id":376,"name":"Turtlin'","steam_id":76561198885096042,"connected_time":74000000000,"state":"active","ping":74},{"user_id":362,"name":"Kim SEXler","steam_id":76561198811554257,"connected_time":891000000000,"state":"active","ping":57},{"user_id":342,"name":"ButterScotch","steam_id":76561199389314894,"connected_time":2877000000000,"state":"active","ping":68},{"user_id":377,"name":"ADHDking","steam_id":76561198116099017,"connected_time":60000000000,"state":"active","ping":57},{"user_id":378,"name":"nhbiker","steam_id":76561198081277675,"connected_time":57000000000,"state":"active","ping":52},{"user_id":363,"name":"fetus deletus","steam_id":76561199064259693,"connected_time":828000000000,"state":"active","ping":84}]},{"server_id":403,"name":"Uncletopia | Chicago | 4 | All Maps","name_short":"chi-4","host":"chi-1.us.uncletopia.com","port":27045,"enabled":true,"region":"us-central","cc":"us","latitude":41.881832,"longitude":-87.62318,"reserved":0,"last_update":"0001-01-01T00:00:00Z","name_a2s":"Uncletopia | Chicago | 4 | All Maps","protocol":17,"map":"pl_borneo","folder":"tf","game":"Team Fortress","app_id":440,"player_count":24,"max_players":24,"Bots":0,"server_type":"Dedicated","server_os":"Linux","password":true,"vac":true,"version":"7757534","steam_id":85568392924515193,"keywords":["nocrits","nodmgspread","payload","uncletopia"],"game_id":440,"stv_port":27046,"stv_name":"Uncletopia | Chicago | 4 | All Maps | STV","players":[{"user_id":437,"name":"THRILLHO","steam_id":76561198371663047,"connected_time":1303000000000,"state":"active","ping":65},{"user_id":433,"name":"shinji","steam_id":76561198091411989,"connected_time":1544000000000,"state":"active","ping":60},{"user_id":440,"name":"Alligator Fuckhouse","steam_id":76561198179888142,"connected_time":683000000000,"state":"active","ping":52},{"user_id":446,"name":"Ballsack Shaver","steam_id":76561199011739378,"connected_time":463000000000,"state":"active","ping":70},{"user_id":442,"name":"Doctor Glocktorpus [NGC]","steam_id":76561198049194645,"connected_time":653000000000,"state":"active","ping":69},{"user_id":410,"name":"steakfarmasian","steam_id":76561198212754036,"connected_time":2574000000000,"state":"active","ping":45},{"user_id":443,"name":"Sabaman55","steam_id":76561198212267979,"connected_time":621000000000,"state":"active","ping":53},{"user_id":363,"name":"Positronic♥June (they/she)","steam_id":76561198042556857,"connected_time":3385000000000,"state":"active","ping":51},{"user_id":429,"name":"Corbe","steam_id":76561198353893927,"connected_time":1598000000000,"state":"active","ping":43},{"user_id":323,"name":"SwingDickerson","steam_id":76561198045542926,"connected_time":6979000000000,"state":"active","ping":44},{"user_id":439,"name":"caption cool","steam_id":76561197990612056,"connected_time":830000000000,"state":"active","ping":46},{"user_id":444,"name":"banana man","steam_id":76561199385170644,"connected_time":593000000000,"state":"active","ping":59},{"user_id":430,"name":"osama zyn laden","steam_id":76561199062024437,"connected_time":1584000000000,"state":"active","ping":53},{"user_id":354,"name":"FreonAddict9x19","steam_id":76561198060010824,"connected_time":4060000000000,"state":"active","ping":78},{"user_id":425,"name":"TheCheeseWizard","steam_id":76561198058931315,"connected_time":1679000000000,"state":"active","ping":57},{"user_id":299,"name":"Fudgely","steam_id":76561198039425862,"connected_time":8661000000000,"state":"active","ping":75},{"user_id":431,"name":"bsampson0330","steam_id":76561198199502507,"connected_time":1572000000000,"state":"active","ping":75},{"user_id":334,"name":"Hugo","steam_id":76561198045581609,"connected_time":5916000000000,"state":"active","ping":61},{"user_id":445,"name":"Yugster0420","steam_id":76561199384266599,"connected_time":583000000000,"state":"active","ping":107},{"user_id":365,"name":"Chill man","steam_id":76561198088637877,"connected_time":3380000000000,"state":"active","ping":58},{"user_id":432,"name":"rizzly bear","steam_id":76561198811738907,"connected_time":1546000000000,"state":"active","ping":68},{"user_id":408,"name":"crs22","steam_id":76561198120149196,"connected_time":2592000000000,"state":"active","ping":63},{"user_id":434,"name":"Wolbey","steam_id":76561198042148095,"connected_time":1531000000000,"state":"active","ping":51},{"user_id":435,"name":"Vortigon","steam_id":76561198116361805,"connected_time":1529000000000,"state":"active","ping":85}]},{"server_id":36,"name":"Uncletopia | Chicago | 5 | All Maps","name_short":"chi-5","host":"chi-2.us.uncletopia.com","port":27015,"enabled":true,"region":"us-central","cc":"us","latitude":41.881832,"longitude":-87.62318,"reserved":0,"last_update":"0001-01-01T00:00:00Z","name_a2s":"Uncletopia | Chicago | 5 | All Maps","protocol":17,"map":"koth_cascade","folder":"tf","game":"Team Fortress","app_id":440,"player_count":0,"max_players":24,"Bots":0,"server_type":"Dedicated","server_os":"Linux","password":true,"vac":true,"version":"7757534","steam_id":85568392924866362,"keywords":["cp","nocrits","nodmgspread","uncletopia"],"game_id":440,"stv_port":27016,"stv_name":"Uncletopia | Chicago | 5 | All Maps | STV","players":null},{"server_id":37,"name":"Uncletopia | Chicago | 6 | All Maps","name_short":"chi-6","host":"chi-2.us.uncletopia.com","port":27025,"enabled":true,"region":"us-central","cc":"us","latitude":41.881832,"longitude":-87.62318,"reserved":0,"last_update":"0001-01-01T00:00:00Z","name_a2s":"Uncletopia | Chicago | 6 | All Maps","protocol":17,"map":"pl_barnblitz","folder":"tf","game":"Team Fortress","app_id":440,"player_count":24,"max_players":24,"Bots":0,"server_type":"Dedicated","server_os":"Linux","password":true,"vac":true,"version":"7757534","steam_id":85568392924866363,"keywords":["nocrits","nodmgspread","payload","uncletopia"],"game_id":440,"stv_port":27026,"stv_name":"Uncletopia | Chicago | 6 | All Maps | STV","players":[{"user_id":111,"name":"MyProcast","steam_id":76561199006964107,"connected_time":283000000000,"state":"active","ping":75},{"user_id":63,"name":"viscodolante","steam_id":76561198013650292,"connected_time":3294000000000,"state":"active","ping":108},{"user_id":76,"name":"ChebJeb","steam_id":76561198981377081,"connected_time":2648000000000,"state":"active","ping":86},{"user_id":81,"name":"Spreadsheet Samuel","steam_id":76561198132068284,"connected_time":2539000000000,"state":"active","ping":74},{"user_id":82,"name":"jorjor wells","steam_id":76561199073429082,"connected_time":2533000000000,"state":"active","ping":63},{"user_id":101,"name":"themankeys","steam_id":76561198149339536,"connected_time":765000000000,"state":"active","ping":68},{"user_id":108,"name":"Slashes","steam_id":76561197968573499,"connected_time":442000000000,"state":"active","ping":54},{"user_id":70,"name":"Crystallixed","steam_id":76561198072263515,"connected_time":2840000000000,"state":"active","ping":75},{"user_id":113,"name":"cass","steam_id":76561198954097331,"connected_time":174000000000,"state":"active","ping":60},{"user_id":115,"name":"Omega-Kiba","steam_id":76561198154594523,"connected_time":2000000000,"state":"spawning","ping":87},{"user_id":105,"name":"arthur","steam_id":76561197998344127,"connected_time":541000000000,"state":"active","ping":82},{"user_id":93,"name":"NUt","steam_id":76561198031007966,"connected_time":1811000000000,"state":"active","ping":70},{"user_id":114,"name":"Paolo","steam_id":76561198048134549,"connected_time":170000000000,"state":"active","ping":67},{"user_id":96,"name":"captain red","steam_id":76561198191587983,"connected_time":1376000000000,"state":"active","ping":75},{"user_id":98,"name":"CamWtheDestroyer","steam_id":76561198950777742,"connected_time":1124000000000,"state":"active","ping":155},{"user_id":94,"name":"Dark Lord","steam_id":76561198044199150,"connected_time":1556000000000,"state":"active","ping":84},{"user_id":65,"name":"Buswolley","steam_id":76561197995205571,"connected_time":3203000000000,"state":"active","ping":98},{"user_id":60,"name":"an inebriated newt fancier","steam_id":76561197985428155,"connected_time":3428000000000,"state":"active","ping":60},{"user_id":75,"name":"I am God","steam_id":76561198011675372,"connected_time":2714000000000,"state":"active","ping":116},{"user_id":107,"name":"ECCO","steam_id":76561198002821513,"connected_time":515000000000,"state":"active","ping":69},{"user_id":109,"name":"moe","steam_id":76561198929586245,"connected_time":351000000000,"state":"active","ping":89},{"user_id":99,"name":"Red on Red","steam_id":76561198802356746,"connected_time":1043000000000,"state":"active","ping":90},{"user_id":110,"name":"fudo myoo","steam_id":76561198456258164,"connected_time":303000000000,"state":"active","ping":75},{"user_id":80,"name":"2 bit catgirl","steam_id":76561198399936004,"connected_time":2632000000000,"state":"active","ping":67}]},{"server_id":38,"name":"Uncletopia | Chicago | 7 | Stopwatch Beta","name_short":"chi-7","host":"chi-2.us.uncletopia.com","port":27035,"enabled":true,"region":"us-central","cc":"us","latitude":41.881832,"longitude":-87.62318,"reserved":0,"last_update":"0001-01-01T00:00:00Z","name_a2s":"Uncletopia | Chicago | 7 | Stopwatch Beta","protocol":17,"map":"pl_upward","folder":"tf","game":"Team Fortress","app_id":440,"player_count":0,"max_players":24,"Bots":0,"server_type":"Dedicated","server_os":"Linux","password":true,"vac":true,"version":"7757534","steam_id":85568392924866364,"keywords":["nocrits","nodmgspread","payload","uncletopia"],"game_id":440,"stv_port":27036,"stv_name":"Uncletopia | Chicago | 7 | Stopwatch Beta | STV","players":null},{"server_id":39,"name":"Uncletopia | Chicago | 8 | Community","name_short":"chi-8","host":"chi-2.us.uncletopia.com","port":27045,"enabled":true,"region":"us-central","cc":"us","latitude":41.881832,"longitude":-87.62318,"reserved":0,"last_update":"0001-01-01T00:00:00Z","name_a2s":"Uncletopia | Chicago | 8 | Community","protocol":17,"map":"workshop/pl_eruption_b9a.ugc2807898013","folder":"tf","game":"Team Fortress","app_id":440,"player_count":0,"max_players":24,"Bots":0,"server_type":"Dedicated","server_os":"Linux","password":true,"vac":true,"version":"7757534","steam_id":85568392924866365,"keywords":["nocrits","nodmgspread","payload","uncletopia"],"game_id":440,"stv_port":27046,"stv_name":"Uncletopia | Chicago | 8 | Community | STV","players":null},{"server_id":8,"name":"Uncletopia | Dallas | 1 | All Maps","name_short":"dal-1","host":"dal-1.us.uncletopia.com","port":27015,"enabled":true,"region":"us-central","cc":"us","latitude":32.779167,"longitude":-96.80889,"reserved":0,"last_update":"0001-01-01T00:00:00Z","name_a2s":"Uncletopia | Dallas | 1 | All Maps","protocol":17,"map":"cp_dustbowl","folder":"tf","game":"Team Fortress","app_id":440,"player_count":24,"max_players":24,"Bots":0,"server_type":"Dedicated","server_os":"Linux","password":true,"vac":true,"version":"7757534","steam_id":85568392924469986,"keywords":["cp","nocrits","nodmgspread","uncletopia"],"game_id":440,"stv_port":27016,"stv_name":"Uncletopia | Dallas | 1 | All Maps | STV","players":[{"user_id":487,"name":"Yesterday's Grouse's Son","steam_id":76561198259873083,"connected_time":3994000000000,"state":"active","ping":110},{"user_id":540,"name":"pearly","steam_id":76561198017274978,"connected_time":1485000000000,"state":"active","ping":89},{"user_id":554,"name":"jazaniac","steam_id":76561198059955588,"connected_time":729000000000,"state":"active","ping":85},{"user_id":549,"name":"❦ I Have Covid ❦","steam_id":76561198017907737,"connected_time":1240000000000,"state":"active","ping":78},{"user_id":547,"name":"Edboi","steam_id":76561198117849098,"connected_time":1303000000000,"state":"active","ping":80},{"user_id":491,"name":"soapboxracer360","steam_id":76561198316394688,"connected_time":3837000000000,"state":"active","ping":101},{"user_id":548,"name":"hierodule","steam_id":76561198023229665,"connected_time":1261000000000,"state":"active","ping":91},{"user_id":550,"name":"yeah","steam_id":76561199406261605,"connected_time":1056000000000,"state":"active","ping":57},{"user_id":517,"name":"zBoofa","steam_id":76561198298007990,"connected_time":2901000000000,"state":"active","ping":72},{"user_id":499,"name":"Arachna.cadabra","steam_id":76561198039437427,"connected_time":3534000000000,"state":"active","ping":105},{"user_id":496,"name":"Chimpish","steam_id":76561199263493270,"connected_time":3576000000000,"state":"active","ping":102},{"user_id":497,"name":"TransWomanGaming","steam_id":76561198809645656,"connected_time":3563000000000,"state":"active","ping":69},{"user_id":556,"name":"quaker","steam_id":76561198370001653,"connected_time":443000000000,"state":"active","ping":72},{"user_id":521,"name":"Captain MLG","steam_id":76561199183321645,"connected_time":2799000000000,"state":"active","ping":52},{"user_id":546,"name":"sexyvillain","steam_id":76561198083127707,"connected_time":1316000000000,"state":"active","ping":53},{"user_id":530,"name":"cosmik","steam_id":76561198071193180,"connected_time":2319000000000,"state":"active","ping":83},{"user_id":538,"name":"Communist Party of Wutville","steam_id":76561198844003641,"connected_time":1518000000000,"state":"active","ping":88},{"user_id":539,"name":"Blue_Yoshi","steam_id":76561199455280829,"connected_time":1509000000000,"state":"active","ping":66},{"user_id":529,"name":"bottom pride burger","steam_id":76561198322247602,"connected_time":2343000000000,"state":"active","ping":88},{"user_id":545,"name":"Hapa Don't Surf","steam_id":76561198155932840,"connected_time":1358000000000,"state":"active","ping":55},{"user_id":511,"name":"evan_is_sauce","steam_id":76561199086802383,"connected_time":3222000000000,"state":"active","ping":67},{"user_id":544,"name":"Wuspoppin'","steam_id":76561199049749557,"connected_time":1375000000000,"state":"active","ping":90},{"user_id":542,"name":"pim","steam_id":76561198095163441,"connected_time":1475000000000,"state":"active","ping":46},{"user_id":553,"name":"purply-ghost","steam_id":76561199204779865,"connected_time":840000000000,"state":"active","ping":45}]},{"server_id":108,"name":"Uncletopia | Dallas | 2 | All Maps","name_short":"dal-2","host":"dal-1.us.uncletopia.com","port":27025,"enabled":true,"region":"us-central","cc":"us","latitude":32.779167,"longitude":-96.80889,"reserved":0,"last_update":"0001-01-01T00:00:00Z","name_a2s":"Uncletopia | Dallas | 2 | All Maps","protocol":17,"map":"pl_upward","folder":"tf","game":"Team Fortress","app_id":440,"player_count":24,"max_players":24,"Bots":0,"server_type":"Dedicated","server_os":"Linux","password":true,"vac":true,"version":"7757534","steam_id":85568392924469988,"keywords":["nocrits","nodmgspread","payload","uncletopia"],"game_id":440,"stv_port":27026,"stv_name":"Uncletopia | Dallas | 2 | All Maps | STV","players":[{"user_id":246,"name":"npc energy","steam_id":76561198035342207,"connected_time":1303000000000,"state":"active","ping":56},{"user_id":243,"name":"CABOOSE","steam_id":76561199230115616,"connected_time":1561000000000,"state":"active","ping":58},{"user_id":255,"name":"i cannot speak in pubs","steam_id":76561199468766232,"connected_time":1028000000000,"state":"active","ping":470},{"user_id":257,"name":"Giddy","steam_id":76561198129732108,"connected_time":1002000000000,"state":"active","ping":58},{"user_id":264,"name":"Jennifer Aniston's Nipples","steam_id":76561198086107548,"connected_time":75000000000,"state":"active","ping":48},{"user_id":252,"name":"Azaheth","steam_id":76561198253616898,"connected_time":1206000000000,"state":"active","ping":90},{"user_id":247,"name":"choi","steam_id":76561198053669887,"connected_time":1285000000000,"state":"active","ping":89},{"user_id":263,"name":"Red","steam_id":76561198001939529,"connected_time":220000000000,"state":"active","ping":85},{"user_id":232,"name":"boomerangutang","steam_id":76561198151407214,"connected_time":2566000000000,"state":"active","ping":81},{"user_id":226,"name":"México","steam_id":76561198238059280,"connected_time":3175000000000,"state":"active","ping":83},{"user_id":262,"name":"Jetmeme Sam","steam_id":76561198093994707,"connected_time":360000000000,"state":"active","ping":45},{"user_id":222,"name":"gasparmx","steam_id":76561197998611994,"connected_time":3392000000000,"state":"active","ping":82},{"user_id":238,"name":"Dietrich","steam_id":76561198028163840,"connected_time":1780000000000,"state":"active","ping":63},{"user_id":260,"name":"Starfruit66","steam_id":76561198069917277,"connected_time":441000000000,"state":"active","ping":76},{"user_id":209,"name":"Chad the Sex Haver","steam_id":76561198058236528,"connected_time":3602000000000,"state":"active","ping":66},{"user_id":245,"name":"Prof. Eggnog","steam_id":76561198193389166,"connected_time":1327000000000,"state":"active","ping":85},{"user_id":253,"name":"Marty McFly","steam_id":76561198197327722,"connected_time":1200000000000,"state":"active","ping":68},{"user_id":256,"name":"Alltrex","steam_id":76561198202254225,"connected_time":1010000000000,"state":"active","ping":99},{"user_id":261,"name":"years","steam_id":76561197994098627,"connected_time":426000000000,"state":"active","ping":88},{"user_id":240,"name":"Fraggerman222.02","steam_id":76561198091855057,"connected_time":1764000000000,"state":"active","ping":98},{"user_id":258,"name":"geeWIZ","steam_id":76561198067909242,"connected_time":914000000000,"state":"active","ping":75},{"user_id":218,"name":"CraigHawksbill","steam_id":76561199000670185,"connected_time":3498000000000,"state":"active","ping":86},{"user_id":259,"name":"Faust main","steam_id":76561198971799149,"connected_time":709000000000,"state":"active","ping":77},{"user_id":251,"name":"Violently Twerking Eggman","steam_id":76561198138347045,"connected_time":1238000000000,"state":"active","ping":76}]},{"server_id":5,"name":"Uncletopia | Frankfurt | 1 | All Maps","name_short":"frk-1","host":"frk-1.de.uncletopia.com","port":27015,"enabled":true,"region":"eu","cc":"de","latitude":50.110924,"longitude":8.682127,"reserved":0,"last_update":"0001-01-01T00:00:00Z","name_a2s":"Uncletopia | Frankfurt | 1 | All Maps","protocol":17,"map":"cp_mountainlab","folder":"tf","game":"Team Fortress","app_id":440,"player_count":0,"max_players":24,"Bots":0,"server_type":"Dedicated","server_os":"Linux","password":true,"vac":true,"version":"7757534","steam_id":85568392924469989,"keywords":["cp","nocrits","nodmgspread","uncletopia"],"game_id":440,"stv_port":27016,"stv_name":"Uncletopia | Frankfurt | 1 | All Maps | STV","players":null},{"server_id":110,"name":"Uncletopia | Frankfurt | 2 | All Maps","name_short":"frk-2","host":"frk-1.de.uncletopia.com","port":27025,"enabled":true,"region":"eu","cc":"de","latitude":50.110924,"longitude":8.682127,"reserved":0,"last_update":"0001-01-01T00:00:00Z","name_a2s":"Uncletopia | Frankfurt | 2 | All Maps","protocol":17,"map":"pl_swiftwater_final1","folder":"tf","game":"Team Fortress","app_id":440,"player_count":23,"max_players":24,"Bots":0,"server_type":"Dedicated","server_os":"Linux","password":true,"vac":true,"version":"7757534","steam_id":85568392924469990,"keywords":["nocrits","nodmgspread","payload","uncletopia"],"game_id":440,"stv_port":27026,"stv_name":"Uncletopia | Frankfurt | 2 | All Maps | STV","players":[{"user_id":296,"name":"Mach |=|20BB|)","steam_id":76561198952487564,"connected_time":4771000000000,"state":"active","ping":92},{"user_id":335,"name":"S0LDaTo","steam_id":76561198269413360,"connected_time":998000000000,"state":"active","ping":62},{"user_id":306,"name":"shr1mple","steam_id":76561198173537027,"connected_time":3659000000000,"state":"active","ping":37},{"user_id":330,"name":"Not Friends","steam_id":76561198043775605,"connected_time":1575000000000,"state":"active","ping":79},{"user_id":347,"name":"BAGASSER","steam_id":76561198051283300,"connected_time":426000000000,"state":"active","ping":75},{"user_id":201,"name":"nedilya","steam_id":76561198039692077,"connected_time":11815000000000,"state":"active","ping":55},{"user_id":312,"name":"Jojocandy YT","steam_id":76561198079984884,"connected_time":3007000000000,"state":"active","ping":75},{"user_id":350,"name":"hananamanna","steam_id":76561198006570285,"connected_time":177000000000,"state":"active","ping":105},{"user_id":308,"name":"Ar|es","steam_id":76561198819160313,"connected_time":3563000000000,"state":"active","ping":83},{"user_id":336,"name":"Aesthetic Alcoholism","steam_id":76561198044418968,"connected_time":990000000000,"state":"active","ping":50},{"user_id":323,"name":"Atillathefun","steam_id":76561198056607968,"connected_time":2260000000000,"state":"active","ping":112},{"user_id":349,"name":"Fish","steam_id":76561198182278770,"connected_time":335000000000,"state":"active","ping":72},{"user_id":284,"name":"иван","steam_id":76561198072730591,"connected_time":5380000000000,"state":"active","ping":62},{"user_id":345,"name":"marti parti","steam_id":76561198410342598,"connected_time":585000000000,"state":"active","ping":84},{"user_id":348,"name":"cinny","steam_id":76561198832112629,"connected_time":396000000000,"state":"active","ping":76},{"user_id":342,"name":"rmz.ssj","steam_id":76561198329613930,"connected_time":910000000000,"state":"active","ping":60},{"user_id":327,"name":"Kingsley","steam_id":76561198210210543,"connected_time":1745000000000,"state":"active","ping":59},{"user_id":346,"name":"memory order relaxed","steam_id":76561198084062882,"connected_time":551000000000,"state":"active","ping":47},{"user_id":340,"name":"Videogamer","steam_id":76561198106012909,"connected_time":954000000000,"state":"active","ping":69},{"user_id":343,"name":"Ralf","steam_id":76561198096544291,"connected_time":897000000000,"state":"active","ping":80},{"user_id":338,"name":"Robbie","steam_id":76561198017504503,"connected_time":971000000000,"state":"active","ping":55},{"user_id":333,"name":"loveless","steam_id":76561198142256651,"connected_time":1427000000000,"state":"active","ping":78},{"user_id":319,"name":"lacurio","steam_id":76561198059701776,"connected_time":2816000000000,"state":"active","ping":58}]},{"server_id":308,"name":"Uncletopia | Frankfurt | 3 | All Maps","name_short":"frk-3","host":"frk-1.de.uncletopia.com","port":27035,"enabled":true,"region":"eu","cc":"de","latitude":50.110924,"longitude":8.682127,"reserved":0,"last_update":"0001-01-01T00:00:00Z","name_a2s":"Uncletopia | Frankfurt | 3 | All Maps","protocol":17,"map":"pl_snowycoast","folder":"tf","game":"Team Fortress","app_id":440,"player_count":0,"max_players":24,"Bots":0,"server_type":"Dedicated","server_os":"Linux","password":true,"vac":true,"version":"7757534","steam_id":85568392924504274,"keywords":["nocrits","nodmgspread","payload","uncletopia"],"game_id":440,"stv_port":27036,"stv_name":"Uncletopia | Frankfurt | 3 | All Maps | STV","players":null},{"server_id":309,"name":"Uncletopia | Frankfurt | 4 | All Maps","name_short":"frk-4","host":"frk-1.de.uncletopia.com","port":27045,"enabled":true,"region":"eu","cc":"de","latitude":50.110924,"longitude":8.682127,"reserved":0,"last_update":"0001-01-01T00:00:00Z","name_a2s":"Uncletopia | Frankfurt | 4 | All Maps","protocol":17,"map":"pl_borneo","folder":"tf","game":"Team Fortress","app_id":440,"player_count":6,"max_players":24,"Bots":0,"server_type":"Dedicated","server_os":"Linux","password":true,"vac":true,"version":"7757534","steam_id":85568392924504275,"keywords":["nocrits","nodmgspread","payload","uncletopia"],"game_id":440,"stv_port":27046,"stv_name":"Uncletopia | Frankfurt | 4 | All Maps | STV","players":[{"user_id":658,"name":"The Bean Man","steam_id":76561198046932811,"connected_time":806000000000,"state":"active","ping":75},{"user_id":659,"name":"Hotgamerdad","steam_id":76561198085940613,"connected_time":804000000000,"state":"active","ping":70},{"user_id":664,"name":"Harrison256","steam_id":76561198078975210,"connected_time":70000000000,"state":"active","ping":59},{"user_id":663,"name":"Mark 'The Beast' Labbett","steam_id":76561198118892116,"connected_time":216000000000,"state":"active","ping":63},{"user_id":662,"name":"Toasted Toby","steam_id":76561198002139581,"connected_time":306000000000,"state":"active","ping":60},{"user_id":438,"name":"Seb, Comrade","steam_id":76561198040279587,"connected_time":18015000000000,"state":"active","ping":96}]},{"server_id":310,"name":"Uncletopia | Frankfurt | 5 | All Maps","name_short":"frk-5","host":"frk-1.de.uncletopia.com","port":27055,"enabled":true,"region":"eu","cc":"de","latitude":50.110924,"longitude":8.682127,"reserved":0,"last_update":"0001-01-01T00:00:00Z","name_a2s":"Uncletopia | Frankfurt | 5 | All Maps","protocol":17,"map":"cp_process_final","folder":"tf","game":"Team Fortress","app_id":440,"player_count":0,"max_players":24,"Bots":0,"server_type":"Dedicated","server_os":"Linux","password":true,"vac":true,"version":"7757534","steam_id":85568392924504277,"keywords":["cp","nocrits","nodmgspread","uncletopia"],"game_id":440,"stv_port":27056,"stv_name":"Uncletopia | Frankfurt | 5 | All Maps | STV","players":null},{"server_id":311,"name":"Uncletopia | Frankfurt | 6 | All Maps","name_short":"frk-6","host":"frk-1.de.uncletopia.com","port":27065,"enabled":true,"region":"eu","cc":"de","latitude":50.110924,"longitude":8.682127,"reserved":0,"last_update":"0001-01-01T00:00:00Z","name_a2s":"Uncletopia | Frankfurt | 6 | All Maps","protocol":17,"map":"pl_badwater","folder":"tf","game":"Team Fortress","app_id":440,"player_count":23,"max_players":24,"Bots":0,"server_type":"Dedicated","server_os":"Linux","password":true,"vac":true,"version":"7757534","steam_id":85568392924504278,"keywords":["nocrits","nodmgspread","payload","uncletopia"],"game_id":440,"stv_port":27066,"stv_name":"Uncletopia | Frankfurt | 6 | All Maps | STV","players":[{"user_id":306,"name":"Backup","steam_id":76561197999557567,"connected_time":92000000000,"state":"active","ping":50},{"user_id":239,"name":"dirty","steam_id":76561197995572935,"connected_time":5478000000000,"state":"active","ping":75},{"user_id":307,"name":"o_o","steam_id":76561198076494034,"connected_time":83000000000,"state":"active","ping":55},{"user_id":304,"name":"Holt66","steam_id":76561198046634640,"connected_time":438000000000,"state":"active","ping":73},{"user_id":300,"name":"Ches is into Cro-Cro","steam_id":76561198067204908,"connected_time":585000000000,"state":"active","ping":61},{"user_id":308,"name":"t o n e '","steam_id":76561198055552635,"connected_time":83000000000,"state":"active","ping":45},{"user_id":290,"name":"Cosmetic brain","steam_id":76561198055936410,"connected_time":961000000000,"state":"active","ping":81},{"user_id":309,"name":"Bajas","steam_id":76561198179339326,"connected_time":76000000000,"state":"active","ping":75},{"user_id":268,"name":"Travis Bickle","steam_id":76561198116072862,"connected_time":2342000000000,"state":"active","ping":54},{"user_id":311,"name":"Yangus","steam_id":76561198147796010,"connected_time":65000000000,"state":"active","ping":61},{"user_id":288,"name":"Cabbch","steam_id":76561198045955679,"connected_time":1310000000000,"state":"active","ping":54},{"user_id":233,"name":"Planet","steam_id":76561198044626616,"connected_time":6012000000000,"state":"active","ping":75},{"user_id":257,"name":"T-Pose Anteater [MFRC]","steam_id":76561198845601442,"connected_time":3212000000000,"state":"active","ping":88},{"user_id":295,"name":"Marty™","steam_id":76561198060073673,"connected_time":877000000000,"state":"active","ping":67},{"user_id":310,"name":"Vershal Smershal","steam_id":76561198116223995,"connected_time":74000000000,"state":"active","ping":61},{"user_id":260,"name":"Bodhi","steam_id":76561198000606642,"connected_time":3183000000000,"state":"active","ping":67},{"user_id":249,"name":"Sabour","steam_id":76561197963965445,"connected_time":4045000000000,"state":"active","ping":61},{"user_id":286,"name":"KittyKate ❤","steam_id":76561198116340817,"connected_time":1380000000000,"state":"active","ping":75},{"user_id":96,"name":"darktheif54","steam_id":76561198043650119,"connected_time":15143000000000,"state":"active","ping":57},{"user_id":242,"name":"dotdotdot","steam_id":76561198057628751,"connected_time":4832000000000,"state":"active","ping":65},{"user_id":287,"name":"BuzzBees ❤","steam_id":76561198101502273,"connected_time":1367000000000,"state":"active","ping":63},{"user_id":298,"name":"Avsky","steam_id":76561198048870734,"connected_time":763000000000,"state":"active","ping":74},{"user_id":204,"name":"leminsc8","steam_id":76561198825084995,"connected_time":7678000000000,"state":"active","ping":44}]},{"server_id":23,"name":"Uncletopia | Frankfurt | 7 | Stopwatch Beta","name_short":"frk-7","host":"frk-1.de.uncletopia.com","port":27075,"enabled":true,"region":"eu","cc":"de","latitude":50.110924,"longitude":8.682127,"reserved":0,"last_update":"0001-01-01T00:00:00Z","name_a2s":"Uncletopia | Frankfurt | 7 | Stopwatch Beta","protocol":17,"map":"workshop/koth_ramjam_rc1.ugc459778887","folder":"tf","game":"Team Fortress","app_id":440,"player_count":0,"max_players":24,"Bots":0,"server_type":"Dedicated","server_os":"Linux","password":true,"vac":true,"version":"7757534","steam_id":85568392924742827,"keywords":["cp","nocrits","nodmgspread","uncletopia"],"game_id":440,"stv_port":27076,"stv_name":"Uncletopia | Frankfurt | 7 | Stopwatch Beta | STV","players":null},{"server_id":24,"name":"Uncletopia | Frankfurt | 8 | Community","name_short":"frk-8","host":"frk-1.de.uncletopia.com","port":27085,"enabled":true,"region":"eu","cc":"de","latitude":50.110924,"longitude":8.682127,"reserved":0,"last_update":"0001-01-01T00:00:00Z","name_a2s":"Uncletopia | Frankfurt | 8 | Community","protocol":17,"map":"workshop/cp_snowbase_b18.ugc2081770490","folder":"tf","game":"Team Fortress","app_id":440,"player_count":0,"max_players":24,"Bots":0,"server_type":"Dedicated","server_os":"Linux","password":true,"vac":true,"version":"7757534","steam_id":85568392924742828,"keywords":["cp","nocrits","nodmgspread","uncletopia"],"game_id":440,"stv_port":27086,"stv_name":"Uncletopia | Frankfurt | 8 | Community | STV","players":null},{"server_id":202,"name":"Uncletopia | Hong Kong | 1 | All Maps","name_short":"hgk-1","host":"hgk-1.hk.uncletopia.com","port":27015,"enabled":true,"region":"asia","cc":"hk","latitude":22.302711,"longitude":114.177216,"reserved":0,"last_update":"0001-01-01T00:00:00Z","name_a2s":"Uncletopia | Hong Kong | 1 | All Maps","protocol":17,"map":"cp_dustbowl","folder":"tf","game":"Team Fortress","app_id":440,"player_count":0,"max_players":24,"Bots":0,"server_type":"Dedicated","server_os":"Linux","password":true,"vac":true,"version":"7757534","steam_id":85568392924494504,"keywords":["cp","nocrits","nodmgspread","uncletopia"],"game_id":440,"stv_port":27016,"stv_name":"Uncletopia | Hong Kong | 1 | All Maps | STV","players":null},{"server_id":1,"name":"Uncletopia | Los Angeles | 1 | All Maps","name_short":"lax-1","host":"lax-1.us.uncletopia.com","port":27015,"enabled":true,"region":"us-west","cc":"us","latitude":33.94279,"longitude":-118.41004,"reserved":0,"last_update":"0001-01-01T00:00:00Z","name_a2s":"Uncletopia | Los Angeles | 1 | All Maps","protocol":17,"map":"pl_hoodoo_final","folder":"tf","game":"Team Fortress","app_id":440,"player_count":24,"max_players":24,"Bots":0,"server_type":"Dedicated","server_os":"Linux","password":true,"vac":true,"version":"7757534","steam_id":85568392924469991,"keywords":["nocrits","nodmgspread","payload","uncletopia"],"game_id":440,"stv_port":27016,"stv_name":"Uncletopia | Los Angeles | 1 | All Maps | STV","players":[{"user_id":96,"name":"Octis","steam_id":76561198118322999,"connected_time":3023000000000,"state":"active","ping":66},{"user_id":139,"name":"BrightOrangeMango","steam_id":76561198023144607,"connected_time":1587000000000,"state":"active","ping":55},{"user_id":97,"name":"Wackydavo","steam_id":76561197990094209,"connected_time":3021000000000,"state":"active","ping":118},{"user_id":187,"name":"mao zedong","steam_id":76561199060687332,"connected_time":669000000000,"state":"active","ping":48},{"user_id":184,"name":"TTV/ChadMorningWood","steam_id":76561198139832291,"connected_time":710000000000,"state":"active","ping":52},{"user_id":141,"name":"APOTATO","steam_id":76561198118199858,"connected_time":1527000000000,"state":"active","ping":58},{"user_id":203,"name":"Project_Counter","steam_id":76561198152786076,"connected_time":188000000000,"state":"active","ping":81},{"user_id":101,"name":"EOAW","steam_id":76561198310451639,"connected_time":2658000000000,"state":"active","ping":73},{"user_id":186,"name":"PinguEnjoyer6","steam_id":76561199186723516,"connected_time":703000000000,"state":"active","ping":39},{"user_id":201,"name":"mtzky","steam_id":76561198971719743,"connected_time":213000000000,"state":"active","ping":105},{"user_id":204,"name":"Master_Chief_20","steam_id":76561198309760791,"connected_time":120000000000,"state":"active","ping":107},{"user_id":188,"name":"radiohead enjoyer","steam_id":76561198397662124,"connected_time":642000000000,"state":"active","ping":101},{"user_id":67,"name":"Nick the melon","steam_id":76561198798907871,"connected_time":4879000000000,"state":"active","ping":57},{"user_id":154,"name":"shrimpboi783","steam_id":76561199091069924,"connected_time":1307000000000,"state":"active","ping":59},{"user_id":202,"name":"test","steam_id":76561198045964573,"connected_time":207000000000,"state":"active","ping":49},{"user_id":185,"name":"clooa","steam_id":76561198342717441,"connected_time":704000000000,"state":"active","ping":100},{"user_id":105,"name":"LazyDoll","steam_id":76561198053186338,"connected_time":2493000000000,"state":"active","ping":47},{"user_id":106,"name":"superbad","steam_id":76561198065913973,"connected_time":2489000000000,"state":"active","ping":44},{"user_id":205,"name":"Anomet","steam_id":76561198060246255,"connected_time":93000000000,"state":"active","ping":75},{"user_id":142,"name":"wow","steam_id":76561198828941584,"connected_time":1459000000000,"state":"active","ping":105},{"user_id":173,"name":"Medic GF","steam_id":76561198400531556,"connected_time":983000000000,"state":"active","ping":110},{"user_id":108,"name":"Rhutebeer","steam_id":76561198018302761,"connected_time":2443000000000,"state":"active","ping":114},{"user_id":199,"name":"land0","steam_id":76561198321264704,"connected_time":255000000000,"state":"active","ping":59},{"user_id":94,"name":"ForAPessimistImPrettyOptimistic","steam_id":76561198170128009,"connected_time":3168000000000,"state":"active","ping":59}]},{"server_id":112,"name":"Uncletopia | Los Angeles | 2 | All Maps","name_short":"lax-2","host":"lax-1.us.uncletopia.com","port":27025,"enabled":true,"region":"us-west","cc":"us","latitude":33.94279,"longitude":-118.41004,"reserved":0,"last_update":"0001-01-01T00:00:00Z","name_a2s":"Uncletopia | Los Angeles | 2 | All Maps","protocol":17,"map":"koth_cascade","folder":"tf","game":"Team Fortress","app_id":440,"player_count":0,"max_players":24,"Bots":0,"server_type":"Dedicated","server_os":"Linux","password":true,"vac":true,"version":"7757534","steam_id":85568392924469992,"keywords":["cp","nocrits","nodmgspread","uncletopia"],"game_id":440,"stv_port":27026,"stv_name":"Uncletopia | Los Angeles | 2 | All Maps | STV","players":null},{"server_id":324,"name":"Uncletopia | Los Angeles | 3 | All Maps","name_short":"lax-3","host":"lax-1.us.uncletopia.com","port":27035,"enabled":true,"region":"us-west","cc":"us","latitude":33.94279,"longitude":-118.41004,"reserved":0,"last_update":"0001-01-01T00:00:00Z","name_a2s":"Uncletopia | Los Angeles | 3 | All Maps","protocol":17,"map":"pl_pier","folder":"tf","game":"Team Fortress","app_id":440,"player_count":0,"max_players":24,"Bots":0,"server_type":"Dedicated","server_os":"Linux","password":true,"vac":true,"version":"7757534","steam_id":85568392924510198,"keywords":["nocrits","nodmgspread","payload","uncletopia"],"game_id":440,"stv_port":27036,"stv_name":"Uncletopia | Los Angeles | 3 | All Maps | STV","players":null},{"server_id":25,"name":"Uncletopia | Los Angeles | 4 | Stopwatch Beta","name_short":"lax-4","host":"lax-1.us.uncletopia.com","port":27045,"enabled":true,"region":"us-west","cc":"us","latitude":33.94279,"longitude":-118.41004,"reserved":0,"last_update":"0001-01-01T00:00:00Z","name_a2s":"Uncletopia | Los Angeles | 4 | Stopwatch Beta","protocol":17,"map":"pl_frontier_final","folder":"tf","game":"Team Fortress","app_id":440,"player_count":0,"max_players":24,"Bots":0,"server_type":"Dedicated","server_os":"Linux","password":true,"vac":true,"version":"7757534","steam_id":85568392924510199,"keywords":["nocrits","nodmgspread","payload","uncletopia"],"game_id":440,"stv_port":27046,"stv_name":"Uncletopia | Los Angeles | 4 | Stopwatch Beta | STV","players":null},{"server_id":11,"name":"Uncletopia | London | 1 | All Maps","name_short":"lon-1","host":"lon-1.uk.uncletopia.com","port":27015,"enabled":true,"region":"eu","cc":"gb","latitude":51.509865,"longitude":-0.118092,"reserved":0,"last_update":"0001-01-01T00:00:00Z","name_a2s":"Uncletopia | London | 1 | All Maps","protocol":17,"map":"pl_barnblitz","folder":"tf","game":"Team Fortress","app_id":440,"player_count":23,"max_players":24,"Bots":0,"server_type":"Dedicated","server_os":"Linux","password":true,"vac":true,"version":"7757534","steam_id":85568392924367362,"keywords":["nocrits","nodmgspread","payload","uncletopia"],"game_id":440,"stv_port":27016,"stv_name":"Uncletopia | London | 1 | All Maps | STV","players":[{"user_id":815,"name":"Gryoss","steam_id":76561197999837111,"connected_time":1357000000000,"state":"active","ping":116},{"user_id":800,"name":"Pedrobear2232","steam_id":76561199230035270,"connected_time":1974000000000,"state":"active","ping":103},{"user_id":823,"name":"Majsco","steam_id":76561197988710485,"connected_time":538000000000,"state":"active","ping":44},{"user_id":801,"name":"Big Mac Gaming","steam_id":76561198158209651,"connected_time":1947000000000,"state":"active","ping":60},{"user_id":769,"name":"Yaire","steam_id":76561198017343510,"connected_time":4188000000000,"state":"active","ping":51},{"user_id":802,"name":"Wedgeridoo","steam_id":76561198082813907,"connected_time":1905000000000,"state":"active","ping":104},{"user_id":795,"name":"sora","steam_id":76561198096547662,"connected_time":2498000000000,"state":"active","ping":55},{"user_id":817,"name":"SuperBob103","steam_id":76561199175360012,"connected_time":1011000000000,"state":"active","ping":49},{"user_id":798,"name":"$nØw","steam_id":76561198238781028,"connected_time":2332000000000,"state":"active","ping":103},{"user_id":818,"name":"Eing","steam_id":76561198253125820,"connected_time":769000000000,"state":"active","ping":61},{"user_id":777,"name":"CaptainMac","steam_id":76561198273156139,"connected_time":3908000000000,"state":"active","ping":52},{"user_id":819,"name":"Spetse","steam_id":76561197990649972,"connected_time":745000000000,"state":"active","ping":85},{"user_id":797,"name":"S'all good, man","steam_id":76561198363882056,"connected_time":2349000000000,"state":"active","ping":34},{"user_id":820,"name":"JohnDies","steam_id":76561198171063246,"connected_time":705000000000,"state":"active","ping":56},{"user_id":821,"name":"Grillem Dafoe","steam_id":76561198306874574,"connected_time":675000000000,"state":"active","ping":68},{"user_id":822,"name":"Mr.B","steam_id":76561199204478925,"connected_time":630000000000,"state":"active","ping":114},{"user_id":808,"name":"frenziedfrog","steam_id":76561198163567689,"connected_time":1683000000000,"state":"active","ping":58},{"user_id":813,"name":"poy","steam_id":76561198114063534,"connected_time":1395000000000,"state":"active","ping":46},{"user_id":733,"name":"✪ J","steam_id":76561198094911581,"connected_time":6535000000000,"state":"active","ping":53},{"user_id":814,"name":"homeinvasion$","steam_id":76561199111905021,"connected_time":1393000000000,"state":"active","ping":113},{"user_id":794,"name":"The Greedy Grinner","steam_id":76561198531978435,"connected_time":2913000000000,"state":"active","ping":73},{"user_id":783,"name":"✪ Danny","steam_id":76561198104483241,"connected_time":3812000000000,"state":"active","ping":49},{"user_id":809,"name":"jmattross","steam_id":76561199453766677,"connected_time":1627000000000,"state":"active","ping":158}]},{"server_id":114,"name":"Uncletopia | London | 2 | All Maps","name_short":"lon-2","host":"lon-1.uk.uncletopia.com","port":27025,"enabled":true,"region":"eu","cc":"gb","latitude":51.509865,"longitude":-0.118092,"reserved":0,"last_update":"0001-01-01T00:00:00Z","name_a2s":"Uncletopia | London | 2 | All Maps","protocol":17,"map":"pl_goldrush","folder":"tf","game":"Team Fortress","app_id":440,"player_count":24,"max_players":24,"Bots":0,"server_type":"Dedicated","server_os":"Linux","password":true,"vac":true,"version":"7757534","steam_id":85568392924470941,"keywords":["nocrits","nodmgspread","payload","uncletopia"],"game_id":440,"stv_port":27026,"stv_name":"Uncletopia | London | 2 | All Maps | STV","players":[{"user_id":375,"name":"DeDMeeT (The Femboy Barista)","steam_id":76561198135686475,"connected_time":1037000000000,"state":"active","ping":39},{"user_id":385,"name":"Harmony","steam_id":76561198436817109,"connected_time":508000000000,"state":"active","ping":58},{"user_id":391,"name":"quaddmg","steam_id":76561198119449463,"connected_time":291000000000,"state":"active","ping":77},{"user_id":392,"name":"Tywhip","steam_id":76561199207545191,"connected_time":269000000000,"state":"active","ping":54},{"user_id":388,"name":"Sandvich Enthusiast","steam_id":76561198241275578,"connected_time":418000000000,"state":"active","ping":53},{"user_id":334,"name":"Tort","steam_id":76561198329646769,"connected_time":2795000000000,"state":"active","ping":54},{"user_id":288,"name":"vexo","steam_id":76561198186680410,"connected_time":4161000000000,"state":"active","ping":43},{"user_id":380,"name":"Tata Cobraz0r","steam_id":76561198017693962,"connected_time":745000000000,"state":"active","ping":75},{"user_id":378,"name":"Femboy Crème","steam_id":76561198123124279,"connected_time":857000000000,"state":"active","ping":118},{"user_id":285,"name":"Joy","steam_id":76561198155314925,"connected_time":4256000000000,"state":"active","ping":57},{"user_id":371,"name":"Laurie","steam_id":76561198082951750,"connected_time":1268000000000,"state":"active","ping":50},{"user_id":262,"name":"Bronze Age GRINDSET","steam_id":76561198859118263,"connected_time":5098000000000,"state":"active","ping":138},{"user_id":374,"name":"Peaceful Chaos","steam_id":76561198087989602,"connected_time":1126000000000,"state":"active","ping":154},{"user_id":335,"name":"ivanmixo","steam_id":76561198160213989,"connected_time":2795000000000,"state":"active","ping":72},{"user_id":395,"name":"Burpman","steam_id":76561198022897937,"connected_time":134000000000,"state":"active","ping":45},{"user_id":344,"name":"Cosmic Gamer","steam_id":76561198027357981,"connected_time":2391000000000,"state":"active","ping":100},{"user_id":381,"name":"Broadway Rose","steam_id":76561198046083342,"connected_time":737000000000,"state":"active","ping":119},{"user_id":383,"name":"Mumu :3","steam_id":76561198052794823,"connected_time":725000000000,"state":"active","ping":68},{"user_id":389,"name":"ant753","steam_id":76561198103458889,"connected_time":416000000000,"state":"active","ping":65},{"user_id":290,"name":"nky","steam_id":76561198086229832,"connected_time":4094000000000,"state":"active","ping":74},{"user_id":377,"name":"Ember The Femboy","steam_id":76561198139630565,"connected_time":1016000000000,"state":"active","ping":63},{"user_id":376,"name":"Hydnhof","steam_id":76561198120989805,"connected_time":1033000000000,"state":"active","ping":69},{"user_id":373,"name":"Shaunhan","steam_id":76561198386596938,"connected_time":1229000000000,"state":"active","ping":132},{"user_id":298,"name":"GardenFungus","steam_id":76561198054894337,"connected_time":4024000000000,"state":"active","ping":42}]},{"server_id":320,"name":"Uncletopia | London | 3 | All Maps","name_short":"lon-3","host":"lon-1.uk.uncletopia.com","port":27035,"enabled":true,"region":"eu","cc":"gb","latitude":51.509865,"longitude":-0.118092,"reserved":0,"last_update":"0001-01-01T00:00:00Z","name_a2s":"Uncletopia | London | 3 | All Maps","protocol":17,"map":"cp_snakewater_final1","folder":"tf","game":"Team Fortress","app_id":440,"player_count":24,"max_players":24,"Bots":0,"server_type":"Dedicated","server_os":"Linux","password":true,"vac":true,"version":"7757534","steam_id":85568392924510192,"keywords":["cp","nocrits","nodmgspread","uncletopia"],"game_id":440,"stv_port":27036,"stv_name":"Uncletopia | London | 3 | All Maps | STV","players":[{"user_id":724,"name":"Kerrygold (454 grammes)","steam_id":76561197968575924,"connected_time":2372000000000,"state":"active","ping":50},{"user_id":723,"name":"Emmonii","steam_id":76561199441805420,"connected_time":2519000000000,"state":"active","ping":109},{"user_id":704,"name":"obscure","steam_id":76561198119532381,"connected_time":3335000000000,"state":"active","ping":50},{"user_id":709,"name":"Hartlotte","steam_id":76561198314270417,"connected_time":3183000000000,"state":"active","ping":37},{"user_id":736,"name":"Proud Jojo Fan #TF2SP","steam_id":76561198847327216,"connected_time":1308000000000,"state":"active","ping":73},{"user_id":627,"name":"Benzema","steam_id":76561197999770869,"connected_time":9673000000000,"state":"active","ping":95},{"user_id":754,"name":"Yessirskiii","steam_id":76561198179324075,"connected_time":438000000000,"state":"active","ping":64},{"user_id":737,"name":"Bromoneto","steam_id":76561198876695014,"connected_time":1291000000000,"state":"active","ping":71},{"user_id":738,"name":"SirCyu","steam_id":76561198279703610,"connected_time":1235000000000,"state":"active","ping":46},{"user_id":692,"name":"Penis Contortionist","steam_id":76561198073663784,"connected_time":4605000000000,"state":"active","ping":39},{"user_id":707,"name":"Din Javel","steam_id":76561198043018352,"connected_time":3226000000000,"state":"active","ping":68},{"user_id":739,"name":"NBtelethia","steam_id":76561198994219732,"connected_time":1169000000000,"state":"active","ping":153},{"user_id":728,"name":"Cazulas","steam_id":76561198027460283,"connected_time":2133000000000,"state":"active","ping":74},{"user_id":750,"name":"MIMI:CS","steam_id":76561198255389232,"connected_time":602000000000,"state":"active","ping":66},{"user_id":746,"name":"Laru","steam_id":76561197998838438,"connected_time":997000000000,"state":"active","ping":77},{"user_id":722,"name":"!vAn =)","steam_id":76561198053121941,"connected_time":2628000000000,"state":"active","ping":45},{"user_id":751,"name":"mocca","steam_id":76561198045388806,"connected_time":502000000000,"state":"active","ping":74},{"user_id":748,"name":"emerge","steam_id":76561198186882891,"connected_time":904000000000,"state":"active","ping":129},{"user_id":716,"name":"Rolloden","steam_id":76561198069414404,"connected_time":3052000000000,"state":"active","ping":76},{"user_id":744,"name":"R","steam_id":76561198148030229,"connected_time":1021000000000,"state":"active","ping":72},{"user_id":745,"name":"bösemeist","steam_id":76561198046052880,"connected_time":1008000000000,"state":"active","ping":71},{"user_id":756,"name":"a perfectly fine dog","steam_id":76561198000890796,"connected_time":71000000000,"state":"active","ping":89},{"user_id":731,"name":"Hoopla","steam_id":76561198327775508,"connected_time":2049000000000,"state":"active","ping":107},{"user_id":747,"name":"LittleZerg","steam_id":76561198194709303,"connected_time":996000000000,"state":"active","ping":88}]},{"server_id":321,"name":"Uncletopia | London | 4 | All Maps","name_short":"lon-4","host":"lon-1.uk.uncletopia.com","port":27045,"enabled":true,"region":"eu","cc":"gb","latitude":51.509865,"longitude":-0.118092,"reserved":0,"last_update":"0001-01-01T00:00:00Z","name_a2s":"Uncletopia | London | 4 | All Maps","protocol":17,"map":"pl_borneo","folder":"tf","game":"Team Fortress","app_id":440,"player_count":0,"max_players":24,"Bots":0,"server_type":"Dedicated","server_os":"Linux","password":true,"vac":true,"version":"7757534","steam_id":85568392924510193,"keywords":["nocrits","nodmgspread","payload","uncletopia"],"game_id":440,"stv_port":27046,"stv_name":"Uncletopia | London | 4 | All Maps | STV","players":null},{"server_id":21,"name":"Uncletopia | London | 5 | All Maps","name_short":"lon-5","host":"lon-1.uk.uncletopia.com","port":27055,"enabled":true,"region":"eu","cc":"gb","latitude":51.509865,"longitude":-0.118092,"reserved":0,"last_update":"0001-01-01T00:00:00Z","name_a2s":"Uncletopia | London | 5 | All Maps","protocol":17,"map":"pl_borneo","folder":"tf","game":"Team Fortress","app_id":440,"player_count":24,"max_players":24,"Bots":0,"server_type":"Dedicated","server_os":"Linux","password":true,"vac":true,"version":"7757534","steam_id":85568392924742829,"keywords":["nocrits","nodmgspread","payload","uncletopia"],"game_id":440,"stv_port":27056,"stv_name":"Uncletopia | London | 5 | All Maps | STV","players":[{"user_id":247,"name":"Daddyflabburger","steam_id":76561198104352907,"connected_time":409000000000,"state":"active","ping":58},{"user_id":233,"name":"Dag!","steam_id":76561198030147941,"connected_time":750000000000,"state":"active","ping":69},{"user_id":216,"name":"Shadu","steam_id":76561198122663977,"connected_time":1676000000000,"state":"active","ping":48},{"user_id":244,"name":"kinderklavieren","steam_id":76561198177059485,"connected_time":493000000000,"state":"active","ping":60},{"user_id":174,"name":"H-say","steam_id":76561198177400362,"connected_time":6630000000000,"state":"active","ping":86},{"user_id":221,"name":"frenchie","steam_id":76561198178298931,"connected_time":1645000000000,"state":"active","ping":40},{"user_id":228,"name":"Haha?","steam_id":76561198056882245,"connected_time":1014000000000,"state":"active","ping":40},{"user_id":241,"name":"Regan","steam_id":76561198100631086,"connected_time":537000000000,"state":"active","ping":55},{"user_id":249,"name":"Juiceydough","steam_id":76561197997323419,"connected_time":199000000000,"state":"active","ping":83},{"user_id":250,"name":"Crazy Cane","steam_id":76561198993941174,"connected_time":159000000000,"state":"active","ping":119},{"user_id":206,"name":"raime","steam_id":76561198024903775,"connected_time":2994000000000,"state":"active","ping":98},{"user_id":237,"name":"what is bro doing???","steam_id":76561198257836694,"connected_time":697000000000,"state":"active","ping":41},{"user_id":236,"name":"mercedes ben","steam_id":76561198000147423,"connected_time":711000000000,"state":"active","ping":43},{"user_id":212,"name":"Thalgorock","steam_id":76561198195315022,"connected_time":2497000000000,"state":"active","ping":94},{"user_id":242,"name":"naqoyqatsi","steam_id":76561198114711905,"connected_time":521000000000,"state":"active","ping":62},{"user_id":170,"name":"syms","steam_id":76561198066679812,"connected_time":7151000000000,"state":"active","ping":90},{"user_id":231,"name":"weed gaming","steam_id":76561198057412336,"connected_time":812000000000,"state":"active","ping":47},{"user_id":251,"name":"PainMakkerRRRd-_-b[HUN]","steam_id":76561198088125671,"connected_time":87000000000,"state":"active","ping":60},{"user_id":230,"name":"X45Y","steam_id":76561198112534025,"connected_time":939000000000,"state":"active","ping":52},{"user_id":219,"name":"wee bomb","steam_id":76561198074667742,"connected_time":1661000000000,"state":"active","ping":69},{"user_id":248,"name":"IEatBananaStrings","steam_id":76561198158203877,"connected_time":341000000000,"state":"active","ping":60},{"user_id":222,"name":"Ritmic Mortal","steam_id":76561198352862033,"connected_time":1556000000000,"state":"active","ping":97},{"user_id":201,"name":"Spaghetti Autism","steam_id":76561198125882199,"connected_time":3890000000000,"state":"active","ping":55},{"user_id":203,"name":"Cerabond","steam_id":76561199230915333,"connected_time":3666000000000,"state":"active","ping":134}]},{"server_id":22,"name":"Uncletopia | London | 6 | All Maps","name_short":"lon-6","host":"lon-1.uk.uncletopia.com","port":27065,"enabled":true,"region":"eu","cc":"gb","latitude":51.509865,"longitude":-0.118092,"reserved":0,"last_update":"0001-01-01T00:00:00Z","name_a2s":"Uncletopia | London | 6 | All Maps","protocol":17,"map":"cp_dustbowl","folder":"tf","game":"Team Fortress","app_id":440,"player_count":0,"max_players":24,"Bots":0,"server_type":"Dedicated","server_os":"Linux","password":true,"vac":true,"version":"7757534","steam_id":85568392924742830,"keywords":["cp","nocrits","nodmgspread","uncletopia"],"game_id":440,"stv_port":27066,"stv_name":"Uncletopia | London | 6 | All Maps | STV","players":null},{"server_id":40,"name":"Uncletopia | London | 7 | No Payload","name_short":"lon-7","host":"lon-1.uk.uncletopia.com","port":27075,"enabled":true,"region":"eu","cc":"gb","latitude":51.509865,"longitude":-0.118092,"reserved":0,"last_update":"0001-01-01T00:00:00Z","name_a2s":"Uncletopia | London | 7 | No Payload","protocol":17,"map":"koth_suijin","folder":"tf","game":"Team Fortress","app_id":440,"player_count":0,"max_players":24,"Bots":0,"server_type":"Dedicated","server_os":"Linux","password":true,"vac":true,"version":"7757534","steam_id":85568392924964314,"keywords":["cp","nocrits","nodmgspread","uncletopia"],"game_id":440,"stv_port":27076,"stv_name":"Uncletopia | London | 7 | No Payload | STV","players":null},{"server_id":41,"name":"Uncletopia | London | 8 | Community","name_short":"lon-8","host":"lon-1.uk.uncletopia.com","port":27085,"enabled":true,"region":"eu","cc":"gb","latitude":51.509865,"longitude":-0.118092,"reserved":0,"last_update":"0001-01-01T00:00:00Z","name_a2s":"Uncletopia | London | 8 | Community","protocol":17,"map":"workshop/cp_mannbase_rc2a.ugc1900737467","folder":"tf","game":"Team Fortress","app_id":440,"player_count":0,"max_players":24,"Bots":0,"server_type":"Dedicated","server_os":"Linux","password":true,"vac":true,"version":"7757534","steam_id":85568392924964315,"keywords":["cp","nocrits","nodmgspread","uncletopia"],"game_id":440,"stv_port":27086,"stv_name":"Uncletopia | London | 8 | Community | STV","players":null},{"server_id":300,"name":"Uncletopia | Montréal | 1 | All Maps","name_short":"mtl-1","host":"mtl-1.ca.uncletopia.com","port":27015,"enabled":true,"region":"us-east","cc":"ca","latitude":45.50889,"longitude":-73.56167,"reserved":0,"last_update":"0001-01-01T00:00:00Z","name_a2s":"Uncletopia | Montréal | 1 | All Maps","protocol":17,"map":"pl_borneo","folder":"tf","game":"Team Fortress","app_id":440,"player_count":24,"max_players":24,"Bots":0,"server_type":"Dedicated","server_os":"Linux","password":true,"vac":true,"version":"7757534","steam_id":85568392924500087,"keywords":["nocrits","nodmgspread","payload","uncletopia"],"game_id":440,"stv_port":27016,"stv_name":"Uncletopia | Montréal | 1 | All Maps | STV","players":[{"user_id":120,"name":"Larry from Pokemon SV","steam_id":76561198095245223,"connected_time":2067000000000,"state":"active","ping":52},{"user_id":146,"name":"the real babytron","steam_id":76561197989627918,"connected_time":696000000000,"state":"active","ping":90},{"user_id":147,"name":"Eeb","steam_id":76561198120935174,"connected_time":528000000000,"state":"active","ping":66},{"user_id":106,"name":"jooce","steam_id":76561198129069834,"connected_time":2658000000000,"state":"active","ping":71},{"user_id":119,"name":"Mango","steam_id":76561199209533440,"connected_time":2094000000000,"state":"active","ping":71},{"user_id":155,"name":"deadface","steam_id":76561198055494297,"connected_time":93000000000,"state":"active","ping":93},{"user_id":148,"name":"WhEeZEr","steam_id":76561198310975314,"connected_time":509000000000,"state":"active","ping":85},{"user_id":151,"name":"kametro4","steam_id":76561198835430429,"connected_time":428000000000,"state":"active","ping":79},{"user_id":149,"name":"Maxley","steam_id":76561198148602225,"connected_time":498000000000,"state":"active","ping":94},{"user_id":153,"name":"Der Krieger105","steam_id":76561197978384609,"connected_time":268000000000,"state":"active","ping":90},{"user_id":107,"name":"ROGUE-PLANET","steam_id":76561198116023052,"connected_time":2626000000000,"state":"active","ping":90},{"user_id":142,"name":"Arttur","steam_id":76561199080503175,"connected_time":953000000000,"state":"active","ping":155},{"user_id":150,"name":"john.mcarthur1016","steam_id":76561199465502456,"connected_time":495000000000,"state":"active","ping":91},{"user_id":126,"name":"Corgi","steam_id":76561198144227819,"connected_time":1878000000000,"state":"active","ping":50},{"user_id":127,"name":"Xete","steam_id":76561198403414092,"connected_time":1844000000000,"state":"active","ping":57},{"user_id":135,"name":"bogus binted","steam_id":76561198203329842,"connected_time":1556000000000,"state":"active","ping":72},{"user_id":98,"name":"Smiles","steam_id":76561198107197973,"connected_time":3454000000000,"state":"active","ping":74},{"user_id":154,"name":"Avg. Santa Believer (Nice list)","steam_id":76561198040444697,"connected_time":235000000000,"state":"active","ping":57},{"user_id":108,"name":"SpaceHam","steam_id":76561198066432546,"connected_time":2622000000000,"state":"active","ping":87},{"user_id":66,"name":"The Crungo","steam_id":76561199141492981,"connected_time":5154000000000,"state":"active","ping":50},{"user_id":139,"name":"yeyoi","steam_id":76561198069821885,"connected_time":1165000000000,"state":"active","ping":60},{"user_id":143,"name":"Rx Auntie","steam_id":76561198051618393,"connected_time":871000000000,"state":"active","ping":55},{"user_id":109,"name":"ROUNDS player","steam_id":76561198041384532,"connected_time":2613000000000,"state":"active","ping":83},{"user_id":145,"name":"Legit_Jaxer","steam_id":76561198172234053,"connected_time":815000000000,"state":"active","ping":99}]},{"server_id":301,"name":"Uncletopia | Montréal | 2 | All Maps","name_short":"mtl-2","host":"mtl-1.ca.uncletopia.com","port":27025,"enabled":true,"region":"us-east","cc":"ca","latitude":45.50889,"longitude":-73.56167,"reserved":0,"last_update":"0001-01-01T00:00:00Z","name_a2s":"Uncletopia | Montréal | 2 | All Maps","protocol":17,"map":"pl_snowycoast","folder":"tf","game":"Team Fortress","app_id":440,"player_count":0,"max_players":24,"Bots":0,"server_type":"Dedicated","server_os":"Linux","password":true,"vac":true,"version":"7757534","steam_id":85568392924500088,"keywords":["nocrits","nodmgspread","payload","uncletopia"],"game_id":440,"stv_port":27026,"stv_name":"Uncletopia | Montréal | 2 | All Maps | STV","players":null},{"server_id":302,"name":"Uncletopia | Montréal | 3 | All Maps","name_short":"mtl-3","host":"mtl-1.ca.uncletopia.com","port":27035,"enabled":true,"region":"us-east","cc":"ca","latitude":45.50889,"longitude":-73.56167,"reserved":0,"last_update":"0001-01-01T00:00:00Z","name_a2s":"Uncletopia | Montréal | 3 | All Maps","protocol":17,"map":"cp_dustbowl","folder":"tf","game":"Team Fortress","app_id":440,"player_count":0,"max_players":24,"Bots":0,"server_type":"Dedicated","server_os":"Linux","password":true,"vac":true,"version":"7757534","steam_id":85568392924500089,"keywords":["cp","nocrits","nodmgspread","uncletopia"],"game_id":440,"stv_port":27036,"stv_name":"Uncletopia | Montréal | 3 | All Maps | STV","players":null},{"server_id":303,"name":"Uncletopia | Montréal | 4 | No Payload","name_short":"mtl-4","host":"mtl-1.ca.uncletopia.com","port":27045,"enabled":true,"region":"us-east","cc":"ca","latitude":45.50889,"longitude":-73.56167,"reserved":0,"last_update":"0001-01-01T00:00:00Z","name_a2s":"Uncletopia | Montréal | 4 | No Payload","protocol":17,"map":"pl_borneo","folder":"tf","game":"Team Fortress","app_id":440,"player_count":0,"max_players":24,"Bots":0,"server_type":"Dedicated","server_os":"Linux","password":true,"vac":true,"version":"7757534","steam_id":85568392924500090,"keywords":["nocrits","nodmgspread","payload","uncletopia"],"game_id":440,"stv_port":27046,"stv_name":"Uncletopia | Montréal | 4 | No Payload | STV","players":null},{"server_id":13,"name":"Uncletopia | New York City | 1 | All Maps","name_short":"nyc-1","host":"nyc-1.us.uncletopia.com","port":27015,"enabled":true,"region":"us-east","cc":"us","latitude":40.73061,"longitude":-73.93524,"reserved":0,"last_update":"0001-01-01T00:00:00Z","name_a2s":"Uncletopia | New York City | 1 | All Maps","protocol":17,"map":"pl_snowycoast","folder":"tf","game":"Team Fortress","app_id":440,"player_count":19,"max_players":24,"Bots":0,"server_type":"Dedicated","server_os":"Linux","password":true,"vac":true,"version":"7757534","steam_id":85568392924469993,"keywords":["nocrits","nodmgspread","payload","uncletopia"],"game_id":440,"stv_port":27016,"stv_name":"Uncletopia | New York City | 1 | All Maps | STV","players":[{"user_id":362,"name":"grate_fiter-232","steam_id":76561198073424589,"connected_time":1106000000000,"state":"active","ping":46},{"user_id":357,"name":"c00kie","steam_id":76561198418178297,"connected_time":1939000000000,"state":"active","ping":49},{"user_id":375,"name":"Swagboi429","steam_id":76561199220307602,"connected_time":42000000000,"state":"spawning","ping":227},{"user_id":300,"name":"Krellah","steam_id":76561198287045069,"connected_time":7698000000000,"state":"active","ping":54},{"user_id":339,"name":"Loafus","steam_id":76561198154561111,"connected_time":4229000000000,"state":"active","ping":60},{"user_id":376,"name":"deech","steam_id":76561198066429444,"connected_time":29000000000,"state":"active","ping":43},{"user_id":356,"name":"Glitchy stick","steam_id":76561199013429386,"connected_time":2284000000000,"state":"active","ping":60},{"user_id":366,"name":"Skiver","steam_id":76561199013970281,"connected_time":937000000000,"state":"active","ping":61},{"user_id":337,"name":"rip muhammad ali","steam_id":76561198072640720,"connected_time":4279000000000,"state":"active","ping":49},{"user_id":365,"name":"Footroot Shrublimb","steam_id":76561198119483989,"connected_time":941000000000,"state":"active","ping":95},{"user_id":368,"name":"Cam(era)","steam_id":76561198285054047,"connected_time":883000000000,"state":"active","ping":95},{"user_id":374,"name":"Lish","steam_id":76561198133985045,"connected_time":100000000000,"state":"active","ping":52},{"user_id":340,"name":"Nightmare Tune","steam_id":76561198880493433,"connected_time":4227000000000,"state":"active","ping":79},{"user_id":344,"name":"SpinetinglingToast","steam_id":76561198099470670,"connected_time":4106000000000,"state":"active","ping":53},{"user_id":363,"name":"2 DOGS 1 LEASH","steam_id":76561198083607304,"connected_time":1016000000000,"state":"active","ping":46},{"user_id":369,"name":"Mads Mikkelsen","steam_id":76561198083482001,"connected_time":847000000000,"state":"active","ping":135},{"user_id":353,"name":"gimpy terry","steam_id":76561198940368888,"connected_time":2665000000000,"state":"active","ping":52},{"user_id":354,"name":"A Puppy","steam_id":76561198828184456,"connected_time":2660000000000,"state":"active","ping":49},{"user_id":372,"name":"Cinder","steam_id":76561198049078850,"connected_time":345000000000,"state":"active","ping":48}]},{"server_id":14,"name":"Uncletopia | New York City | 2 | All Maps","name_short":"nyc-2","host":"nyc-1.us.uncletopia.com","port":27025,"enabled":true,"region":"us-east","cc":"us","latitude":40.73061,"longitude":-73.93524,"reserved":0,"last_update":"0001-01-01T00:00:00Z","name_a2s":"Uncletopia | New York City | 2 | All Maps","protocol":17,"map":"koth_cascade","folder":"tf","game":"Team Fortress","app_id":440,"player_count":0,"max_players":24,"Bots":0,"server_type":"Dedicated","server_os":"Linux","password":true,"vac":true,"version":"7757534","steam_id":85568392924469994,"keywords":["cp","nocrits","nodmgspread","uncletopia"],"game_id":440,"stv_port":27026,"stv_name":"Uncletopia | New York City | 2 | All Maps | STV","players":null},{"server_id":15,"name":"Uncletopia | New York City | 3 | Stopwatch Beta","name_short":"nyc-3","host":"nyc-1.us.uncletopia.com","port":27035,"enabled":true,"region":"us-east","cc":"us","latitude":40.73061,"longitude":-73.93524,"reserved":0,"last_update":"0001-01-01T00:00:00Z","name_a2s":"Uncletopia | New York City | 3 | Stopwatch Beta","protocol":17,"map":"cp_mountainlab","folder":"tf","game":"Team Fortress","app_id":440,"player_count":0,"max_players":24,"Bots":0,"server_type":"Dedicated","server_os":"Linux","password":true,"vac":true,"version":"7757534","steam_id":85568392924742820,"keywords":["cp","nocrits","nodmgspread","uncletopia"],"game_id":440,"stv_port":27036,"stv_name":"Uncletopia | New York City | 3 | Stopwatch Beta | STV","players":null},{"server_id":16,"name":"Uncletopia | New York City | 4 | Community","name_short":"nyc-4","host":"nyc-1.us.uncletopia.com","port":27045,"enabled":true,"region":"us-east","cc":"us","latitude":40.73061,"longitude":-73.93524,"reserved":0,"last_update":"0001-01-01T00:00:00Z","name_a2s":"Uncletopia | New York City | 4 | Community","protocol":17,"map":"workshop/cp_fulgur_rc2a.ugc2068252300","folder":"tf","game":"Team Fortress","app_id":440,"player_count":0,"max_players":24,"Bots":0,"server_type":"Dedicated","server_os":"Linux","password":true,"vac":true,"version":"7757534","steam_id":85568392924742821,"keywords":["cp","nocrits","nodmgspread","uncletopia"],"game_id":440,"stv_port":27046,"stv_name":"Uncletopia | New York City | 4 | Community | STV","players":null},{"server_id":142,"name":"Uncletopia | São Paulo | 1 | All Maps","name_short":"sao-1","host":"sao-1.br.uncletopia.com","port":27015,"enabled":true,"region":"sa","cc":"br","latitude":-23.533773,"longitude":-46.62529,"reserved":0,"last_update":"0001-01-01T00:00:00Z","name_a2s":"Uncletopia | São Paulo | 1 | All Maps","protocol":17,"map":"pl_frontier_final","folder":"tf","game":"Team Fortress","app_id":440,"player_count":0,"max_players":24,"Bots":0,"server_type":"Dedicated","server_os":"Linux","password":true,"vac":true,"version":"7757534","steam_id":85568392924469996,"keywords":["nocrits","nodmgspread","payload","uncletopia"],"game_id":440,"stv_port":27016,"stv_name":"Uncletopia | São Paulo | 1 | All Maps | STV","players":null},{"server_id":143,"name":"Uncletopia | São Paulo | 2 | All Maps","name_short":"sao-2","host":"sao-2.br.uncletopia.com","port":27015,"enabled":true,"region":"sa","cc":"br","latitude":-23.533773,"longitude":-46.62529,"reserved":0,"last_update":"0001-01-01T00:00:00Z","name_a2s":"Uncletopia | São Paulo | 2 | All Maps","protocol":17,"map":"pl_borneo","folder":"tf","game":"Team Fortress","app_id":440,"player_count":0,"max_players":24,"Bots":0,"server_type":"Dedicated","server_os":"Linux","password":true,"vac":true,"version":"7757534","steam_id":85568392924485349,"keywords":["nocrits","nodmgspread","payload","uncletopia"],"game_id":440,"stv_port":27016,"stv_name":"Uncletopia | São Paulo | 2 | All Maps | STV","players":null},{"server_id":7,"name":"Uncletopia | Seattle | 1 | All Maps","name_short":"sea-1","host":"sea-1.us.uncletopia.com","port":27015,"enabled":true,"region":"us-west","cc":"us","latitude":47.608013,"longitude":-122.33517,"reserved":0,"last_update":"0001-01-01T00:00:00Z","name_a2s":"Uncletopia | Seattle | 1 | All Maps","protocol":17,"map":"pl_barnblitz","folder":"tf","game":"Team Fortress","app_id":440,"player_count":24,"max_players":24,"Bots":0,"server_type":"Dedicated","server_os":"Linux","password":true,"vac":true,"version":"7757534","steam_id":85568392924469997,"keywords":["nocrits","nodmgspread","payload","uncletopia"],"game_id":440,"stv_port":27016,"stv_name":"Uncletopia | Seattle | 1 | All Maps | STV","players":[{"user_id":11,"name":"Korey","steam_id":76561198210734407,"connected_time":5159000000000,"state":"active","ping":114},{"user_id":12,"name":"Aardappel","steam_id":76561198030894676,"connected_time":5136000000000,"state":"active","ping":75},{"user_id":13,"name":"SHIADYNE","steam_id":76561198271939793,"connected_time":3730000000000,"state":"active","ping":45},{"user_id":14,"name":"Villchip","steam_id":76561198198599982,"connected_time":3625000000000,"state":"active","ping":49},{"user_id":49,"name":"Exophix","steam_id":76561199177402689,"connected_time":1195000000000,"state":"active","ping":49},{"user_id":21,"name":"Klopo","steam_id":76561198871108633,"connected_time":3111000000000,"state":"active","ping":58},{"user_id":57,"name":"〣dust〣 -she/her-","steam_id":76561198045218909,"connected_time":805000000000,"state":"active","ping":37},{"user_id":19,"name":"egyptiangodcard","steam_id":76561198855935442,"connected_time":3188000000000,"state":"active","ping":60},{"user_id":58,"name":"Johni3FireFly","steam_id":76561198089760607,"connected_time":800000000000,"state":"active","ping":76},{"user_id":54,"name":"KingTinkerer","steam_id":76561198226856548,"connected_time":981000000000,"state":"active","ping":85},{"user_id":24,"name":"H4V0C","steam_id":76561199129350925,"connected_time":3073000000000,"state":"active","ping":65},{"user_id":59,"name":"rat gets the cheese","steam_id":76561198031234032,"connected_time":669000000000,"state":"active","ping":95},{"user_id":41,"name":"Chin","steam_id":76561198247426906,"connected_time":2728000000000,"state":"active","ping":147},{"user_id":37,"name":"Delacroix","steam_id":76561198842964669,"connected_time":2886000000000,"state":"active","ping":117},{"user_id":29,"name":"brobtlcehc","steam_id":76561198043558709,"connected_time":2996000000000,"state":"active","ping":52},{"user_id":51,"name":"Eris","steam_id":76561199471434875,"connected_time":1191000000000,"state":"active","ping":39},{"user_id":31,"name":"Tele Co","steam_id":76561198041909269,"connected_time":2984000000000,"state":"active","ping":90},{"user_id":47,"name":"Willy Wonker","steam_id":76561198082944789,"connected_time":2203000000000,"state":"active","ping":81},{"user_id":34,"name":"Thexx ❤","steam_id":76561198113823050,"connected_time":2946000000000,"state":"active","ping":55},{"user_id":35,"name":"Robogineer","steam_id":76561198026994739,"connected_time":2934000000000,"state":"active","ping":80},{"user_id":36,"name":"nolife","steam_id":76561198414300607,"connected_time":2925000000000,"state":"active","ping":94},{"user_id":48,"name":"Igrium","steam_id":76561198119549811,"connected_time":1202000000000,"state":"active","ping":72},{"user_id":50,"name":"Dimple","steam_id":76561198980324190,"connected_time":1195000000000,"state":"active","ping":49},{"user_id":52,"name":"Frostyfaucet","steam_id":76561198060524722,"connected_time":1190000000000,"state":"active","ping":42}]},{"server_id":119,"name":"Uncletopia | Seattle | 2 | All Maps","name_short":"sea-2","host":"sea-1.us.uncletopia.com","port":27025,"enabled":true,"region":"us-west","cc":"us","latitude":47.608013,"longitude":-122.33517,"reserved":0,"last_update":"0001-01-01T00:00:00Z","name_a2s":"Uncletopia | Seattle | 2 | All Maps","protocol":17,"map":"cp_gravelpit","folder":"tf","game":"Team Fortress","app_id":440,"player_count":22,"max_players":24,"Bots":0,"server_type":"Dedicated","server_os":"Linux","password":true,"vac":true,"version":"7757534","steam_id":85568392924469998,"keywords":["cp","nocrits","nodmgspread","uncletopia"],"game_id":440,"stv_port":27026,"stv_name":"Uncletopia | Seattle | 2 | All Maps | STV","players":[{"user_id":301,"name":"please be patient i have autism","steam_id":76561198975893232,"connected_time":10000000000,"state":"spawning","ping":156},{"user_id":267,"name":"Cloud","steam_id":76561198272454184,"connected_time":4037000000000,"state":"active","ping":175},{"user_id":244,"name":"PerKnuckleChuckle","steam_id":76561198023221596,"connected_time":5569000000000,"state":"active","ping":85},{"user_id":289,"name":"Alpharius","steam_id":76561197996284353,"connected_time":1466000000000,"state":"active","ping":72},{"user_id":285,"name":"Butterfly Pancakes","steam_id":76561198286158414,"connected_time":1810000000000,"state":"active","ping":67},{"user_id":279,"name":"Gatackku","steam_id":76561198089902965,"connected_time":2413000000000,"state":"active","ping":46},{"user_id":300,"name":"vareh","steam_id":76561197993190926,"connected_time":46000000000,"state":"active","ping":61},{"user_id":272,"name":"Pneumo.","steam_id":76561197987911883,"connected_time":3623000000000,"state":"active","ping":68},{"user_id":229,"name":"Immunized","steam_id":76561197985889870,"connected_time":6469000000000,"state":"active","ping":42},{"user_id":275,"name":"Artistic","steam_id":76561198118159566,"connected_time":2533000000000,"state":"active","ping":95},{"user_id":227,"name":"i need an adult","steam_id":76561198086216875,"connected_time":6539000000000,"state":"active","ping":70},{"user_id":240,"name":"DORATHEEXPLORER","steam_id":76561198124773931,"connected_time":6010000000000,"state":"active","ping":85},{"user_id":211,"name":"Jorge_dude_2008","steam_id":76561198870649125,"connected_time":6935000000000,"state":"active","ping":75},{"user_id":287,"name":"fishystick gaming","steam_id":76561198000744865,"connected_time":1572000000000,"state":"active","ping":45},{"user_id":297,"name":"Sticky","steam_id":76561199389054520,"connected_time":532000000000,"state":"active","ping":56},{"user_id":298,"name":"Jkbh1","steam_id":76561198093449670,"connected_time":529000000000,"state":"active","ping":75},{"user_id":263,"name":"toodles","steam_id":76561198025463883,"connected_time":4261000000000,"state":"active","ping":52},{"user_id":280,"name":"squeako mode","steam_id":76561198302580297,"connected_time":2372000000000,"state":"active","ping":87},{"user_id":292,"name":"AAGooseman","steam_id":76561198378941369,"connected_time":761000000000,"state":"active","ping":84},{"user_id":283,"name":"EEBIGAA","steam_id":76561198056535988,"connected_time":2193000000000,"state":"active","ping":74},{"user_id":293,"name":"Spy on cart","steam_id":76561198025466913,"connected_time":615000000000,"state":"active","ping":79},{"user_id":295,"name":"WHAT???????????????????????????","steam_id":76561198332301514,"connected_time":569000000000,"state":"active","ping":60}]},{"server_id":406,"name":"Uncletopia | Seattle | 3 | Stopwatch Beta","name_short":"sea-3","host":"sea-1.us.uncletopia.com","port":27035,"enabled":true,"region":"us-west","cc":"us","latitude":47.608013,"longitude":-122.33517,"reserved":0,"last_update":"0001-01-01T00:00:00Z","name_a2s":"Uncletopia | Seattle | 3 | Stopwatch Beta","protocol":17,"map":"workshop/cp_reckoner_rc6.ugc674719999","folder":"tf","game":"Team Fortress","app_id":440,"player_count":16,"max_players":24,"Bots":0,"server_type":"Dedicated","server_os":"Linux","password":true,"vac":true,"version":"7757534","steam_id":85568392924515217,"keywords":["cp","nocrits","nodmgspread","uncletopia"],"game_id":440,"stv_port":27036,"stv_name":"Uncletopia | Seattle | 3 | Stopwatch Beta | STV","players":[{"user_id":26,"name":"Dosario","steam_id":76561198298095535,"connected_time":589000000000,"state":"active","ping":56},{"user_id":21,"name":"purpleboi8056","steam_id":76561199386977971,"connected_time":1023000000000,"state":"active","ping":68},{"user_id":27,"name":"HappilyDisturbed","steam_id":76561198156158743,"connected_time":576000000000,"state":"active","ping":85},{"user_id":28,"name":"Shoggoth","steam_id":76561198117892299,"connected_time":565000000000,"state":"active","ping":63},{"user_id":30,"name":"dazlimey","steam_id":76561198206922028,"connected_time":404000000000,"state":"active","ping":76},{"user_id":31,"name":"bareky","steam_id":76561198285018752,"connected_time":358000000000,"state":"active","ping":87},{"user_id":32,"name":"longb","steam_id":76561198365336226,"connected_time":298000000000,"state":"active","ping":126},{"user_id":33,"name":"Dolos","steam_id":76561198834983084,"connected_time":293000000000,"state":"active","ping":103},{"user_id":34,"name":"Swag Messiah","steam_id":76561198798719141,"connected_time":291000000000,"state":"active","ping":129},{"user_id":35,"name":"FakeBot","steam_id":76561197961193303,"connected_time":236000000000,"state":"active","ping":86},{"user_id":36,"name":"Thequirka","steam_id":76561198968058652,"connected_time":221000000000,"state":"active","ping":51},{"user_id":25,"name":"THE NUT","steam_id":76561198067813626,"connected_time":669000000000,"state":"active","ping":50},{"user_id":37,"name":"Soggy.burrito14","steam_id":76561198066249669,"connected_time":136000000000,"state":"active","ping":115},{"user_id":38,"name":"CookieJuice200","steam_id":76561198120220280,"connected_time":120000000000,"state":"active","ping":78},{"user_id":39,"name":"pat back","steam_id":76561198347225801,"connected_time":101000000000,"state":"active","ping":50},{"user_id":41,"name":"hoOmIN","steam_id":76561198334947079,"connected_time":41000000000,"state":"active","ping":68}]},{"server_id":17,"name":"Uncletopia | San Francisco | 1 | All Maps","name_short":"sfo-1","host":"sfo-1.us.uncletopia.com","port":27015,"enabled":true,"region":"us-west","cc":"us","latitude":37.77397,"longitude":-122.4313,"reserved":0,"last_update":"0001-01-01T00:00:00Z","name_a2s":"Uncletopia | San Francisco | 1 | All Maps","protocol":17,"map":"koth_viaduct","folder":"tf","game":"Team Fortress","app_id":440,"player_count":0,"max_players":24,"Bots":0,"server_type":"Dedicated","server_os":"Linux","password":true,"vac":true,"version":"7757534","steam_id":85568392924469999,"keywords":["cp","nocrits","nodmgspread","uncletopia"],"game_id":440,"stv_port":27016,"stv_name":"Uncletopia | San Francisco | 1 | All Maps | STV","players":null},{"server_id":18,"name":"Uncletopia | San Francisco | 2 | All Maps","name_short":"sfo-2","host":"sfo-1.us.uncletopia.com","port":27025,"enabled":true,"region":"us-west","cc":"us","latitude":37.77397,"longitude":-122.4313,"reserved":0,"last_update":"0001-01-01T00:00:00Z","name_a2s":"Uncletopia | San Francisco | 2 | All Maps","protocol":17,"map":"koth_highpass","folder":"tf","game":"Team Fortress","app_id":440,"player_count":0,"max_players":24,"Bots":0,"server_type":"Dedicated","server_os":"Linux","password":true,"vac":true,"version":"7757534","steam_id":85568392924470000,"keywords":["cp","nocrits","nodmgspread","uncletopia"],"game_id":440,"stv_port":27026,"stv_name":"Uncletopia | San Francisco | 2 | All Maps | STV","players":null},{"server_id":19,"name":"Uncletopia | San Francisco | 3 | Stopwatch Beta","name_short":"sfo-3","host":"sfo-1.us.uncletopia.com","port":27035,"enabled":true,"region":"us-west","cc":"us","latitude":37.77397,"longitude":-122.4313,"reserved":0,"last_update":"0001-01-01T00:00:00Z","name_a2s":"Uncletopia | San Francisco | 3 | Stopwatch Beta","protocol":17,"map":"pl_borneo","folder":"tf","game":"Team Fortress","app_id":440,"player_count":0,"max_players":24,"Bots":0,"server_type":"Dedicated","server_os":"Linux","password":true,"vac":true,"version":"7757534","steam_id":85568392924742824,"keywords":["nocrits","nodmgspread","payload","uncletopia"],"game_id":440,"stv_port":27036,"stv_name":"Uncletopia | San Francisco | 3 | Stopwatch Beta | STV","players":null},{"server_id":20,"name":"Uncletopia | San Francisco | 4 | Community","name_short":"sfo-4","host":"sfo-1.us.uncletopia.com","port":27045,"enabled":true,"region":"us-west","cc":"us","latitude":37.77397,"longitude":-122.4313,"reserved":0,"last_update":"0001-01-01T00:00:00Z","name_a2s":"Uncletopia | San Francisco | 4 | Community","protocol":17,"map":"koth_highpass","folder":"tf","game":"Team Fortress","app_id":440,"player_count":0,"max_players":24,"Bots":0,"server_type":"Dedicated","server_os":"Linux","password":true,"vac":true,"version":"7757534","steam_id":85568392924742826,"keywords":["cp","nocrits","nodmgspread","uncletopia"],"game_id":440,"stv_port":27046,"stv_name":"Uncletopia | San Francisco | 4 | Community | STV","players":null},{"server_id":141,"name":"Uncletopia | Sydney | 1 | All Maps","name_short":"syd-1","host":"syd-1.au.uncletopia.com","port":27015,"enabled":true,"region":"au","cc":"au","latitude":-33.865143,"longitude":151.2099,"reserved":0,"last_update":"0001-01-01T00:00:00Z","name_a2s":"Uncletopia | Sydney | 1 | All Maps","protocol":17,"map":"koth_highpass","folder":"tf","game":"Team Fortress","app_id":440,"player_count":1,"max_players":24,"Bots":0,"server_type":"Dedicated","server_os":"Linux","password":true,"vac":true,"version":"7757534","steam_id":85568392924470001,"keywords":["cp","nocrits","nodmgspread","uncletopia"],"game_id":440,"stv_port":27016,"stv_name":"Uncletopia | Sydney | 1 | All Maps | STV","players":[{"user_id":6,"name":"Waltuh","steam_id":76561199059450243,"connected_time":105000000000,"state":"active","ping":49}]},{"server_id":123,"name":"Uncletopia | Sydney | 2 | All Maps","name_short":"syd-2","host":"syd-1.au.uncletopia.com","port":27025,"enabled":true,"region":"au","cc":"au","latitude":-33.865143,"longitude":151.2099,"reserved":0,"last_update":"0001-01-01T00:00:00Z","name_a2s":"Uncletopia | Sydney | 2 | All Maps","protocol":17,"map":"koth_highpass","folder":"tf","game":"Team Fortress","app_id":440,"player_count":0,"max_players":24,"Bots":0,"server_type":"Dedicated","server_os":"Linux","password":true,"vac":true,"version":"7757534","steam_id":85568392924470002,"keywords":["cp","nocrits","nodmgspread","uncletopia"],"game_id":440,"stv_port":27026,"stv_name":"Uncletopia | Sydney | 2 | All Maps | STV","players":null},{"server_id":395,"name":"Uncletopia | Sydney | 3 | All Maps","name_short":"syd-3","host":"syd-1.au.uncletopia.com","port":27035,"enabled":true,"region":"au","cc":"au","latitude":-33.865143,"longitude":151.2099,"reserved":0,"last_update":"0001-01-01T00:00:00Z","name_a2s":"Uncletopia | Sydney | 3 | All Maps","protocol":17,"map":"pl_upward","folder":"tf","game":"Team Fortress","app_id":440,"player_count":0,"max_players":24,"Bots":0,"server_type":"Dedicated","server_os":"Linux","password":true,"vac":true,"version":"7757534","steam_id":85568392925194467,"keywords":["nocrits","nodmgspread","payload","uncletopia"],"game_id":440,"stv_port":27036,"stv_name":"Uncletopia | Sydney | 3 | All Maps | STV","players":null},{"server_id":396,"name":"Uncletopia | Sydney | 4 | All Maps","name_short":"syd-4","host":"syd-1.au.uncletopia.com","port":27045,"enabled":true,"region":"au","cc":"au","latitude":-33.865143,"longitude":151.2099,"reserved":0,"last_update":"0001-01-01T00:00:00Z","name_a2s":"Uncletopia | Sydney | 4 | All Maps","protocol":17,"map":"cp_altitude","folder":"tf","game":"Team Fortress","app_id":440,"player_count":0,"max_players":24,"Bots":0,"server_type":"Dedicated","server_os":"Linux","password":true,"vac":true,"version":"7757534","steam_id":85568392925397958,"keywords":["cp","nocrits","nodmgspread","uncletopia"],"game_id":440,"stv_port":27046,"stv_name":"Uncletopia | Sydney | 4 | All Maps | STV","players":null},{"server_id":58,"name":"Uncletopia | Sydney | 5 | Stopwatch Beta","name_short":"syd-5","host":"syd-1.au.uncletopia.com","port":27055,"enabled":true,"region":"au","cc":"au","latitude":-33.865143,"longitude":151.2099,"reserved":0,"last_update":"0001-01-01T00:00:00Z","name_a2s":"Uncletopia | Sydney | 5 | Stopwatch Beta","protocol":17,"map":"koth_highpass","folder":"tf","game":"Team Fortress","app_id":440,"player_count":0,"max_players":24,"Bots":0,"server_type":"Dedicated","server_os":"Linux","password":true,"vac":true,"version":"7757534","steam_id":85568392925397959,"keywords":["cp","nocrits","nodmgspread","uncletopia"],"game_id":440,"stv_port":27056,"stv_name":"Uncletopia | Sydney | 5 | Stopwatch Beta | STV","players":null},{"server_id":59,"name":"Uncletopia | Sydney | 6 | Community","name_short":"syd-6","host":"syd-1.au.uncletopia.com","port":27065,"enabled":true,"region":"au","cc":"au","latitude":-33.865143,"longitude":151.2099,"reserved":0,"last_update":"0001-01-01T00:00:00Z","name_a2s":"Uncletopia | Sydney | 6 | Community","protocol":17,"map":"cp_sunshine","folder":"tf","game":"Team Fortress","app_id":440,"player_count":0,"max_players":24,"Bots":0,"server_type":"Dedicated","server_os":"Linux","password":true,"vac":true,"version":"7757534","steam_id":85568392925397960,"keywords":["cp","nocrits","nodmgspread","uncletopia"],"game_id":440,"stv_port":27066,"stv_name":"Uncletopia | Sydney | 6 | Community | STV","players":null},{"server_id":49,"name":"Uncletopia | Warsaw | 1 | All Maps","name_short":"waw-1","host":"waw-1.pl.uncletopia.com","port":27015,"enabled":true,"region":"eu","cc":"pl","latitude":52.2297,"longitude":21.017532,"reserved":0,"last_update":"0001-01-01T00:00:00Z","name_a2s":"","protocol":0,"map":"","folder":"","game":"","app_id":0,"player_count":0,"max_players":0,"Bots":0,"server_type":"","server_os":"","password":false,"vac":false,"version":"","steam_id":0,"keywords":null,"game_id":0,"stv_port":0,"stv_name":"","players":null},{"server_id":50,"name":"Uncletopia | Warsaw | 2 | All Maps","name_short":"waw-2","host":"waw-1.pl.uncletopia.com","port":27025,"enabled":true,"region":"eu","cc":"pl","latitude":52.2297,"longitude":21.017532,"reserved":0,"last_update":"0001-01-01T00:00:00Z","name_a2s":"Uncletopia | Warsaw | 2 | All Maps","protocol":17,"map":"koth_lakeside_final","folder":"tf","game":"Team Fortress","app_id":440,"player_count":0,"max_players":24,"Bots":0,"server_type":"Dedicated","server_os":"Linux","password":true,"vac":true,"version":"7757534","steam_id":85568392925397851,"keywords":["cp","nocrits","nodmgspread","uncletopia"],"game_id":440,"stv_port":27026,"stv_name":"Uncletopia | Warsaw | 2 | All Maps | STV","players":null},{"server_id":51,"name":"Uncletopia | Warsaw | 3 | All Maps","name_short":"waw-3","host":"waw-1.pl.uncletopia.com","port":27035,"enabled":true,"region":"eu","cc":"pl","latitude":52.2297,"longitude":21.017532,"reserved":0,"last_update":"0001-01-01T00:00:00Z","name_a2s":"Uncletopia | Warsaw | 3 | All Maps","protocol":17,"map":"cp_dustbowl","folder":"tf","game":"Team Fortress","app_id":440,"player_count":0,"max_players":24,"Bots":0,"server_type":"Dedicated","server_os":"Linux","password":true,"vac":true,"version":"7757534","steam_id":85568392925397852,"keywords":["cp","nocrits","nodmgspread","uncletopia"],"game_id":440,"stv_port":27036,"stv_name":"Uncletopia | Warsaw | 3 | All Maps | STV","players":null},{"server_id":52,"name":"Uncletopia | Warsaw | 4 | All Maps","name_short":"waw-4","host":"waw-1.pl.uncletopia.com","port":27045,"enabled":true,"region":"eu","cc":"pl","latitude":52.2297,"longitude":21.017532,"reserved":0,"last_update":"0001-01-01T00:00:00Z","name_a2s":"Uncletopia | Warsaw | 4 | All Maps","protocol":17,"map":"pl_snowycoast","folder":"tf","game":"Team Fortress","app_id":440,"player_count":0,"max_players":24,"Bots":0,"server_type":"Dedicated","server_os":"Linux","password":true,"vac":true,"version":"7757534","steam_id":85568392925397853,"keywords":["nocrits","nodmgspread","payload","uncletopia"],"game_id":440,"stv_port":27046,"stv_name":"Uncletopia | Warsaw | 4 | All Maps | STV","players":null},{"server_id":53,"name":"Uncletopia | Warsaw | 5 | Stopwatch Beta","name_short":"waw-5","host":"waw-1.pl.uncletopia.com","port":27055,"enabled":true,"region":"eu","cc":"pl","latitude":52.2297,"longitude":21.017532,"reserved":0,"last_update":"0001-01-01T00:00:00Z","name_a2s":"Uncletopia | Warsaw | 5 | Stopwatch Beta","protocol":17,"map":"pl_barnblitz","folder":"tf","game":"Team Fortress","app_id":440,"player_count":0,"max_players":24,"Bots":0,"server_type":"Dedicated","server_os":"Linux","password":true,"vac":true,"version":"7757534","steam_id":85568392925397854,"keywords":["nocrits","nodmgspread","payload","uncletopia"],"game_id":440,"stv_port":27056,"stv_name":"Uncletopia | Warsaw | 5 | Stopwatch Beta | STV","players":null},{"server_id":54,"name":"Uncletopia | Warsaw | 6 | Community","name_short":"waw-6","host":"waw-1.pl.uncletopia.com","port":27065,"enabled":true,"region":"eu","cc":"pl","latitude":52.2297,"longitude":21.017532,"reserved":0,"last_update":"0001-01-01T00:00:00Z","name_a2s":"Uncletopia | Warsaw | 6 | Community","protocol":17,"map":"workshop/cp_sulfur_rc2.ugc619869471","folder":"tf","game":"Team Fortress","app_id":440,"player_count":0,"max_players":24,"Bots":0,"server_type":"Dedicated","server_os":"Linux","password":true,"vac":true,"version":"7757534","steam_id":85568392925397856,"keywords":["cp","nocrits","nodmgspread","uncletopia"],"game_id":440,"stv_port":27066,"stv_name":"Uncletopia | Warsaw | 6 | Community | STV","players":null}]}