{"status":true,"message":"","result":[{"server_id":9,"name":"Uncletopia | Atlanta | 1 | All Maps","name_short":"atl-1","host":"atl-1.us.uncletopia.com","port":27015,"enabled":true,"region":"us-east","cc":"us","latitude":33.753746,"longitude":-84.38633,"reserved":0,"last_update":"0001-01-01T00:00:00Z","name_a2s":"Uncletopia | Atlanta | 1 | All Maps","protocol":17,"map":"pl_snowycoast","folder":"tf","game":"Team Fortress","app_id":440,"player_count":24,"max_players":24,"Bots":0,"server_type":"Dedicated","server_os":"Linux","password":true,"vac":true,"version":"7708610","steam_id":85568392924469982,"keywords":["nocrits","nodmgspread","payload","uncletopia"],"game_id":440,"stv_port":27016,"stv_name":"Uncletopia | Atlanta | 1 | All Maps | STV","players":[{"user_id":146,"name":"i have a gun","steam_id":76561198016121536,"connected_time":1208000000000,"state":"active","ping":93},{"user_id":103,"name":"Tactical Glizzy","steam_id":76561198153297302,"connected_time":2529000000000,"state":"active","ping":73},{"user_id":145,"name":"Stampdawg","steam_id":76561198050500060,"connected_time":1397000000000,"state":"active","ping":86},{"user_id":147,"name":"Tevo","steam_id":76561198375502931,"connected_time":1199000000000,"state":"active","ping":92},{"user_id":57,"name":"ItsRoy","steam_id":76561198119525485,"connected_time":4070000000000,"state":"active","ping":58},{"user_id":153,"name":"ATL1 | p4ka","steam_id":76561198315291317,"connected_time":515000000000,"state":"active","ping":67},{"user_id":137,"name":"MothaFuckin Uh Uh Dam Ham","steam_id":76561198359456881,"connected_time":1633000000000,"state":"active","ping":61},{"user_id":141,"name":"The Depressed John","steam_id":76561198148193895,"connected_time":1565000000000,"state":"active","ping":80},{"user_id":139,"name":"StarManMatt","steam_id":76561198125513574,"connected_time":1606000000000,"state":"active","ping":84},{"user_id":151,"name":"ATL1 | Phestive Phango","steam_id":76561198069811545,"connected_time":540000000000,"state":"active","ping":45},{"user_id":150,"name":"bunk","steam_id":76561197992511315,"connected_time":598000000000,"state":"active","ping":97},{"user_id":159,"name":"A_Malebolgia","steam_id":76561198097722818,"connected_time":38000000000,"state":"active","ping":83},{"user_id":102,"name":"6t26j","steam_id":76561198278282836,"connected_time":2560000000000,"state":"active","ping":72},{"user_id":75,"name":"FP","steam_id":76561198111259720,"connected_time":3120000000000,"state":"active","ping":106},{"user_id":113,"name":"Mi Señora","steam_id":76561198044384143,"connected_time":2165000000000,"state":"active","ping":66},{"user_id":154,"name":"Coyote29","steam_id":76561198344502070,"connected_time":499000000000,"state":"active","ping":163},{"user_id":155,"name":"ATL1 | Lancer Fan Club","steam_id":76561198355495948,"connected_time":477000000000,"state":"active","ping":85},{"user_id":158,"name":"General French","steam_id":76561198321617148,"connected_time":90000000000,"state":"active","ping":91},{"user_id":107,"name":"puppy","steam_id":76561197964635660,"connected_time":2430000000000,"state":"active","ping":60},{"user_id":148,"name":"autopilot","steam_id":76561198110381643,"connected_time":787000000000,"state":"active","ping":51},{"user_id":40,"name":"Turtle","steam_id":76561198262110064,"connected_time":5156000000000,"state":"active","ping":94},{"user_id":157,"name":"Thotimus Begonimus","steam_id":76561197970275938,"connected_time":125000000000,"state":"active","ping":47},{"user_id":149,"name":"ATL6 Deez Noel","steam_id":76561198246700372,"connected_time":708000000000,"state":"active","ping":59},{"user_id":64,"name":"the shitter","steam_id":76561198071775268,"connected_time":3509000000000,"state":"active","ping":102}]},{"server_id":400,"name":"Uncletopia | Atlanta | 3 | All Maps","name_short":"atl-3","host":"atl-1.us.uncletopia.com","port":27035,"enabled":true,"region":"us-east","cc":"us","latitude":33.753746,"longitude":-84.38633,"reserved":0,"last_update":"0001-01-01T00:00:00Z","name_a2s":"Uncletopia | Atlanta | 3 | All Maps","protocol":17,"map":"cp_snakewater_final1","folder":"tf","game":"Team Fortress","app_id":440,"player_count":0,"max_players":24,"Bots":0,"server_type":"Dedicated","server_os":"Linux","password":true,"vac":true,"version":"7708610","steam_id":85568392924515187,"keywords":["cp","nocrits","nodmgspread","uncletopia"],"game_id":440,"stv_port":27036,"stv_name":"Uncletopia | Atlanta | 3 | All Maps | STV","players":null},{"server_id":401,"name":"Uncletopia | Atlanta | 4 | No Payload","name_short":"atl-4","host":"atl-1.us.uncletopia.com","port":27045,"enabled":true,"region":"us-east","cc":"us","latitude":33.753746,"longitude":-84.38633,"reserved":0,"last_update":"0001-01-01T00:00:00Z","name_a2s":"Uncletopia | Atlanta | 4 | No Payload","protocol":17,"map":"pl_snowycoast","folder":"tf","game":"Team Fortress","app_id":440,"player_count":0,"max_players":24,"Bots":0,"server_type":"Dedicated","server_os":"Linux","password":true,"vac":true,"version":"7708610","steam_id":85568392924515188,"keywords":["nocrits","nodmgspread","payload","uncletopia"],"game_id":440,"stv_port":27046,"stv_name":"Uncletopia | Atlanta | 4 | No Payload | STV","players":null},{"server_id":2,"name":"Uncletopia | Chicago | 1 | All Maps","name_short":"chi-1","host":"chi-1.us.uncletopia.com","port":27015,"enabled":true,"region":"us-central","cc":"us","latitude":41.881832,"longitude":-87.62318,"reserved":0,"last_update":"0001-01-01T00:00:00Z","name_a2s":"Uncletopia | Chicago | 1 | All Maps","protocol":17,"map":"pl_badwater","folder":"tf","game":"Team Fortress","app_id":440,"player_count":24,"max_players":24,"Bots":0,"server_type":"Dedicated","server_os":"Linux","password":true,"vac":true,"version":"7708610","steam_id":85568392924469984,"keywords":["nocrits","nodmgspread","payload","uncletopia"],"game_id":440,"stv_port":27016,"stv_name":"Uncletopia | Chicago | 1 | All Maps | STV","players":[{"user_id":36,"name":"Benaty","steam_id":76561198057517944,"connected_time":111000000000,"state":"active","ping":149},{"user_id":9,"name":"ButterScotch","steam_id":76561199389314894,"connected_time":1823000000000,"state":"active","ping":61},{"user_id":10,"name":"motherfucker 2.0","steam_id":76561198141189209,"connected_time":1632000000000,"state":"active","ping":50},{"user_id":11,"name":"asbestos","steam_id":76561198079178866,"connected_time":1564000000000,"state":"active","ping":69},{"user_id":12,"name":"UWBW","steam_id":76561198007524241,"connected_time":1556000000000,"state":"active","ping":60},{"user_id":15,"name":"John Darksoul","steam_id":76561198031675881,"connected_time":1354000000000,"state":"active","ping":65},{"user_id":17,"name":"Ripheart","steam_id":76561198089661561,"connected_time":1205000000000,"state":"active","ping":40},{"user_id":16,"name":"Purinose","steam_id":76561199050050310,"connected_time":1304000000000,"state":"active","ping":129},{"user_id":18,"name":"stupid bastard","steam_id":76561199195104977,"connected_time":1160000000000,"state":"active","ping":74},{"user_id":33,"name":"confused","steam_id":76561198018654093,"connected_time":318000000000,"state":"active","ping":63},{"user_id":23,"name":"cedarisnotbook","steam_id":76561198356522924,"connected_time":784000000000,"state":"active","ping":47},{"user_id":29,"name":"SoyFlavouredPepsi★","steam_id":76561198119505880,"connected_time":521000000000,"state":"active","ping":79},{"user_id":34,"name":"BOT Bot","steam_id":76561197995225620,"connected_time":252000000000,"state":"active","ping":71},{"user_id":25,"name":"cacerian11","steam_id":76561199227350850,"connected_time":655000000000,"state":"active","ping":149},{"user_id":31,"name":"DJHyper777","steam_id":76561198304548526,"connected_time":423000000000,"state":"active","ping":81},{"user_id":35,"name":"hoboways","steam_id":76561198168035195,"connected_time":177000000000,"state":"active","ping":82},{"user_id":28,"name":"Jacck916","steam_id":76561198176874157,"connected_time":636000000000,"state":"active","ping":111},{"user_id":32,"name":"Sous-Chef","steam_id":76561198075705827,"connected_time":393000000000,"state":"active","ping":72},{"user_id":37,"name":"Yengozi","steam_id":76561198448764748,"connected_time":98000000000,"state":"active","ping":73},{"user_id":38,"name":"NotaSimp","steam_id":76561197971394640,"connected_time":76000000000,"state":"active","ping":95},{"user_id":40,"name":"vieodmsgea","steam_id":76561198025295263,"connected_time":55000000000,"state":"active","ping":75},{"user_id":41,"name":"sevanial","steam_id":76561198071532126,"connected_time":46000000000,"state":"active","ping":64},{"user_id":42,"name":"Gary Budussy","steam_id":76561197969793969,"connected_time":45000000000,"state":"active","ping":46},{"user_id":43,"name":"Stapler","steam_id":76561198099295077,"connected_time":29000000000,"state":"active","ping":92}]},{"server_id":106,"name":"Uncletopia | Chicago | 2 | All Maps","name_short":"chi-2","host":"chi-1.us.uncletopia.com","port":27025,"enabled":true,"region":"us-central","cc":"us","latitude":41.881832,"longitude":-87.62318,"reserved":0,"last_update":"0001-01-01T00:00:00Z","name_a2s":"Uncletopia | Chicago | 2 | All Maps","protocol":17,"map":"pl_frontier_final","folder":"tf","game":"Team Fortress","app_id":440,"player_count":1,"max_players":24,"Bots":0,"server_type":"Dedicated","server_os":"Linux","password":true,"vac":true,"version":"7708610","steam_id":85568392924469985,"keywords":["nocrits","nodmgspread","payload","uncletopia"],"game_id":440,"stv_port":27026,"stv_name":"Uncletopia | Chicago | 2 | All Maps | STV","players":[{"user_id":5,"name":"Barmy","steam_id":76561198111626352,"connected_time":666000000000,"state":"active","ping":74}]},{"server_id":402,"name":"Uncletopia | Chicago | 3 | All Maps","name_short":"chi-3","host":"chi-1.us.uncletopia.com","port":27035,"enabled":true,"region":"us-central","cc":"us","latitude":41.881832,"longitude":-87.62318,"reserved":0,"last_update":"0001-01-01T00:00:00Z","name_a2s":"Uncletopia | Chicago | 3 | All Maps","protocol":17,"map":"koth_harvest_final","folder":"tf","game":"Team Fortress","app_id":440,"player_count":22,"max_players":24,"Bots":0,"server_type":"Dedicated","server_os":"Linux","password":true,"vac":true,"version":"7708610","steam_id":85568392924515191,"keywords":["cp","nocrits","nodmgspread","uncletopia"],"game_id":440,"stv_port":27036,"stv_name":"Uncletopia | Chicago | 3 | All Maps | STV","players":[{"user_id":223,"name":"floppy muppet","steam_id":76561198003076261,"connected_time":594000000000,"state":"active","ping":77},{"user_id":212,"name":"Sicko Mode (Chris Pratt Cover)","steam_id":76561198315786174,"connected_time":987000000000,"state":"active","ping":65},{"user_id":228,"name":"Eightyy  Fourr","steam_id":76561197960374225,"connected_time":437000000000,"state":"active","ping":68},{"user_id":213,"name":"Carson","steam_id":76561198076771071,"connected_time":975000000000,"state":"active","ping":34},{"user_id":208,"name":"ExtraSoap","steam_id":76561198008712409,"connected_time":1283000000000,"state":"active","ping":67},{"user_id":199,"name":"Dude Named Bob","steam_id":76561198310448093,"connected_time":1808000000000,"state":"active","ping":42},{"user_id":200,"name":"barbarians","steam_id":76561198986534519,"connected_time":1791000000000,"state":"active","ping":99},{"user_id":231,"name":"RED","steam_id":76561198030282308,"connected_time":66000000000,"state":"active","ping":97},{"user_id":173,"name":"Drachma","steam_id":76561198007310514,"connected_time":3749000000000,"state":"active","ping":40},{"user_id":227,"name":"Nevu","steam_id":76561198378240571,"connected_time":516000000000,"state":"active","ping":120},{"user_id":232,"name":"Daft Tigers","steam_id":76561198081871942,"connected_time":22000000000,"state":"spawning","ping":160},{"user_id":225,"name":"jae are","steam_id":76561198027906463,"connected_time":569000000000,"state":"active","ping":50},{"user_id":222,"name":"kiwiichie ₍ᐢᐢ₎","steam_id":76561198315449521,"connected_time":784000000000,"state":"active","ping":82},{"user_id":218,"name":"erm i am erm i am erm i am XD","steam_id":76561198102681457,"connected_time":842000000000,"state":"active","ping":62},{"user_id":207,"name":"mumbles","steam_id":76561197994528974,"connected_time":1296000000000,"state":"active","ping":115},{"user_id":217,"name":"Pan Piotr","steam_id":76561198140016126,"connected_time":848000000000,"state":"active","ping":165},{"user_id":219,"name":"Milton","steam_id":76561198383617571,"connected_time":842000000000,"state":"active","ping":56},{"user_id":193,"name":"Gartholomew S. Squeeblestein","steam_id":76561198181516027,"connected_time":2792000000000,"state":"active","ping":69},{"user_id":220,"name":"Draconic Ballad","steam_id":76561198027191515,"connected_time":839000000000,"state":"active","ping":54},{"user_id":210,"name":"GreatColorGreen","steam_id":76561198284546954,"connected_time":1115000000000,"state":"active","ping":54},{"user_id":230,"name":"Regi","steam_id":76561198271508598,"connected_time":371000000000,"state":"active","ping":50},{"user_id":143,"name":"Snake Handler","steam_id":76561198027198306,"connected_time":6257000000000,"state":"active","ping":59}]},{"server_id":403,"name":"Uncletopia | Chicago | 4 | All Maps","name_short":"chi-4","host":"chi-1.us.uncletopia.com","port":27045,"enabled":true,"region":"us-central","cc":"us","latitude":41.881832,"longitude":-87.62318,"reserved":0,"last_update":"0001-01-01T00:00:00Z","name_a2s":"Uncletopia | Chicago | 4 | All Maps","protocol":17,"map":"pl_frontier_final","folder":"tf","game":"Team Fortress","app_id":440,"player_count":0,"max_players":24,"Bots":0,"server_type":"Dedicated","server_os":"Linux","password":true,"vac":true,"version":"7708610","steam_id":85568392924515193,"keywords":["nocrits","nodmgspread","payload","uncletopia"],"game_id":440,"stv_port":27046,"stv_name":"Uncletopia | Chicago | 4 | All Maps | STV","players":null},{"server_id":36,"name":"Uncletopia | Chicago | 5 | All Maps","name_short":"chi-5","host":"chi-2.us.uncletopia.com","port":27015,"enabled":true,"region":"us-central","cc":"us","latitude":41.881832,"longitude":-87.62318,"reserved":0,"last_update":"0001-01-01T00:00:00Z","name_a2s":"Uncletopia | Chicago | 5 | All Maps","protocol":17,"map":"pl_swiftwater_final1","folder":"tf","game":"Team Fortress","app_id":440,"player_count":0,"max_players":24,"Bots":0,"server_type":"Dedicated","server_os":"Linux","password":true,"vac":true,"version":"7708610","steam_id":85568392924866362,"keywords":["nocrits","nodmgspread","payload","uncletopia"],"game_id":440,"stv_port":27016,"stv_name":"Uncletopia | Chicago | 5 | All Maps | STV","players":null},{"server_id":37,"name":"Uncletopia | Chicago | 6 | All Maps","name_short":"chi-6","host":"chi-2.us.uncletopia.com","port":27025,"enabled":true,"region":"us-central","cc":"us","latitude":41.881832,"longitude":-87.62318,"reserved":0,"last_update":"0001-01-01T00:00:00Z","name_a2s":"Uncletopia | Chicago | 6 | All Maps","protocol":17,"map":"koth_viaduct","folder":"tf","game":"Team Fortress","app_id":440,"player_count":0,"max_players":24,"Bots":0,"server_type":"Dedicated","server_os":"Linux","password":true,"vac":true,"version":"7708610","steam_id":85568392924866363,"keywords":["cp","nocrits","nodmgspread","uncletopia"],"game_id":440,"stv_port":27026,"stv_name":"Uncletopia | Chicago | 6 | All Maps | STV","players":null},{"server_id":38,"name":"Uncletopia | Chicago | 7 | Stopwatch (test)","name_short":"chi-7","host":"chi-2.us.uncletopia.com","port":27035,"enabled":true,"region":"us-central","cc":"us","latitude":41.881832,"longitude":-87.62318,"reserved":0,"last_update":"0001-01-01T00:00:00Z","name_a2s":"Uncletopia | Chicago | 7 | Stopwatch (test)","protocol":17,"map":"pl_swiftwater_final1","folder":"tf","game":"Team Fortress","app_id":440,"player_count":0,"max_players":24,"Bots":0,"server_type":"Dedicated","server_os":"Linux","password":true,"vac":true,"version":"7708610","steam_id":85568392924866364,"keywords":["nocrits","nodmgspread","payload","uncletopia"],"game_id":440,"stv_port":27036,"stv_name":"Uncletopia | Chicago | 7 | Stopwatch (test) | STV","players":null},{"server_id":39,"name":"Uncletopia | Chicago | 8 | Community","name_short":"chi-8","host":"chi-2.us.uncletopia.com","port":27045,"enabled":true,"region":"us-central","cc":"us","latitude":41.881832,"longitude":-87.62318,"reserved":0,"last_update":"0001-01-01T00:00:00Z","name_a2s":"Uncletopia | Chicago | 8 | Community","protocol":17,"map":"pl_barnblitz","folder":"tf","game":"Team Fortress","app_id":440,"player_count":0,"max_players":24,"Bots":0,"server_type":"Dedicated","server_os":"Linux","password":true,"vac":true,"version":"7708610","steam_id":85568392924866365,"keywords":["nocrits","nodmgspread","payload","uncletopia"],"game_id":440,"stv_port":27046,"stv_name":"Uncletopia | Chicago | 8 | Community | STV","players":null},{"server_id":8,"name":"Uncletopia | Dallas | 1 | All Maps","name_short":"dal-1","host":"dal-1.us.uncletopia.com","port":27015,"enabled":true,"region":"us-central","cc":"us","latitude":32.779167,"longitude":-96.80889,"reserved":0,"last_update":"0001-01-01T00:00:00Z","name_a2s":"Uncletopia | Dallas | 1 | All Maps","protocol":17,"map":"pl_pier","folder":"tf","game":"Team Fortress","app_id":440,"player_count":0,"max_players":24,"Bots":0,"server_type":"Dedicated","server_os":"Linux","password":true,"vac":true,"version":"7708610","steam_id":85568392924469986,"keywords":["nocrits","nodmgspread","payload","uncletopia"],"game_id":440,"stv_port":27016,"stv_name":"Uncletopia | Dallas | 1 | All Maps | STV","players":null},{"server_id":108,"name":"Uncletopia | Dallas | 2 | All Maps","name_short":"dal-2","host":"dal-1.us.uncletopia.com","port":27025,"enabled":true,"region":"us-central","cc":"us","latitude":32.779167,"longitude":-96.80889,"reserved":0,"last_update":"0001-01-01T00:00:00Z","name_a2s":"Uncletopia | Dallas | 2 | All Maps","protocol":17,"map":"koth_highpass","folder":"tf","game":"Team Fortress","app_id":440,"player_count":0,"max_players":24,"Bots":0,"server_type":"Dedicated","server_os":"Linux","password":true,"vac":true,"version":"7708610","steam_id":85568392924469988,"keywords":["cp","nocrits","nodmgspread","uncletopia"],"game_id":440,"stv_port":27026,"stv_name":"Uncletopia | Dallas | 2 | All Maps | STV","players":null},{"server_id":5,"name":"Uncletopia | Frankfurt | 1 | All Maps","name_short":"frk-1","host":"frk-1.de.uncletopia.com","port":27015,"enabled":true,"region":"eu","cc":"de","latitude":50.110924,"longitude":8.682127,"reserved":0,"last_update":"0001-01-01T00:00:00Z","name_a2s":"Uncletopia | Frankfurt | 1 | All Maps","protocol":17,"map":"pl_snowycoast","folder":"tf","game":"Team Fortress","app_id":440,"player_count":24,"max_players":24,"Bots":0,"server_type":"Dedicated","server_os":"Linux","password":true,"vac":true,"version":"7708610","steam_id":85568392924469989,"keywords":["nocrits","nodmgspread","payload","uncletopia"],"game_id":440,"stv_port":27016,"stv_name":"Uncletopia | Frankfurt | 1 | All Maps | STV","players":[{"user_id":227,"name":"r4s0","steam_id":76561198033661665,"connected_time":378000000000,"state":"active","ping":63},{"user_id":225,"name":"Perci","steam_id":76561198097789669,"connected_time":406000000000,"state":"active","ping":61},{"user_id":226,"name":"System","steam_id":76561199442503973,"connected_time":405000000000,"state":"active","ping":47},{"user_id":156,"name":"Devil hater","steam_id":76561198110470565,"connected_time":5092000000000,"state":"active","ping":92},{"user_id":239,"name":"mhn2","steam_id":76561199084811841,"connected_time":111000000000,"state":"active","ping":149},{"user_id":213,"name":"MitcheyHD","steam_id":76561198066489645,"connected_time":1643000000000,"state":"active","ping":141},{"user_id":242,"name":"razeboi7","steam_id":76561199236420552,"connected_time":15000000000,"state":"spawning","ping":86},{"user_id":229,"name":"7hero","steam_id":76561198118829945,"connected_time":351000000000,"state":"active","ping":116},{"user_id":230,"name":"XxSaturnxX ☞ﾟヮﾟ☞","steam_id":76561199074095198,"connected_time":324000000000,"state":"active","ping":108},{"user_id":217,"name":"akeno best waifu","steam_id":76561198267167505,"connected_time":1407000000000,"state":"active","ping":60},{"user_id":224,"name":"anairat","steam_id":76561198863788240,"connected_time":474000000000,"state":"active","ping":77},{"user_id":207,"name":"Kolar","steam_id":76561198108583895,"connected_time":2172000000000,"state":"active","ping":51},{"user_id":231,"name":"Drunken Carboni","steam_id":76561198092503765,"connected_time":314000000000,"state":"active","ping":172},{"user_id":232,"name":"bruh","steam_id":76561199439030016,"connected_time":309000000000,"state":"active","ping":104},{"user_id":238,"name":"CleanupClamp360","steam_id":76561199124536958,"connected_time":186000000000,"state":"active","ping":53},{"user_id":220,"name":"Mae","steam_id":76561198890391967,"connected_time":1045000000000,"state":"active","ping":105},{"user_id":205,"name":"Engineer","steam_id":76561199443666656,"connected_time":2397000000000,"state":"active","ping":48},{"user_id":198,"name":"Him","steam_id":76561198086400484,"connected_time":2461000000000,"state":"active","ping":63},{"user_id":234,"name":"PK Blizzard","steam_id":76561198039836567,"connected_time":272000000000,"state":"active","ping":53},{"user_id":235,"name":"ChocChipCookies","steam_id":76561198109822419,"connected_time":258000000000,"state":"active","ping":62},{"user_id":237,"name":"Taewinzer","steam_id":76561198261820803,"connected_time":209000000000,"state":"active","ping":62},{"user_id":241,"name":"Fran","steam_id":76561199070516960,"connected_time":46000000000,"state":"active","ping":69},{"user_id":221,"name":"jaime8D","steam_id":76561197980590671,"connected_time":964000000000,"state":"active","ping":89},{"user_id":189,"name":"Animatic","steam_id":76561198186421601,"connected_time":3057000000000,"state":"active","ping":181}]},{"server_id":110,"name":"Uncletopia | Frankfurt | 2 | All Maps","name_short":"frk-2","host":"frk-1.de.uncletopia.com","port":27025,"enabled":true,"region":"eu","cc":"de","latitude":50.110924,"longitude":8.682127,"reserved":0,"last_update":"0001-01-01T00:00:00Z","name_a2s":"Uncletopia | Frankfurt | 2 | All Maps","protocol":17,"map":"pl_upward","folder":"tf","game":"Team Fortress","app_id":440,"player_count":0,"max_players":24,"Bots":0,"server_type":"Dedicated","server_os":"Linux","password":true,"vac":true,"version":"7708610","steam_id":85568392924469990,"keywords":["nocrits","nodmgspread","payload","uncletopia"],"game_id":440,"stv_port":27026,"stv_name":"Uncletopia | Frankfurt | 2 | All Maps | STV","players":null},{"server_id":308,"name":"Uncletopia | Frankfurt | 3 | All Maps","name_short":"frk-3","host":"frk-1.de.uncletopia.com","port":27035,"enabled":true,"region":"eu","cc":"de","latitude":50.110924,"longitude":8.682127,"reserved":0,"last_update":"0001-01-01T00:00:00Z","name_a2s":"Uncletopia | Frankfurt | 3 | All Maps","protocol":17,"map":"pl_pier","folder":"tf","game":"Team Fortress","app_id":440,"player_count":23,"max_players":24,"Bots":0,"server_type":"Dedicated","server_os":"Linux","password":true,"vac":true,"version":"7708610","steam_id":85568392924504274,"keywords":["nocrits","nodmgspread","payload","uncletopia"],"game_id":440,"stv_port":27036,"stv_name":"Uncletopia | Frankfurt | 3 | All Maps | STV","players":[{"user_id":41,"name":"Gardvord","steam_id":76561198120715753,"connected_time":1386000000000,"state":"active","ping":67},{"user_id":64,"name":"Deacon Dracul","steam_id":76561198046880663,"connected_time":572000000000,"state":"active","ping":117},{"user_id":15,"name":"SynthBox3","steam_id":76561199094075745,"connected_time":2315000000000,"state":"active","ping":104},{"user_id":55,"name":"Alice can't hit pipes","steam_id":76561198052410860,"connected_time":1086000000000,"state":"active","ping":138},{"user_id":40,"name":"lostkin","steam_id":76561199061862537,"connected_time":1403000000000,"state":"active","ping":118},{"user_id":71,"name":"night.s","steam_id":76561198326287823,"connected_time":322000000000,"state":"active","ping":78},{"user_id":22,"name":"амфилохиј","steam_id":76561198091581881,"connected_time":1918000000000,"state":"active","ping":83},{"user_id":24,"name":"TSx* Osa__PL","steam_id":76561198027016799,"connected_time":1892000000000,"state":"active","ping":71},{"user_id":34,"name":"MasterNaglis","steam_id":76561198348834177,"connected_time":1556000000000,"state":"active","ping":75},{"user_id":29,"name":"Litsuw","steam_id":76561198081785898,"connected_time":1798000000000,"state":"active","ping":47},{"user_id":65,"name":"Doriian","steam_id":76561198071438810,"connected_time":551000000000,"state":"active","ping":83},{"user_id":37,"name":"galaxy","steam_id":76561198164819022,"connected_time":1522000000000,"state":"active","ping":59},{"user_id":35,"name":"Iphy","steam_id":76561198137519489,"connected_time":1554000000000,"state":"active","ping":75},{"user_id":36,"name":"Borko","steam_id":76561199097266352,"connected_time":1553000000000,"state":"active","ping":94},{"user_id":42,"name":"MagusCubed","steam_id":76561198083973944,"connected_time":1361000000000,"state":"active","ping":61},{"user_id":43,"name":"Kotlet schabowy","steam_id":76561198048983509,"connected_time":1337000000000,"state":"active","ping":77},{"user_id":72,"name":"it just ain't fair","steam_id":76561198418538887,"connected_time":41000000000,"state":"active","ping":104},{"user_id":45,"name":"Hohoty","steam_id":76561198272988743,"connected_time":1304000000000,"state":"active","ping":80},{"user_id":70,"name":"PerskuleBenener","steam_id":76561198156899375,"connected_time":351000000000,"state":"active","ping":88},{"user_id":47,"name":"Arizona Ranger","steam_id":76561198859118707,"connected_time":1232000000000,"state":"active","ping":60},{"user_id":48,"name":"TSx* {Demon-Angel}","steam_id":76561198151486463,"connected_time":1222000000000,"state":"active","ping":77},{"user_id":56,"name":"Lepattaja","steam_id":76561198120743889,"connected_time":1046000000000,"state":"active","ping":95},{"user_id":66,"name":"早上好中国","steam_id":76561198033205384,"connected_time":520000000000,"state":"active","ping":66}]},{"server_id":309,"name":"Uncletopia | Frankfurt | 4 | All Maps","name_short":"frk-4","host":"frk-1.de.uncletopia.com","port":27045,"enabled":true,"region":"eu","cc":"de","latitude":50.110924,"longitude":8.682127,"reserved":0,"last_update":"0001-01-01T00:00:00Z","name_a2s":"Uncletopia | Frankfurt | 4 | All Maps","protocol":17,"map":"cp_steel","folder":"tf","game":"Team Fortress","app_id":440,"player_count":24,"max_players":24,"Bots":0,"server_type":"Dedicated","server_os":"Linux","password":true,"vac":true,"version":"7708610","steam_id":85568392924504275,"keywords":["cp","nocrits","nodmgspread","uncletopia"],"game_id":440,"stv_port":27046,"stv_name":"Uncletopia | Frankfurt | 4 | All Maps | STV","players":[{"user_id":70,"name":"KarlRanzeier","steam_id":76561198066281337,"connected_time":1842000000000,"state":"active","ping":59},{"user_id":88,"name":"Maya #transrights","steam_id":76561198290614621,"connected_time":194000000000,"state":"active","ping":68},{"user_id":57,"name":"Optimist 50","steam_id":76561198039631442,"connected_time":2965000000000,"state":"active","ping":89},{"user_id":54,"name":"Adam","steam_id":76561198062388802,"connected_time":3052000000000,"state":"active","ping":45},{"user_id":62,"name":"R3inis","steam_id":76561199030393569,"connected_time":2856000000000,"state":"active","ping":83},{"user_id":36,"name":":(","steam_id":76561198044465070,"connected_time":4011000000000,"state":"active","ping":91},{"user_id":89,"name":"bobmcsag12","steam_id":76561199227541378,"connected_time":179000000000,"state":"active","ping":153},{"user_id":29,"name":"pavlik rohlik","steam_id":76561198110544279,"connected_time":4302000000000,"state":"active","ping":45},{"user_id":66,"name":"Guru","steam_id":76561198093853069,"connected_time":2141000000000,"state":"active","ping":57},{"user_id":50,"name":"PhantomStriker","steam_id":76561199116689935,"connected_time":3408000000000,"state":"active","ping":65},{"user_id":69,"name":"Sunkerdink","steam_id":76561197996757446,"connected_time":1936000000000,"state":"active","ping":68},{"user_id":49,"name":"avnya","steam_id":76561198863728032,"connected_time":3498000000000,"state":"active","ping":92},{"user_id":84,"name":"madman hesus","steam_id":76561198159702599,"connected_time":508000000000,"state":"active","ping":75},{"user_id":64,"name":"bigwish | bmod.tf","steam_id":76561197997859723,"connected_time":2627000000000,"state":"active","ping":73},{"user_id":37,"name":"FelixRose","steam_id":76561198029069986,"connected_time":3994000000000,"state":"active","ping":66},{"user_id":83,"name":"Noob_with_source","steam_id":76561198870362103,"connected_time":520000000000,"state":"active","ping":61},{"user_id":85,"name":"azzy","steam_id":76561198061293740,"connected_time":431000000000,"state":"active","ping":82},{"user_id":79,"name":"default","steam_id":76561198186182298,"connected_time":579000000000,"state":"active","ping":58},{"user_id":76,"name":"Walter Jr","steam_id":76561199111329270,"connected_time":1198000000000,"state":"active","ping":120},{"user_id":43,"name":"Shawty","steam_id":76561198256704286,"connected_time":3847000000000,"state":"active","ping":58},{"user_id":72,"name":"gaming","steam_id":76561199015038728,"connected_time":1472000000000,"state":"active","ping":72},{"user_id":90,"name":"Crimea a bridge","steam_id":76561198030898371,"connected_time":166000000000,"state":"active","ping":78},{"user_id":93,"name":"daimao622","steam_id":76561198042082838,"connected_time":109000000000,"state":"active","ping":67},{"user_id":65,"name":"Realist 40","steam_id":76561198052476979,"connected_time":2319000000000,"state":"active","ping":77}]},{"server_id":310,"name":"Uncletopia | Frankfurt | 5 | All Maps","name_short":"frk-5","host":"frk-1.de.uncletopia.com","port":27055,"enabled":true,"region":"eu","cc":"de","latitude":50.110924,"longitude":8.682127,"reserved":0,"last_update":"0001-01-01T00:00:00Z","name_a2s":"Uncletopia | Frankfurt | 5 | All Maps","protocol":17,"map":"pl_swiftwater_final1","folder":"tf","game":"Team Fortress","app_id":440,"player_count":4,"max_players":24,"Bots":0,"server_type":"Dedicated","server_os":"Linux","password":true,"vac":true,"version":"7708610","steam_id":85568392924504277,"keywords":["nocrits","nodmgspread","payload","uncletopia"],"game_id":440,"stv_port":27056,"stv_name":"Uncletopia | Frankfurt | 5 | All Maps | STV","players":[{"user_id":8,"name":"Bancsli (Help me pls)","steam_id":76561198144783422,"connected_time":551000000000,"state":"active","ping":65},{"user_id":9,"name":"p!ke","steam_id":76561198416081952,"connected_time":526000000000,"state":"active","ping":60},{"user_id":11,"name":"Elexelez","steam_id":76561198199866365,"connected_time":156000000000,"state":"active","ping":70},{"user_id":12,"name":"Frank","steam_id":76561198086672774,"connected_time":98000000000,"state":"active","ping":50}]},{"server_id":311,"name":"Uncletopia | Frankfurt | 6 | All Maps","name_short":"frk-6","host":"frk-1.de.uncletopia.com","port":27065,"enabled":true,"region":"eu","cc":"de","latitude":50.110924,"longitude":8.682127,"reserved":0,"last_update":"0001-01-01T00:00:00Z","name_a2s":"Uncletopia | Frankfurt | 6 | All Maps","protocol":17,"map":"pl_upward","folder":"tf","game":"Team Fortress","app_id":440,"player_count":24,"max_players":24,"Bots":0,"server_type":"Dedicated","server_os":"Linux","password":true,"vac":true,"version":"7708610","steam_id":85568392924504278,"keywords":["nocrits","nodmgspread","payload","uncletopia"],"game_id":440,"stv_port":27066,"stv_name":"Uncletopia | Frankfurt | 6 | All Maps | STV","players":[{"user_id":93,"name":"?","steam_id":76561199116413509,"connected_time":389000000000,"state":"active","ping":66},{"user_id":29,"name":"Leibeigener","steam_id":76561199275478305,"connected_time":5959000000000,"state":"active","ping":38},{"user_id":31,"name":"worb","steam_id":76561198159517104,"connected_time":5937000000000,"state":"active","ping":67},{"user_id":84,"name":"Tohtori gerhard (official)","steam_id":76561198835081622,"connected_time":2090000000000,"state":"active","ping":104},{"user_id":43,"name":"PLUTO","steam_id":76561198312436128,"connected_time":5738000000000,"state":"active","ping":127},{"user_id":96,"name":"Ben UFO","steam_id":76561198001648348,"connected_time":316000000000,"state":"active","ping":67},{"user_id":88,"name":"theenie bells","steam_id":76561198029025500,"connected_time":1402000000000,"state":"active","ping":68},{"user_id":87,"name":"Dolcelatte","steam_id":76561198038501770,"connected_time":1928000000000,"state":"active","ping":55},{"user_id":82,"name":"Knoxx","steam_id":76561198260692541,"connected_time":2120000000000,"state":"active","ping":73},{"user_id":80,"name":"ivanmixo","steam_id":76561198160213989,"connected_time":2204000000000,"state":"active","ping":74},{"user_id":63,"name":"gamer man","steam_id":76561198436817109,"connected_time":4106000000000,"state":"active","ping":69},{"user_id":48,"name":"Hot Beverage Enjoyer","steam_id":76561198060638325,"connected_time":5314000000000,"state":"active","ping":44},{"user_id":97,"name":"NALA","steam_id":76561198039806469,"connected_time":30000000000,"state":"active","ping":74},{"user_id":52,"name":"sharkmax12312","steam_id":76561198996008569,"connected_time":5180000000000,"state":"active","ping":72},{"user_id":58,"name":"0______0","steam_id":76561198118695421,"connected_time":4909000000000,"state":"active","ping":77},{"user_id":85,"name":"round object","steam_id":76561198136239861,"connected_time":2066000000000,"state":"active","ping":66},{"user_id":83,"name":"Fine and dandy","steam_id":76561198171370022,"connected_time":2103000000000,"state":"active","ping":62},{"user_id":86,"name":"Cippo95","steam_id":76561198255311582,"connected_time":1966000000000,"state":"active","ping":91},{"user_id":70,"name":"Tiq9r","steam_id":76561198997501172,"connected_time":3545000000000,"state":"active","ping":98},{"user_id":92,"name":"Mango","steam_id":76561198139555709,"connected_time":457000000000,"state":"active","ping":52},{"user_id":49,"name":"Sniddies","steam_id":76561198208740557,"connected_time":5312000000000,"state":"active","ping":55},{"user_id":95,"name":"brtaba","steam_id":76561198796334790,"connected_time":355000000000,"state":"active","ping":63},{"user_id":73,"name":"chocolate flavoured femboy","steam_id":76561198819353867,"connected_time":3377000000000,"state":"active","ping":57},{"user_id":90,"name":"Varro_Sicarius","steam_id":76561198062130113,"connected_time":695000000000,"state":"active","ping":78}]},{"server_id":23,"name":"Uncletopia | Frankfurt | 7 | No Payload","name_short":"frk-7","host":"frk-1.de.uncletopia.com","port":27075,"enabled":true,"region":"eu","cc":"de","latitude":50.110924,"longitude":8.682127,"reserved":0,"last_update":"0001-01-01T00:00:00Z","name_a2s":"Uncletopia | Frankfurt | 7 | No Payload","protocol":17,"map":"koth_viaduct","folder":"tf","game":"Team Fortress","app_id":440,"player_count":0,"max_players":24,"Bots":0,"server_type":"Dedicated","server_os":"Linux","password":true,"vac":true,"version":"7708610","steam_id":85568392924742827,"keywords":["cp","nocrits","nodmgspread","uncletopia"],"game_id":440,"stv_port":27076,"stv_name":"Uncletopia | Frankfurt | 7 | No Payload | STV","players":null},{"server_id":24,"name":"Uncletopia | Frankfurt | 8 | Community","name_short":"frk-8","host":"frk-1.de.uncletopia.com","port":27085,"enabled":true,"region":"eu","cc":"de","latitude":50.110924,"longitude":8.682127,"reserved":0,"last_update":"0001-01-01T00:00:00Z","name_a2s":"Uncletopia | Frankfurt | 8 | Community","protocol":17,"map":"workshop/koth_bagel_rc5.ugc2514036946","folder":"tf","game":"Team Fortress","app_id":440,"player_count":0,"max_players":24,"Bots":0,"server_type":"Dedicated","server_os":"Linux","password":true,"vac":true,"version":"7708610","steam_id":85568392924742828,"keywords":["cp","nocrits","nodmgspread","uncletopia"],"game_id":440,"stv_port":27086,"stv_name":"Uncletopia | Frankfurt | 8 | Community | STV","players":null},{"server_id":202,"name":"Uncletopia | Hong Kong | 1 | All Maps","name_short":"hgk-1","host":"hgk-1.hk.uncletopia.com","port":27015,"enabled":true,"region":"asia","cc":"hk","latitude":22.302711,"longitude":114.177216,"reserved":0,"last_update":"0001-01-01T00:00:00Z","name_a2s":"Uncletopia | Hong Kong | 1 | All Maps","protocol":17,"map":"koth_cascade","folder":"tf","game":"Team Fortress","app_id":440,"player_count":1,"max_players":24,"Bots":0,"server_type":"Dedicated","server_os":"Linux","password":true,"vac":true,"version":"7708610","steam_id":85568392924494504,"keywords":["cp","nocrits","nodmgspread","uncletopia"],"game_id":440,"stv_port":27016,"stv_name":"Uncletopia | Hong Kong | 1 | All Maps | STV","players":[{"user_id":621,"name":"Gamingchamp","steam_id":76561199086544233,"connected_time":341000000000,"state":"active","ping":361}]},{"server_id":1,"name":"Uncletopia | Los Angeles | 1 | All Maps","name_short":"lax-1","host":"lax-1.us.uncletopia.com","port":27015,"enabled":true,"region":"us-west","cc":"us","latitude":33.94279,"longitude":-118.41004,"reserved":0,"last_update":"0001-01-01T00:00:00Z","name_a2s":"Uncletopia | Los Angeles | 1 | All Maps","protocol":17,"map":"pl_pier","folder":"tf","game":"Team Fortress","app_id":440,"player_count":18,"max_players":24,"Bots":0,"server_type":"Dedicated","server_os":"Linux","password":true,"vac":true,"version":"7708610","steam_id":85568392924469991,"keywords":["nocrits","nodmgspread","payload","uncletopia"],"game_id":440,"stv_port":27016,"stv_name":"Uncletopia | Los Angeles | 1 | All Maps | STV","players":[{"user_id":14,"name":"dust","steam_id":76561198045218909,"connected_time":3221000000000,"state":"active","ping":59},{"user_id":17,"name":"S p a f f y","steam_id":76561198047892151,"connected_time":2725000000000,"state":"active","ping":50},{"user_id":30,"name":"Bee_Pirate","steam_id":76561199000599111,"connected_time":1605000000000,"state":"active","ping":114},{"user_id":6,"name":"Noxus","steam_id":76561199009820852,"connected_time":4864000000000,"state":"active","ping":72},{"user_id":7,"name":"Manx","steam_id":76561197977134062,"connected_time":4814000000000,"state":"active","ping":64},{"user_id":8,"name":"Nibotshooter","steam_id":76561199284825579,"connected_time":4705000000000,"state":"active","ping":68},{"user_id":20,"name":"Nic0","steam_id":76561198305690218,"connected_time":2249000000000,"state":"active","ping":117},{"user_id":50,"name":"mos","steam_id":76561198300579532,"connected_time":348000000000,"state":"active","ping":93},{"user_id":32,"name":"♥Takamaki♥","steam_id":76561198348199088,"connected_time":1465000000000,"state":"active","ping":43},{"user_id":22,"name":"Nassu","steam_id":76561198147367577,"connected_time":2014000000000,"state":"active","ping":114},{"user_id":51,"name":"DresatCouchonion","steam_id":76561199388364553,"connected_time":52000000000,"state":"active","ping":290},{"user_id":25,"name":"Dwaggy","steam_id":76561198027369555,"connected_time":1949000000000,"state":"active","ping":76},{"user_id":52,"name":"wungus bungus","steam_id":76561198800027041,"connected_time":50000000000,"state":"active","ping":110},{"user_id":48,"name":"Void","steam_id":76561198308290211,"connected_time":427000000000,"state":"active","ping":53},{"user_id":37,"name":"Kitsu ♥","steam_id":76561198091741658,"connected_time":800000000000,"state":"active","ping":49},{"user_id":39,"name":"Ashlyn Rose","steam_id":76561198010426409,"connected_time":760000000000,"state":"active","ping":69},{"user_id":43,"name":"Swaggeroth","steam_id":76561198093911181,"connected_time":626000000000,"state":"active","ping":95},{"user_id":42,"name":"Garret","steam_id":76561198426624664,"connected_time":690000000000,"state":"active","ping":50}]},{"server_id":112,"name":"Uncletopia | Los Angeles | 2 | All Maps","name_short":"lax-2","host":"lax-1.us.uncletopia.com","port":27025,"enabled":true,"region":"us-west","cc":"us","latitude":33.94279,"longitude":-118.41004,"reserved":0,"last_update":"0001-01-01T00:00:00Z","name_a2s":"Uncletopia | Los Angeles | 2 | All Maps","protocol":17,"map":"pl_snowycoast","folder":"tf","game":"Team Fortress","app_id":440,"player_count":0,"max_players":24,"Bots":0,"server_type":"Dedicated","server_os":"Linux","password":true,"vac":true,"version":"7708610","steam_id":85568392924469992,"keywords":["nocrits","nodmgspread","payload","uncletopia"],"game_id":440,"stv_port":27026,"stv_name":"Uncletopia | Los Angeles | 2 | All Maps | STV","players":null},{"server_id":324,"name":"Uncletopia | Los Angeles | 3 | All Maps","name_short":"lax-3","host":"lax-1.us.uncletopia.com","port":27035,"enabled":true,"region":"us-west","cc":"us","latitude":33.94279,"longitude":-118.41004,"reserved":0,"last_update":"0001-01-01T00:00:00Z","name_a2s":"Uncletopia | Los Angeles | 3 | All Maps","protocol":17,"map":"koth_viaduct","folder":"tf","game":"Team Fortress","app_id":440,"player_count":0,"max_players":24,"Bots":0,"server_type":"Dedicated","server_os":"Linux","password":true,"vac":true,"version":"7708610","steam_id":85568392924510198,"keywords":["cp","nocrits","nodmgspread","uncletopia"],"game_id":440,"stv_port":27036,"stv_name":"Uncletopia | Los Angeles | 3 | All Maps | STV","players":null},{"server_id":25,"name":"Uncletopia | Los Angeles | 4 | No Payload","name_short":"lax-4","host":"lax-1.us.uncletopia.com","port":27045,"enabled":true,"region":"us-west","cc":"us","latitude":33.94279,"longitude":-118.41004,"reserved":0,"last_update":"0001-01-01T00:00:00Z","name_a2s":"Uncletopia | Los Angeles | 4 | No Payload","protocol":17,"map":"cp_mountainlab","folder":"tf","game":"Team Fortress","app_id":440,"player_count":0,"max_players":24,"Bots":0,"server_type":"Dedicated","server_os":"Linux","password":true,"vac":true,"version":"7708610","steam_id":85568392924510199,"keywords":["cp","nocrits","nodmgspread","uncletopia"],"game_id":440,"stv_port":27046,"stv_name":"Uncletopia | Los Angeles | 4 | No Payload | STV","players":null},{"server_id":11,"name":"Uncletopia | London | 1 | All Maps","name_short":"lon-1","host":"lon-1.uk.uncletopia.com","port":27015,"enabled":true,"region":"eu","cc":"gb","latitude":51.509865,"longitude":-0.118092,"reserved":0,"last_update":"0001-01-01T00:00:00Z","name_a2s":"Uncletopia | London | 1 | All Maps","protocol":17,"map":"koth_highpass","folder":"tf","game":"Team Fortress","app_id":440,"player_count":24,"max_players":24,"Bots":0,"server_type":"Dedicated","server_os":"Linux","password":true,"vac":true,"version":"7708610","steam_id":85568392924367362,"keywords":["cp","nocrits","nodmgspread","uncletopia"],"game_id":440,"stv_port":27016,"stv_name":"Uncletopia | London | 1 | All Maps | STV","players":[{"user_id":201,"name":"Panda","steam_id":76561198176342325,"connected_time":1044000000000,"state":"active","ping":95},{"user_id":195,"name":"Beamz","steam_id":76561198014230017,"connected_time":1326000000000,"state":"active","ping":156},{"user_id":191,"name":"Immoskyl","steam_id":76561198051147774,"connected_time":1489000000000,"state":"active","ping":69},{"user_id":166,"name":"cl","steam_id":76561199436640904,"connected_time":2744000000000,"state":"active","ping":70},{"user_id":202,"name":"professional yellow man","steam_id":76561198060200599,"connected_time":1019000000000,"state":"active","ping":96},{"user_id":56,"name":"Joseph Stalin LFT","steam_id":76561198033199746,"connected_time":9633000000000,"state":"active","ping":48},{"user_id":210,"name":"3igen3ggy","steam_id":76561197989548015,"connected_time":340000000000,"state":"active","ping":75},{"user_id":211,"name":"dude back off","steam_id":76561198389397410,"connected_time":329000000000,"state":"active","ping":49},{"user_id":217,"name":"NotJunkergog","steam_id":76561199142694058,"connected_time":1000000000,"state":"spawning","ping":80},{"user_id":209,"name":"bMG morlo^","steam_id":76561198249301650,"connected_time":493000000000,"state":"active","ping":48},{"user_id":212,"name":"purplecan","steam_id":76561199208283508,"connected_time":319000000000,"state":"active","ping":74},{"user_id":194,"name":"Ork","steam_id":76561197968575924,"connected_time":1354000000000,"state":"active","ping":57},{"user_id":216,"name":"DeepBlue","steam_id":76561198140075795,"connected_time":111000000000,"state":"active","ping":60},{"user_id":177,"name":"Dominus.","steam_id":76561199065917088,"connected_time":2152000000000,"state":"active","ping":53},{"user_id":204,"name":"TURBOCHIASSE","steam_id":76561198087713683,"connected_time":975000000000,"state":"active","ping":55},{"user_id":169,"name":"The Imperial","steam_id":76561198374118102,"connected_time":2379000000000,"state":"active","ping":43},{"user_id":205,"name":"Flexivel","steam_id":76561198124957702,"connected_time":932000000000,"state":"active","ping":53},{"user_id":168,"name":"Poppy Stingray","steam_id":76561198049673783,"connected_time":2514000000000,"state":"active","ping":70},{"user_id":207,"name":"Windows Vista Cruiser","steam_id":76561198064102233,"connected_time":681000000000,"state":"active","ping":49},{"user_id":215,"name":"Zepta","steam_id":76561199001659666,"connected_time":210000000000,"state":"active","ping":109},{"user_id":142,"name":"greatest legal mind i ever knew","steam_id":76561199234889615,"connected_time":4024000000000,"state":"active","ping":59},{"user_id":185,"name":"the man demands","steam_id":76561198026261250,"connected_time":1878000000000,"state":"active","ping":75},{"user_id":181,"name":"I-I","steam_id":76561198267969436,"connected_time":2123000000000,"state":"active","ping":63},{"user_id":186,"name":"guy who snores hooonk mimimi","steam_id":76561198156394435,"connected_time":1851000000000,"state":"active","ping":38}]},{"server_id":114,"name":"Uncletopia | London | 2 | All Maps","name_short":"lon-2","host":"lon-1.uk.uncletopia.com","port":27025,"enabled":true,"region":"eu","cc":"gb","latitude":51.509865,"longitude":-0.118092,"reserved":0,"last_update":"0001-01-01T00:00:00Z","name_a2s":"Uncletopia | London | 2 | All Maps","protocol":17,"map":"koth_cascade","folder":"tf","game":"Team Fortress","app_id":440,"player_count":0,"max_players":24,"Bots":0,"server_type":"Dedicated","server_os":"Linux","password":true,"vac":true,"version":"7708610","steam_id":85568392924470941,"keywords":["cp","nocrits","nodmgspread","uncletopia"],"game_id":440,"stv_port":27026,"stv_name":"Uncletopia | London | 2 | All Maps | STV","players":null},{"server_id":320,"name":"Uncletopia | London | 3 | All Maps","name_short":"lon-3","host":"lon-1.uk.uncletopia.com","port":27035,"enabled":true,"region":"eu","cc":"gb","latitude":51.509865,"longitude":-0.118092,"reserved":0,"last_update":"0001-01-01T00:00:00Z","name_a2s":"Uncletopia | London | 3 | All Maps","protocol":17,"map":"pl_badwater","folder":"tf","game":"Team Fortress","app_id":440,"player_count":22,"max_players":24,"Bots":0,"server_type":"Dedicated","server_os":"Linux","password":true,"vac":true,"version":"7708610","steam_id":85568392924510192,"keywords":["nocrits","nodmgspread","payload","uncletopia"],"game_id":440,"stv_port":27036,"stv_name":"Uncletopia | London | 3 | All Maps | STV","players":[{"user_id":206,"name":"Healsl_t Puppu","steam_id":76561197991743380,"connected_time":5971000000000,"state":"spawning","ping":43},{"user_id":270,"name":"Weeb","steam_id":76561198297928869,"connected_time":549000000000,"state":"spawning","ping":45},{"user_id":129,"name":"the Black Hunter","steam_id":76561198106049954,"connected_time":10148000000000,"state":"spawning","ping":72},{"user_id":247,"name":"Vince","steam_id":76561199103000131,"connected_time":1601000000000,"state":"active","ping":98},{"user_id":267,"name":"|Bobby|","steam_id":76561198154208319,"connected_time":721000000000,"state":"spawning","ping":183},{"user_id":271,"name":"average U.K resident","steam_id":76561198846784757,"connected_time":452000000000,"state":"spawning","ping":66},{"user_id":274,"name":"bocian2703","steam_id":76561198134203031,"connected_time":17000000000,"state":"spawning","ping":78},{"user_id":273,"name":"Finn.Bergmann2008","steam_id":76561198105028151,"connected_time":416000000000,"state":"active","ping":77},{"user_id":249,"name":"Karsapaali","steam_id":76561198322322739,"connected_time":1589000000000,"state":"active","ping":108},{"user_id":124,"name":"meow :3","steam_id":76561198081559669,"connected_time":10337000000000,"state":"spawning","ping":92},{"user_id":268,"name":"Irbynx","steam_id":76561197980421195,"connected_time":701000000000,"state":"spawning","ping":78},{"user_id":269,"name":"Jimbo","steam_id":76561198136560547,"connected_time":693000000000,"state":"spawning","ping":275},{"user_id":272,"name":"SaSSolino","steam_id":76561198011308018,"connected_time":445000000000,"state":"active","ping":88},{"user_id":224,"name":"xavier :)","steam_id":76561198076494034,"connected_time":4772000000000,"state":"spawning","ping":187},{"user_id":254,"name":"Pizza/Cheese/Pepperoni","steam_id":76561198174510235,"connected_time":1470000000000,"state":"spawning","ping":70},{"user_id":243,"name":"steve","steam_id":76561198076135756,"connected_time":2344000000000,"state":"spawning","ping":51},{"user_id":246,"name":"IHAV3NOID3A","steam_id":76561199056318007,"connected_time":1785000000000,"state":"spawning","ping":78},{"user_id":200,"name":"pompom:3","steam_id":76561199057953617,"connected_time":6219000000000,"state":"active","ping":64},{"user_id":264,"name":"Dr. Mario","steam_id":76561199125182282,"connected_time":836000000000,"state":"spawning","ping":83},{"user_id":201,"name":"Vershal Smershal","steam_id":76561198116223995,"connected_time":6180000000000,"state":"spawning","ping":100},{"user_id":241,"name":"talk to me nice","steam_id":76561198079277466,"connected_time":2747000000000,"state":"active","ping":83},{"user_id":261,"name":"Syd","steam_id":76561198020515027,"connected_time":1021000000000,"state":"spawning","ping":188}]},{"server_id":321,"name":"Uncletopia | London | 4 | All Maps","name_short":"lon-4","host":"lon-1.uk.uncletopia.com","port":27045,"enabled":true,"region":"eu","cc":"gb","latitude":51.509865,"longitude":-0.118092,"reserved":0,"last_update":"0001-01-01T00:00:00Z","name_a2s":"Uncletopia | London | 4 | All Maps","protocol":17,"map":"cp_altitude","folder":"tf","game":"Team Fortress","app_id":440,"player_count":23,"max_players":24,"Bots":0,"server_type":"Dedicated","server_os":"Linux","password":true,"vac":true,"version":"7708610","steam_id":85568392924510193,"keywords":["cp","nocrits","nodmgspread","uncletopia"],"game_id":440,"stv_port":27046,"stv_name":"Uncletopia | London | 4 | All Maps | STV","players":[{"user_id":509,"name":"JimBowBlade","steam_id":76561198018620946,"connected_time":120000000000,"state":"active","ping":51},{"user_id":439,"name":"goofy goober","steam_id":76561198013237629,"connected_time":4813000000000,"state":"active","ping":94},{"user_id":461,"name":"antisocialite","steam_id":76561199117720299,"connected_time":3676000000000,"state":"active","ping":70},{"user_id":488,"name":"DarkFloy","steam_id":76561198070650206,"connected_time":1412000000000,"state":"active","ping":90},{"user_id":496,"name":"t.tv/LavenderJayJay04","steam_id":76561198966667657,"connected_time":1060000000000,"state":"active","ping":50},{"user_id":492,"name":"mesoni","steam_id":76561199141290973,"connected_time":1092000000000,"state":"active","ping":82},{"user_id":493,"name":"wahoo","steam_id":76561198113324486,"connected_time":1091000000000,"state":"active","ping":49},{"user_id":450,"name":"Spajro","steam_id":76561198257383813,"connected_time":4319000000000,"state":"active","ping":60},{"user_id":507,"name":"Milosz52","steam_id":76561199060940204,"connected_time":238000000000,"state":"active","ping":81},{"user_id":487,"name":"Benameme","steam_id":76561198074097655,"connected_time":1445000000000,"state":"active","ping":47},{"user_id":494,"name":"Revamp","steam_id":76561199105851036,"connected_time":1071000000000,"state":"active","ping":135},{"user_id":451,"name":"def","steam_id":76561198857396812,"connected_time":4308000000000,"state":"active","ping":54},{"user_id":495,"name":"Daan77","steam_id":76561198129940468,"connected_time":1063000000000,"state":"active","ping":64},{"user_id":508,"name":"Linux","steam_id":76561199224409825,"connected_time":158000000000,"state":"active","ping":50},{"user_id":476,"name":"gojoel","steam_id":76561198251181946,"connected_time":2334000000000,"state":"active","ping":43},{"user_id":498,"name":"Yobopan","steam_id":76561198088064860,"connected_time":1034000000000,"state":"active","ping":59},{"user_id":503,"name":"Dlaf'rferg (she/her)","steam_id":76561198284744735,"connected_time":696000000000,"state":"active","ping":46},{"user_id":458,"name":"Saken","steam_id":76561198049075295,"connected_time":4000000000000,"state":"active","ping":60},{"user_id":479,"name":"christmas eve","steam_id":76561197973182789,"connected_time":2220000000000,"state":"active","ping":55},{"user_id":486,"name":"Muffin Queen","steam_id":76561198057836492,"connected_time":1577000000000,"state":"active","ping":45},{"user_id":501,"name":"TrocheDrewno","steam_id":76561198043662503,"connected_time":949000000000,"state":"active","ping":76},{"user_id":506,"name":"Krabs","steam_id":76561198161679477,"connected_time":297000000000,"state":"active","ping":45},{"user_id":510,"name":"The Spookster","steam_id":76561198122072252,"connected_time":43000000000,"state":"spawning","ping":59}]},{"server_id":21,"name":"Uncletopia | London | 5 | All Maps","name_short":"lon-5","host":"lon-1.uk.uncletopia.com","port":27055,"enabled":true,"region":"eu","cc":"gb","latitude":51.509865,"longitude":-0.118092,"reserved":0,"last_update":"0001-01-01T00:00:00Z","name_a2s":"Uncletopia | London | 5 | All Maps","protocol":17,"map":"pl_borneo","folder":"tf","game":"Team Fortress","app_id":440,"player_count":23,"max_players":24,"Bots":0,"server_type":"Dedicated","server_os":"Linux","password":true,"vac":true,"version":"7708610","steam_id":85568392924742829,"keywords":["nocrits","nodmgspread","payload","uncletopia"],"game_id":440,"stv_port":27056,"stv_name":"Uncletopia | London | 5 | All Maps | STV","players":[{"user_id":444,"name":"Krof enjoyer","steam_id":76561199101777637,"connected_time":820000000000,"state":"active","ping":85},{"user_id":440,"name":"tuukka","steam_id":76561198890409949,"connected_time":895000000000,"state":"active","ping":97},{"user_id":442,"name":"we eaten beans","steam_id":76561198184912569,"connected_time":832000000000,"state":"active","ping":154},{"user_id":428,"name":"torn","steam_id":76561198223003236,"connected_time":2299000000000,"state":"active","ping":36},{"user_id":431,"name":"Lyell","steam_id":76561198350329389,"connected_time":2198000000000,"state":"active","ping":74},{"user_id":435,"name":"Octoblue64","steam_id":76561198388997283,"connected_time":1920000000000,"state":"active","ping":44},{"user_id":447,"name":"lowtidey","steam_id":76561198994887486,"connected_time":694000000000,"state":"active","ping":120},{"user_id":427,"name":"cosmetical","steam_id":76561198444036574,"connected_time":2381000000000,"state":"active","ping":65},{"user_id":451,"name":"i am bread","steam_id":76561199180277321,"connected_time":19000000000,"state":"spawning","ping":149},{"user_id":445,"name":"Loop_Cat","steam_id":76561199045902145,"connected_time":818000000000,"state":"active","ping":134},{"user_id":448,"name":"Thors","steam_id":76561197968739075,"connected_time":538000000000,"state":"active","ping":44},{"user_id":425,"name":"Hey, I´m Andy!","steam_id":76561198060337777,"connected_time":2769000000000,"state":"active","ping":64},{"user_id":437,"name":"Big Trader","steam_id":76561197992364667,"connected_time":1475000000000,"state":"active","ping":70},{"user_id":419,"name":"MAKENTAKEN","steam_id":76561199127359587,"connected_time":2944000000000,"state":"active","ping":98},{"user_id":439,"name":"Skeletorninja","steam_id":76561198081239400,"connected_time":927000000000,"state":"active","ping":47},{"user_id":429,"name":"Vezage","steam_id":76561198064916164,"connected_time":2298000000000,"state":"active","ping":79},{"user_id":446,"name":"D *","steam_id":76561198086304421,"connected_time":803000000000,"state":"active","ping":85},{"user_id":422,"name":"Oak","steam_id":76561198067315672,"connected_time":2819000000000,"state":"active","ping":81},{"user_id":412,"name":"tasty mango","steam_id":76561198000464286,"connected_time":4352000000000,"state":"active","ping":48},{"user_id":430,"name":"name","steam_id":76561198152620745,"connected_time":2286000000000,"state":"active","ping":53},{"user_id":450,"name":"Donete333","steam_id":76561198409266344,"connected_time":77000000000,"state":"active","ping":76},{"user_id":434,"name":"waffle toaster","steam_id":76561198799089628,"connected_time":2072000000000,"state":"active","ping":44},{"user_id":441,"name":"dafydd","steam_id":76561198052200325,"connected_time":874000000000,"state":"active","ping":90}]},{"server_id":22,"name":"Uncletopia | London | 6 | All Maps","name_short":"lon-6","host":"lon-1.uk.uncletopia.com","port":27065,"enabled":true,"region":"eu","cc":"gb","latitude":51.509865,"longitude":-0.118092,"reserved":0,"last_update":"0001-01-01T00:00:00Z","name_a2s":"Uncletopia | London | 6 | All Maps","protocol":17,"map":"pl_frontier_final","folder":"tf","game":"Team Fortress","app_id":440,"player_count":0,"max_players":24,"Bots":0,"server_type":"Dedicated","server_os":"Linux","password":true,"vac":true,"version":"7708610","steam_id":85568392924742830,"keywords":["nocrits","nodmgspread","payload","uncletopia"],"game_id":440,"stv_port":27066,"stv_name":"Uncletopia | London | 6 | All Maps | STV","players":null},{"server_id":40,"name":"Uncletopia | London | 7 | No Payload","name_short":"lon-7","host":"lon-1.uk.uncletopia.com","port":27075,"enabled":true,"region":"eu","cc":"gb","latitude":51.509865,"longitude":-0.118092,"reserved":0,"last_update":"0001-01-01T00:00:00Z","name_a2s":"Uncletopia | London | 7 | No Payload","protocol":17,"map":"cp_process_final","folder":"tf","game":"Team Fortress","app_id":440,"player_count":0,"max_players":24,"Bots":0,"server_type":"Dedicated","server_os":"Linux","password":true,"vac":true,"version":"7708610","steam_id":85568392924964314,"keywords":["cp","nocrits","nodmgspread","uncletopia"],"game_id":440,"stv_port":27076,"stv_name":"Uncletopia | London | 7 | No Payload | STV","players":null},{"server_id":41,"name":"Uncletopia | London | 8 | Community","name_short":"lon-8","host":"lon-1.uk.uncletopia.com","port":27085,"enabled":true,"region":"eu","cc":"gb","latitude":51.509865,"longitude":-0.118092,"reserved":0,"last_update":"0001-01-01T00:00:00Z","name_a2s":"Uncletopia | London | 8 | Community","protocol":17,"map":"pl_pier","folder":"tf","game":"Team Fortress","app_id":440,"player_count":0,"max_players":24,"Bots":0,"server_type":"Dedicated","server_os":"Linux","password":true,"vac":true,"version":"7708610","steam_id":85568392924964315,"keywords":["nocrits","nodmgspread","payload","uncletopia"],"game_id":440,"stv_port":27086,"stv_name":"Uncletopia | London | 8 | Community | STV","players":null},{"server_id":300,"name":"Uncletopia | Montréal | 1 | All Maps","name_short":"mtl-1","host":"mtl-1.ca.uncletopia.com","port":27015,"enabled":true,"region":"us-east","cc":"ca","latitude":45.50889,"longitude":-73.56167,"reserved":0,"last_update":"0001-01-01T00:00:00Z","name_a2s":"Uncletopia | Montréal | 1 | All Maps","protocol":17,"map":"pl_frontier_final","folder":"tf","game":"Team Fortress","app_id":440,"player_count":0,"max_players":24,"Bots":0,"server_type":"Dedicated","server_os":"Linux","password":true,"vac":true,"version":"7708610","steam_id":85568392924500087,"keywords":["nocrits","nodmgspread","payload","uncletopia"],"game_id":440,"stv_port":27016,"stv_name":"Uncletopia | Montréal | 1 | All Maps | STV","players":null},{"server_id":301,"name":"Uncletopia | Montréal | 2 | All Maps","name_short":"mtl-2","host":"mtl-1.ca.uncletopia.com","port":27025,"enabled":true,"region":"us-east","cc":"ca","latitude":45.50889,"longitude":-73.56167,"reserved":0,"last_update":"0001-01-01T00:00:00Z","name_a2s":"Uncletopia | Montréal | 2 | All Maps","protocol":17,"map":"pl_borneo","folder":"tf","game":"Team Fortress","app_id":440,"player_count":0,"max_players":24,"Bots":0,"server_type":"Dedicated","server_os":"Linux","password":true,"vac":true,"version":"7708610","steam_id":85568392924500088,"keywords":["nocrits","nodmgspread","payload","uncletopia"],"game_id":440,"stv_port":27026,"stv_name":"Uncletopia | Montréal | 2 | All Maps | STV","players":null},{"server_id":302,"name":"Uncletopia | Montréal | 3 | All Maps","name_short":"mtl-3","host":"mtl-1.ca.uncletopia.com","port":27035,"enabled":true,"region":"us-east","cc":"ca","latitude":45.50889,"longitude":-73.56167,"reserved":0,"last_update":"0001-01-01T00:00:00Z","name_a2s":"Uncletopia | Montréal | 3 | All Maps","protocol":17,"map":"cp_snakewater_final1","folder":"tf","game":"Team Fortress","app_id":440,"player_count":0,"max_players":24,"Bots":0,"server_type":"Dedicated","server_os":"Linux","password":true,"vac":true,"version":"7708610","steam_id":85568392924500089,"keywords":["cp","nocrits","nodmgspread","uncletopia"],"game_id":440,"stv_port":27036,"stv_name":"Uncletopia | Montréal | 3 | All Maps | STV","players":null},{"server_id":303,"name":"Uncletopia | Montréal | 4 | No Payload","name_short":"mtl-4","host":"mtl-1.ca.uncletopia.com","port":27045,"enabled":true,"region":"us-east","cc":"ca","latitude":45.50889,"longitude":-73.56167,"reserved":0,"last_update":"0001-01-01T00:00:00Z","name_a2s":"Uncletopia | Montréal | 4 | No Payload","protocol":17,"map":"cp_snakewater_final1","folder":"tf","game":"Team Fortress","app_id":440,"player_count":0,"max_players":24,"Bots":0,"server_type":"Dedicated","server_os":"Linux","password":true,"vac":true,"version":"7708610","steam_id":85568392924500090,"keywords":["cp","nocrits","nodmgspread","uncletopia"],"game_id":440,"stv_port":27046,"stv_name":"Uncletopia | Montréal | 4 | No Payload | STV","players":null},{"server_id":13,"name":"Uncletopia | New York City | 1 | All Maps","name_short":"nyc-1","host":"nyc-1.us.uncletopia.com","port":27015,"enabled":true,"region":"us-east","cc":"us","latitude":40.73061,"longitude":-73.93524,"reserved":0,"last_update":"0001-01-01T00:00:00Z","name_a2s":"Uncletopia | New York City | 1 | All Maps","protocol":17,"map":"pl_badwater","folder":"tf","game":"Team Fortress","app_id":440,"player_count":0,"max_players":24,"Bots":0,"server_type":"Dedicated","server_os":"Linux","password":true,"vac":true,"version":"7708610","steam_id":85568392924469993,"keywords":["nocrits","nodmgspread","payload","uncletopia"],"game_id":440,"stv_port":27016,"stv_name":"Uncletopia | New York City | 1 | All Maps | STV","players":null},{"server_id":14,"name":"Uncletopia | New York City | 2 | All Maps","name_short":"nyc-2","host":"nyc-1.us.uncletopia.com","port":27025,"enabled":true,"region":"us-east","cc":"us","latitude":40.73061,"longitude":-73.93524,"reserved":0,"last_update":"0001-01-01T00:00:00Z","name_a2s":"Uncletopia | New York City | 2 | All Maps","protocol":17,"map":"cp_altitude","folder":"tf","game":"Team Fortress","app_id":440,"player_count":0,"max_players":24,"Bots":0,"server_type":"Dedicated","server_os":"Linux","password":true,"vac":true,"version":"7708610","steam_id":85568392924469994,"keywords":["cp","nocrits","nodmgspread","uncletopia"],"game_id":440,"stv_port":27026,"stv_name":"Uncletopia | New York City | 2 | All Maps | STV","players":null},{"server_id":15,"name":"Uncletopia | New York City | 3 | All Maps","name_short":"nyc-3","host":"nyc-1.us.uncletopia.com","port":27035,"enabled":true,"region":"us-east","cc":"us","latitude":40.73061,"longitude":-73.93524,"reserved":0,"last_update":"0001-01-01T00:00:00Z","name_a2s":"Uncletopia | New York City | 3 | All Maps","protocol":17,"map":"cp_mountainlab","folder":"tf","game":"Team Fortress","app_id":440,"player_count":0,"max_players":24,"Bots":0,"server_type":"Dedicated","server_os":"Linux","password":true,"vac":true,"version":"7708610","steam_id":85568392924742820,"keywords":["cp","nocrits","nodmgspread","uncletopia"],"game_id":440,"stv_port":27036,"stv_name":"Uncletopia | New York City | 3 | All Maps | STV","players":null},{"server_id":16,"name":"Uncletopia | New York City | 4 | Community","name_short":"nyc-4","host":"nyc-1.us.uncletopia.com","port":27045,"enabled":true,"region":"us-east","cc":"us","latitude":40.73061,"longitude":-73.93524,"reserved":0,"last_update":"0001-01-01T00:00:00Z","name_a2s":"Uncletopia | New York City | 4 | Community","protocol":17,"map":"pl_barnblitz","folder":"tf","game":"Team Fortress","app_id":440,"player_count":0,"max_players":24,"Bots":0,"server_type":"Dedicated","server_os":"Linux","password":true,"vac":true,"version":"7708610","steam_id":85568392924742821,"keywords":["nocrits","nodmgspread","payload","uncletopia"],"game_id":440,"stv_port":27046,"stv_name":"Uncletopia | New York City | 4 | Community | STV","players":null},{"server_id":142,"name":"Uncletopia | São Paulo | 1 | All Maps","name_short":"sao-1","host":"sao-1.br.uncletopia.com","port":27015,"enabled":true,"region":"sa","cc":"br","latitude":-23.533773,"longitude":-46.62529,"reserved":0,"last_update":"0001-01-01T00:00:00Z","name_a2s":"Uncletopia | São Paulo | 1 | All Maps","protocol":17,"map":"cp_dustbowl","folder":"tf","game":"Team Fortress","app_id":440,"player_count":3,"max_players":24,"Bots":0,"server_type":"Dedicated","server_os":"Linux","password":true,"vac":true,"version":"7708610","steam_id":85568392924469996,"keywords":["cp","nocrits","nodmgspread","uncletopia"],"game_id":440,"stv_port":27016,"stv_name":"Uncletopia | São Paulo | 1 | All Maps | STV","players":[{"user_id":24,"name":"Elo","steam_id":76561198954337086,"connected_time":930000000000,"state":"active","ping":46},{"user_id":18,"name":"Pietro07","steam_id":76561199017332044,"connected_time":2077000000000,"state":"active","ping":43},{"user_id":20,"name":"YekkuUwU","steam_id":76561199349215012,"connected_time":1831000000000,"state":"active","ping":30}]},{"server_id":143,"name":"Uncletopia | São Paulo | 2 | All Maps","name_short":"sao-2","host":"sao-2.br.uncletopia.com","port":27015,"enabled":true,"region":"sa","cc":"br","latitude":-23.533773,"longitude":-46.62529,"reserved":0,"last_update":"0001-01-01T00:00:00Z","name_a2s":"Uncletopia | São Paulo | 2 | All Maps","protocol":17,"map":"koth_viaduct","folder":"tf","game":"Team Fortress","app_id":440,"player_count":0,"max_players":24,"Bots":0,"server_type":"Dedicated","server_os":"Linux","password":true,"vac":true,"version":"7708610","steam_id":85568392924485349,"keywords":["cp","nocrits","nodmgspread","uncletopia"],"game_id":440,"stv_port":27016,"stv_name":"Uncletopia | São Paulo | 2 | All Maps | STV","players":null},{"server_id":7,"name":"Uncletopia | Seattle | 1 | All Maps","name_short":"sea-1","host":"sea-1.us.uncletopia.com","port":27015,"enabled":true,"region":"us-west","cc":"us","latitude":47.608013,"longitude":-122.33517,"reserved":0,"last_update":"0001-01-01T00:00:00Z","name_a2s":"Uncletopia | Seattle | 1 | All Maps","protocol":17,"map":"koth_cascade","folder":"tf","game":"Team Fortress","app_id":440,"player_count":0,"max_players":24,"Bots":0,"server_type":"Dedicated","server_os":"Linux","password":true,"vac":true,"version":"7708610","steam_id":85568392924469997,"keywords":["cp","nocrits","nodmgspread","uncletopia"],"game_id":440,"stv_port":27016,"stv_name":"Uncletopia | Seattle | 1 | All Maps | STV","players":null},{"server_id":119,"name":"Uncletopia | Seattle | 2 | All Maps","name_short":"sea-2","host":"sea-1.us.uncletopia.com","port":27025,"enabled":true,"region":"us-west","cc":"us","latitude":47.608013,"longitude":-122.33517,"reserved":0,"last_update":"0001-01-01T00:00:00Z","name_a2s":"Uncletopia | Seattle | 2 | All Maps","protocol":17,"map":"pl_pier","folder":"tf","game":"Team Fortress","app_id":440,"player_count":0,"max_players":24,"Bots":0,"server_type":"Dedicated","server_os":"Linux","password":true,"vac":true,"version":"7708610","steam_id":85568392924469998,"keywords":["nocrits","nodmgspread","payload","uncletopia"],"game_id":440,"stv_port":27026,"stv_name":"Uncletopia | Seattle | 2 | All Maps | STV","players":null},{"server_id":17,"name":"Uncletopia | San Francisco | 1 | All Maps","name_short":"sfo-1","host":"sfo-1.us.uncletopia.com","port":27015,"enabled":true,"region":"us-west","cc":"us","latitude":37.77397,"longitude":-122.4313,"reserved":0,"last_update":"0001-01-01T00:00:00Z","name_a2s":"Uncletopia | San Francisco | 1 | All Maps","protocol":17,"map":"pl_barnblitz","folder":"tf","game":"Team Fortress","app_id":440,"player_count":0,"max_players":24,"Bots":0,"server_type":"Dedicated","server_os":"Linux","password":true,"vac":true,"version":"7708610","steam_id":85568392924469999,"keywords":["nocrits","nodmgspread","payload","uncletopia"],"game_id":440,"stv_port":27016,"stv_name":"Uncletopia | San Francisco | 1 | All Maps | STV","players":null},{"server_id":18,"name":"Uncletopia | San Francisco | 2 | All Maps","name_short":"sfo-2","host":"sfo-1.us.uncletopia.com","port":27025,"enabled":true,"region":"us-west","cc":"us","latitude":37.77397,"longitude":-122.4313,"reserved":0,"last_update":"0001-01-01T00:00:00Z","name_a2s":"Uncletopia | San Francisco | 2 | All Maps","protocol":17,"map":"pl_upward","folder":"tf","game":"Team Fortress","app_id":440,"player_count":0,"max_players":24,"Bots":0,"server_type":"Dedicated","server_os":"Linux","password":true,"vac":true,"version":"7708610","steam_id":85568392924470000,"keywords":["nocrits","nodmgspread","payload","uncletopia"],"game_id":440,"stv_port":27026,"stv_name":"Uncletopia | San Francisco | 2 | All Maps | STV","players":null},{"server_id":19,"name":"Uncletopia | San Francisco | 3 | No Payload","name_short":"sfo-3","host":"sfo-1.us.uncletopia.com","port":27035,"enabled":true,"region":"us-west","cc":"us","latitude":37.77397,"longitude":-122.4313,"reserved":0,"last_update":"0001-01-01T00:00:00Z","name_a2s":"Uncletopia | San Francisco | 3 | No Payload","protocol":17,"map":"pl_borneo","folder":"tf","game":"Team Fortress","app_id":440,"player_count":0,"max_players":24,"Bots":0,"server_type":"Dedicated","server_os":"Linux","password":true,"vac":true,"version":"7708610","steam_id":85568392924742824,"keywords":["nocrits","nodmgspread","payload","uncletopia"],"game_id":440,"stv_port":27036,"stv_name":"Uncletopia | San Francisco | 3 | No Payload | STV","players":null},{"server_id":20,"name":"Uncletopia | San Francisco | 4 | Community","name_short":"sfo-4","host":"sfo-1.us.uncletopia.com","port":27045,"enabled":true,"region":"us-west","cc":"us","latitude":37.77397,"longitude":-122.4313,"reserved":0,"last_update":"0001-01-01T00:00:00Z","name_a2s":"Uncletopia | San Francisco | 4 | Community","protocol":17,"map":"pl_frontier_final","folder":"tf","game":"Team Fortress","app_id":440,"player_count":0,"max_players":24,"Bots":0,"server_type":"Dedicated","server_os":"Linux","password":true,"vac":true,"version":"7708610","steam_id":85568392924742826,"keywords":["nocrits","nodmgspread","payload","uncletopia"],"game_id":440,"stv_port":27046,"stv_name":"Uncletopia | San Francisco | 4 | Community | STV","players":null},{"server_id":141,"name":"Uncletopia | Sydney | 1 | All Maps","name_short":"syd-1","host":"syd-1.au.uncletopia.com","port":27015,"enabled":true,"region":"au","cc":"au","latitude":-33.865143,"longitude":151.2099,"reserved":0,"last_update":"0001-01-01T00:00:00Z","name_a2s":"Uncletopia | Sydney | 1 | All Maps","protocol":17,"map":"koth_cascade","folder":"tf","game":"Team Fortress","app_id":440,"player_count":0,"max_players":24,"Bots":0,"server_type":"Dedicated","server_os":"Linux","password":true,"vac":true,"version":"7708610","steam_id":85568392924470001,"keywords":["cp","nocrits","nodmgspread","uncletopia"],"game_id":440,"stv_port":27016,"stv_name":"Uncletopia | Sydney | 1 | All Maps | STV","players":null},{"server_id":123,"name":"Uncletopia | Sydney | 2 | All Maps","name_short":"syd-2","host":"syd-1.au.uncletopia.com","port":27025,"enabled":true,"region":"au","cc":"au","latitude":-33.865143,"longitude":151.2099,"reserved":0,"last_update":"0001-01-01T00:00:00Z","name_a2s":"Uncletopia | Sydney | 2 | All Maps","protocol":17,"map":"pl_pier","folder":"tf","game":"Team Fortress","app_id":440,"player_count":0,"max_players":24,"Bots":0,"server_type":"Dedicated","server_os":"Linux","password":true,"vac":true,"version":"7708610","steam_id":85568392924470002,"keywords":["nocrits","nodmgspread","payload","uncletopia"],"game_id":440,"stv_port":27026,"stv_name":"Uncletopia | Sydney | 2 | All Maps | STV","players":null},{"server_id":395,"name":"Uncletopia | Sydney | 3 | All Maps","name_short":"syd-3","host":"syd-1.au.uncletopia.com","port":27035,"enabled":true,"region":"au","cc":"au","latitude":-33.865143,"longitude":151.2099,"reserved":0,"last_update":"0001-01-01T00:00:00Z","name_a2s":"Uncletopia | Sydney | 3 | All Maps","protocol":17,"map":"koth_cascade","folder":"tf","game":"Team Fortress","app_id":440,"player_count":0,"max_players":24,"Bots":0,"server_type":"Dedicated","server_os":"Linux","password":true,"vac":true,"version":"7708610","steam_id":85568392925194467,"keywords":["cp","nocrits","nodmgspread","uncletopia"],"game_id":440,"stv_port":27036,"stv_name":"Uncletopia | Sydney | 3 | All Maps | STV","players":null},{"server_id":396,"name":"Uncletopia | Sydney | 4 | All Maps","name_short":"syd-4","host":"syd-1.au.uncletopia.com","port":27045,"enabled":true,"region":"au","cc":"au","latitude":-33.865143,"longitude":151.2099,"reserved":0,"last_update":"0001-01-01T00:00:00Z","name_a2s":"Uncletopia | Sydney | 4 | All Maps","protocol":17,"map":"koth_viaduct","folder":"tf","game":"Team Fortress","app_id":440,"player_count":0,"max_players":24,"Bots":0,"server_type":"Dedicated","server_os":"Linux","password":true,"vac":true,"version":"7708610","steam_id":85568392925397958,"keywords":["cp","nocrits","nodmgspread","uncletopia"],"game_id":440,"stv_port":27046,"stv_name":"Uncletopia | Sydney | 4 | All Maps | STV","players":null},{"server_id":58,"name":"Uncletopia | Sydney | 5 | No Payload","name_short":"syd-5","host":"syd-1.au.uncletopia.com","port":27055,"enabled":true,"region":"au","cc":"au","latitude":-33.865143,"longitude":151.2099,"reserved":0,"last_update":"0001-01-01T00:00:00Z","name_a2s":"Uncletopia | Sydney | 5 | No Payload","protocol":17,"map":"plr_hightower","folder":"tf","game":"Team Fortress","app_id":440,"player_count":0,"max_players":24,"Bots":0,"server_type":"Dedicated","server_os":"Linux","password":true,"vac":true,"version":"7708610","steam_id":85568392925397959,"keywords":["nocrits","nodmgspread","payload","uncletopia"],"game_id":440,"stv_port":27056,"stv_name":"Uncletopia | Sydney | 5 | No Payload | STV","players":null},{"server_id":59,"name":"Uncletopia | Sydney | 6 | Community","name_short":"syd-6","host":"syd-1.au.uncletopia.com","port":27065,"enabled":true,"region":"au","cc":"au","latitude":-33.865143,"longitude":151.2099,"reserved":0,"last_update":"0001-01-01T00:00:00Z","name_a2s":"Uncletopia | Sydney | 6 | Community","protocol":17,"map":"workshop/koth_ashville_final.ugc2130459942","folder":"tf","game":"Team Fortress","app_id":440,"player_count":0,"max_players":24,"Bots":0,"server_type":"Dedicated","server_os":"Linux","password":true,"vac":true,"version":"7708610","steam_id":85568392925397960,"keywords":["cp","nocrits","nodmgspread","uncletopia"],"game_id":440,"stv_port":27066,"stv_name":"Uncletopia | Sydney | 6 | Community | STV","players":null},{"server_id":49,"name":"Uncletopia | Warsaw | 1 | All Maps","name_short":"waw-1","host":"waw-1.pl.uncletopia.com","port":27015,"enabled":true,"region":"eu","cc":"pl","latitude":52.2297,"longitude":21.017532,"reserved":0,"last_update":"0001-01-01T00:00:00Z","name_a2s":"Uncletopia | Warsaw | 1 | All Maps","protocol":17,"map":"cp_snakewater_final1","folder":"tf","game":"Team Fortress","app_id":440,"player_count":0,"max_players":24,"Bots":0,"server_type":"Dedicated","server_os":"Linux","password":true,"vac":true,"version":"7708610","steam_id":85568392925397850,"keywords":["cp","nocrits","nodmgspread","uncletopia"],"game_id":440,"stv_port":27016,"stv_name":"Uncletopia | Warsaw | 1 | All Maps | STV","players":null},{"server_id":50,"name":"Uncletopia | Warsaw | 2 | All Maps","name_short":"waw-2","host":"waw-1.pl.uncletopia.com","port":27025,"enabled":true,"region":"eu","cc":"pl","latitude":52.2297,"longitude":21.017532,"reserved":0,"last_update":"0001-01-01T00:00:00Z","name_a2s":"Uncletopia | Warsaw | 2 | All Maps","protocol":17,"map":"pl_barnblitz","folder":"tf","game":"Team Fortress","app_id":440,"player_count":0,"max_players":24,"Bots":0,"server_type":"Dedicated","server_os":"Linux","password":true,"vac":true,"version":"7708610","steam_id":85568392925397851,"keywords":["nocrits","nodmgspread","payload","uncletopia"],"game_id":440,"stv_port":27026,"stv_name":"Uncletopia | Warsaw | 2 | All Maps | STV","players":null},{"server_id":51,"name":"Uncletopia | Warsaw | 3 | All Maps","name_short":"waw-3","host":"waw-1.pl.uncletopia.com","port":27035,"enabled":true,"region":"eu","cc":"pl","latitude":52.2297,"longitude":21.017532,"reserved":0,"last_update":"0001-01-01T00:00:00Z","name_a2s":"Uncletopia | Warsaw | 3 | All Maps","protocol":17,"map":"pl_frontier_final","folder":"tf","game":"Team Fortress","app_id":440,"player_count":0,"max_players":24,"Bots":0,"server_type":"Dedicated","server_os":"Linux","password":true,"vac":true,"version":"7708610","steam_id":85568392925397852,"keywords":["nocrits","nodmgspread","payload","uncletopia"],"game_id":440,"stv_port":27036,"stv_name":"Uncletopia | Warsaw | 3 | All Maps | STV","players":null},{"server_id":52,"name":"Uncletopia | Warsaw | 4 | All Maps","name_short":"waw-4","host":"waw-1.pl.uncletopia.com","port":27045,"enabled":true,"region":"eu","cc":"pl","latitude":52.2297,"longitude":21.017532,"reserved":0,"last_update":"0001-01-01T00:00:00Z","name_a2s":"Uncletopia | Warsaw | 4 | All Maps","protocol":17,"map":"koth_cascade","folder":"tf","game":"Team Fortress","app_id":440,"player_count":0,"max_players":24,"Bots":0,"server_type":"Dedicated","server_os":"Linux","password":true,"vac":true,"version":"7708610","steam_id":85568392925397853,"keywords":["cp","nocrits","nodmgspread","uncletopia"],"game_id":440,"stv_port":27046,"stv_name":"Uncletopia | Warsaw | 4 | All Maps | STV","players":null},{"server_id":53,"name":"Uncletopia | Warsaw | 5 | No Payload","name_short":"waw-5","host":"waw-1.pl.uncletopia.com","port":27055,"enabled":true,"region":"eu","cc":"pl","latitude":52.2297,"longitude":21.017532,"reserved":0,"last_update":"0001-01-01T00:00:00Z","name_a2s":"Uncletopia | Warsaw | 5 | No Payload","protocol":17,"map":"pl_borneo","folder":"tf","game":"Team Fortress","app_id":440,"player_count":0,"max_players":24,"Bots":0,"server_type":"Dedicated","server_os":"Linux","password":true,"vac":true,"version":"7708610","steam_id":85568392925397854,"keywords":["nocrits","nodmgspread","payload","uncletopia"],"game_id":440,"stv_port":27056,"stv_name":"Uncletopia | Warsaw | 5 | No Payload | STV","players":null},{"server_id":54,"name":"Uncletopia | Warsaw | 6 | Community","name_short":"waw-6","host":"waw-1.pl.uncletopia.com","port":27065,"enabled":true,"region":"eu","cc":"pl","latitude":52.2297,"longitude":21.017532,"reserved":0,"last_update":"0001-01-01T00:00:00Z","name_a2s":"Uncletopia | Warsaw | 6 | Community","protocol":17,"map":"pl_swiftwater_final1","folder":"tf","game":"Team Fortress","app_id":440,"player_count":0,"max_players":24,"Bots":0,"server_type":"Dedicated","server_os":"Linux","password":true,"vac":true,"version":"7708610","steam_id":85568392925397856,"keywords":["nocrits","nodmgspread","payload","uncletopia"],"game_id":440,"stv_port":27066,"stv_name":"Uncletopia | Warsaw | 6 | Community | STV","players":null}]}