{"status":true,"message":"","result":[{"server_id":9,"name":"Uncletopia | Atlanta | 1 | All Maps","name_short":"atl-1","host":"atl-1.us.uncletopia.com","port":27015,"enabled":true,"region":"us-east","cc":"us","latitude":33.753746,"longitude":-84.38633,"reserved":0,"last_update":"0001-01-01T00:00:00Z","name_a2s":"Uncletopia | Atlanta | 1 | All Maps","protocol":17,"map":"pl_badwater","folder":"tf","game":"Team Fortress","app_id":440,"player_count":24,"max_players":24,"Bots":0,"server_type":"Dedicated","server_os":"Linux","password":true,"vac":true,"version":"7882260","steam_id":85568392924469982,"keywords":["nocrits","nodmgspread","payload","uncletopia"],"game_id":440,"stv_port":27016,"stv_name":"Uncletopia | Atlanta | 1 | All Maps | STV","players":[{"user_id":721,"name":"josh","steam_id":76561198077902438,"connected_time":272000000000,"state":"active","ping":60},{"user_id":653,"name":"THE NUMB SKULL","steam_id":76561198355818542,"connected_time":7316000000000,"state":"active","ping":42},{"user_id":676,"name":"THE CANDYMAN","steam_id":76561198325613425,"connected_time":5231000000000,"state":"active","ping":103},{"user_id":715,"name":"Taco","steam_id":76561198158621392,"connected_time":572000000000,"state":"active","ping":75},{"user_id":720,"name":"Edendelt","steam_id":76561199382750867,"connected_time":293000000000,"state":"active","ping":117},{"user_id":671,"name":"Ġ1 ♦ Synth","steam_id":76561198058660228,"connected_time":5697000000000,"state":"active","ping":52},{"user_id":718,"name":"Cam","steam_id":76561198285054047,"connected_time":355000000000,"state":"active","ping":88},{"user_id":722,"name":"mrnotsogudguy","steam_id":76561199289893241,"connected_time":256000000000,"state":"active","ping":171},{"user_id":717,"name":"JollyVG","steam_id":76561198044919633,"connected_time":531000000000,"state":"active","ping":55},{"user_id":708,"name":"\u003eimplying","steam_id":76561199474103906,"connected_time":1344000000000,"state":"active","ping":45},{"user_id":723,"name":"Bateman 64","steam_id":76561198093689792,"connected_time":241000000000,"state":"active","ping":105},{"user_id":688,"name":"tony hawk","steam_id":76561198172050802,"connected_time":3594000000000,"state":"active","ping":129},{"user_id":654,"name":"Saucy Boy","steam_id":76561198178332031,"connected_time":6900000000000,"state":"active","ping":88},{"user_id":725,"name":"vi","steam_id":76561198388123421,"connected_time":67000000000,"state":"active","ping":114},{"user_id":711,"name":"Galactamarx","steam_id":76561198028065755,"connected_time":1181000000000,"state":"active","ping":96},{"user_id":694,"name":"[P-REC] Bookmark.","steam_id":76561198095930645,"connected_time":2653000000000,"state":"active","ping":111},{"user_id":656,"name":"Bag","steam_id":76561198012395490,"connected_time":6573000000000,"state":"active","ping":60},{"user_id":630,"name":"albaniagaming1324325465","steam_id":76561198141809055,"connected_time":8777000000000,"state":"active","ping":74},{"user_id":724,"name":"im the beef","steam_id":76561198069506128,"connected_time":218000000000,"state":"active","ping":65},{"user_id":683,"name":"meownt evewest :3","steam_id":76561198017686306,"connected_time":4253000000000,"state":"active","ping":151},{"user_id":714,"name":"Lotus Cookie","steam_id":76561199482553414,"connected_time":887000000000,"state":"active","ping":120},{"user_id":682,"name":"skosgo -eg","steam_id":76561197996403345,"connected_time":4365000000000,"state":"active","ping":111},{"user_id":692,"name":"fwoGG exa*✩‧₊˚","steam_id":76561198044511912,"connected_time":3422000000000,"state":"active","ping":103},{"user_id":700,"name":":3","steam_id":76561198126358045,"connected_time":1963000000000,"state":"active","ping":61}]},{"server_id":104,"name":"Uncletopia | Atlanta | 2 | All Maps","name_short":"atl-2","host":"atl-1.us.uncletopia.com","port":27025,"enabled":true,"region":"us-east","cc":"us","latitude":33.753746,"longitude":-84.38633,"reserved":0,"last_update":"0001-01-01T00:00:00Z","name_a2s":"Uncletopia | Atlanta | 2 | All Maps","protocol":17,"map":"koth_lakeside_final","folder":"tf","game":"Team Fortress","app_id":440,"player_count":0,"max_players":24,"Bots":0,"server_type":"Dedicated","server_os":"Linux","password":true,"vac":true,"version":"7882260","steam_id":85568392924469983,"keywords":["cp","nocrits","nodmgspread","uncletopia"],"game_id":440,"stv_port":27026,"stv_name":"Uncletopia | Atlanta | 2 | All Maps | STV","players":null},{"server_id":400,"name":"Uncletopia | Atlanta | 3 | Community","name_short":"atl-3","host":"atl-1.us.uncletopia.com","port":27035,"enabled":true,"region":"us-east","cc":"us","latitude":33.753746,"longitude":-84.38633,"reserved":0,"last_update":"0001-01-01T00:00:00Z","name_a2s":"Uncletopia | Atlanta | 3 | Community","protocol":17,"map":"workshop/koth_product_final.ugc454272353","folder":"tf","game":"Team Fortress","app_id":440,"player_count":0,"max_players":24,"Bots":0,"server_type":"Dedicated","server_os":"Linux","password":true,"vac":true,"version":"7882260","steam_id":85568392924515187,"keywords":["cp","nocrits","nodmgspread","uncletopia"],"game_id":440,"stv_port":27036,"stv_name":"Uncletopia | Atlanta | 3 | Community | STV","players":null},{"server_id":401,"name":"Uncletopia | Atlanta | 4 | No Payload","name_short":"atl-4","host":"atl-1.us.uncletopia.com","port":27045,"enabled":true,"region":"us-east","cc":"us","latitude":33.753746,"longitude":-84.38633,"reserved":0,"last_update":"0001-01-01T00:00:00Z","name_a2s":"","protocol":0,"map":"","folder":"","game":"","app_id":0,"player_count":0,"max_players":0,"Bots":0,"server_type":"","server_os":"","password":false,"vac":false,"version":"","steam_id":0,"keywords":null,"game_id":0,"stv_port":0,"stv_name":"","players":null},{"server_id":2,"name":"Uncletopia | Chicago | 1 | All Maps","name_short":"chi-1","host":"chi-1.us.uncletopia.com","port":27015,"enabled":true,"region":"us-central","cc":"us","latitude":41.881832,"longitude":-87.62318,"reserved":0,"last_update":"0001-01-01T00:00:00Z","name_a2s":"Uncletopia | Chicago | 1 | All Maps","protocol":17,"map":"pl_snowycoast","folder":"tf","game":"Team Fortress","app_id":440,"player_count":0,"max_players":24,"Bots":0,"server_type":"Dedicated","server_os":"Linux","password":true,"vac":true,"version":"7882260","steam_id":85568392924469984,"keywords":["nocrits","nodmgspread","payload","uncletopia"],"game_id":440,"stv_port":27016,"stv_name":"Uncletopia | Chicago | 1 | All Maps | STV","players":null},{"server_id":106,"name":"Uncletopia | Chicago | 2 | All Maps","name_short":"chi-2","host":"chi-1.us.uncletopia.com","port":27025,"enabled":true,"region":"us-central","cc":"us","latitude":41.881832,"longitude":-87.62318,"reserved":0,"last_update":"0001-01-01T00:00:00Z","name_a2s":"Uncletopia | Chicago | 2 | All Maps","protocol":17,"map":"pl_borneo","folder":"tf","game":"Team Fortress","app_id":440,"player_count":18,"max_players":24,"Bots":0,"server_type":"Dedicated","server_os":"Linux","password":true,"vac":true,"version":"7882260","steam_id":85568392924469985,"keywords":["nocrits","nodmgspread","payload","uncletopia"],"game_id":440,"stv_port":27026,"stv_name":"Uncletopia | Chicago | 2 | All Maps | STV","players":[{"user_id":901,"name":"Ice cream sandwich","steam_id":76561198172748357,"connected_time":11339000000000,"state":"active","ping":91},{"user_id":1029,"name":"peppercorn bill","steam_id":76561198870780777,"connected_time":1167000000000,"state":"active","ping":39},{"user_id":1030,"name":"Stoofy","steam_id":76561198280750328,"connected_time":1100000000000,"state":"active","ping":76},{"user_id":1009,"name":"Mr.Frundles","steam_id":76561198134559026,"connected_time":2730000000000,"state":"active","ping":199},{"user_id":1040,"name":"WanderEase","steam_id":76561198068654078,"connected_time":629000000000,"state":"active","ping":90},{"user_id":1041,"name":"Glazed","steam_id":76561198043020404,"connected_time":618000000000,"state":"active","ping":89},{"user_id":1018,"name":"Yongle","steam_id":76561198068591156,"connected_time":2194000000000,"state":"active","ping":40},{"user_id":1027,"name":"Rad","steam_id":76561198413125750,"connected_time":1415000000000,"state":"spawning","ping":65},{"user_id":1042,"name":".-.. --- ...- . / -.-- --- ..-","steam_id":76561198002483206,"connected_time":479000000000,"state":"active","ping":70},{"user_id":921,"name":"Lud","steam_id":76561198359217809,"connected_time":9696000000000,"state":"active","ping":173},{"user_id":1022,"name":"DanielDoly","steam_id":76561199186469081,"connected_time":1748000000000,"state":"active","ping":62},{"user_id":1028,"name":"Soto101","steam_id":76561198141538280,"connected_time":1318000000000,"state":"active","ping":50},{"user_id":1034,"name":"captain Damien","steam_id":76561198813245551,"connected_time":961000000000,"state":"active","ping":243},{"user_id":1043,"name":"1-800-GHOST-DANCE","steam_id":76561198835430429,"connected_time":448000000000,"state":"active","ping":78},{"user_id":1039,"name":"Pastor Johnson","steam_id":76561198256774959,"connected_time":723000000000,"state":"active","ping":74},{"user_id":1037,"name":"roo the observer","steam_id":76561198120684348,"connected_time":864000000000,"state":"active","ping":71},{"user_id":1036,"name":"Whore","steam_id":76561197978362230,"connected_time":885000000000,"state":"active","ping":109},{"user_id":1046,"name":"HellaCopter","steam_id":76561198062313698,"connected_time":140000000000,"state":"active","ping":91}]},{"server_id":402,"name":"Uncletopia | Chicago | 3 | All Maps","name_short":"chi-3","host":"chi-1.us.uncletopia.com","port":27035,"enabled":true,"region":"us-central","cc":"us","latitude":41.881832,"longitude":-87.62318,"reserved":0,"last_update":"0001-01-01T00:00:00Z","name_a2s":"Uncletopia | Chicago | 3 | All Maps","protocol":17,"map":"koth_viaduct","folder":"tf","game":"Team Fortress","app_id":440,"player_count":0,"max_players":24,"Bots":0,"server_type":"Dedicated","server_os":"Linux","password":true,"vac":true,"version":"7882260","steam_id":85568392924515191,"keywords":["cp","nocrits","nodmgspread","uncletopia"],"game_id":440,"stv_port":27036,"stv_name":"Uncletopia | Chicago | 3 | All Maps | STV","players":null},{"server_id":403,"name":"Uncletopia | Chicago | 4 | All Maps","name_short":"chi-4","host":"chi-1.us.uncletopia.com","port":27045,"enabled":true,"region":"us-central","cc":"us","latitude":41.881832,"longitude":-87.62318,"reserved":0,"last_update":"0001-01-01T00:00:00Z","name_a2s":"Uncletopia | Chicago | 4 | All Maps","protocol":17,"map":"cp_sunshine","folder":"tf","game":"Team Fortress","app_id":440,"player_count":0,"max_players":24,"Bots":0,"server_type":"Dedicated","server_os":"Linux","password":true,"vac":true,"version":"7882260","steam_id":85568392924515193,"keywords":["cp","nocrits","nodmgspread","uncletopia"],"game_id":440,"stv_port":27046,"stv_name":"Uncletopia | Chicago | 4 | All Maps | STV","players":null},{"server_id":36,"name":"Uncletopia | Chicago | 5 | All Maps","name_short":"chi-5","host":"chi-2.us.uncletopia.com","port":27015,"enabled":true,"region":"us-central","cc":"us","latitude":41.881832,"longitude":-87.62318,"reserved":0,"last_update":"0001-01-01T00:00:00Z","name_a2s":"Uncletopia | Chicago | 5 | All Maps","protocol":17,"map":"pl_barnblitz","folder":"tf","game":"Team Fortress","app_id":440,"player_count":0,"max_players":24,"Bots":0,"server_type":"Dedicated","server_os":"Linux","password":true,"vac":true,"version":"7882260","steam_id":85568392924866362,"keywords":["nocrits","nodmgspread","payload","uncletopia"],"game_id":440,"stv_port":27016,"stv_name":"Uncletopia | Chicago | 5 | All Maps | STV","players":null},{"server_id":37,"name":"Uncletopia | Chicago | 6 | All Maps","name_short":"chi-6","host":"chi-2.us.uncletopia.com","port":27025,"enabled":true,"region":"us-central","cc":"us","latitude":41.881832,"longitude":-87.62318,"reserved":0,"last_update":"0001-01-01T00:00:00Z","name_a2s":"Uncletopia | Chicago | 6 | All Maps","protocol":17,"map":"koth_lakeside_final","folder":"tf","game":"Team Fortress","app_id":440,"player_count":0,"max_players":24,"Bots":0,"server_type":"Dedicated","server_os":"Linux","password":true,"vac":true,"version":"7882260","steam_id":85568392924866363,"keywords":["cp","nocrits","nodmgspread","uncletopia"],"game_id":440,"stv_port":27026,"stv_name":"Uncletopia | Chicago | 6 | All Maps | STV","players":null},{"server_id":38,"name":"Uncletopia | Chicago | 7 | Stopwatch Beta","name_short":"chi-7","host":"chi-2.us.uncletopia.com","port":27035,"enabled":true,"region":"us-central","cc":"us","latitude":41.881832,"longitude":-87.62318,"reserved":0,"last_update":"0001-01-01T00:00:00Z","name_a2s":"Uncletopia | Chicago | 7 | Stopwatch Beta","protocol":17,"map":"workshop/koth_bagel_rc6.ugc2514036946","folder":"tf","game":"Team Fortress","app_id":440,"player_count":0,"max_players":24,"Bots":0,"server_type":"Dedicated","server_os":"Linux","password":true,"vac":true,"version":"7882260","steam_id":85568392924866364,"keywords":["cp","nocrits","nodmgspread","uncletopia"],"game_id":440,"stv_port":27036,"stv_name":"Uncletopia | Chicago | 7 | Stopwatch Beta | STV","players":null},{"server_id":39,"name":"Uncletopia | Chicago | 8 | Community","name_short":"chi-8","host":"chi-2.us.uncletopia.com","port":27045,"enabled":true,"region":"us-central","cc":"us","latitude":41.881832,"longitude":-87.62318,"reserved":0,"last_update":"0001-01-01T00:00:00Z","name_a2s":"Uncletopia | Chicago | 8 | Community","protocol":17,"map":"workshop/pl_corrode_rc2.ugc546577989","folder":"tf","game":"Team Fortress","app_id":440,"player_count":0,"max_players":24,"Bots":0,"server_type":"Dedicated","server_os":"Linux","password":true,"vac":true,"version":"7882260","steam_id":85568392924866365,"keywords":["nocrits","nodmgspread","payload","uncletopia"],"game_id":440,"stv_port":27046,"stv_name":"Uncletopia | Chicago | 8 | Community | STV","players":null},{"server_id":8,"name":"Uncletopia | Dallas | 1 | All Maps","name_short":"dal-1","host":"dal-1.us.uncletopia.com","port":27015,"enabled":true,"region":"us-central","cc":"us","latitude":32.779167,"longitude":-96.80889,"reserved":0,"last_update":"0001-01-01T00:00:00Z","name_a2s":"Uncletopia | Dallas | 1 | All Maps","protocol":17,"map":"pl_swiftwater_final1","folder":"tf","game":"Team Fortress","app_id":440,"player_count":24,"max_players":24,"Bots":0,"server_type":"Dedicated","server_os":"Linux","password":true,"vac":true,"version":"7882260","steam_id":85568392924469986,"keywords":["nocrits","nodmgspread","payload","uncletopia"],"game_id":440,"stv_port":27016,"stv_name":"Uncletopia | Dallas | 1 | All Maps | STV","players":[{"user_id":881,"name":"PuncakeSweg","steam_id":76561198320053563,"connected_time":325000000000,"state":"active","ping":88},{"user_id":875,"name":"spreeeeeeeeeeeeeeeeeeeeeeeeeeee","steam_id":76561198319063082,"connected_time":541000000000,"state":"active","ping":75},{"user_id":874,"name":"boy from the rafters","steam_id":76561198042926224,"connected_time":719000000000,"state":"active","ping":78},{"user_id":873,"name":"ClutchSR","steam_id":76561199018366378,"connected_time":737000000000,"state":"active","ping":84},{"user_id":862,"name":"lentil","steam_id":76561198079359870,"connected_time":2189000000000,"state":"active","ping":96},{"user_id":863,"name":"vanilla linguine","steam_id":76561198155661890,"connected_time":2180000000000,"state":"active","ping":45},{"user_id":845,"name":"buRn","steam_id":76561198036563374,"connected_time":2876000000000,"state":"active","ping":82},{"user_id":865,"name":"Wandows95","steam_id":76561198029042032,"connected_time":1993000000000,"state":"active","ping":100},{"user_id":876,"name":"BorstchBag","steam_id":76561198155294045,"connected_time":413000000000,"state":"active","ping":108},{"user_id":849,"name":"BoX_hEaD101","steam_id":76561198200875467,"connected_time":2800000000000,"state":"active","ping":102},{"user_id":866,"name":"scuzzy","steam_id":76561198892494535,"connected_time":1983000000000,"state":"active","ping":99},{"user_id":779,"name":"LEEROY JENKINS","steam_id":76561199070160646,"connected_time":9203000000000,"state":"active","ping":121},{"user_id":867,"name":"24dustin1","steam_id":76561198059506390,"connected_time":1895000000000,"state":"active","ping":72},{"user_id":877,"name":"kat","steam_id":76561198121070295,"connected_time":413000000000,"state":"active","ping":99},{"user_id":856,"name":"Fake21","steam_id":76561198282065071,"connected_time":2653000000000,"state":"active","ping":50},{"user_id":846,"name":"OMNIBUS.CHUNGUS™","steam_id":76561197994827293,"connected_time":2860000000000,"state":"active","ping":98},{"user_id":872,"name":"Shortstop shooter |F2P|","steam_id":76561198834942997,"connected_time":1355000000000,"state":"active","ping":70},{"user_id":878,"name":"CreativeUsername","steam_id":76561198186045503,"connected_time":403000000000,"state":"active","ping":78},{"user_id":848,"name":"Chaos Sheep","steam_id":76561198065929922,"connected_time":2841000000000,"state":"active","ping":115},{"user_id":868,"name":"MasterGoop","steam_id":76561198285594777,"connected_time":1730000000000,"state":"active","ping":68},{"user_id":851,"name":"just like a cokey cola","steam_id":76561198046111695,"connected_time":2758000000000,"state":"active","ping":55},{"user_id":852,"name":"KOOLAID","steam_id":76561198062775462,"connected_time":2757000000000,"state":"active","ping":89},{"user_id":879,"name":"Lo-Pan","steam_id":76561198085670133,"connected_time":400000000000,"state":"active","ping":58},{"user_id":880,"name":"Orca?","steam_id":76561198164341099,"connected_time":351000000000,"state":"active","ping":78}]},{"server_id":108,"name":"Uncletopia | Dallas | 2 | All Maps","name_short":"dal-2","host":"dal-1.us.uncletopia.com","port":27025,"enabled":true,"region":"us-central","cc":"us","latitude":32.779167,"longitude":-96.80889,"reserved":0,"last_update":"0001-01-01T00:00:00Z","name_a2s":"Uncletopia | Dallas | 2 | All Maps","protocol":17,"map":"cp_gravelpit","folder":"tf","game":"Team Fortress","app_id":440,"player_count":21,"max_players":24,"Bots":0,"server_type":"Dedicated","server_os":"Linux","password":true,"vac":true,"version":"7882260","steam_id":85568392924469988,"keywords":["cp","nocrits","nodmgspread","uncletopia"],"game_id":440,"stv_port":27026,"stv_name":"Uncletopia | Dallas | 2 | All Maps | STV","players":[{"user_id":912,"name":"Xbox_Pro_2016","steam_id":76561198176126519,"connected_time":1876000000000,"state":"active","ping":90},{"user_id":901,"name":"kbsfnk","steam_id":76561198036884600,"connected_time":2906000000000,"state":"active","ping":82},{"user_id":925,"name":"Grand Wizard Autismo","steam_id":76561198069834979,"connected_time":225000000000,"state":"active","ping":60},{"user_id":887,"name":"CupOJo","steam_id":76561198067153390,"connected_time":3916000000000,"state":"active","ping":75},{"user_id":902,"name":"yo dude wtf thats crazy wow","steam_id":76561198077324655,"connected_time":2768000000000,"state":"active","ping":76},{"user_id":903,"name":"TheAsianMeatball","steam_id":76561198336926133,"connected_time":2689000000000,"state":"active","ping":65},{"user_id":913,"name":"patam :)","steam_id":76561199139871691,"connected_time":1815000000000,"state":"active","ping":78},{"user_id":915,"name":"BIGMACDINNER","steam_id":76561198035678747,"connected_time":1742000000000,"state":"active","ping":45},{"user_id":928,"name":"super mario","steam_id":76561199005805984,"connected_time":34000000000,"state":"spawning","ping":43},{"user_id":918,"name":"nell","steam_id":76561198136225723,"connected_time":545000000000,"state":"active","ping":71},{"user_id":883,"name":"robertJMP","steam_id":76561199066260919,"connected_time":4129000000000,"state":"active","ping":81},{"user_id":919,"name":"Tea-juice","steam_id":76561198045123757,"connected_time":529000000000,"state":"active","ping":78},{"user_id":920,"name":"James","steam_id":76561198077251918,"connected_time":518000000000,"state":"active","ping":89},{"user_id":921,"name":"Clear Sights","steam_id":76561198006215683,"connected_time":505000000000,"state":"active","ping":86},{"user_id":890,"name":"Purchase your tracks today","steam_id":76561198084422657,"connected_time":3718000000000,"state":"active","ping":84},{"user_id":924,"name":"BIG HOG","steam_id":76561198079923652,"connected_time":309000000000,"state":"active","ping":59},{"user_id":926,"name":"Mops","steam_id":76561198058213741,"connected_time":216000000000,"state":"active","ping":81},{"user_id":870,"name":"Pom Pom Super Bomb","steam_id":76561198132316905,"connected_time":5728000000000,"state":"active","ping":58},{"user_id":927,"name":"Where The F**K I Am?","steam_id":76561197986530028,"connected_time":209000000000,"state":"active","ping":89},{"user_id":911,"name":"CheeseLikeSubstance","steam_id":76561197977170646,"connected_time":2123000000000,"state":"active","ping":70},{"user_id":917,"name":"Rubeb","steam_id":76561198179489037,"connected_time":696000000000,"state":"active","ping":74}]},{"server_id":5,"name":"Uncletopia | Frankfurt | 1 | All Maps","name_short":"frk-1","host":"frk-1.de.uncletopia.com","port":27015,"enabled":true,"region":"eu","cc":"de","latitude":50.110924,"longitude":8.682127,"reserved":0,"last_update":"0001-01-01T00:00:00Z","name_a2s":"Uncletopia | Frankfurt | 1 | All Maps","protocol":17,"map":"cp_snakewater_final1","folder":"tf","game":"Team Fortress","app_id":440,"player_count":0,"max_players":24,"Bots":0,"server_type":"Dedicated","server_os":"Linux","password":true,"vac":true,"version":"7882260","steam_id":85568392924469989,"keywords":["cp","nocrits","nodmgspread","uncletopia"],"game_id":440,"stv_port":27016,"stv_name":"Uncletopia | Frankfurt | 1 | All Maps | STV","players":null},{"server_id":110,"name":"Uncletopia | Frankfurt | 2 | All Maps","name_short":"frk-2","host":"frk-1.de.uncletopia.com","port":27025,"enabled":true,"region":"eu","cc":"de","latitude":50.110924,"longitude":8.682127,"reserved":0,"last_update":"0001-01-01T00:00:00Z","name_a2s":"Uncletopia | Frankfurt | 2 | All Maps","protocol":17,"map":"pl_swiftwater_final1","folder":"tf","game":"Team Fortress","app_id":440,"player_count":10,"max_players":24,"Bots":0,"server_type":"Dedicated","server_os":"Linux","password":true,"vac":true,"version":"7882260","steam_id":85568392924469990,"keywords":["nocrits","nodmgspread","payload","uncletopia"],"game_id":440,"stv_port":27026,"stv_name":"Uncletopia | Frankfurt | 2 | All Maps | STV","players":[{"user_id":3,"name":"Banana Hoovy 2 9 0","steam_id":76561199167881489,"connected_time":1390000000000,"state":"active","ping":99},{"user_id":4,"name":"just_adhenz1284 #SaveTF2","steam_id":76561198293654671,"connected_time":1387000000000,"state":"active","ping":150},{"user_id":5,"name":"ASS?!?!?!?!?","steam_id":76561199159262388,"connected_time":1373000000000,"state":"active","ping":84},{"user_id":6,"name":"Vitamin Weee","steam_id":76561199183937747,"connected_time":1104000000000,"state":"active","ping":77},{"user_id":7,"name":"Mr. Shadow | Folfie","steam_id":76561198037028507,"connected_time":1097000000000,"state":"active","ping":46},{"user_id":15,"name":"$t@lker_Tim","steam_id":76561198963658042,"connected_time":298000000000,"state":"active","ping":111},{"user_id":9,"name":"Mr Stonkles","steam_id":76561198397163021,"connected_time":972000000000,"state":"active","ping":518},{"user_id":10,"name":"fried","steam_id":76561198307522022,"connected_time":808000000000,"state":"active","ping":59},{"user_id":16,"name":".::[SerafeTTiN]::.","steam_id":76561198009471724,"connected_time":30000000000,"state":"active","ping":89},{"user_id":13,"name":"Yuzu","steam_id":76561198121694613,"connected_time":583000000000,"state":"active","ping":52}]},{"server_id":308,"name":"Uncletopia | Frankfurt | 3 | All Maps","name_short":"frk-3","host":"frk-1.de.uncletopia.com","port":27035,"enabled":true,"region":"eu","cc":"de","latitude":50.110924,"longitude":8.682127,"reserved":0,"last_update":"0001-01-01T00:00:00Z","name_a2s":"Uncletopia | Frankfurt | 3 | All Maps","protocol":17,"map":"pl_snowycoast","folder":"tf","game":"Team Fortress","app_id":440,"player_count":0,"max_players":24,"Bots":0,"server_type":"Dedicated","server_os":"Linux","password":true,"vac":true,"version":"7882260","steam_id":85568392924504274,"keywords":["nocrits","nodmgspread","payload","uncletopia"],"game_id":440,"stv_port":27036,"stv_name":"Uncletopia | Frankfurt | 3 | All Maps | STV","players":null},{"server_id":309,"name":"Uncletopia | Frankfurt | 4 | All Maps","name_short":"frk-4","host":"frk-1.de.uncletopia.com","port":27045,"enabled":true,"region":"eu","cc":"de","latitude":50.110924,"longitude":8.682127,"reserved":0,"last_update":"0001-01-01T00:00:00Z","name_a2s":"Uncletopia | Frankfurt | 4 | All Maps","protocol":17,"map":"koth_viaduct","folder":"tf","game":"Team Fortress","app_id":440,"player_count":0,"max_players":24,"Bots":0,"server_type":"Dedicated","server_os":"Linux","password":true,"vac":true,"version":"7882260","steam_id":85568392924504275,"keywords":["cp","nocrits","nodmgspread","uncletopia"],"game_id":440,"stv_port":27046,"stv_name":"Uncletopia | Frankfurt | 4 | All Maps | STV","players":null},{"server_id":310,"name":"Uncletopia | Frankfurt | 5 | All Maps","name_short":"frk-5","host":"frk-1.de.uncletopia.com","port":27055,"enabled":true,"region":"eu","cc":"de","latitude":50.110924,"longitude":8.682127,"reserved":0,"last_update":"0001-01-01T00:00:00Z","name_a2s":"Uncletopia | Frankfurt | 5 | All Maps","protocol":17,"map":"pl_frontier_final","folder":"tf","game":"Team Fortress","app_id":440,"player_count":0,"max_players":24,"Bots":0,"server_type":"Dedicated","server_os":"Linux","password":true,"vac":true,"version":"7882260","steam_id":85568392924504277,"keywords":["nocrits","nodmgspread","payload","uncletopia"],"game_id":440,"stv_port":27056,"stv_name":"Uncletopia | Frankfurt | 5 | All Maps | STV","players":null},{"server_id":311,"name":"Uncletopia | Frankfurt | 6 | All Maps","name_short":"frk-6","host":"frk-1.de.uncletopia.com","port":27065,"enabled":true,"region":"eu","cc":"de","latitude":50.110924,"longitude":8.682127,"reserved":0,"last_update":"0001-01-01T00:00:00Z","name_a2s":"Uncletopia | Frankfurt | 6 | All Maps","protocol":17,"map":"pl_upward","folder":"tf","game":"Team Fortress","app_id":440,"player_count":0,"max_players":24,"Bots":0,"server_type":"Dedicated","server_os":"Linux","password":true,"vac":true,"version":"7882260","steam_id":85568392924504278,"keywords":["nocrits","nodmgspread","payload","uncletopia"],"game_id":440,"stv_port":27066,"stv_name":"Uncletopia | Frankfurt | 6 | All Maps | STV","players":null},{"server_id":23,"name":"Uncletopia | Frankfurt | 7 | Stopwatch Beta","name_short":"frk-7","host":"frk-1.de.uncletopia.com","port":27075,"enabled":true,"region":"eu","cc":"de","latitude":50.110924,"longitude":8.682127,"reserved":0,"last_update":"0001-01-01T00:00:00Z","name_a2s":"Uncletopia | Frankfurt | 7 | Stopwatch Beta","protocol":17,"map":"cp_dustbowl","folder":"tf","game":"Team Fortress","app_id":440,"player_count":0,"max_players":24,"Bots":0,"server_type":"Dedicated","server_os":"Linux","password":true,"vac":true,"version":"7882260","steam_id":85568392924742827,"keywords":["cp","nocrits","nodmgspread","uncletopia"],"game_id":440,"stv_port":27076,"stv_name":"Uncletopia | Frankfurt | 7 | Stopwatch Beta | STV","players":null},{"server_id":24,"name":"Uncletopia | Frankfurt | 8 | Community","name_short":"frk-8","host":"frk-1.de.uncletopia.com","port":27085,"enabled":true,"region":"eu","cc":"de","latitude":50.110924,"longitude":8.682127,"reserved":0,"last_update":"0001-01-01T00:00:00Z","name_a2s":"Uncletopia | Frankfurt | 8 | Community","protocol":17,"map":"koth_cascade","folder":"tf","game":"Team Fortress","app_id":440,"player_count":0,"max_players":24,"Bots":0,"server_type":"Dedicated","server_os":"Linux","password":true,"vac":true,"version":"7882260","steam_id":85568392924742828,"keywords":["cp","nocrits","nodmgspread","uncletopia"],"game_id":440,"stv_port":27086,"stv_name":"Uncletopia | Frankfurt | 8 | Community | STV","players":null},{"server_id":202,"name":"Uncletopia | Hong Kong | 1 | All Maps","name_short":"hgk-1","host":"hgk-1.hk.uncletopia.com","port":27015,"enabled":true,"region":"asia","cc":"hk","latitude":22.302711,"longitude":114.177216,"reserved":0,"last_update":"0001-01-01T00:00:00Z","name_a2s":"Uncletopia | Hong Kong | 1 | All Maps","protocol":17,"map":"pl_upward","folder":"tf","game":"Team Fortress","app_id":440,"player_count":24,"max_players":24,"Bots":0,"server_type":"Dedicated","server_os":"Linux","password":true,"vac":true,"version":"7882260","steam_id":85568392924494504,"keywords":["nocrits","nodmgspread","payload","uncletopia"],"game_id":440,"stv_port":27016,"stv_name":"Uncletopia | Hong Kong | 1 | All Maps | STV","players":[{"user_id":143,"name":"Bepo","steam_id":76561198136685157,"connected_time":412000000000,"state":"active","ping":54},{"user_id":74,"name":"PJ ^^","steam_id":76561198041371593,"connected_time":7270000000000,"state":"active","ping":151},{"user_id":123,"name":"Puddin","steam_id":76561198140052918,"connected_time":2189000000000,"state":"active","ping":97},{"user_id":107,"name":"Butterfly Balls","steam_id":76561199151801550,"connected_time":4362000000000,"state":"active","ping":108},{"user_id":116,"name":"moth","steam_id":76561198216779259,"connected_time":2615000000000,"state":"active","ping":67},{"user_id":119,"name":"Viola","steam_id":76561198077834576,"connected_time":2218000000000,"state":"active","ping":98},{"user_id":141,"name":"proballyagamer *********_com","steam_id":76561199098238135,"connected_time":715000000000,"state":"active","ping":159},{"user_id":93,"name":"tox1c","steam_id":76561199013786270,"connected_time":5538000000000,"state":"active","ping":65},{"user_id":80,"name":"eekynetwo(F2P Piss Sniper)","steam_id":76561198990017441,"connected_time":6807000000000,"state":"active","ping":94},{"user_id":138,"name":"캐르릉","steam_id":76561198198798487,"connected_time":1291000000000,"state":"active","ping":73},{"user_id":47,"name":"Samoyed","steam_id":76561198299150410,"connected_time":9300000000000,"state":"active","ping":100},{"user_id":144,"name":"TomProPlayer","steam_id":76561199223292521,"connected_time":27000000000,"state":"active","ping":73},{"user_id":139,"name":"Bale","steam_id":76561198000677600,"connected_time":1243000000000,"state":"active","ping":82},{"user_id":134,"name":"Wx","steam_id":76561199217780897,"connected_time":1580000000000,"state":"active","ping":118},{"user_id":38,"name":"cstr","steam_id":76561198125946388,"connected_time":9531000000000,"state":"active","ping":88},{"user_id":121,"name":"Canon_Fodder","steam_id":76561199132789484,"connected_time":2202000000000,"state":"active","ping":144},{"user_id":127,"name":"ksvk","steam_id":76561198152588681,"connected_time":2108000000000,"state":"active","ping":85},{"user_id":140,"name":"walid","steam_id":76561198395530753,"connected_time":1229000000000,"state":"active","ping":143},{"user_id":43,"name":"urotsuki with da doobie","steam_id":76561198074339034,"connected_time":9431000000000,"state":"active","ping":74},{"user_id":103,"name":"PissDrinker98","steam_id":76561198856157761,"connected_time":4603000000000,"state":"active","ping":103},{"user_id":130,"name":"isabelle is a bell","steam_id":76561198090739116,"connected_time":1870000000000,"state":"active","ping":88},{"user_id":142,"name":"i am a F2P and my aim is shit","steam_id":76561199475974790,"connected_time":512000000000,"state":"active","ping":93},{"user_id":106,"name":"Floyd","steam_id":76561198107932860,"connected_time":4499000000000,"state":"active","ping":172},{"user_id":135,"name":"daigennki","steam_id":76561198046328609,"connected_time":1574000000000,"state":"active","ping":104}]},{"server_id":1,"name":"Uncletopia | Los Angeles | 1 | All Maps","name_short":"lax-1","host":"lax-1.us.uncletopia.com","port":27015,"enabled":true,"region":"us-west","cc":"us","latitude":33.94279,"longitude":-118.41004,"reserved":0,"last_update":"0001-01-01T00:00:00Z","name_a2s":"Uncletopia | Los Angeles | 1 | All Maps","protocol":17,"map":"pl_upward","folder":"tf","game":"Team Fortress","app_id":440,"player_count":20,"max_players":24,"Bots":0,"server_type":"Dedicated","server_os":"Linux","password":true,"vac":true,"version":"7882260","steam_id":85568392924469991,"keywords":["nocrits","nodmgspread","payload","uncletopia"],"game_id":440,"stv_port":27016,"stv_name":"Uncletopia | Los Angeles | 1 | All Maps | STV","players":[{"user_id":966,"name":"Sunny","steam_id":76561198261667312,"connected_time":2547000000000,"state":"active","ping":70},{"user_id":994,"name":"Cypress [ +/- ] ✔","steam_id":76561198067164431,"connected_time":157000000000,"state":"active","ping":33},{"user_id":995,"name":"DOPEam1ne","steam_id":76561198112204774,"connected_time":150000000000,"state":"active","ping":52},{"user_id":961,"name":"Dee Dee","steam_id":76561198238859416,"connected_time":3909000000000,"state":"active","ping":67},{"user_id":978,"name":"Rigby","steam_id":76561198131652100,"connected_time":1336000000000,"state":"active","ping":90},{"user_id":997,"name":"crouton.net","steam_id":76561198068374646,"connected_time":109000000000,"state":"active","ping":61},{"user_id":967,"name":"blue of days","steam_id":76561199113013688,"connected_time":2537000000000,"state":"active","ping":52},{"user_id":996,"name":"BurritoCat","steam_id":76561198059822805,"connected_time":149000000000,"state":"active","ping":133},{"user_id":998,"name":"Knavish","steam_id":76561198073434372,"connected_time":90000000000,"state":"active","ping":51},{"user_id":986,"name":"Moffein","steam_id":76561198016739296,"connected_time":1061000000000,"state":"active","ping":51},{"user_id":883,"name":"I pocket eboys *♥‧₊˚","steam_id":76561198048925904,"connected_time":8978000000000,"state":"active","ping":58},{"user_id":952,"name":"nescoceo","steam_id":76561198040801160,"connected_time":4455000000000,"state":"active","ping":46},{"user_id":981,"name":"Chombo","steam_id":76561198165403555,"connected_time":1251000000000,"state":"active","ping":86},{"user_id":977,"name":"zpalmtree","steam_id":76561198134307620,"connected_time":1347000000000,"state":"active","ping":124},{"user_id":982,"name":"ghor","steam_id":76561197994547132,"connected_time":1248000000000,"state":"active","ping":66},{"user_id":987,"name":"The Squeeble","steam_id":76561198881635850,"connected_time":967000000000,"state":"active","ping":106},{"user_id":983,"name":"Vannii","steam_id":76561198215657985,"connected_time":1228000000000,"state":"active","ping":166},{"user_id":993,"name":"Peter, what are you doing?","steam_id":76561198066452726,"connected_time":162000000000,"state":"active","ping":46},{"user_id":951,"name":"Gavial the Invincible","steam_id":76561198348354629,"connected_time":4583000000000,"state":"active","ping":41},{"user_id":984,"name":"Rasputia","steam_id":76561198132051047,"connected_time":1226000000000,"state":"active","ping":72}]},{"server_id":112,"name":"Uncletopia | Los Angeles | 2 | All Maps","name_short":"lax-2","host":"lax-1.us.uncletopia.com","port":27025,"enabled":true,"region":"us-west","cc":"us","latitude":33.94279,"longitude":-118.41004,"reserved":0,"last_update":"0001-01-01T00:00:00Z","name_a2s":"Uncletopia | Los Angeles | 2 | All Maps","protocol":17,"map":"plr_pipeline","folder":"tf","game":"Team Fortress","app_id":440,"player_count":4,"max_players":24,"Bots":0,"server_type":"Dedicated","server_os":"Linux","password":true,"vac":true,"version":"7882260","steam_id":85568392924469992,"keywords":["nocrits","nodmgspread","payload","uncletopia"],"game_id":440,"stv_port":27026,"stv_name":"Uncletopia | Los Angeles | 2 | All Maps | STV","players":[{"user_id":571,"name":"Mozz","steam_id":76561198132892873,"connected_time":776000000000,"state":"active","ping":85},{"user_id":560,"name":"BadTad","steam_id":76561198947252709,"connected_time":1449000000000,"state":"active","ping":48},{"user_id":537,"name":"MithStyck","steam_id":76561198071538489,"connected_time":3438000000000,"state":"active","ping":103},{"user_id":556,"name":"sincerelymagicmeister","steam_id":76561198393923543,"connected_time":1832000000000,"state":"active","ping":58}]},{"server_id":324,"name":"Uncletopia | Los Angeles | 3 | All Maps","name_short":"lax-3","host":"lax-1.us.uncletopia.com","port":27035,"enabled":true,"region":"us-west","cc":"us","latitude":33.94279,"longitude":-118.41004,"reserved":0,"last_update":"0001-01-01T00:00:00Z","name_a2s":"Uncletopia | Los Angeles | 3 | All Maps","protocol":17,"map":"pl_snowycoast","folder":"tf","game":"Team Fortress","app_id":440,"player_count":0,"max_players":24,"Bots":0,"server_type":"Dedicated","server_os":"Linux","password":true,"vac":true,"version":"7882260","steam_id":85568392924510198,"keywords":["nocrits","nodmgspread","payload","uncletopia"],"game_id":440,"stv_port":27036,"stv_name":"Uncletopia | Los Angeles | 3 | All Maps | STV","players":null},{"server_id":25,"name":"Uncletopia | Los Angeles | 4 | Stopwatch Beta","name_short":"lax-4","host":"lax-1.us.uncletopia.com","port":27045,"enabled":true,"region":"us-west","cc":"us","latitude":33.94279,"longitude":-118.41004,"reserved":0,"last_update":"0001-01-01T00:00:00Z","name_a2s":"Uncletopia | Los Angeles | 4 | Stopwatch Beta","protocol":17,"map":"workshop/koth_clearcut_b15.ugc2107050255","folder":"tf","game":"Team Fortress","app_id":440,"player_count":0,"max_players":24,"Bots":0,"server_type":"Dedicated","server_os":"Linux","password":true,"vac":true,"version":"7882260","steam_id":85568392924510199,"keywords":["cp","nocrits","nodmgspread","uncletopia"],"game_id":440,"stv_port":27046,"stv_name":"Uncletopia | Los Angeles | 4 | Stopwatch Beta | STV","players":null},{"server_id":11,"name":"Uncletopia | London | 1 | All Maps","name_short":"lon-1","host":"lon-1.uk.uncletopia.com","port":27015,"enabled":true,"region":"eu","cc":"gb","latitude":51.509865,"longitude":-0.118092,"reserved":0,"last_update":"0001-01-01T00:00:00Z","name_a2s":"Uncletopia | London | 1 | All Maps","protocol":17,"map":"koth_highpass","folder":"tf","game":"Team Fortress","app_id":440,"player_count":0,"max_players":24,"Bots":0,"server_type":"Dedicated","server_os":"Linux","password":true,"vac":true,"version":"7882260","steam_id":85568392924367362,"keywords":["cp","nocrits","nodmgspread","uncletopia"],"game_id":440,"stv_port":27016,"stv_name":"Uncletopia | London | 1 | All Maps | STV","players":null},{"server_id":114,"name":"Uncletopia | London | 2 | All Maps","name_short":"lon-2","host":"lon-1.uk.uncletopia.com","port":27025,"enabled":true,"region":"eu","cc":"gb","latitude":51.509865,"longitude":-0.118092,"reserved":0,"last_update":"0001-01-01T00:00:00Z","name_a2s":"Uncletopia | London | 2 | All Maps","protocol":17,"map":"pl_swiftwater_final1","folder":"tf","game":"Team Fortress","app_id":440,"player_count":0,"max_players":24,"Bots":0,"server_type":"Dedicated","server_os":"Linux","password":true,"vac":true,"version":"7882260","steam_id":85568392924470941,"keywords":["nocrits","nodmgspread","payload","uncletopia"],"game_id":440,"stv_port":27026,"stv_name":"Uncletopia | London | 2 | All Maps | STV","players":null},{"server_id":320,"name":"Uncletopia | London | 3 | All Maps","name_short":"lon-3","host":"lon-1.uk.uncletopia.com","port":27035,"enabled":true,"region":"eu","cc":"gb","latitude":51.509865,"longitude":-0.118092,"reserved":0,"last_update":"0001-01-01T00:00:00Z","name_a2s":"Uncletopia | London | 3 | All Maps","protocol":17,"map":"pl_upward","folder":"tf","game":"Team Fortress","app_id":440,"player_count":24,"max_players":24,"Bots":0,"server_type":"Dedicated","server_os":"Linux","password":true,"vac":true,"version":"7882260","steam_id":85568392924510192,"keywords":["nocrits","nodmgspread","payload","uncletopia"],"game_id":440,"stv_port":27036,"stv_name":"Uncletopia | London | 3 | All Maps | STV","players":[{"user_id":122,"name":"Penguinmark","steam_id":76561199057089501,"connected_time":334000000000,"state":"active","ping":122},{"user_id":121,"name":"[Z7]DrNo","steam_id":76561197969376290,"connected_time":517000000000,"state":"active","ping":67},{"user_id":74,"name":"Madokanon","steam_id":76561199392794183,"connected_time":4438000000000,"state":"active","ping":104},{"user_id":120,"name":"Luxotrics","steam_id":76561198053455161,"connected_time":607000000000,"state":"active","ping":89},{"user_id":107,"name":"Emiljosen","steam_id":76561198353691583,"connected_time":1605000000000,"state":"active","ping":60},{"user_id":100,"name":"phantASSm","steam_id":76561199480942903,"connected_time":1925000000000,"state":"active","ping":76},{"user_id":37,"name":"It's time","steam_id":76561198061197114,"connected_time":7715000000000,"state":"active","ping":80},{"user_id":35,"name":"Kenopsia","steam_id":76561198126750888,"connected_time":7960000000000,"state":"active","ping":89},{"user_id":123,"name":"i am the one who knocks","steam_id":76561198263228457,"connected_time":273000000000,"state":"active","ping":85},{"user_id":117,"name":"Holy f stewie, I am shitting.","steam_id":76561198147173457,"connected_time":828000000000,"state":"active","ping":78},{"user_id":115,"name":"cry a little, cry a lot","steam_id":76561198039472276,"connected_time":1033000000000,"state":"active","ping":74},{"user_id":14,"name":"Sandinho","steam_id":76561198057827498,"connected_time":9814000000000,"state":"active","ping":53},{"user_id":124,"name":"zucc's zuccini","steam_id":76561198002451113,"connected_time":155000000000,"state":"active","ping":93},{"user_id":16,"name":"Enigmus","steam_id":76561197994063627,"connected_time":9628000000000,"state":"active","ping":105},{"user_id":111,"name":"Kahvi","steam_id":76561198723244199,"connected_time":1485000000000,"state":"active","ping":75},{"user_id":119,"name":"Xriasp","steam_id":76561198104721321,"connected_time":757000000000,"state":"active","ping":77},{"user_id":95,"name":"Desj","steam_id":76561198114212636,"connected_time":2299000000000,"state":"active","ping":54},{"user_id":89,"name":"GetFok","steam_id":76561199213783029,"connected_time":2966000000000,"state":"active","ping":109},{"user_id":87,"name":"gimmick","steam_id":76561198930670117,"connected_time":3172000000000,"state":"active","ping":41},{"user_id":44,"name":"Hardy Rose","steam_id":76561197994099242,"connected_time":7156000000000,"state":"active","ping":83},{"user_id":110,"name":"Spinyapickle","steam_id":76561198086653667,"connected_time":1522000000000,"state":"active","ping":51},{"user_id":105,"name":"Fat Pigeon","steam_id":76561198817940142,"connected_time":1651000000000,"state":"active","ping":45},{"user_id":106,"name":"patch","steam_id":76561198111807532,"connected_time":1626000000000,"state":"active","ping":59},{"user_id":114,"name":"Lord of Beans","steam_id":76561198283379801,"connected_time":1130000000000,"state":"active","ping":119}]},{"server_id":321,"name":"Uncletopia | London | 4 | All Maps","name_short":"lon-4","host":"lon-1.uk.uncletopia.com","port":27045,"enabled":true,"region":"eu","cc":"gb","latitude":51.509865,"longitude":-0.118092,"reserved":0,"last_update":"0001-01-01T00:00:00Z","name_a2s":"Uncletopia | London | 4 | All Maps","protocol":17,"map":"cp_altitude","folder":"tf","game":"Team Fortress","app_id":440,"player_count":0,"max_players":24,"Bots":0,"server_type":"Dedicated","server_os":"Linux","password":true,"vac":true,"version":"7882260","steam_id":85568392924510193,"keywords":["cp","nocrits","nodmgspread","uncletopia"],"game_id":440,"stv_port":27046,"stv_name":"Uncletopia | London | 4 | All Maps | STV","players":null},{"server_id":21,"name":"Uncletopia | London | 5 | All Maps","name_short":"lon-5","host":"lon-1.uk.uncletopia.com","port":27055,"enabled":true,"region":"eu","cc":"gb","latitude":51.509865,"longitude":-0.118092,"reserved":0,"last_update":"0001-01-01T00:00:00Z","name_a2s":"Uncletopia | London | 5 | All Maps","protocol":17,"map":"pl_frontier_final","folder":"tf","game":"Team Fortress","app_id":440,"player_count":0,"max_players":24,"Bots":0,"server_type":"Dedicated","server_os":"Linux","password":true,"vac":true,"version":"7882260","steam_id":85568392924742829,"keywords":["nocrits","nodmgspread","payload","uncletopia"],"game_id":440,"stv_port":27056,"stv_name":"Uncletopia | London | 5 | All Maps | STV","players":null},{"server_id":22,"name":"Uncletopia | London | 6 | All Maps","name_short":"lon-6","host":"lon-1.uk.uncletopia.com","port":27065,"enabled":true,"region":"eu","cc":"gb","latitude":51.509865,"longitude":-0.118092,"reserved":0,"last_update":"0001-01-01T00:00:00Z","name_a2s":"Uncletopia | London | 6 | All Maps","protocol":17,"map":"cp_altitude","folder":"tf","game":"Team Fortress","app_id":440,"player_count":0,"max_players":24,"Bots":0,"server_type":"Dedicated","server_os":"Linux","password":true,"vac":true,"version":"7882260","steam_id":85568392924742830,"keywords":["cp","nocrits","nodmgspread","uncletopia"],"game_id":440,"stv_port":27066,"stv_name":"Uncletopia | London | 6 | All Maps | STV","players":null},{"server_id":40,"name":"Uncletopia | London | 7 | No Payload","name_short":"lon-7","host":"lon-1.uk.uncletopia.com","port":27075,"enabled":true,"region":"eu","cc":"gb","latitude":51.509865,"longitude":-0.118092,"reserved":0,"last_update":"0001-01-01T00:00:00Z","name_a2s":"Uncletopia | London | 7 | No Payload","protocol":17,"map":"pl_pier","folder":"tf","game":"Team Fortress","app_id":440,"player_count":0,"max_players":24,"Bots":0,"server_type":"Dedicated","server_os":"Linux","password":true,"vac":true,"version":"7882260","steam_id":85568392924964314,"keywords":["nocrits","nodmgspread","payload","uncletopia"],"game_id":440,"stv_port":27076,"stv_name":"Uncletopia | London | 7 | No Payload | STV","players":null},{"server_id":41,"name":"Uncletopia | London | 8 | Community","name_short":"lon-8","host":"lon-1.uk.uncletopia.com","port":27085,"enabled":true,"region":"eu","cc":"gb","latitude":51.509865,"longitude":-0.118092,"reserved":0,"last_update":"0001-01-01T00:00:00Z","name_a2s":"Uncletopia | London | 8 | Community","protocol":17,"map":"pl_swiftwater_final1","folder":"tf","game":"Team Fortress","app_id":440,"player_count":0,"max_players":24,"Bots":0,"server_type":"Dedicated","server_os":"Linux","password":true,"vac":true,"version":"7882260","steam_id":85568392924964315,"keywords":["nocrits","nodmgspread","payload","uncletopia"],"game_id":440,"stv_port":27086,"stv_name":"Uncletopia | London | 8 | Community | STV","players":null},{"server_id":300,"name":"Uncletopia | Montréal | 1 | All Maps","name_short":"mtl-1","host":"mtl-1.ca.uncletopia.com","port":27015,"enabled":true,"region":"us-east","cc":"ca","latitude":45.50889,"longitude":-73.56167,"reserved":0,"last_update":"0001-01-01T00:00:00Z","name_a2s":"Uncletopia | Montréal | 1 | All Maps","protocol":17,"map":"cp_mountainlab","folder":"tf","game":"Team Fortress","app_id":440,"player_count":0,"max_players":24,"Bots":0,"server_type":"Dedicated","server_os":"Linux","password":true,"vac":true,"version":"7882260","steam_id":85568392924500087,"keywords":["cp","nocrits","nodmgspread","uncletopia"],"game_id":440,"stv_port":27016,"stv_name":"Uncletopia | Montréal | 1 | All Maps | STV","players":null},{"server_id":301,"name":"Uncletopia | Montréal | 2 | All Maps","name_short":"mtl-2","host":"mtl-1.ca.uncletopia.com","port":27025,"enabled":true,"region":"us-east","cc":"ca","latitude":45.50889,"longitude":-73.56167,"reserved":0,"last_update":"0001-01-01T00:00:00Z","name_a2s":"Uncletopia | Montréal | 2 | All Maps","protocol":17,"map":"koth_highpass","folder":"tf","game":"Team Fortress","app_id":440,"player_count":0,"max_players":24,"Bots":0,"server_type":"Dedicated","server_os":"Linux","password":true,"vac":true,"version":"7882260","steam_id":85568392924500088,"keywords":["cp","nocrits","nodmgspread","uncletopia"],"game_id":440,"stv_port":27026,"stv_name":"Uncletopia | Montréal | 2 | All Maps | STV","players":null},{"server_id":302,"name":"Uncletopia | Montréal | 3 | All Maps","name_short":"mtl-3","host":"mtl-1.ca.uncletopia.com","port":27035,"enabled":true,"region":"us-east","cc":"ca","latitude":45.50889,"longitude":-73.56167,"reserved":0,"last_update":"0001-01-01T00:00:00Z","name_a2s":"Uncletopia | Montréal | 3 | All Maps","protocol":17,"map":"pl_swiftwater_final1","folder":"tf","game":"Team Fortress","app_id":440,"player_count":0,"max_players":24,"Bots":0,"server_type":"Dedicated","server_os":"Linux","password":true,"vac":true,"version":"7882260","steam_id":85568392924500089,"keywords":["nocrits","nodmgspread","payload","uncletopia"],"game_id":440,"stv_port":27036,"stv_name":"Uncletopia | Montréal | 3 | All Maps | STV","players":null},{"server_id":303,"name":"Uncletopia | Montréal | 4 | No Payload","name_short":"mtl-4","host":"mtl-1.ca.uncletopia.com","port":27045,"enabled":true,"region":"us-east","cc":"ca","latitude":45.50889,"longitude":-73.56167,"reserved":0,"last_update":"0001-01-01T00:00:00Z","name_a2s":"Uncletopia | Montréal | 4 | No Payload","protocol":17,"map":"plr_nightfall_final","folder":"tf","game":"Team Fortress","app_id":440,"player_count":0,"max_players":24,"Bots":0,"server_type":"Dedicated","server_os":"Linux","password":true,"vac":true,"version":"7882260","steam_id":85568392924500090,"keywords":["nocrits","nodmgspread","payload","uncletopia"],"game_id":440,"stv_port":27046,"stv_name":"Uncletopia | Montréal | 4 | No Payload | STV","players":null},{"server_id":13,"name":"Uncletopia | New York City | 1 | All Maps","name_short":"nyc-1","host":"nyc-1.us.uncletopia.com","port":27015,"enabled":true,"region":"us-east","cc":"us","latitude":40.73061,"longitude":-73.93524,"reserved":0,"last_update":"0001-01-01T00:00:00Z","name_a2s":"Uncletopia | New York City | 1 | All Maps","protocol":17,"map":"pl_swiftwater_final1","folder":"tf","game":"Team Fortress","app_id":440,"player_count":21,"max_players":24,"Bots":0,"server_type":"Dedicated","server_os":"Linux","password":true,"vac":true,"version":"7882260","steam_id":85568392924469993,"keywords":["nocrits","nodmgspread","payload","uncletopia"],"game_id":440,"stv_port":27016,"stv_name":"Uncletopia | New York City | 1 | All Maps | STV","players":[{"user_id":706,"name":"lond","steam_id":76561197961097186,"connected_time":1181000000000,"state":"active","ping":108},{"user_id":687,"name":"Fishandfish","steam_id":76561198298483804,"connected_time":2929000000000,"state":"active","ping":105},{"user_id":715,"name":"Teenkling","steam_id":76561198842565303,"connected_time":214000000000,"state":"active","ping":142},{"user_id":716,"name":"the tf2 player of all time","steam_id":76561198881665250,"connected_time":143000000000,"state":"active","ping":106},{"user_id":717,"name":"Catass","steam_id":76561198255802361,"connected_time":84000000000,"state":"active","ping":64},{"user_id":592,"name":"Agent Nibbles","steam_id":76561198465061146,"connected_time":11360000000000,"state":"active","ping":69},{"user_id":712,"name":"gamer","steam_id":76561199121842872,"connected_time":466000000000,"state":"active","ping":131},{"user_id":691,"name":"Anxiety","steam_id":76561198365627687,"connected_time":2804000000000,"state":"active","ping":134},{"user_id":702,"name":"Atlas","steam_id":76561198127975050,"connected_time":1900000000000,"state":"active","ping":71},{"user_id":707,"name":"Trash Rummager","steam_id":76561198085388962,"connected_time":957000000000,"state":"active","ping":60},{"user_id":671,"name":"SnowflakeSnake","steam_id":76561198140428563,"connected_time":3806000000000,"state":"active","ping":60},{"user_id":709,"name":"[_Dr.Scythe_]","steam_id":76561198845245858,"connected_time":849000000000,"state":"active","ping":109},{"user_id":672,"name":"HeavenHearst","steam_id":76561198066083947,"connected_time":3772000000000,"state":"active","ping":54},{"user_id":718,"name":"PrinceGeser","steam_id":76561197973759697,"connected_time":21000000000,"state":"spawning","ping":45},{"user_id":703,"name":"Rei Ayanami","steam_id":76561198853092631,"connected_time":1871000000000,"state":"active","ping":88},{"user_id":694,"name":"xd Clover","steam_id":76561198038905361,"connected_time":2736000000000,"state":"active","ping":50},{"user_id":659,"name":"I hate you","steam_id":76561198057988642,"connected_time":4415000000000,"state":"active","ping":44},{"user_id":660,"name":"Blue Panda","steam_id":76561198161208329,"connected_time":4401000000000,"state":"active","ping":63},{"user_id":661,"name":"Pankeki","steam_id":76561198365941368,"connected_time":4378000000000,"state":"active","ping":83},{"user_id":710,"name":"Artic_Ryuu","steam_id":76561198182194918,"connected_time":847000000000,"state":"active","ping":104},{"user_id":711,"name":"The Great Eagle Scourge of 1822","steam_id":76561198325086209,"connected_time":792000000000,"state":"active","ping":128}]},{"server_id":14,"name":"Uncletopia | New York City | 2 | All Maps","name_short":"nyc-2","host":"nyc-1.us.uncletopia.com","port":27025,"enabled":true,"region":"us-east","cc":"us","latitude":40.73061,"longitude":-73.93524,"reserved":0,"last_update":"0001-01-01T00:00:00Z","name_a2s":"Uncletopia | New York City | 2 | All Maps","protocol":17,"map":"pl_snowycoast","folder":"tf","game":"Team Fortress","app_id":440,"player_count":0,"max_players":24,"Bots":0,"server_type":"Dedicated","server_os":"Linux","password":true,"vac":true,"version":"7882260","steam_id":85568392924469994,"keywords":["nocrits","nodmgspread","payload","uncletopia"],"game_id":440,"stv_port":27026,"stv_name":"Uncletopia | New York City | 2 | All Maps | STV","players":null},{"server_id":15,"name":"Uncletopia | New York City | 3 | Stopwatch Beta","name_short":"nyc-3","host":"nyc-1.us.uncletopia.com","port":27035,"enabled":true,"region":"us-east","cc":"us","latitude":40.73061,"longitude":-73.93524,"reserved":0,"last_update":"0001-01-01T00:00:00Z","name_a2s":"Uncletopia | New York City | 3 | Stopwatch Beta","protocol":17,"map":"pl_borneo","folder":"tf","game":"Team Fortress","app_id":440,"player_count":0,"max_players":24,"Bots":0,"server_type":"Dedicated","server_os":"Linux","password":true,"vac":true,"version":"7882260","steam_id":85568392924742820,"keywords":["nocrits","nodmgspread","payload","uncletopia"],"game_id":440,"stv_port":27036,"stv_name":"Uncletopia | New York City | 3 | Stopwatch Beta | STV","players":null},{"server_id":16,"name":"Uncletopia | New York City | 4 | Community","name_short":"nyc-4","host":"nyc-1.us.uncletopia.com","port":27045,"enabled":true,"region":"us-east","cc":"us","latitude":40.73061,"longitude":-73.93524,"reserved":0,"last_update":"0001-01-01T00:00:00Z","name_a2s":"Uncletopia | New York City | 4 | Community","protocol":17,"map":"workshop/pl_cactuscanyon_redux_final2.ugc2579644293","folder":"tf","game":"Team Fortress","app_id":440,"player_count":0,"max_players":24,"Bots":0,"server_type":"Dedicated","server_os":"Linux","password":true,"vac":true,"version":"7882260","steam_id":85568392924742821,"keywords":["nocrits","nodmgspread","payload","uncletopia"],"game_id":440,"stv_port":27046,"stv_name":"Uncletopia | New York City | 4 | Community | STV","players":null},{"server_id":142,"name":"Uncletopia | São Paulo | 1 | All Maps","name_short":"sao-1","host":"sao-1.br.uncletopia.com","port":27015,"enabled":true,"region":"sa","cc":"br","latitude":-23.533773,"longitude":-46.62529,"reserved":0,"last_update":"0001-01-01T00:00:00Z","name_a2s":"Uncletopia | São Paulo | 1 | All Maps","protocol":17,"map":"pl_upward","folder":"tf","game":"Team Fortress","app_id":440,"player_count":0,"max_players":24,"Bots":0,"server_type":"Dedicated","server_os":"Linux","password":true,"vac":true,"version":"7882260","steam_id":85568392924469996,"keywords":["nocrits","nodmgspread","payload","uncletopia"],"game_id":440,"stv_port":27016,"stv_name":"Uncletopia | São Paulo | 1 | All Maps | STV","players":null},{"server_id":143,"name":"Uncletopia | São Paulo | 2 | All Maps","name_short":"sao-2","host":"sao-2.br.uncletopia.com","port":27015,"enabled":true,"region":"sa","cc":"br","latitude":-23.533773,"longitude":-46.62529,"reserved":0,"last_update":"0001-01-01T00:00:00Z","name_a2s":"Uncletopia | São Paulo | 2 | All Maps","protocol":17,"map":"pl_barnblitz","folder":"tf","game":"Team Fortress","app_id":440,"player_count":0,"max_players":24,"Bots":0,"server_type":"Dedicated","server_os":"Linux","password":true,"vac":true,"version":"7882260","steam_id":85568392924485349,"keywords":["nocrits","nodmgspread","payload","uncletopia"],"game_id":440,"stv_port":27016,"stv_name":"Uncletopia | São Paulo | 2 | All Maps | STV","players":null},{"server_id":7,"name":"Uncletopia | Seattle | 1 | All Maps","name_short":"sea-1","host":"sea-1.us.uncletopia.com","port":27015,"enabled":true,"region":"us-west","cc":"us","latitude":47.608013,"longitude":-122.33517,"reserved":0,"last_update":"0001-01-01T00:00:00Z","name_a2s":"Uncletopia | Seattle | 1 | All Maps","protocol":17,"map":"cp_mossrock","folder":"tf","game":"Team Fortress","app_id":440,"player_count":24,"max_players":24,"Bots":0,"server_type":"Dedicated","server_os":"Linux","password":true,"vac":true,"version":"7882260","steam_id":85568392924469997,"keywords":["cp","nocrits","nodmgspread","uncletopia"],"game_id":440,"stv_port":27016,"stv_name":"Uncletopia | Seattle | 1 | All Maps | STV","players":[{"user_id":608,"name":"squash","steam_id":76561198150281353,"connected_time":6909000000000,"state":"active","ping":58},{"user_id":649,"name":"Sadodere Grimace","steam_id":76561198008332028,"connected_time":1412000000000,"state":"active","ping":85},{"user_id":634,"name":"ඞ⁧⁧OͭnͪeͤTrueDev","steam_id":76561198107400823,"connected_time":3717000000000,"state":"active","ping":100},{"user_id":616,"name":"profile name","steam_id":76561198032625036,"connected_time":6102000000000,"state":"active","ping":65},{"user_id":633,"name":"alcohol alchemist","steam_id":76561198134309750,"connected_time":3805000000000,"state":"active","ping":158},{"user_id":583,"name":"oil","steam_id":76561198099980149,"connected_time":8923000000000,"state":"active","ping":77},{"user_id":654,"name":"blockchain culture","steam_id":76561198040996386,"connected_time":556000000000,"state":"active","ping":30},{"user_id":652,"name":"Licensed Rizzicist","steam_id":76561199019693549,"connected_time":638000000000,"state":"active","ping":54},{"user_id":628,"name":"Willy Wonker","steam_id":76561198082944789,"connected_time":5222000000000,"state":"active","ping":76},{"user_id":647,"name":"communism's weakest engineer","steam_id":76561198011331991,"connected_time":1568000000000,"state":"active","ping":53},{"user_id":622,"name":"p9 brobtlcehc","steam_id":76561198043558709,"connected_time":5714000000000,"state":"active","ping":46},{"user_id":636,"name":"DanceBunny","steam_id":76561198243610560,"connected_time":3334000000000,"state":"active","ping":77},{"user_id":602,"name":"NEBULA","steam_id":76561198086878595,"connected_time":7205000000000,"state":"active","ping":72},{"user_id":620,"name":"Lord Hater","steam_id":76561199158148782,"connected_time":5881000000000,"state":"active","ping":65},{"user_id":610,"name":"Headmouth","steam_id":76561198019789855,"connected_time":6333000000000,"state":"active","ping":167},{"user_id":619,"name":"forest (girldick)","steam_id":76561198157960257,"connected_time":5957000000000,"state":"active","ping":41},{"user_id":644,"name":"toilet mafia","steam_id":76561198844273999,"connected_time":1601000000000,"state":"active","ping":44},{"user_id":655,"name":"00","steam_id":76561198041700636,"connected_time":93000000000,"state":"active","ping":61},{"user_id":648,"name":"toes","steam_id":76561198221151676,"connected_time":1538000000000,"state":"active","ping":57},{"user_id":542,"name":"Alpdhuez [✚]","steam_id":76561198013808837,"connected_time":13164000000000,"state":"active","ping":67},{"user_id":641,"name":"A Meatball Obsessed Demoman","steam_id":76561198253325844,"connected_time":2833000000000,"state":"active","ping":51},{"user_id":653,"name":"Florist","steam_id":76561198009121060,"connected_time":584000000000,"state":"active","ping":45},{"user_id":630,"name":"tweakseason","steam_id":76561198169755734,"connected_time":5220000000000,"state":"active","ping":72},{"user_id":586,"name":"p9 jorts","steam_id":76561199041179985,"connected_time":8809000000000,"state":"active","ping":71}]},{"server_id":119,"name":"Uncletopia | Seattle | 2 | All Maps","name_short":"sea-2","host":"sea-1.us.uncletopia.com","port":27025,"enabled":true,"region":"us-west","cc":"us","latitude":47.608013,"longitude":-122.33517,"reserved":0,"last_update":"0001-01-01T00:00:00Z","name_a2s":"Uncletopia | Seattle | 2 | All Maps","protocol":17,"map":"pl_upward","folder":"tf","game":"Team Fortress","app_id":440,"player_count":3,"max_players":24,"Bots":0,"server_type":"Dedicated","server_os":"Linux","password":true,"vac":true,"version":"7882260","steam_id":85568392924469998,"keywords":["nocrits","nodmgspread","payload","uncletopia"],"game_id":440,"stv_port":27026,"stv_name":"Uncletopia | Seattle | 2 | All Maps | STV","players":[{"user_id":669,"name":"Borealis","steam_id":76561198064937621,"connected_time":637000000000,"state":"active","ping":104},{"user_id":633,"name":"Thanks Ants","steam_id":76561197966221018,"connected_time":3427000000000,"state":"active","ping":45},{"user_id":627,"name":"weak and lonely gamer","steam_id":76561198049489349,"connected_time":4251000000000,"state":"active","ping":51}]},{"server_id":406,"name":"Uncletopia | Seattle | 3 | Stopwatch Beta","name_short":"sea-3","host":"sea-1.us.uncletopia.com","port":27035,"enabled":true,"region":"us-west","cc":"us","latitude":47.608013,"longitude":-122.33517,"reserved":0,"last_update":"0001-01-01T00:00:00Z","name_a2s":"Uncletopia | Seattle | 3 | Stopwatch Beta","protocol":17,"map":"workshop/koth_ramjam_rc1.ugc459778887","folder":"tf","game":"Team Fortress","app_id":440,"player_count":20,"max_players":24,"Bots":0,"server_type":"Dedicated","server_os":"Linux","password":true,"vac":true,"version":"7882260","steam_id":85568392924515217,"keywords":["cp","nocrits","nodmgspread","uncletopia"],"game_id":440,"stv_port":27036,"stv_name":"Uncletopia | Seattle | 3 | Stopwatch Beta | STV","players":[{"user_id":524,"name":"Rommel2007","steam_id":76561198041744631,"connected_time":359000000000,"state":"active","ping":75},{"user_id":533,"name":"TheArachnidGamer","steam_id":76561198304986752,"connected_time":135000000000,"state":"active","ping":68},{"user_id":496,"name":"Driving Cat Orange (can drive)","steam_id":76561199067771554,"connected_time":2103000000000,"state":"active","ping":125},{"user_id":497,"name":"Puskinti","steam_id":76561198032120688,"connected_time":2084000000000,"state":"active","ping":63},{"user_id":526,"name":"rock gaming","steam_id":76561199402868311,"connected_time":330000000000,"state":"active","ping":83},{"user_id":527,"name":"2006 toyota corolla","steam_id":76561198143132686,"connected_time":330000000000,"state":"active","ping":62},{"user_id":532,"name":"Jagermeister","steam_id":76561198103515747,"connected_time":145000000000,"state":"active","ping":61},{"user_id":436,"name":"ben","steam_id":76561198355118155,"connected_time":5540000000000,"state":"active","ping":56},{"user_id":494,"name":"Hatfam","steam_id":76561199192629036,"connected_time":2253000000000,"state":"active","ping":72},{"user_id":534,"name":"DaNgERCHicKeN( ͡° ͜ʖ ͡°)","steam_id":76561198059090757,"connected_time":97000000000,"state":"active","ping":56},{"user_id":498,"name":"The Dick Drainer","steam_id":76561198887041407,"connected_time":2043000000000,"state":"active","ping":87},{"user_id":514,"name":"a 1930","steam_id":76561198320639814,"connected_time":618000000000,"state":"active","ping":62},{"user_id":515,"name":"Derpy Hooves???","steam_id":76561198101505695,"connected_time":610000000000,"state":"active","ping":69},{"user_id":470,"name":"TacticalFluke","steam_id":76561198403291862,"connected_time":3379000000000,"state":"active","ping":65},{"user_id":535,"name":"Dreggerboy","steam_id":76561198069320028,"connected_time":21000000000,"state":"active","ping":106},{"user_id":471,"name":"ProbiusSC","steam_id":76561198379167322,"connected_time":3377000000000,"state":"active","ping":73},{"user_id":480,"name":"themadlad67","steam_id":76561199309554436,"connected_time":2948000000000,"state":"active","ping":47},{"user_id":512,"name":"gnoblin","steam_id":76561198314221897,"connected_time":763000000000,"state":"active","ping":46},{"user_id":513,"name":"dark romantic","steam_id":76561198325306660,"connected_time":746000000000,"state":"active","ping":52},{"user_id":520,"name":"PN","steam_id":76561198889660451,"connected_time":536000000000,"state":"active","ping":50}]},{"server_id":17,"name":"Uncletopia | San Francisco | 1 | All Maps","name_short":"sfo-1","host":"sfo-1.us.uncletopia.com","port":27015,"enabled":true,"region":"us-west","cc":"us","latitude":37.77397,"longitude":-122.4313,"reserved":0,"last_update":"0001-01-01T00:00:00Z","name_a2s":"Uncletopia | San Francisco | 1 | All Maps","protocol":17,"map":"cp_process_final","folder":"tf","game":"Team Fortress","app_id":440,"player_count":0,"max_players":24,"Bots":0,"server_type":"Dedicated","server_os":"Linux","password":true,"vac":true,"version":"7757534","steam_id":85568392924469999,"keywords":["cp","nocrits","nodmgspread","uncletopia"],"game_id":440,"stv_port":27016,"stv_name":"Uncletopia | San Francisco | 1 | All Maps | STV","players":null},{"server_id":18,"name":"Uncletopia | San Francisco | 2 | All Maps","name_short":"sfo-2","host":"sfo-1.us.uncletopia.com","port":27025,"enabled":true,"region":"us-west","cc":"us","latitude":37.77397,"longitude":-122.4313,"reserved":0,"last_update":"0001-01-01T00:00:00Z","name_a2s":"Uncletopia | San Francisco | 2 | All Maps","protocol":17,"map":"koth_highpass","folder":"tf","game":"Team Fortress","app_id":440,"player_count":0,"max_players":24,"Bots":0,"server_type":"Dedicated","server_os":"Linux","password":true,"vac":true,"version":"7757534","steam_id":85568392924470000,"keywords":["cp","nocrits","nodmgspread","uncletopia"],"game_id":440,"stv_port":27026,"stv_name":"Uncletopia | San Francisco | 2 | All Maps | STV","players":null},{"server_id":19,"name":"Uncletopia | San Francisco | 3 | Stopwatch Beta","name_short":"sfo-3","host":"sfo-1.us.uncletopia.com","port":27035,"enabled":true,"region":"us-west","cc":"us","latitude":37.77397,"longitude":-122.4313,"reserved":0,"last_update":"0001-01-01T00:00:00Z","name_a2s":"Uncletopia | San Francisco | 3 | Stopwatch Beta","protocol":17,"map":"koth_lakeside_final","folder":"tf","game":"Team Fortress","app_id":440,"player_count":0,"max_players":24,"Bots":0,"server_type":"Dedicated","server_os":"Linux","password":true,"vac":true,"version":"7757534","steam_id":85568392924742824,"keywords":["cp","nocrits","nodmgspread","uncletopia"],"game_id":440,"stv_port":27036,"stv_name":"Uncletopia | San Francisco | 3 | Stopwatch Beta | STV","players":null},{"server_id":20,"name":"Uncletopia | San Francisco | 4 | Community","name_short":"sfo-4","host":"sfo-1.us.uncletopia.com","port":27045,"enabled":true,"region":"us-west","cc":"us","latitude":37.77397,"longitude":-122.4313,"reserved":0,"last_update":"0001-01-01T00:00:00Z","name_a2s":"Uncletopia | San Francisco | 4 | Community","protocol":17,"map":"cp_altitude","folder":"tf","game":"Team Fortress","app_id":440,"player_count":0,"max_players":24,"Bots":0,"server_type":"Dedicated","server_os":"Linux","password":true,"vac":true,"version":"7757534","steam_id":85568392924742826,"keywords":["cp","nocrits","nodmgspread","uncletopia"],"game_id":440,"stv_port":27046,"stv_name":"Uncletopia | San Francisco | 4 | Community | STV","players":null},{"server_id":141,"name":"Uncletopia | Sydney | 1 | All Maps","name_short":"syd-1","host":"syd-1.au.uncletopia.com","port":27015,"enabled":true,"region":"au","cc":"au","latitude":-33.865143,"longitude":151.2099,"reserved":0,"last_update":"0001-01-01T00:00:00Z","name_a2s":"Uncletopia | Sydney | 1 | All Maps","protocol":17,"map":"pl_borneo","folder":"tf","game":"Team Fortress","app_id":440,"player_count":24,"max_players":24,"Bots":0,"server_type":"Dedicated","server_os":"Linux","password":true,"vac":true,"version":"7882260","steam_id":85568392924470001,"keywords":["nocrits","nodmgspread","payload","uncletopia"],"game_id":440,"stv_port":27016,"stv_name":"Uncletopia | Sydney | 1 | All Maps | STV","players":[{"user_id":295,"name":"Trex988","steam_id":76561198147725676,"connected_time":643000000000,"state":"active","ping":67},{"user_id":290,"name":"[FTW] RonnieD'","steam_id":76561197993957267,"connected_time":1624000000000,"state":"active","ping":51},{"user_id":278,"name":"FrOStY","steam_id":76561198088155805,"connected_time":2760000000000,"state":"active","ping":81},{"user_id":296,"name":"that korean guy","steam_id":76561198110767163,"connected_time":643000000000,"state":"active","ping":50},{"user_id":297,"name":"haydos","steam_id":76561198078310429,"connected_time":632000000000,"state":"active","ping":36},{"user_id":280,"name":"Mooty","steam_id":76561198301293435,"connected_time":2397000000000,"state":"active","ping":54},{"user_id":293,"name":"Pompadouraus","steam_id":76561198327530525,"connected_time":741000000000,"state":"active","ping":77},{"user_id":289,"name":"pongschlap","steam_id":76561198346216658,"connected_time":1730000000000,"state":"active","ping":60},{"user_id":258,"name":"Maquire's Constipation","steam_id":76561198096130103,"connected_time":4281000000000,"state":"active","ping":53},{"user_id":269,"name":"soupy","steam_id":76561198073734936,"connected_time":3135000000000,"state":"active","ping":89},{"user_id":151,"name":"Jodelkönig Franzl Lang","steam_id":76561198007667830,"connected_time":14252000000000,"state":"active","ping":55},{"user_id":298,"name":"Second Lieutenant Pisser","steam_id":76561198866538028,"connected_time":552000000000,"state":"active","ping":76},{"user_id":219,"name":"perturb (feed/seed)","steam_id":76561198085124297,"connected_time":9065000000000,"state":"active","ping":56},{"user_id":270,"name":"Sentry Gun (EpicGuy4227)","steam_id":76561198094132328,"connected_time":3118000000000,"state":"active","ping":62},{"user_id":304,"name":"♠³","steam_id":76561199140616120,"connected_time":292000000000,"state":"active","ping":93},{"user_id":300,"name":"Speedy","steam_id":76561198065839605,"connected_time":519000000000,"state":"active","ping":81},{"user_id":301,"name":"moon rising","steam_id":76561198442198135,"connected_time":513000000000,"state":"active","ping":45},{"user_id":294,"name":"Arro","steam_id":76561198084990929,"connected_time":721000000000,"state":"active","ping":86},{"user_id":302,"name":"cakey","steam_id":76561198173746761,"connected_time":511000000000,"state":"active","ping":52},{"user_id":281,"name":"ParadoxG","steam_id":76561198100746653,"connected_time":2386000000000,"state":"active","ping":57},{"user_id":303,"name":"Bigrichard","steam_id":76561198032092945,"connected_time":506000000000,"state":"active","ping":88},{"user_id":274,"name":"juusha","steam_id":76561198911542330,"connected_time":2959000000000,"state":"active","ping":79},{"user_id":275,"name":"Rashid Of The Dank Memes","steam_id":76561198281398078,"connected_time":2956000000000,"state":"active","ping":61},{"user_id":286,"name":"GattlingGoose","steam_id":76561199021498300,"connected_time":2024000000000,"state":"active","ping":85}]},{"server_id":123,"name":"Uncletopia | Sydney | 2 | All Maps","name_short":"syd-2","host":"syd-1.au.uncletopia.com","port":27025,"enabled":true,"region":"au","cc":"au","latitude":-33.865143,"longitude":151.2099,"reserved":0,"last_update":"0001-01-01T00:00:00Z","name_a2s":"Uncletopia | Sydney | 2 | All Maps","protocol":17,"map":"pl_rumford_event","folder":"tf","game":"Team Fortress","app_id":440,"player_count":19,"max_players":24,"Bots":0,"server_type":"Dedicated","server_os":"Linux","password":true,"vac":true,"version":"7882260","steam_id":85568392924470002,"keywords":["nocrits","nodmgspread","payload","uncletopia"],"game_id":440,"stv_port":27026,"stv_name":"Uncletopia | Sydney | 2 | All Maps | STV","players":[{"user_id":11,"name":"N0thing_but_pure_lag_and_luck","steam_id":76561199002102933,"connected_time":7671000000000,"state":"active","ping":106},{"user_id":78,"name":"yumps","steam_id":76561198009311069,"connected_time":2588000000000,"state":"active","ping":59},{"user_id":111,"name":"michael","steam_id":76561198052848358,"connected_time":884000000000,"state":"active","ping":61},{"user_id":68,"name":"the weed alien","steam_id":76561199205171109,"connected_time":3389000000000,"state":"active","ping":62},{"user_id":107,"name":"Mr Luxury Yacht","steam_id":76561198047586836,"connected_time":1039000000000,"state":"active","ping":107},{"user_id":99,"name":"Cozza","steam_id":76561198090069548,"connected_time":1480000000000,"state":"active","ping":61},{"user_id":92,"name":"WussPoppinJimbo","steam_id":76561199111828033,"connected_time":1758000000000,"state":"active","ping":134},{"user_id":112,"name":"whiteshaq","steam_id":76561198131988811,"connected_time":847000000000,"state":"active","ping":47},{"user_id":116,"name":"sf/k","steam_id":76561198047758776,"connected_time":559000000000,"state":"active","ping":34},{"user_id":93,"name":"Candy_Cane19","steam_id":76561198978478925,"connected_time":1734000000000,"state":"active","ping":69},{"user_id":94,"name":"Sportsie","steam_id":76561198253752941,"connected_time":1695000000000,"state":"active","ping":61},{"user_id":122,"name":"BruceWillis235","steam_id":76561198884324029,"connected_time":23000000000,"state":"spawning","ping":64},{"user_id":86,"name":"Shadow Puppeteer","steam_id":76561198151121997,"connected_time":2104000000000,"state":"active","ping":72},{"user_id":119,"name":"Trins","steam_id":76561198040922808,"connected_time":67000000000,"state":"active","ping":68},{"user_id":87,"name":"WinterZEKat","steam_id":76561199185917542,"connected_time":2068000000000,"state":"active","ping":83},{"user_id":120,"name":"nojnosbod11","steam_id":76561199176012151,"connected_time":55000000000,"state":"spawning","ping":89},{"user_id":98,"name":"Steve","steam_id":76561198429235506,"connected_time":1504000000000,"state":"active","ping":49},{"user_id":103,"name":"OverTasked ッ","steam_id":76561198829465540,"connected_time":1369000000000,"state":"active","ping":60},{"user_id":105,"name":"ILoveMyBees","steam_id":76561199074505018,"connected_time":1364000000000,"state":"active","ping":69}]},{"server_id":395,"name":"Uncletopia | Sydney | 3 | All Maps","name_short":"syd-3","host":"syd-1.au.uncletopia.com","port":27035,"enabled":true,"region":"au","cc":"au","latitude":-33.865143,"longitude":151.2099,"reserved":0,"last_update":"0001-01-01T00:00:00Z","name_a2s":"Uncletopia | Sydney | 3 | All Maps","protocol":17,"map":"pl_pier","folder":"tf","game":"Team Fortress","app_id":440,"player_count":0,"max_players":24,"Bots":0,"server_type":"Dedicated","server_os":"Linux","password":true,"vac":true,"version":"7882260","steam_id":85568392925194467,"keywords":["nocrits","nodmgspread","payload","uncletopia"],"game_id":440,"stv_port":27036,"stv_name":"Uncletopia | Sydney | 3 | All Maps | STV","players":null},{"server_id":396,"name":"Uncletopia | Sydney | 4 | All Maps","name_short":"syd-4","host":"syd-1.au.uncletopia.com","port":27045,"enabled":true,"region":"au","cc":"au","latitude":-33.865143,"longitude":151.2099,"reserved":0,"last_update":"0001-01-01T00:00:00Z","name_a2s":"Uncletopia | Sydney | 4 | All Maps","protocol":17,"map":"pl_frontier_final","folder":"tf","game":"Team Fortress","app_id":440,"player_count":0,"max_players":24,"Bots":0,"server_type":"Dedicated","server_os":"Linux","password":true,"vac":true,"version":"7882260","steam_id":85568392925397958,"keywords":["nocrits","nodmgspread","payload","uncletopia"],"game_id":440,"stv_port":27046,"stv_name":"Uncletopia | Sydney | 4 | All Maps | STV","players":null},{"server_id":58,"name":"Uncletopia | Sydney | 5 | Stopwatch Beta","name_short":"syd-5","host":"syd-1.au.uncletopia.com","port":27055,"enabled":true,"region":"au","cc":"au","latitude":-33.865143,"longitude":151.2099,"reserved":0,"last_update":"0001-01-01T00:00:00Z","name_a2s":"Uncletopia | Sydney | 5 | Stopwatch Beta","protocol":17,"map":"pl_swiftwater_final1","folder":"tf","game":"Team Fortress","app_id":440,"player_count":0,"max_players":24,"Bots":0,"server_type":"Dedicated","server_os":"Linux","password":true,"vac":true,"version":"7882260","steam_id":85568392925397959,"keywords":["nocrits","nodmgspread","payload","uncletopia"],"game_id":440,"stv_port":27056,"stv_name":"Uncletopia | Sydney | 5 | Stopwatch Beta | STV","players":null},{"server_id":59,"name":"Uncletopia | Sydney | 6 | Community","name_short":"syd-6","host":"syd-1.au.uncletopia.com","port":27065,"enabled":true,"region":"au","cc":"au","latitude":-33.865143,"longitude":151.2099,"reserved":0,"last_update":"0001-01-01T00:00:00Z","name_a2s":"Uncletopia | Sydney | 6 | Community","protocol":17,"map":"pl_snowycoast","folder":"tf","game":"Team Fortress","app_id":440,"player_count":0,"max_players":24,"Bots":0,"server_type":"Dedicated","server_os":"Linux","password":true,"vac":true,"version":"7882260","steam_id":85568392925397960,"keywords":["nocrits","nodmgspread","payload","uncletopia"],"game_id":440,"stv_port":27066,"stv_name":"Uncletopia | Sydney | 6 | Community | STV","players":null},{"server_id":49,"name":"Uncletopia | Warsaw | 1 | All Maps","name_short":"waw-1","host":"waw-1.pl.uncletopia.com","port":27015,"enabled":true,"region":"eu","cc":"pl","latitude":52.2297,"longitude":21.017532,"reserved":0,"last_update":"0001-01-01T00:00:00Z","name_a2s":"","protocol":0,"map":"","folder":"","game":"","app_id":0,"player_count":0,"max_players":0,"Bots":0,"server_type":"","server_os":"","password":false,"vac":false,"version":"","steam_id":0,"keywords":null,"game_id":0,"stv_port":0,"stv_name":"","players":null},{"server_id":50,"name":"Uncletopia | Warsaw | 2 | All Maps","name_short":"waw-2","host":"waw-1.pl.uncletopia.com","port":27025,"enabled":true,"region":"eu","cc":"pl","latitude":52.2297,"longitude":21.017532,"reserved":0,"last_update":"0001-01-01T00:00:00Z","name_a2s":"Uncletopia | Warsaw | 2 | All Maps","protocol":17,"map":"pl_swiftwater_final1","folder":"tf","game":"Team Fortress","app_id":440,"player_count":0,"max_players":24,"Bots":0,"server_type":"Dedicated","server_os":"Linux","password":true,"vac":true,"version":"7882260","steam_id":85568392925397851,"keywords":["nocrits","nodmgspread","payload","uncletopia"],"game_id":440,"stv_port":27026,"stv_name":"Uncletopia | Warsaw | 2 | All Maps | STV","players":null},{"server_id":51,"name":"Uncletopia | Warsaw | 3 | All Maps","name_short":"waw-3","host":"waw-1.pl.uncletopia.com","port":27035,"enabled":true,"region":"eu","cc":"pl","latitude":52.2297,"longitude":21.017532,"reserved":0,"last_update":"0001-01-01T00:00:00Z","name_a2s":"Uncletopia | Warsaw | 3 | All Maps","protocol":17,"map":"koth_viaduct","folder":"tf","game":"Team Fortress","app_id":440,"player_count":0,"max_players":24,"Bots":0,"server_type":"Dedicated","server_os":"Linux","password":true,"vac":true,"version":"7882260","steam_id":85568392925397852,"keywords":["cp","nocrits","nodmgspread","uncletopia"],"game_id":440,"stv_port":27036,"stv_name":"Uncletopia | Warsaw | 3 | All Maps | STV","players":null},{"server_id":52,"name":"Uncletopia | Warsaw | 4 | All Maps","name_short":"waw-4","host":"waw-1.pl.uncletopia.com","port":27045,"enabled":true,"region":"eu","cc":"pl","latitude":52.2297,"longitude":21.017532,"reserved":0,"last_update":"0001-01-01T00:00:00Z","name_a2s":"Uncletopia | Warsaw | 4 | All Maps","protocol":17,"map":"koth_highpass","folder":"tf","game":"Team Fortress","app_id":440,"player_count":0,"max_players":24,"Bots":0,"server_type":"Dedicated","server_os":"Linux","password":true,"vac":true,"version":"7882260","steam_id":85568392925397853,"keywords":["cp","nocrits","nodmgspread","uncletopia"],"game_id":440,"stv_port":27046,"stv_name":"Uncletopia | Warsaw | 4 | All Maps | STV","players":null},{"server_id":53,"name":"Uncletopia | Warsaw | 5 | Stopwatch Beta","name_short":"waw-5","host":"waw-1.pl.uncletopia.com","port":27055,"enabled":true,"region":"eu","cc":"pl","latitude":52.2297,"longitude":21.017532,"reserved":0,"last_update":"0001-01-01T00:00:00Z","name_a2s":"Uncletopia | Warsaw | 5 | Stopwatch Beta","protocol":17,"map":"cp_mountainlab","folder":"tf","game":"Team Fortress","app_id":440,"player_count":0,"max_players":24,"Bots":0,"server_type":"Dedicated","server_os":"Linux","password":true,"vac":true,"version":"7882260","steam_id":85568392925397854,"keywords":["cp","nocrits","nodmgspread","uncletopia"],"game_id":440,"stv_port":27056,"stv_name":"Uncletopia | Warsaw | 5 | Stopwatch Beta | STV","players":null},{"server_id":54,"name":"Uncletopia | Warsaw | 6 | Community","name_short":"waw-6","host":"waw-1.pl.uncletopia.com","port":27065,"enabled":true,"region":"eu","cc":"pl","latitude":52.2297,"longitude":21.017532,"reserved":0,"last_update":"0001-01-01T00:00:00Z","name_a2s":"Uncletopia | Warsaw | 6 | Community","protocol":17,"map":"koth_viaduct","folder":"tf","game":"Team Fortress","app_id":440,"player_count":0,"max_players":24,"Bots":0,"server_type":"Dedicated","server_os":"Linux","password":true,"vac":true,"version":"7882260","steam_id":85568392925397856,"keywords":["cp","nocrits","nodmgspread","uncletopia"],"game_id":440,"stv_port":27066,"stv_name":"Uncletopia | Warsaw | 6 | Community | STV","players":null}]}