{"status":true,"message":"","result":[{"server_id":9,"name":"Uncletopia | Atlanta | 1 | All Maps","name_short":"atl-1","host":"atl-1.us.uncletopia.com","port":27015,"enabled":true,"region":"us-east","cc":"us","latitude":33.753746,"longitude":-84.38633,"reserved":0,"last_update":"0001-01-01T00:00:00Z","name_a2s":"Uncletopia | Atlanta | 1 | All Maps","protocol":17,"map":"cp_mountainlab","folder":"tf","game":"Team Fortress","app_id":440,"player_count":0,"max_players":24,"Bots":0,"server_type":"Dedicated","server_os":"Linux","password":true,"vac":true,"version":"7961495","steam_id":85568392924469982,"keywords":["cp","nocrits","nodmgspread","uncletopia"],"game_id":440,"stv_port":27016,"stv_name":"Uncletopia | Atlanta | 1 | All Maps | STV","players":null},{"server_id":104,"name":"Uncletopia | Atlanta | 2 | All Maps","name_short":"atl-2","host":"atl-1.us.uncletopia.com","port":27025,"enabled":true,"region":"us-east","cc":"us","latitude":33.753746,"longitude":-84.38633,"reserved":0,"last_update":"0001-01-01T00:00:00Z","name_a2s":"","protocol":0,"map":"","folder":"","game":"","app_id":0,"player_count":0,"max_players":0,"Bots":0,"server_type":"","server_os":"","password":false,"vac":false,"version":"","steam_id":0,"keywords":null,"game_id":0,"stv_port":0,"stv_name":"","players":null},{"server_id":400,"name":"Uncletopia | Atlanta | 3 | All Maps","name_short":"atl-3","host":"atl-1.us.uncletopia.com","port":27035,"enabled":true,"region":"us-east","cc":"us","latitude":33.753746,"longitude":-84.38633,"reserved":0,"last_update":"0001-01-01T00:00:00Z","name_a2s":"","protocol":0,"map":"","folder":"","game":"","app_id":0,"player_count":0,"max_players":0,"Bots":0,"server_type":"","server_os":"","password":false,"vac":false,"version":"","steam_id":0,"keywords":null,"game_id":0,"stv_port":0,"stv_name":"","players":null},{"server_id":401,"name":"Uncletopia | Atlanta | 4 | Community","name_short":"atl-4","host":"atl-1.us.uncletopia.com","port":27045,"enabled":true,"region":"us-east","cc":"us","latitude":33.753746,"longitude":-84.38633,"reserved":0,"last_update":"0001-01-01T00:00:00Z","name_a2s":"","protocol":0,"map":"","folder":"","game":"","app_id":0,"player_count":0,"max_players":0,"Bots":0,"server_type":"","server_os":"","password":false,"vac":false,"version":"","steam_id":0,"keywords":null,"game_id":0,"stv_port":0,"stv_name":"","players":null},{"server_id":2,"name":"Uncletopia | Chicago | 1 | All Maps","name_short":"chi-1","host":"chi-1.us.uncletopia.com","port":27015,"enabled":true,"region":"us-central","cc":"us","latitude":41.881832,"longitude":-87.62318,"reserved":0,"last_update":"0001-01-01T00:00:00Z","name_a2s":"Uncletopia | Chicago | 1 | All Maps","protocol":17,"map":"ctf_2fort","folder":"tf","game":"Team Fortress","app_id":440,"player_count":24,"max_players":24,"Bots":0,"server_type":"Dedicated","server_os":"Linux","password":true,"vac":true,"version":"7961495","steam_id":85568392924469984,"keywords":["ctf","nocrits","nodmgspread","uncletopia"],"game_id":440,"stv_port":27016,"stv_name":"Uncletopia | Chicago | 1 | All Maps | STV","players":[{"user_id":391,"name":"not a good idea","steam_id":76561198032259680,"connected_time":1073000000000,"state":"active","ping":85},{"user_id":407,"name":"RIP John Pork","steam_id":76561198241948526,"connected_time":468000000000,"state":"active","ping":64},{"user_id":408,"name":"Pixel","steam_id":76561198156746320,"connected_time":376000000000,"state":"active","ping":42},{"user_id":386,"name":"SSS","steam_id":76561199492727315,"connected_time":1878000000000,"state":"active","ping":50},{"user_id":411,"name":"There is a hot muffler up my as","steam_id":76561198213863907,"connected_time":90000000000,"state":"active","ping":122},{"user_id":387,"name":"Glue Gulper","steam_id":76561198158014525,"connected_time":1840000000000,"state":"active","ping":63},{"user_id":414,"name":"Toast","steam_id":76561198234616616,"connected_time":22000000000,"state":"active","ping":57},{"user_id":364,"name":"D. Kickem","steam_id":76561198978221033,"connected_time":3453000000000,"state":"active","ping":56},{"user_id":361,"name":"girlpeen supreme","steam_id":76561198031242903,"connected_time":4122000000000,"state":"active","ping":66},{"user_id":400,"name":"glass eater","steam_id":76561199229710761,"connected_time":784000000000,"state":"active","ping":70},{"user_id":381,"name":"hi","steam_id":76561198809577048,"connected_time":2035000000000,"state":"active","ping":106},{"user_id":405,"name":"Maverick","steam_id":76561198322829814,"connected_time":608000000000,"state":"active","ping":79},{"user_id":415,"name":"V.E.R.G.I.L.I.U.S.","steam_id":76561198046055673,"connected_time":17000000000,"state":"spawning","ping":75},{"user_id":398,"name":"Pixeled","steam_id":76561198088917077,"connected_time":859000000000,"state":"active","ping":85},{"user_id":389,"name":"Milkmur","steam_id":76561198210043821,"connected_time":1165000000000,"state":"active","ping":61},{"user_id":416,"name":"Zanartan","steam_id":76561198050528902,"connected_time":17000000000,"state":"spawning","ping":190},{"user_id":402,"name":"Big Smoke","steam_id":76561198278375987,"connected_time":757000000000,"state":"active","ping":86},{"user_id":413,"name":"dave","steam_id":76561198088783062,"connected_time":55000000000,"state":"active","ping":121},{"user_id":306,"name":"Ashes!","steam_id":76561197998475441,"connected_time":8136000000000,"state":"active","ping":90},{"user_id":352,"name":"Thunder","steam_id":76561199434110716,"connected_time":4998000000000,"state":"active","ping":57},{"user_id":331,"name":"Mecha","steam_id":76561198014927379,"connected_time":7028000000000,"state":"active","ping":67},{"user_id":397,"name":"Riff III","steam_id":76561198066921423,"connected_time":940000000000,"state":"active","ping":72},{"user_id":401,"name":"saturn","steam_id":76561198348918232,"connected_time":780000000000,"state":"active","ping":69},{"user_id":406,"name":"Tyco","steam_id":76561197978414167,"connected_time":608000000000,"state":"active","ping":75}]},{"server_id":106,"name":"Uncletopia | Chicago | 2 | All Maps","name_short":"chi-2","host":"chi-1.us.uncletopia.com","port":27025,"enabled":true,"region":"us-central","cc":"us","latitude":41.881832,"longitude":-87.62318,"reserved":0,"last_update":"0001-01-01T00:00:00Z","name_a2s":"Uncletopia | Chicago | 2 | All Maps","protocol":17,"map":"pl_barnblitz","folder":"tf","game":"Team Fortress","app_id":440,"player_count":23,"max_players":24,"Bots":0,"server_type":"Dedicated","server_os":"Linux","password":true,"vac":true,"version":"7961495","steam_id":85568392924469985,"keywords":["nocrits","nodmgspread","payload","uncletopia"],"game_id":440,"stv_port":27026,"stv_name":"Uncletopia | Chicago | 2 | All Maps | STV","players":[{"user_id":321,"name":"Apetometrist","steam_id":76561198045391635,"connected_time":1923000000000,"state":"active","ping":62},{"user_id":310,"name":"Kobheerian Freighter Captain","steam_id":76561198069735882,"connected_time":3100000000000,"state":"active","ping":71},{"user_id":327,"name":"Âåó (Hoku)","steam_id":76561198156541138,"connected_time":1619000000000,"state":"active","ping":54},{"user_id":265,"name":"Obama","steam_id":76561198194065283,"connected_time":5917000000000,"state":"active","ping":101},{"user_id":341,"name":"Radish Master","steam_id":76561198072523811,"connected_time":510000000000,"state":"active","ping":43},{"user_id":315,"name":"eat Pant","steam_id":76561197974965536,"connected_time":2450000000000,"state":"active","ping":61},{"user_id":339,"name":"pabloramirez1998@gmail.com","steam_id":76561198969675306,"connected_time":535000000000,"state":"active","ping":73},{"user_id":343,"name":"JamesBlakeFan11","steam_id":76561198440539769,"connected_time":440000000000,"state":"active","ping":118},{"user_id":304,"name":"Caboose","steam_id":76561198119221840,"connected_time":3774000000000,"state":"active","ping":97},{"user_id":317,"name":"benedro05","steam_id":76561198269369429,"connected_time":2015000000000,"state":"active","ping":61},{"user_id":279,"name":"Scorpie Doodle","steam_id":76561198021845763,"connected_time":5041000000000,"state":"active","ping":56},{"user_id":346,"name":"Sean Bae","steam_id":76561198036909521,"connected_time":196000000000,"state":"active","ping":53},{"user_id":322,"name":"mr.sapyoursentry","steam_id":76561199202571828,"connected_time":1895000000000,"state":"active","ping":70},{"user_id":308,"name":"dieling","steam_id":76561198831902966,"connected_time":3287000000000,"state":"active","ping":84},{"user_id":337,"name":"wunkem","steam_id":76561198055948497,"connected_time":651000000000,"state":"active","ping":69},{"user_id":345,"name":"hammy","steam_id":76561198035751911,"connected_time":216000000000,"state":"active","ping":68},{"user_id":347,"name":"lili","steam_id":76561199391478575,"connected_time":98000000000,"state":"active","ping":116},{"user_id":323,"name":"mountainkug","steam_id":76561199491802535,"connected_time":1892000000000,"state":"active","ping":90},{"user_id":331,"name":"A damien","steam_id":76561198174767478,"connected_time":1188000000000,"state":"active","ping":96},{"user_id":325,"name":"iUseDvorak","steam_id":76561198064439037,"connected_time":1829000000000,"state":"active","ping":61},{"user_id":332,"name":"Try Gardening","steam_id":76561198120311340,"connected_time":855000000000,"state":"active","ping":48},{"user_id":336,"name":"Kousei","steam_id":76561198080696289,"connected_time":789000000000,"state":"active","ping":60},{"user_id":290,"name":"ohhhl0rd","steam_id":76561199066793578,"connected_time":4565000000000,"state":"active","ping":73}]},{"server_id":402,"name":"Uncletopia | Chicago | 3 | All Maps","name_short":"chi-3","host":"chi-1.us.uncletopia.com","port":27035,"enabled":true,"region":"us-central","cc":"us","latitude":41.881832,"longitude":-87.62318,"reserved":0,"last_update":"0001-01-01T00:00:00Z","name_a2s":"Uncletopia | Chicago | 3 | All Maps","protocol":17,"map":"pl_swiftwater_final1","folder":"tf","game":"Team Fortress","app_id":440,"player_count":24,"max_players":24,"Bots":0,"server_type":"Dedicated","server_os":"Linux","password":true,"vac":true,"version":"7961495","steam_id":85568392924515191,"keywords":["nocrits","nodmgspread","payload","uncletopia"],"game_id":440,"stv_port":27036,"stv_name":"Uncletopia | Chicago | 3 | All Maps | STV","players":[{"user_id":225,"name":"tsbro40","steam_id":76561199455605580,"connected_time":1670000000000,"state":"active","ping":86},{"user_id":235,"name":"pepsibobby","steam_id":76561198853864511,"connected_time":448000000000,"state":"active","ping":80},{"user_id":203,"name":"TheFriendlyPybro","steam_id":76561198119425604,"connected_time":2923000000000,"state":"active","ping":73},{"user_id":230,"name":"anonpain","steam_id":76561198081317092,"connected_time":1129000000000,"state":"active","ping":52},{"user_id":239,"name":"Atlas","steam_id":76561198127975050,"connected_time":151000000000,"state":"active","ping":70},{"user_id":228,"name":"typhoon","steam_id":76561198165123178,"connected_time":1174000000000,"state":"active","ping":68},{"user_id":236,"name":"M1C4A3L","steam_id":76561198009980085,"connected_time":439000000000,"state":"active","ping":82},{"user_id":234,"name":"greg club","steam_id":76561198370506193,"connected_time":840000000000,"state":"active","ping":59},{"user_id":241,"name":"Osrio","steam_id":76561198083428069,"connected_time":91000000000,"state":"active","ping":99},{"user_id":194,"name":"Coach McFish","steam_id":76561198210456405,"connected_time":3867000000000,"state":"active","ping":75},{"user_id":229,"name":"Intro Bonito","steam_id":76561198119478838,"connected_time":1162000000000,"state":"active","ping":74},{"user_id":162,"name":"TheFryingDutchman","steam_id":76561199193784099,"connected_time":6280000000000,"state":"active","ping":92},{"user_id":160,"name":"MontellWilliams","steam_id":76561198172143015,"connected_time":6357000000000,"state":"active","ping":57},{"user_id":231,"name":"XtremeCow","steam_id":76561199241733855,"connected_time":1110000000000,"state":"active","ping":91},{"user_id":209,"name":"Danger Daniel","steam_id":76561199085838474,"connected_time":2828000000000,"state":"active","ping":85},{"user_id":210,"name":"Your Pal, Vegeta","steam_id":76561198064916816,"connected_time":2811000000000,"state":"active","ping":99},{"user_id":221,"name":"Acehay14","steam_id":76561198052373291,"connected_time":2076000000000,"state":"active","ping":56},{"user_id":197,"name":"IMM0RTAL","steam_id":76561198013747901,"connected_time":3694000000000,"state":"active","ping":68},{"user_id":226,"name":"Gibs Degrossi","steam_id":76561198066152609,"connected_time":1363000000000,"state":"active","ping":50},{"user_id":227,"name":"Snoball","steam_id":76561198205838372,"connected_time":1176000000000,"state":"active","ping":58},{"user_id":244,"name":"Michaelpc1","steam_id":76561198088365519,"connected_time":10000000000,"state":"spawning","ping":74},{"user_id":243,"name":"Wizard02","steam_id":76561198178293623,"connected_time":39000000000,"state":"active","ping":81},{"user_id":238,"name":"Tlaloc","steam_id":76561198375215983,"connected_time":271000000000,"state":"active","ping":121},{"user_id":191,"name":"Mephistopheles","steam_id":76561198253731826,"connected_time":4067000000000,"state":"active","ping":113}]},{"server_id":403,"name":"Uncletopia | Chicago | 4 | All Maps","name_short":"chi-4","host":"chi-1.us.uncletopia.com","port":27045,"enabled":true,"region":"us-central","cc":"us","latitude":41.881832,"longitude":-87.62318,"reserved":0,"last_update":"0001-01-01T00:00:00Z","name_a2s":"Uncletopia | Chicago | 4 | All Maps","protocol":17,"map":"koth_cascade","folder":"tf","game":"Team Fortress","app_id":440,"player_count":0,"max_players":24,"Bots":0,"server_type":"Dedicated","server_os":"Linux","password":true,"vac":true,"version":"7961495","steam_id":85568392924515193,"keywords":["cp","nocrits","nodmgspread","uncletopia"],"game_id":440,"stv_port":27046,"stv_name":"Uncletopia | Chicago | 4 | All Maps | STV","players":null},{"server_id":36,"name":"Uncletopia | Chicago | 5 | All Maps","name_short":"chi-5","host":"chi-2.us.uncletopia.com","port":27015,"enabled":true,"region":"us-central","cc":"us","latitude":41.881832,"longitude":-87.62318,"reserved":0,"last_update":"0001-01-01T00:00:00Z","name_a2s":"Uncletopia | Chicago | 5 | All Maps","protocol":17,"map":"koth_highpass","folder":"tf","game":"Team Fortress","app_id":440,"player_count":0,"max_players":24,"Bots":0,"server_type":"Dedicated","server_os":"Linux","password":true,"vac":true,"version":"7961495","steam_id":85568392924866362,"keywords":["cp","nocrits","nodmgspread","uncletopia"],"game_id":440,"stv_port":27016,"stv_name":"Uncletopia | Chicago | 5 | All Maps | STV","players":null},{"server_id":37,"name":"Uncletopia | Chicago | 6 | All Maps","name_short":"chi-6","host":"chi-2.us.uncletopia.com","port":27025,"enabled":true,"region":"us-central","cc":"us","latitude":41.881832,"longitude":-87.62318,"reserved":0,"last_update":"0001-01-01T00:00:00Z","name_a2s":"Uncletopia | Chicago | 6 | All Maps","protocol":17,"map":"cp_altitude","folder":"tf","game":"Team Fortress","app_id":440,"player_count":0,"max_players":24,"Bots":0,"server_type":"Dedicated","server_os":"Linux","password":true,"vac":true,"version":"7961495","steam_id":85568392924866363,"keywords":["cp","nocrits","nodmgspread","uncletopia"],"game_id":440,"stv_port":27026,"stv_name":"Uncletopia | Chicago | 6 | All Maps | STV","players":null},{"server_id":38,"name":"Uncletopia | Chicago | 7 | Stopwatch Beta","name_short":"chi-7","host":"chi-2.us.uncletopia.com","port":27035,"enabled":true,"region":"us-central","cc":"us","latitude":41.881832,"longitude":-87.62318,"reserved":0,"last_update":"0001-01-01T00:00:00Z","name_a2s":"Uncletopia | Chicago | 7 | Stopwatch Beta","protocol":17,"map":"pl_badwater","folder":"tf","game":"Team Fortress","app_id":440,"player_count":0,"max_players":24,"Bots":0,"server_type":"Dedicated","server_os":"Linux","password":true,"vac":true,"version":"7961495","steam_id":85568392924866364,"keywords":["nocrits","nodmgspread","payload","uncletopia"],"game_id":440,"stv_port":27036,"stv_name":"Uncletopia | Chicago | 7 | Stopwatch Beta | STV","players":null},{"server_id":39,"name":"Uncletopia | Chicago | 8 | Community","name_short":"chi-8","host":"chi-2.us.uncletopia.com","port":27045,"enabled":true,"region":"us-central","cc":"us","latitude":41.881832,"longitude":-87.62318,"reserved":0,"last_update":"0001-01-01T00:00:00Z","name_a2s":"Uncletopia | Chicago | 8 | Community","protocol":17,"map":"koth_cascade","folder":"tf","game":"Team Fortress","app_id":440,"player_count":0,"max_players":24,"Bots":0,"server_type":"Dedicated","server_os":"Linux","password":true,"vac":true,"version":"7961495","steam_id":85568392924866365,"keywords":["cp","nocrits","nodmgspread","uncletopia"],"game_id":440,"stv_port":27046,"stv_name":"Uncletopia | Chicago | 8 | Community | STV","players":null},{"server_id":8,"name":"Uncletopia | Dallas | 1 | All Maps","name_short":"dal-1","host":"dal-1.us.uncletopia.com","port":27015,"enabled":true,"region":"us-central","cc":"us","latitude":32.779167,"longitude":-96.80889,"reserved":0,"last_update":"0001-01-01T00:00:00Z","name_a2s":"Uncletopia | Dallas | 1 | All Maps","protocol":17,"map":"cp_altitude","folder":"tf","game":"Team Fortress","app_id":440,"player_count":24,"max_players":24,"Bots":0,"server_type":"Dedicated","server_os":"Linux","password":true,"vac":true,"version":"7961495","steam_id":85568392924469986,"keywords":["cp","nocrits","nodmgspread","uncletopia"],"game_id":440,"stv_port":27016,"stv_name":"Uncletopia | Dallas | 1 | All Maps | STV","players":[{"user_id":306,"name":"ProfPorker","steam_id":76561198084211940,"connected_time":1258000000000,"state":"active","ping":75},{"user_id":311,"name":"NooseNeck","steam_id":76561198202416199,"connected_time":153000000000,"state":"active","ping":46},{"user_id":314,"name":"Fatbellypig","steam_id":76561198341726034,"connected_time":140000000000,"state":"active","ping":114},{"user_id":233,"name":"Mellou","steam_id":76561198212048740,"connected_time":7423000000000,"state":"active","ping":42},{"user_id":286,"name":"The Balls Scratcher","steam_id":76561198878732910,"connected_time":2418000000000,"state":"active","ping":90},{"user_id":322,"name":"PJ","steam_id":76561198102322542,"connected_time":36000000000,"state":"active","ping":99},{"user_id":275,"name":"Fran√ßois Vi√®te","steam_id":76561198072975518,"connected_time":4156000000000,"state":"active","ping":75},{"user_id":297,"name":"GX thedittoguy (lfp demo)","steam_id":76561199013129784,"connected_time":1682000000000,"state":"active","ping":58},{"user_id":316,"name":"atmBomb","steam_id":76561198055557988,"connected_time":133000000000,"state":"active","ping":42},{"user_id":259,"name":"dang it darn it crap","steam_id":76561198204593875,"connected_time":5017000000000,"state":"active","ping":68},{"user_id":317,"name":"Cookies","steam_id":76561199099061813,"connected_time":124000000000,"state":"active","ping":93},{"user_id":276,"name":"scout gaming","steam_id":76561199314496252,"connected_time":4154000000000,"state":"active","ping":103},{"user_id":301,"name":"Redja","steam_id":76561198075009586,"connected_time":1595000000000,"state":"active","ping":71},{"user_id":292,"name":"Ghost","steam_id":76561199010766490,"connected_time":1884000000000,"state":"active","ping":83},{"user_id":318,"name":"deebs","steam_id":76561198283248369,"connected_time":120000000000,"state":"active","ping":46},{"user_id":277,"name":"imng","steam_id":76561198014988031,"connected_time":4140000000000,"state":"active","ping":77},{"user_id":230,"name":"The Engineer","steam_id":76561198104086771,"connected_time":7876000000000,"state":"active","ping":75},{"user_id":266,"name":"nosound","steam_id":76561198092135570,"connected_time":4599000000000,"state":"active","ping":44},{"user_id":312,"name":"BackwardsEagle","steam_id":76561199013712612,"connected_time":150000000000,"state":"active","ping":97},{"user_id":289,"name":"Fightin Cow","steam_id":76561198080941486,"connected_time":2343000000000,"state":"active","ping":55},{"user_id":319,"name":"Tots","steam_id":76561198027485007,"connected_time":114000000000,"state":"active","ping":74},{"user_id":320,"name":"Camfour","steam_id":76561198083090140,"connected_time":114000000000,"state":"active","ping":87},{"user_id":321,"name":"Stapler","steam_id":76561198099295077,"connected_time":109000000000,"state":"active","ping":79},{"user_id":291,"name":"Shadowgear7","steam_id":76561198129463509,"connected_time":2184000000000,"state":"active","ping":74}]},{"server_id":108,"name":"Uncletopia | Dallas | 2 | All Maps","name_short":"dal-2","host":"dal-1.us.uncletopia.com","port":27025,"enabled":true,"region":"us-central","cc":"us","latitude":32.779167,"longitude":-96.80889,"reserved":0,"last_update":"0001-01-01T00:00:00Z","name_a2s":"Uncletopia | Dallas | 2 | All Maps","protocol":17,"map":"pl_upward","folder":"tf","game":"Team Fortress","app_id":440,"player_count":24,"max_players":24,"Bots":0,"server_type":"Dedicated","server_os":"Linux","password":true,"vac":true,"version":"7961495","steam_id":85568392924469988,"keywords":["nocrits","nodmgspread","payload","uncletopia"],"game_id":440,"stv_port":27026,"stv_name":"Uncletopia | Dallas | 2 | All Maps | STV","players":[{"user_id":182,"name":"HardlyEthical","steam_id":76561198044535087,"connected_time":1575000000000,"state":"active","ping":92},{"user_id":127,"name":"alset333","steam_id":76561198405345260,"connected_time":5575000000000,"state":"active","ping":83},{"user_id":197,"name":"jooce","steam_id":76561198129069834,"connected_time":520000000000,"state":"active","ping":120},{"user_id":189,"name":"flange","steam_id":76561198040182692,"connected_time":824000000000,"state":"active","ping":153},{"user_id":183,"name":"andyiscolorless","steam_id":76561199239870921,"connected_time":1439000000000,"state":"active","ping":150},{"user_id":156,"name":"mkl","steam_id":76561197986401685,"connected_time":3075000000000,"state":"active","ping":73},{"user_id":186,"name":"Fletcher","steam_id":76561198317846538,"connected_time":1139000000000,"state":"active","ping":86},{"user_id":200,"name":"Scorpionmk2","steam_id":76561198064240906,"connected_time":35000000000,"state":"active","ping":97},{"user_id":170,"name":"BU Baggead","steam_id":76561198852902827,"connected_time":2133000000000,"state":"active","ping":73},{"user_id":190,"name":"elyk37","steam_id":76561198124135253,"connected_time":813000000000,"state":"active","ping":99},{"user_id":172,"name":"Chestnut","steam_id":76561198078198968,"connected_time":2096000000000,"state":"active","ping":82},{"user_id":196,"name":"Jokezonyu","steam_id":76561198213167893,"connected_time":619000000000,"state":"active","ping":81},{"user_id":153,"name":"DiscoTraveler","steam_id":76561199240168088,"connected_time":3350000000000,"state":"active","ping":79},{"user_id":193,"name":"Mkwhackertracker","steam_id":76561198128343704,"connected_time":721000000000,"state":"active","ping":86},{"user_id":194,"name":"ChebJeb","steam_id":76561198981377081,"connected_time":709000000000,"state":"active","ping":105},{"user_id":107,"name":"Raine","steam_id":76561198055761141,"connected_time":7306000000000,"state":"active","ping":107},{"user_id":111,"name":"Snoopy","steam_id":76561198273735974,"connected_time":7150000000000,"state":"active","ping":75},{"user_id":195,"name":"fart poo penis","steam_id":76561199008015028,"connected_time":703000000000,"state":"active","ping":150},{"user_id":175,"name":"fasterbum","steam_id":76561198142577444,"connected_time":2051000000000,"state":"active","ping":82},{"user_id":198,"name":"goose","steam_id":76561198367551668,"connected_time":225000000000,"state":"active","ping":74},{"user_id":177,"name":"MatchaPanda","steam_id":76561198027383926,"connected_time":1985000000000,"state":"active","ping":158},{"user_id":199,"name":"UrbudBenny","steam_id":76561198362317483,"connected_time":178000000000,"state":"active","ping":70},{"user_id":180,"name":"XARRRR","steam_id":76561198151401500,"connected_time":1966000000000,"state":"active","ping":100},{"user_id":188,"name":"mxgic","steam_id":76561198354656195,"connected_time":1116000000000,"state":"active","ping":133}]},{"server_id":404,"name":"Uncletopia | Dallas | 3 | All Maps","name_short":"dal-3","host":"dal-1.us.uncletopia.com","port":27035,"enabled":true,"region":"us-central","cc":"us","latitude":32.779167,"longitude":-96.80889,"reserved":0,"last_update":"0001-01-01T00:00:00Z","name_a2s":"Uncletopia | Dallas | 3 | All Maps","protocol":17,"map":"cp_gorge","folder":"tf","game":"Team Fortress","app_id":440,"player_count":7,"max_players":24,"Bots":0,"server_type":"Dedicated","server_os":"Linux","password":true,"vac":true,"version":"7961495","steam_id":85568392924515219,"keywords":["cp","nocrits","nodmgspread","uncletopia"],"game_id":440,"stv_port":27036,"stv_name":"Uncletopia | Dallas | 3 | All Maps | STV","players":[{"user_id":57,"name":"marlee","steam_id":76561198828640523,"connected_time":867000000000,"state":"active","ping":64},{"user_id":49,"name":"the mental gent","steam_id":76561198374969412,"connected_time":1704000000000,"state":"active","ping":55},{"user_id":61,"name":"Holp","steam_id":76561199019186848,"connected_time":8000000000,"state":"spawning","ping":73},{"user_id":60,"name":"GX Icarus the legend","steam_id":76561199013250091,"connected_time":348000000000,"state":"active","ping":45},{"user_id":12,"name":"lucky","steam_id":76561198323426623,"connected_time":4295000000000,"state":"active","ping":99},{"user_id":35,"name":"g00bur","steam_id":76561197993622520,"connected_time":2810000000000,"state":"active","ping":80},{"user_id":47,"name":"bluedaproto","steam_id":76561199000149623,"connected_time":1933000000000,"state":"active","ping":45}]},{"server_id":405,"name":"Uncletopia | Dallas | 4 | Community","name_short":"dal-4","host":"dal-1.us.uncletopia.com","port":27045,"enabled":true,"region":"us-central","cc":"us","latitude":32.779167,"longitude":-96.80889,"reserved":0,"last_update":"0001-01-01T00:00:00Z","name_a2s":"Uncletopia | Dallas | 4 | Community","protocol":17,"map":"workshop/koth_kemptown_rc1.ugc767410655","folder":"tf","game":"Team Fortress","app_id":440,"player_count":1,"max_players":24,"Bots":0,"server_type":"Dedicated","server_os":"Linux","password":true,"vac":true,"version":"7961495","steam_id":85568392924515220,"keywords":["cp","nocrits","nodmgspread","uncletopia"],"game_id":440,"stv_port":27046,"stv_name":"Uncletopia | Dallas | 4 | Community | STV","players":[{"user_id":10,"name":"jairo","steam_id":76561199006124613,"connected_time":36000000000,"state":"active","ping":105}]},{"server_id":5,"name":"Uncletopia | Frankfurt | 1 | All Maps","name_short":"frk-1","host":"frk-1.de.uncletopia.com","port":27015,"enabled":true,"region":"eu","cc":"de","latitude":50.110924,"longitude":8.682127,"reserved":0,"last_update":"0001-01-01T00:00:00Z","name_a2s":"Uncletopia | Frankfurt | 1 | All Maps","protocol":17,"map":"cp_process_final","folder":"tf","game":"Team Fortress","app_id":440,"player_count":24,"max_players":24,"Bots":0,"server_type":"Dedicated","server_os":"Linux","password":true,"vac":true,"version":"7961495","steam_id":85568392924469989,"keywords":["cp","nocrits","nodmgspread","uncletopia"],"game_id":440,"stv_port":27016,"stv_name":"Uncletopia | Frankfurt | 1 | All Maps | STV","players":[{"user_id":645,"name":"Fiurius","steam_id":76561198151910950,"connected_time":5399000000000,"state":"active","ping":65},{"user_id":682,"name":"Daruun","steam_id":76561198019068781,"connected_time":3266000000000,"state":"active","ping":70},{"user_id":735,"name":"prot√´in","steam_id":76561197998423616,"connected_time":415000000000,"state":"active","ping":73},{"user_id":737,"name":"schmick h_stt 0","steam_id":76561198039537958,"connected_time":408000000000,"state":"active","ping":49},{"user_id":722,"name":"Rock..","steam_id":76561198004641963,"connected_time":1522000000000,"state":"active","ping":80},{"user_id":673,"name":"Noob_with_source","steam_id":76561198870362103,"connected_time":4138000000000,"state":"active","ping":60},{"user_id":692,"name":"Mashiro Shiina","steam_id":76561198301932572,"connected_time":3009000000000,"state":"active","ping":89},{"user_id":738,"name":"shotgun tf2","steam_id":76561198944072942,"connected_time":407000000000,"state":"active","ping":86},{"user_id":713,"name":"Envy","steam_id":76561198132723219,"connected_time":2148000000000,"state":"active","ping":102},{"user_id":606,"name":"‚ôÇ Animan ‚ôÇ Studios ‚ôÇ","steam_id":76561198308302932,"connected_time":8009000000000,"state":"active","ping":96},{"user_id":725,"name":"bastard","steam_id":76561198833767331,"connected_time":1264000000000,"state":"active","ping":67},{"user_id":698,"name":"Althea","steam_id":76561198284106616,"connected_time":2840000000000,"state":"active","ping":91},{"user_id":730,"name":"ne0n","steam_id":76561198032101031,"connected_time":806000000000,"state":"active","ping":107},{"user_id":514,"name":"halow","steam_id":76561198061505163,"connected_time":14627000000000,"state":"active","ping":87},{"user_id":731,"name":"Lag","steam_id":76561198159360376,"connected_time":779000000000,"state":"active","ping":60},{"user_id":739,"name":"ALL BALLS NO SHAFT","steam_id":76561198028701695,"connected_time":370000000000,"state":"active","ping":66},{"user_id":727,"name":"UwUlric","steam_id":76561198136794751,"connected_time":1215000000000,"state":"active","ping":85},{"user_id":734,"name":"f√©nix","steam_id":76561198083199151,"connected_time":479000000000,"state":"active","ping":63},{"user_id":699,"name":"The Noxious Zephion","steam_id":76561198886608082,"connected_time":2822000000000,"state":"active","ping":79},{"user_id":723,"name":"Rin-Nakaret","steam_id":76561197971051188,"connected_time":1496000000000,"state":"active","ping":65},{"user_id":668,"name":"–õ—ã—Å—ã–π –∏–∑ –∫—É—Ö–Ω–∏","steam_id":76561199072741842,"connected_time":4294000000000,"state":"active","ping":88},{"user_id":720,"name":"JƒÅnis Aizups | LV","steam_id":76561198129947877,"connected_time":1566000000000,"state":"active","ping":81},{"user_id":740,"name":"Ottetal","steam_id":76561198018528609,"connected_time":223000000000,"state":"active","ping":60},{"user_id":717,"name":"SPONGE","steam_id":76561198040933472,"connected_time":1864000000000,"state":"active","ping":60}]},{"server_id":110,"name":"Uncletopia | Frankfurt | 2 | All Maps","name_short":"frk-2","host":"frk-1.de.uncletopia.com","port":27025,"enabled":true,"region":"eu","cc":"de","latitude":50.110924,"longitude":8.682127,"reserved":0,"last_update":"0001-01-01T00:00:00Z","name_a2s":"Uncletopia | Frankfurt | 2 | All Maps","protocol":17,"map":"pl_borneo","folder":"tf","game":"Team Fortress","app_id":440,"player_count":24,"max_players":24,"Bots":0,"server_type":"Dedicated","server_os":"Linux","password":true,"vac":true,"version":"7961495","steam_id":85568392924469990,"keywords":["nocrits","nodmgspread","payload","uncletopia"],"game_id":440,"stv_port":27026,"stv_name":"Uncletopia | Frankfurt | 2 | All Maps | STV","players":[{"user_id":442,"name":"Gelix","steam_id":76561198087564855,"connected_time":1564000000000,"state":"active","ping":91},{"user_id":414,"name":"Badrock 1","steam_id":76561198368513115,"connected_time":2998000000000,"state":"active","ping":122},{"user_id":435,"name":"üÉî Katarina","steam_id":76561198065652251,"connected_time":1752000000000,"state":"active","ping":38},{"user_id":459,"name":"leminsc8","steam_id":76561198825084995,"connected_time":370000000000,"state":"active","ping":33},{"user_id":452,"name":"endlesshills","steam_id":76561198081908373,"connected_time":999000000000,"state":"active","ping":58},{"user_id":454,"name":"Gent","steam_id":76561198037167890,"connected_time":536000000000,"state":"active","ping":82},{"user_id":455,"name":"Max Power","steam_id":76561198019269089,"connected_time":507000000000,"state":"active","ping":47},{"user_id":456,"name":"PingouinPoilu","steam_id":76561198025089253,"connected_time":483000000000,"state":"active","ping":70},{"user_id":448,"name":"Testicular torsion","steam_id":76561198119547399,"connected_time":1309000000000,"state":"active","ping":54},{"user_id":436,"name":"Jeffrey Harpen","steam_id":76561199073314677,"connected_time":1745000000000,"state":"active","ping":66},{"user_id":451,"name":"each time i die i do 1 push up:","steam_id":76561199124072329,"connected_time":1202000000000,"state":"active","ping":97},{"user_id":405,"name":"ShadoWizardMONEYG4NG","steam_id":76561198114777963,"connected_time":3301000000000,"state":"active","ping":56},{"user_id":457,"name":"Schiever","steam_id":76561198052136026,"connected_time":471000000000,"state":"active","ping":57},{"user_id":426,"name":"NeonPixel","steam_id":76561198165901066,"connected_time":2539000000000,"state":"active","ping":76},{"user_id":460,"name":"\u003c blank \u003e","steam_id":76561198059375315,"connected_time":248000000000,"state":"active","ping":68},{"user_id":429,"name":"Pacyfista Feminista Frutarianin","steam_id":76561198435883762,"connected_time":2373000000000,"state":"active","ping":89},{"user_id":441,"name":"Tree","steam_id":76561198054795379,"connected_time":1668000000000,"state":"active","ping":50},{"user_id":431,"name":"Obama","steam_id":76561198094993151,"connected_time":2159000000000,"state":"active","ping":58},{"user_id":461,"name":"Krabs","steam_id":76561198161679477,"connected_time":233000000000,"state":"active","ping":55},{"user_id":419,"name":"t.tv/Montreetor","steam_id":76561198088729562,"connected_time":2922000000000,"state":"active","ping":56},{"user_id":449,"name":"Artificial.Ignorance","steam_id":76561198453090180,"connected_time":1308000000000,"state":"active","ping":176},{"user_id":421,"name":"lulu","steam_id":76561199147764133,"connected_time":2784000000000,"state":"active","ping":76},{"user_id":453,"name":"iiiiiii","steam_id":76561199082156030,"connected_time":807000000000,"state":"active","ping":67},{"user_id":447,"name":"Infinite Byakugan","steam_id":76561198841884465,"connected_time":1353000000000,"state":"active","ping":63}]},{"server_id":308,"name":"Uncletopia | Frankfurt | 3 | All Maps","name_short":"frk-3","host":"frk-1.de.uncletopia.com","port":27035,"enabled":true,"region":"eu","cc":"de","latitude":50.110924,"longitude":8.682127,"reserved":0,"last_update":"0001-01-01T00:00:00Z","name_a2s":"Uncletopia | Frankfurt | 3 | All Maps","protocol":17,"map":"pl_pier","folder":"tf","game":"Team Fortress","app_id":440,"player_count":23,"max_players":24,"Bots":0,"server_type":"Dedicated","server_os":"Linux","password":true,"vac":true,"version":"7961495","steam_id":85568392924504274,"keywords":["nocrits","nodmgspread","payload","uncletopia"],"game_id":440,"stv_port":27036,"stv_name":"Uncletopia | Frankfurt | 3 | All Maps | STV","players":[{"user_id":160,"name":"antonio.jurjevic@brazzers.hr","steam_id":76561198179392402,"connected_time":2212000000000,"state":"active","ping":53},{"user_id":178,"name":"Eyelander","steam_id":76561199137392321,"connected_time":1006000000000,"state":"active","ping":52},{"user_id":181,"name":"Turbines/Pigs","steam_id":76561199064350902,"connected_time":934000000000,"state":"active","ping":113},{"user_id":194,"name":"Abro","steam_id":76561198349783352,"connected_time":45000000000,"state":"active","ping":102},{"user_id":182,"name":"iakozachek","steam_id":76561198421867219,"connected_time":933000000000,"state":"active","ping":138},{"user_id":99,"name":"fish","steam_id":76561198092096689,"connected_time":5902000000000,"state":"active","ping":52},{"user_id":188,"name":"_420_StopItDudeCmon","steam_id":76561197997146481,"connected_time":273000000000,"state":"active","ping":65},{"user_id":192,"name":"Ë™∞„Åã„ÅåË¶ã„Å¶„ÅÑ„Çã","steam_id":76561198834913692,"connected_time":97000000000,"state":"active","ping":62},{"user_id":175,"name":"katten","steam_id":76561198163615254,"connected_time":1382000000000,"state":"active","ping":54},{"user_id":187,"name":"TheArmyGuy","steam_id":76561198024821078,"connected_time":370000000000,"state":"active","ping":57},{"user_id":165,"name":"Hexagon","steam_id":76561198151205758,"connected_time":2020000000000,"state":"active","ping":47},{"user_id":190,"name":"Buddy","steam_id":76561198050185582,"connected_time":165000000000,"state":"active","ping":73},{"user_id":158,"name":"RoofRabbid","steam_id":76561198012821810,"connected_time":2770000000000,"state":"active","ping":118},{"user_id":140,"name":"Cava","steam_id":76561198054840118,"connected_time":3634000000000,"state":"active","ping":78},{"user_id":157,"name":"Piox","steam_id":76561198125689157,"connected_time":2906000000000,"state":"active","ping":67},{"user_id":167,"name":"Mr. Mundy","steam_id":76561198132008918,"connected_time":1973000000000,"state":"active","ping":67},{"user_id":148,"name":"yush","steam_id":76561198121688934,"connected_time":3480000000000,"state":"active","ping":70},{"user_id":184,"name":"Joy","steam_id":76561198155314925,"connected_time":702000000000,"state":"active","ping":67},{"user_id":195,"name":"JujuBalu","steam_id":76561198207253071,"connected_time":3000000000,"state":"spawning","ping":53},{"user_id":191,"name":"I only kill snipers","steam_id":76561198061580505,"connected_time":101000000000,"state":"active","ping":57},{"user_id":161,"name":"fronin","steam_id":76561198189553021,"connected_time":2212000000000,"state":"active","ping":62},{"user_id":176,"name":"kowal94","steam_id":76561198317737261,"connected_time":1359000000000,"state":"active","ping":59},{"user_id":130,"name":"Time-Green","steam_id":76561198133937444,"connected_time":4415000000000,"state":"active","ping":75}]},{"server_id":309,"name":"Uncletopia | Frankfurt | 4 | All Maps","name_short":"frk-4","host":"frk-1.de.uncletopia.com","port":27045,"enabled":true,"region":"eu","cc":"de","latitude":50.110924,"longitude":8.682127,"reserved":0,"last_update":"0001-01-01T00:00:00Z","name_a2s":"Uncletopia | Frankfurt | 4 | All Maps","protocol":17,"map":"cp_dustbowl","folder":"tf","game":"Team Fortress","app_id":440,"player_count":20,"max_players":24,"Bots":0,"server_type":"Dedicated","server_os":"Linux","password":true,"vac":true,"version":"7961495","steam_id":85568392924504275,"keywords":["cp","nocrits","nodmgspread","uncletopia"],"game_id":440,"stv_port":27046,"stv_name":"Uncletopia | Frankfurt | 4 | All Maps | STV","players":[{"user_id":365,"name":"Blar","steam_id":76561198042438229,"connected_time":1437000000000,"state":"active","ping":76},{"user_id":377,"name":"Spotmonkey","steam_id":76561198003994092,"connected_time":783000000000,"state":"active","ping":71},{"user_id":384,"name":"dakkafex","steam_id":76561198020254869,"connected_time":135000000000,"state":"active","ping":52},{"user_id":382,"name":"MargoulGetron","steam_id":76561198020551698,"connected_time":159000000000,"state":"active","ping":63},{"user_id":349,"name":"jimmy kane","steam_id":76561197984425891,"connected_time":2607000000000,"state":"active","ping":60},{"user_id":378,"name":"Osek","steam_id":76561197972646003,"connected_time":772000000000,"state":"active","ping":60},{"user_id":380,"name":"Racco Slava Ukraina","steam_id":76561198198855238,"connected_time":325000000000,"state":"active","ping":52},{"user_id":386,"name":"Laur","steam_id":76561198201866574,"connected_time":7000000000,"state":"spawning","ping":68},{"user_id":337,"name":"astroclad","steam_id":76561198263068744,"connected_time":3456000000000,"state":"active","ping":88},{"user_id":363,"name":"Rigby","steam_id":76561198021552128,"connected_time":1568000000000,"state":"active","ping":100},{"user_id":351,"name":"ERROR","steam_id":76561198260905060,"connected_time":2577000000000,"state":"active","ping":70},{"user_id":381,"name":"[SQ UA] MartianDill","steam_id":76561198405382822,"connected_time":281000000000,"state":"active","ping":63},{"user_id":368,"name":"$teomy :3","steam_id":76561199129423422,"connected_time":1156000000000,"state":"active","ping":95},{"user_id":333,"name":"willus212","steam_id":76561199182615246,"connected_time":3631000000000,"state":"active","ping":86},{"user_id":257,"name":"tequila sunset","steam_id":76561198315969106,"connected_time":9148000000000,"state":"active","ping":96},{"user_id":334,"name":"Doctor Livesey","steam_id":76561198828037534,"connected_time":3605000000000,"state":"active","ping":69},{"user_id":374,"name":"Hypenite","steam_id":76561198067589713,"connected_time":920000000000,"state":"active","ping":87},{"user_id":379,"name":"Syd","steam_id":76561198020515027,"connected_time":613000000000,"state":"active","ping":65},{"user_id":353,"name":"hhhhhh","steam_id":76561198031982574,"connected_time":2527000000000,"state":"active","ping":52},{"user_id":335,"name":"Pvt Talbot","steam_id":76561198261001389,"connected_time":3591000000000,"state":"active","ping":46}]},{"server_id":310,"name":"Uncletopia | Frankfurt | 5 | All Maps","name_short":"frk-5","host":"frk-1.de.uncletopia.com","port":27055,"enabled":true,"region":"eu","cc":"de","latitude":50.110924,"longitude":8.682127,"reserved":0,"last_update":"0001-01-01T00:00:00Z","name_a2s":"Uncletopia | Frankfurt | 5 | All Maps","protocol":17,"map":"cp_process_final","folder":"tf","game":"Team Fortress","app_id":440,"player_count":24,"max_players":24,"Bots":0,"server_type":"Dedicated","server_os":"Linux","password":true,"vac":true,"version":"7961495","steam_id":85568392924504277,"keywords":["cp","nocrits","nodmgspread","uncletopia"],"game_id":440,"stv_port":27056,"stv_name":"Uncletopia | Frankfurt | 5 | All Maps | STV","players":[{"user_id":399,"name":"Alpha","steam_id":76561198133229149,"connected_time":279000000000,"state":"active","ping":92},{"user_id":406,"name":"greg's mom","steam_id":76561198050525471,"connected_time":151000000000,"state":"active","ping":68},{"user_id":338,"name":"Toasty5050","steam_id":76561198073540881,"connected_time":5212000000000,"state":"active","ping":45},{"user_id":378,"name":"MBI","steam_id":76561198027504670,"connected_time":1915000000000,"state":"active","ping":89},{"user_id":396,"name":"D√•vid","steam_id":76561198184135755,"connected_time":417000000000,"state":"active","ping":60},{"user_id":400,"name":"The Daniella","steam_id":76561198023075547,"connected_time":274000000000,"state":"active","ping":63},{"user_id":401,"name":"Batman","steam_id":76561199041636597,"connected_time":249000000000,"state":"active","ping":63},{"user_id":385,"name":"the_Bulgarian_Badger","steam_id":76561199067348424,"connected_time":1624000000000,"state":"active","ping":96},{"user_id":395,"name":"LemonLeCitron","steam_id":76561198215545267,"connected_time":583000000000,"state":"active","ping":86},{"user_id":402,"name":"Dein F√ºhrer","steam_id":76561198206500585,"connected_time":238000000000,"state":"active","ping":76},{"user_id":390,"name":"kluri","steam_id":76561198084518962,"connected_time":1453000000000,"state":"active","ping":64},{"user_id":407,"name":"Mr. Enjoy da money","steam_id":76561198152681460,"connected_time":131000000000,"state":"active","ping":76},{"user_id":307,"name":"Hussain_144","steam_id":76561198346029208,"connected_time":7377000000000,"state":"active","ping":169},{"user_id":341,"name":"dotdotdot","steam_id":76561198057628751,"connected_time":5107000000000,"state":"active","ping":61},{"user_id":369,"name":"willem dafoe fan","steam_id":76561198795590054,"connected_time":3326000000000,"state":"active","ping":88},{"user_id":404,"name":"Certified Hood pybro (ua)","steam_id":76561198970562699,"connected_time":179000000000,"state":"active","ping":59},{"user_id":405,"name":"Sky Tree","steam_id":76561198027103242,"connected_time":170000000000,"state":"active","ping":121},{"user_id":360,"name":"shadow39344","steam_id":76561198090639618,"connected_time":3895000000000,"state":"active","ping":58},{"user_id":408,"name":"SpaceBoxxer","steam_id":76561198798211513,"connected_time":116000000000,"state":"active","ping":81},{"user_id":347,"name":"VolcanicArts","steam_id":76561198063453246,"connected_time":4954000000000,"state":"active","ping":77},{"user_id":409,"name":"X-tis","steam_id":76561198043837480,"connected_time":104000000000,"state":"active","ping":75},{"user_id":410,"name":"TidB","steam_id":76561198055342304,"connected_time":82000000000,"state":"active","ping":52},{"user_id":411,"name":"Gaxkang","steam_id":76561198125768571,"connected_time":76000000000,"state":"active","ping":69},{"user_id":335,"name":"Rimx","steam_id":76561198053034840,"connected_time":5677000000000,"state":"active","ping":93}]},{"server_id":311,"name":"Uncletopia | Frankfurt | 6 | All Maps","name_short":"frk-6","host":"frk-1.de.uncletopia.com","port":27065,"enabled":true,"region":"eu","cc":"de","latitude":50.110924,"longitude":8.682127,"reserved":0,"last_update":"0001-01-01T00:00:00Z","name_a2s":"Uncletopia | Frankfurt | 6 | All Maps","protocol":17,"map":"pl_upward","folder":"tf","game":"Team Fortress","app_id":440,"player_count":0,"max_players":24,"Bots":0,"server_type":"Dedicated","server_os":"Linux","password":true,"vac":true,"version":"7961495","steam_id":85568392924504278,"keywords":["nocrits","nodmgspread","payload","uncletopia"],"game_id":440,"stv_port":27066,"stv_name":"Uncletopia | Frankfurt | 6 | All Maps | STV","players":null},{"server_id":23,"name":"Uncletopia | Frankfurt | 7 | Stopwatch Beta","name_short":"frk-7","host":"frk-1.de.uncletopia.com","port":27075,"enabled":true,"region":"eu","cc":"de","latitude":50.110924,"longitude":8.682127,"reserved":0,"last_update":"0001-01-01T00:00:00Z","name_a2s":"Uncletopia | Frankfurt | 7 | Stopwatch Beta","protocol":17,"map":"koth_cascade","folder":"tf","game":"Team Fortress","app_id":440,"player_count":0,"max_players":24,"Bots":0,"server_type":"Dedicated","server_os":"Linux","password":true,"vac":true,"version":"7961495","steam_id":85568392924742827,"keywords":["cp","nocrits","nodmgspread","uncletopia"],"game_id":440,"stv_port":27076,"stv_name":"Uncletopia | Frankfurt | 7 | Stopwatch Beta | STV","players":null},{"server_id":24,"name":"Uncletopia | Frankfurt | 8 | Community","name_short":"frk-8","host":"frk-1.de.uncletopia.com","port":27085,"enabled":true,"region":"eu","cc":"de","latitude":50.110924,"longitude":8.682127,"reserved":0,"last_update":"0001-01-01T00:00:00Z","name_a2s":"Uncletopia | Frankfurt | 8 | Community","protocol":17,"map":"workshop/cp_logjam_rc12.ugc454812035","folder":"tf","game":"Team Fortress","app_id":440,"player_count":0,"max_players":24,"Bots":0,"server_type":"Dedicated","server_os":"Linux","password":true,"vac":true,"version":"7961495","steam_id":85568392924742828,"keywords":["cp","nocrits","nodmgspread","uncletopia"],"game_id":440,"stv_port":27086,"stv_name":"Uncletopia | Frankfurt | 8 | Community | STV","players":null},{"server_id":202,"name":"Uncletopia | Hong Kong | 1 | All Maps","name_short":"hgk-1","host":"hgk-1.hk.uncletopia.com","port":27015,"enabled":true,"region":"asia","cc":"hk","latitude":22.302711,"longitude":114.177216,"reserved":0,"last_update":"0001-01-01T00:00:00Z","name_a2s":"Uncletopia | Hong Kong | 1 | All Maps","protocol":17,"map":"koth_lakeside_final","folder":"tf","game":"Team Fortress","app_id":440,"player_count":0,"max_players":24,"Bots":0,"server_type":"Dedicated","server_os":"Linux","password":true,"vac":true,"version":"7961495","steam_id":85568392924494504,"keywords":["cp","nocrits","nodmgspread","uncletopia"],"game_id":440,"stv_port":27016,"stv_name":"Uncletopia | Hong Kong | 1 | All Maps | STV","players":null},{"server_id":1,"name":"Uncletopia | Los Angeles | 1 | All Maps","name_short":"lax-1","host":"lax-1.us.uncletopia.com","port":27015,"enabled":true,"region":"us-west","cc":"us","latitude":33.94279,"longitude":-118.41004,"reserved":0,"last_update":"0001-01-01T00:00:00Z","name_a2s":"Uncletopia | Los Angeles | 1 | All Maps","protocol":17,"map":"pl_borneo","folder":"tf","game":"Team Fortress","app_id":440,"player_count":0,"max_players":24,"Bots":0,"server_type":"Dedicated","server_os":"Linux","password":true,"vac":true,"version":"7961495","steam_id":85568392924469991,"keywords":["nocrits","nodmgspread","payload","uncletopia"],"game_id":440,"stv_port":27016,"stv_name":"Uncletopia | Los Angeles | 1 | All Maps | STV","players":null},{"server_id":112,"name":"Uncletopia | Los Angeles | 2 | All Maps","name_short":"lax-2","host":"lax-1.us.uncletopia.com","port":27025,"enabled":true,"region":"us-west","cc":"us","latitude":33.94279,"longitude":-118.41004,"reserved":0,"last_update":"0001-01-01T00:00:00Z","name_a2s":"Uncletopia | Los Angeles | 2 | All Maps","protocol":17,"map":"koth_viaduct","folder":"tf","game":"Team Fortress","app_id":440,"player_count":9,"max_players":24,"Bots":0,"server_type":"Dedicated","server_os":"Linux","password":true,"vac":true,"version":"7961495","steam_id":85568392924469992,"keywords":["cp","nocrits","nodmgspread","uncletopia"],"game_id":440,"stv_port":27026,"stv_name":"Uncletopia | Los Angeles | 2 | All Maps | STV","players":[{"user_id":10,"name":"meme","steam_id":76561199170771700,"connected_time":3861000000000,"state":"active","ping":57},{"user_id":14,"name":"ApplesMate","steam_id":76561198832763278,"connected_time":2970000000000,"state":"active","ping":55},{"user_id":29,"name":"The_Red_Boy","steam_id":76561199143949245,"connected_time":560000000000,"state":"active","ping":214},{"user_id":33,"name":"Yummy Kabobz","steam_id":76561198067661705,"connected_time":445000000000,"state":"active","ping":123},{"user_id":15,"name":"De Monki","steam_id":76561198964210411,"connected_time":2745000000000,"state":"active","ping":56},{"user_id":36,"name":"Kylar","steam_id":76561198196979431,"connected_time":167000000000,"state":"active","ping":51},{"user_id":27,"name":"Sprucelass","steam_id":76561197998391724,"connected_time":695000000000,"state":"active","ping":117},{"user_id":19,"name":"SOGGY DOGGY","steam_id":76561199158847498,"connected_time":2149000000000,"state":"active","ping":64},{"user_id":34,"name":"YugiJaco","steam_id":76561199475704120,"connected_time":421000000000,"state":"active","ping":177}]},{"server_id":324,"name":"Uncletopia | Los Angeles | 3 | All Maps","name_short":"lax-3","host":"lax-1.us.uncletopia.com","port":27035,"enabled":true,"region":"us-west","cc":"us","latitude":33.94279,"longitude":-118.41004,"reserved":0,"last_update":"0001-01-01T00:00:00Z","name_a2s":"Uncletopia | Los Angeles | 3 | All Maps","protocol":17,"map":"cp_process_final","folder":"tf","game":"Team Fortress","app_id":440,"player_count":0,"max_players":24,"Bots":0,"server_type":"Dedicated","server_os":"Linux","password":true,"vac":true,"version":"7961495","steam_id":85568392924510198,"keywords":["cp","nocrits","nodmgspread","uncletopia"],"game_id":440,"stv_port":27036,"stv_name":"Uncletopia | Los Angeles | 3 | All Maps | STV","players":null},{"server_id":25,"name":"Uncletopia | Los Angeles | 4 | Stopwatch Beta","name_short":"lax-4","host":"lax-1.us.uncletopia.com","port":27045,"enabled":true,"region":"us-west","cc":"us","latitude":33.94279,"longitude":-118.41004,"reserved":0,"last_update":"0001-01-01T00:00:00Z","name_a2s":"Uncletopia | Los Angeles | 4 | Stopwatch Beta","protocol":17,"map":"pl_upward","folder":"tf","game":"Team Fortress","app_id":440,"player_count":0,"max_players":24,"Bots":0,"server_type":"Dedicated","server_os":"Linux","password":true,"vac":true,"version":"7961495","steam_id":85568392924510199,"keywords":["nocrits","nodmgspread","payload","uncletopia"],"game_id":440,"stv_port":27046,"stv_name":"Uncletopia | Los Angeles | 4 | Stopwatch Beta | STV","players":null},{"server_id":11,"name":"Uncletopia | London | 1 | All Maps","name_short":"lon-1","host":"lon-1.uk.uncletopia.com","port":27015,"enabled":true,"region":"eu","cc":"gb","latitude":51.509865,"longitude":-0.118092,"reserved":0,"last_update":"0001-01-01T00:00:00Z","name_a2s":"Uncletopia | London | 1 | All Maps","protocol":17,"map":"pl_badwater","folder":"tf","game":"Team Fortress","app_id":440,"player_count":24,"max_players":24,"Bots":0,"server_type":"Dedicated","server_os":"Linux","password":true,"vac":true,"version":"7961495","steam_id":85568392924367362,"keywords":["nocrits","nodmgspread","payload","uncletopia"],"game_id":440,"stv_port":27016,"stv_name":"Uncletopia | London | 1 | All Maps | STV","players":[{"user_id":438,"name":"Twink Destroyer","steam_id":76561198397024973,"connected_time":1591000000000,"state":"active","ping":32},{"user_id":450,"name":"Cookies and Bakies","steam_id":76561198017442928,"connected_time":884000000000,"state":"active","ping":65},{"user_id":441,"name":"Mascabar","steam_id":76561198308046635,"connected_time":1560000000000,"state":"active","ping":59},{"user_id":407,"name":"Rockfrenzy","steam_id":76561198005428050,"connected_time":4696000000000,"state":"active","ping":75},{"user_id":432,"name":"SkinnyScoutSillies","steam_id":76561199239986653,"connected_time":2581000000000,"state":"active","ping":102},{"user_id":451,"name":"Drip-O-bama","steam_id":76561199135631057,"connected_time":872000000000,"state":"active","ping":82},{"user_id":425,"name":"cansado","steam_id":76561198003898089,"connected_time":3330000000000,"state":"active","ping":75},{"user_id":430,"name":"soar","steam_id":76561198010662796,"connected_time":2874000000000,"state":"active","ping":52},{"user_id":400,"name":"ArtaKir","steam_id":76561198291746440,"connected_time":5502000000000,"state":"active","ping":88},{"user_id":456,"name":"Jack","steam_id":76561198107539027,"connected_time":41000000000,"state":"active","ping":71},{"user_id":437,"name":"owo","steam_id":76561198158209651,"connected_time":1745000000000,"state":"active","ping":60},{"user_id":394,"name":"quickfast","steam_id":76561199438900919,"connected_time":6112000000000,"state":"active","ping":45},{"user_id":452,"name":"pedestrianise gloucester rd","steam_id":76561198126022039,"connected_time":864000000000,"state":"active","ping":53},{"user_id":435,"name":"jermany","steam_id":76561198126599355,"connected_time":2126000000000,"state":"active","ping":59},{"user_id":302,"name":"Snake-chan","steam_id":76561199044755854,"connected_time":11545000000000,"state":"active","ping":83},{"user_id":426,"name":"breakfast burrito","steam_id":76561198148606969,"connected_time":3305000000000,"state":"active","ping":86},{"user_id":442,"name":"McLundi","steam_id":76561198149640736,"connected_time":1516000000000,"state":"active","ping":86},{"user_id":453,"name":"cinder block enthusiast","steam_id":76561199062160061,"connected_time":648000000000,"state":"active","ping":53},{"user_id":455,"name":"Hydrone","steam_id":76561198046485365,"connected_time":67000000000,"state":"active","ping":34},{"user_id":413,"name":"ein'd","steam_id":76561198152162834,"connected_time":3738000000000,"state":"active","ping":104},{"user_id":440,"name":"Aaron","steam_id":76561197990046953,"connected_time":1570000000000,"state":"active","ping":46},{"user_id":454,"name":"avenje","steam_id":76561198155824845,"connected_time":95000000000,"state":"active","ping":82},{"user_id":444,"name":"outlaw","steam_id":76561198323805289,"connected_time":1453000000000,"state":"active","ping":43},{"user_id":449,"name":"terminator_polska#","steam_id":76561198952087445,"connected_time":957000000000,"state":"active","ping":78}]},{"server_id":114,"name":"Uncletopia | London | 2 | All Maps","name_short":"lon-2","host":"lon-1.uk.uncletopia.com","port":27025,"enabled":true,"region":"eu","cc":"gb","latitude":51.509865,"longitude":-0.118092,"reserved":0,"last_update":"0001-01-01T00:00:00Z","name_a2s":"Uncletopia | London | 2 | All Maps","protocol":17,"map":"pl_borneo","folder":"tf","game":"Team Fortress","app_id":440,"player_count":17,"max_players":24,"Bots":0,"server_type":"Dedicated","server_os":"Linux","password":true,"vac":true,"version":"7961495","steam_id":85568392924470941,"keywords":["nocrits","nodmgspread","payload","uncletopia"],"game_id":440,"stv_port":27026,"stv_name":"Uncletopia | London | 2 | All Maps | STV","players":[{"user_id":295,"name":"brehs","steam_id":76561198150653454,"connected_time":42000000000,"state":"active","ping":34},{"user_id":283,"name":"Townsend And Sons","steam_id":76561199072698153,"connected_time":1302000000000,"state":"active","ping":69},{"user_id":289,"name":"Free dpm; world tour","steam_id":76561199042470246,"connected_time":910000000000,"state":"active","ping":59},{"user_id":292,"name":"Tort","steam_id":76561198329646769,"connected_time":274000000000,"state":"active","ping":64},{"user_id":269,"name":"Dungdil","steam_id":76561198351930639,"connected_time":1931000000000,"state":"active","ping":65},{"user_id":288,"name":"ROX","steam_id":76561198272289320,"connected_time":1097000000000,"state":"active","ping":60},{"user_id":274,"name":"Grillem Dafoe","steam_id":76561198306874574,"connected_time":1698000000000,"state":"active","ping":90},{"user_id":168,"name":"jge","steam_id":76561198123186387,"connected_time":8029000000000,"state":"active","ping":59},{"user_id":293,"name":"Krefa12","steam_id":76561198268375393,"connected_time":153000000000,"state":"active","ping":90},{"user_id":197,"name":"noot","steam_id":76561198148074472,"connected_time":6736000000000,"state":"active","ping":45},{"user_id":198,"name":"ra ra raz","steam_id":76561198147277460,"connected_time":6730000000000,"state":"active","ping":74},{"user_id":281,"name":"Thors","steam_id":76561197968739075,"connected_time":1391000000000,"state":"active","ping":30},{"user_id":254,"name":"I Lamp","steam_id":76561198423215585,"connected_time":3310000000000,"state":"active","ping":110},{"user_id":266,"name":"Fish 'n' Chips","steam_id":76561198033476886,"connected_time":2043000000000,"state":"active","ping":69},{"user_id":270,"name":"Morbidly A Beast","steam_id":76561198251578274,"connected_time":1882000000000,"state":"active","ping":106},{"user_id":286,"name":"cazador","steam_id":76561198123096922,"connected_time":1206000000000,"state":"active","ping":95},{"user_id":279,"name":"ducks","steam_id":76561198166148685,"connected_time":1483000000000,"state":"active","ping":33}]},{"server_id":320,"name":"Uncletopia | London | 3 | All Maps","name_short":"lon-3","host":"lon-1.uk.uncletopia.com","port":27035,"enabled":true,"region":"eu","cc":"gb","latitude":51.509865,"longitude":-0.118092,"reserved":0,"last_update":"0001-01-01T00:00:00Z","name_a2s":"Uncletopia | London | 3 | All Maps","protocol":17,"map":"plr_hightower","folder":"tf","game":"Team Fortress","app_id":440,"player_count":20,"max_players":24,"Bots":0,"server_type":"Dedicated","server_os":"Linux","password":true,"vac":true,"version":"7961495","steam_id":85568392924510192,"keywords":["nocrits","nodmgspread","payload","uncletopia"],"game_id":440,"stv_port":27036,"stv_name":"Uncletopia | London | 3 | All Maps | STV","players":[{"user_id":265,"name":"Crackbean","steam_id":76561199115082856,"connected_time":8000000000,"state":"spawning","ping":369},{"user_id":244,"name":"OzKo","steam_id":76561198245355476,"connected_time":1127000000000,"state":"active","ping":167},{"user_id":245,"name":"gnarly business","steam_id":76561198832688767,"connected_time":1061000000000,"state":"active","ping":56},{"user_id":192,"name":"nyanezt","steam_id":76561198253734265,"connected_time":3940000000000,"state":"active","ping":99},{"user_id":243,"name":"NotChloe","steam_id":76561198080658092,"connected_time":1164000000000,"state":"active","ping":62},{"user_id":259,"name":"–ë–æ–µ—Ü –ß–í–ö –í–ê–ì–ù–ï–†","steam_id":76561199479563469,"connected_time":453000000000,"state":"active","ping":126},{"user_id":227,"name":"Gugu","steam_id":76561198161822358,"connected_time":1783000000000,"state":"active","ping":69},{"user_id":260,"name":"TheEventGuy","steam_id":76561197972797744,"connected_time":302000000000,"state":"active","ping":76},{"user_id":186,"name":"unpronounceable","steam_id":76561198271860748,"connected_time":4449000000000,"state":"active","ping":45},{"user_id":238,"name":"Mish","steam_id":76561198302973642,"connected_time":1248000000000,"state":"active","ping":84},{"user_id":239,"name":"randem_","steam_id":76561198338793755,"connected_time":1222000000000,"state":"active","ping":56},{"user_id":229,"name":"quak","steam_id":76561198053928976,"connected_time":1698000000000,"state":"active","ping":96},{"user_id":236,"name":"Seail_M","steam_id":76561198002405605,"connected_time":1365000000000,"state":"active","ping":73},{"user_id":194,"name":"Bobo","steam_id":76561198052308399,"connected_time":3920000000000,"state":"active","ping":72},{"user_id":241,"name":"Natural Causes","steam_id":76561198880517558,"connected_time":1208000000000,"state":"active","ping":67},{"user_id":251,"name":"DaviX","steam_id":76561198345406679,"connected_time":949000000000,"state":"active","ping":110},{"user_id":242,"name":"Defof","steam_id":76561198173691223,"connected_time":1196000000000,"state":"active","ping":71},{"user_id":253,"name":"sloppy transgirl toppy","steam_id":76561198057092208,"connected_time":902000000000,"state":"active","ping":73},{"user_id":257,"name":"yesname","steam_id":76561198030098094,"connected_time":628000000000,"state":"active","ping":98},{"user_id":219,"name":"J√∏rn","steam_id":76561199073257952,"connected_time":2460000000000,"state":"active","ping":64}]},{"server_id":321,"name":"Uncletopia | London | 4 | All Maps","name_short":"lon-4","host":"lon-1.uk.uncletopia.com","port":27045,"enabled":true,"region":"eu","cc":"gb","latitude":51.509865,"longitude":-0.118092,"reserved":0,"last_update":"0001-01-01T00:00:00Z","name_a2s":"Uncletopia | London | 4 | All Maps","protocol":17,"map":"cp_mossrock","folder":"tf","game":"Team Fortress","app_id":440,"player_count":23,"max_players":24,"Bots":0,"server_type":"Dedicated","server_os":"Linux","password":true,"vac":true,"version":"7961495","steam_id":85568392924510193,"keywords":["cp","nocrits","nodmgspread","uncletopia"],"game_id":440,"stv_port":27046,"stv_name":"Uncletopia | London | 4 | All Maps | STV","players":[{"user_id":358,"name":"Lessoz","steam_id":76561199211572036,"connected_time":88000000000,"state":"active","ping":90},{"user_id":334,"name":"Jean Shorts","steam_id":76561199229436391,"connected_time":1499000000000,"state":"active","ping":67},{"user_id":336,"name":"Alegz","steam_id":76561198287810139,"connected_time":1340000000000,"state":"active","ping":83},{"user_id":323,"name":"beheading video from 2009","steam_id":76561198834897089,"connected_time":1842000000000,"state":"active","ping":75},{"user_id":350,"name":"Jabussy","steam_id":76561198111148719,"connected_time":486000000000,"state":"active","ping":70},{"user_id":354,"name":"boy i'm on yo ass","steam_id":76561198032801875,"connected_time":287000000000,"state":"active","ping":83},{"user_id":324,"name":"Maple","steam_id":76561199051578556,"connected_time":1837000000000,"state":"active","ping":149},{"user_id":352,"name":"Abby","steam_id":76561198170528489,"connected_time":423000000000,"state":"active","ping":66},{"user_id":338,"name":"Nico","steam_id":76561197984991962,"connected_time":1324000000000,"state":"active","ping":121},{"user_id":348,"name":"THE Grosser","steam_id":76561197995530666,"connected_time":634000000000,"state":"active","ping":58},{"user_id":357,"name":"Anton Stormbreaker","steam_id":76561198041426778,"connected_time":143000000000,"state":"active","ping":67},{"user_id":291,"name":"EœáSpecula","steam_id":76561198040669766,"connected_time":3673000000000,"state":"active","ping":100},{"user_id":344,"name":"Pvt. Prinny","steam_id":76561198030278562,"connected_time":993000000000,"state":"active","ping":45},{"user_id":270,"name":"Wario","steam_id":76561198356089255,"connected_time":5807000000000,"state":"active","ping":70},{"user_id":314,"name":"Smoking problem","steam_id":76561198361351449,"connected_time":2481000000000,"state":"active","ping":67},{"user_id":353,"name":"Voxel","steam_id":76561199225333422,"connected_time":405000000000,"state":"active","ping":116},{"user_id":326,"name":"silicon based life form","steam_id":76561199127121346,"connected_time":1816000000000,"state":"active","ping":67},{"user_id":355,"name":"-gunripp0r^be / Obelix^","steam_id":76561197999306879,"connected_time":242000000000,"state":"active","ping":73},{"user_id":337,"name":"Acanda","steam_id":76561198123246537,"connected_time":1325000000000,"state":"active","ping":63},{"user_id":237,"name":"fence_","steam_id":76561198150386379,"connected_time":7894000000000,"state":"active","ping":47},{"user_id":316,"name":"heavy sings (real)","steam_id":76561199023804405,"connected_time":2447000000000,"state":"active","ping":69},{"user_id":333,"name":"IONYCH","steam_id":76561198378350040,"connected_time":1641000000000,"state":"active","ping":80},{"user_id":345,"name":"your_local_penguin","steam_id":76561199224954346,"connected_time":976000000000,"state":"active","ping":93}]},{"server_id":21,"name":"Uncletopia | London | 5 | All Maps","name_short":"lon-5","host":"lon-1.uk.uncletopia.com","port":27055,"enabled":true,"region":"eu","cc":"gb","latitude":51.509865,"longitude":-0.118092,"reserved":0,"last_update":"0001-01-01T00:00:00Z","name_a2s":"Uncletopia | London | 5 | All Maps","protocol":17,"map":"pl_swiftwater_final1","folder":"tf","game":"Team Fortress","app_id":440,"player_count":24,"max_players":24,"Bots":0,"server_type":"Dedicated","server_os":"Linux","password":true,"vac":true,"version":"7961495","steam_id":85568392924742829,"keywords":["nocrits","nodmgspread","payload","uncletopia"],"game_id":440,"stv_port":27056,"stv_name":"Uncletopia | London | 5 | All Maps | STV","players":[{"user_id":108,"name":"‚ù§G a n K","steam_id":76561199125995565,"connected_time":1084000000000,"state":"active","ping":65},{"user_id":118,"name":"Nekard","steam_id":76561199055501351,"connected_time":550000000000,"state":"active","ping":74},{"user_id":110,"name":"Cold Heart","steam_id":76561198109838745,"connected_time":897000000000,"state":"active","ping":62},{"user_id":96,"name":"Lernix","steam_id":76561198382328645,"connected_time":1830000000000,"state":"active","ping":70},{"user_id":101,"name":"pl.haker","steam_id":76561198278440186,"connected_time":1583000000000,"state":"active","ping":88},{"user_id":86,"name":"Underground - Hard Rock R1700G","steam_id":76561198215986979,"connected_time":2223000000000,"state":"active","ping":45},{"user_id":111,"name":"bluecheesemints","steam_id":76561199490357988,"connected_time":885000000000,"state":"active","ping":66},{"user_id":113,"name":"SODA!!!!!!!","steam_id":76561198107362485,"connected_time":791000000000,"state":"active","ping":70},{"user_id":122,"name":"saltywalrus","steam_id":76561198338001056,"connected_time":418000000000,"state":"active","ping":61},{"user_id":115,"name":"axalotly-gaming","steam_id":76561199131971501,"connected_time":705000000000,"state":"active","ping":99},{"user_id":117,"name":"Majestic Sausage","steam_id":76561197967265726,"connected_time":580000000000,"state":"active","ping":56},{"user_id":119,"name":"Bottle O' Scrumpy","steam_id":76561199244250562,"connected_time":540000000000,"state":"active","ping":108},{"user_id":120,"name":"MC Stompin","steam_id":76561198061527217,"connected_time":486000000000,"state":"active","ping":54},{"user_id":121,"name":"AlexBlob","steam_id":76561198046291549,"connected_time":453000000000,"state":"active","ping":42},{"user_id":123,"name":"insane, deranged possibly menta","steam_id":76561198139729249,"connected_time":409000000000,"state":"active","ping":92},{"user_id":124,"name":"–ü–ï–°–ö–ê–†–¨ –ò–í–ê–ù–´–ß","steam_id":76561198985253485,"connected_time":348000000000,"state":"active","ping":108},{"user_id":125,"name":"‚ù§ Sparx ‚ù§","steam_id":76561198095009261,"connected_time":324000000000,"state":"active","ping":62},{"user_id":126,"name":"7kikilda","steam_id":76561198985025361,"connected_time":293000000000,"state":"active","ping":104},{"user_id":127,"name":"Sh3ba Spaniel","steam_id":76561198047412394,"connected_time":275000000000,"state":"active","ping":157},{"user_id":128,"name":"Urfangonultasadana","steam_id":76561199389286151,"connected_time":274000000000,"state":"active","ping":103},{"user_id":129,"name":"qcHeavy","steam_id":76561198072218040,"connected_time":256000000000,"state":"active","ping":107},{"user_id":130,"name":"Nassu","steam_id":76561198147367577,"connected_time":250000000000,"state":"active","ping":165},{"user_id":131,"name":"Maddox","steam_id":76561198026419869,"connected_time":234000000000,"state":"active","ping":78},{"user_id":135,"name":"Jara.","steam_id":76561197992207165,"connected_time":83000000000,"state":"active","ping":114}]},{"server_id":22,"name":"Uncletopia | London | 6 | All Maps","name_short":"lon-6","host":"lon-1.uk.uncletopia.com","port":27065,"enabled":true,"region":"eu","cc":"gb","latitude":51.509865,"longitude":-0.118092,"reserved":0,"last_update":"0001-01-01T00:00:00Z","name_a2s":"Uncletopia | London | 6 | All Maps","protocol":17,"map":"pl_frontier_final","folder":"tf","game":"Team Fortress","app_id":440,"player_count":24,"max_players":24,"Bots":0,"server_type":"Dedicated","server_os":"Linux","password":true,"vac":true,"version":"7961495","steam_id":85568392924742830,"keywords":["nocrits","nodmgspread","payload","uncletopia"],"game_id":440,"stv_port":27066,"stv_name":"Uncletopia | London | 6 | All Maps | STV","players":[{"user_id":355,"name":"a bullet","steam_id":76561198809248362,"connected_time":3633000000000,"state":"active","ping":92},{"user_id":392,"name":"‚úôSt0rmC4st3r‚úô","steam_id":76561198079841728,"connected_time":378000000000,"state":"active","ping":85},{"user_id":390,"name":"prophits","steam_id":76561198011854314,"connected_time":658000000000,"state":"active","ping":59},{"user_id":389,"name":"KiteNock","steam_id":76561198160622922,"connected_time":771000000000,"state":"active","ping":74},{"user_id":309,"name":"Combat Wombat","steam_id":76561197994720068,"connected_time":6287000000000,"state":"active","ping":64},{"user_id":400,"name":"Boggard","steam_id":76561199174594050,"connected_time":211000000000,"state":"active","ping":53},{"user_id":376,"name":"wtabs","steam_id":76561198831766743,"connected_time":1272000000000,"state":"active","ping":84},{"user_id":368,"name":"Tails8521","steam_id":76561198051747164,"connected_time":1965000000000,"state":"active","ping":59},{"user_id":381,"name":"skullhead289","steam_id":76561199086481600,"connected_time":1207000000000,"state":"active","ping":76},{"user_id":398,"name":"Kreygan","steam_id":76561198014580270,"connected_time":277000000000,"state":"active","ping":71},{"user_id":403,"name":"Sarinya","steam_id":76561198079919172,"connected_time":45000000000,"state":"active","ping":64},{"user_id":388,"name":"Average meme enjoyer","steam_id":76561199087566663,"connected_time":1025000000000,"state":"active","ping":95},{"user_id":377,"name":"78 :3","steam_id":76561198208328357,"connected_time":1246000000000,"state":"active","ping":88},{"user_id":338,"name":"generic alias","steam_id":76561198271607226,"connected_time":4241000000000,"state":"active","ping":84},{"user_id":315,"name":"MaRo","steam_id":76561198992286676,"connected_time":6215000000000,"state":"active","ping":51},{"user_id":391,"name":"Sud","steam_id":76561197974116747,"connected_time":555000000000,"state":"active","ping":181},{"user_id":384,"name":"Mr_Pulse_","steam_id":76561198095001602,"connected_time":1142000000000,"state":"active","ping":106},{"user_id":385,"name":"Akero","steam_id":76561198857883916,"connected_time":1135000000000,"state":"active","ping":78},{"user_id":394,"name":"Grim the lemon","steam_id":76561199083433988,"connected_time":343000000000,"state":"active","ping":49},{"user_id":371,"name":"Matteo Besho","steam_id":76561199159657855,"connected_time":1358000000000,"state":"active","ping":80},{"user_id":397,"name":"Risinger","steam_id":76561198079789688,"connected_time":282000000000,"state":"active","ping":63},{"user_id":401,"name":"profreshional cactus","steam_id":76561198837919828,"connected_time":204000000000,"state":"active","ping":108},{"user_id":337,"name":"wheelchair emperor","steam_id":76561198076084824,"connected_time":4690000000000,"state":"active","ping":65},{"user_id":404,"name":"Prsm","steam_id":76561198053344995,"connected_time":18000000000,"state":"active","ping":107}]},{"server_id":40,"name":"Uncletopia | London | 7 | No Payload","name_short":"lon-7","host":"lon-1.uk.uncletopia.com","port":27075,"enabled":true,"region":"eu","cc":"gb","latitude":51.509865,"longitude":-0.118092,"reserved":0,"last_update":"0001-01-01T00:00:00Z","name_a2s":"Uncletopia | London | 7 | No Payload","protocol":17,"map":"cp_steel","folder":"tf","game":"Team Fortress","app_id":440,"player_count":18,"max_players":24,"Bots":0,"server_type":"Dedicated","server_os":"Linux","password":true,"vac":true,"version":"7961495","steam_id":85568392924964314,"keywords":["cp","nocrits","nodmgspread","uncletopia"],"game_id":440,"stv_port":27076,"stv_name":"Uncletopia | London | 7 | No Payload | STV","players":[{"user_id":314,"name":"Piquesque","steam_id":76561198286763046,"connected_time":1487000000000,"state":"active","ping":106},{"user_id":329,"name":"guerillamannam","steam_id":76561198121045396,"connected_time":586000000000,"state":"active","ping":66},{"user_id":282,"name":"Kotlonizator","steam_id":76561198993830128,"connected_time":3212000000000,"state":"active","ping":85},{"user_id":310,"name":"Sirzen","steam_id":76561198170155434,"connected_time":1846000000000,"state":"active","ping":45},{"user_id":298,"name":"mud","steam_id":76561198141497461,"connected_time":2404000000000,"state":"active","ping":74},{"user_id":326,"name":"Moon","steam_id":76561198047535132,"connected_time":607000000000,"state":"active","ping":75},{"user_id":317,"name":"Mussolini","steam_id":76561198218384865,"connected_time":1427000000000,"state":"active","ping":106},{"user_id":292,"name":"Spectralius","steam_id":76561198111455006,"connected_time":2802000000000,"state":"active","ping":59},{"user_id":319,"name":"deloreg (playing medic)","steam_id":76561199487318962,"connected_time":1369000000000,"state":"active","ping":76},{"user_id":327,"name":"Don't","steam_id":76561198032529704,"connected_time":606000000000,"state":"active","ping":154},{"user_id":299,"name":"thysponge55","steam_id":76561198042784730,"connected_time":2395000000000,"state":"active","ping":44},{"user_id":306,"name":"AethericRuby","steam_id":76561198066395000,"connected_time":2176000000000,"state":"active","ping":45},{"user_id":300,"name":"dum","steam_id":76561198053386482,"connected_time":2392000000000,"state":"active","ping":132},{"user_id":264,"name":"ddchdrn","steam_id":76561198024358566,"connected_time":5090000000000,"state":"active","ping":73},{"user_id":307,"name":"haraldÔº®Ôº°Ôº≤Ôº°Ôº¨Ôº§","steam_id":76561198116998970,"connected_time":2175000000000,"state":"active","ping":78},{"user_id":265,"name":"Loitsu","steam_id":76561198098177012,"connected_time":5088000000000,"state":"active","ping":107},{"user_id":325,"name":"Welder","steam_id":76561198355300561,"connected_time":834000000000,"state":"active","ping":68},{"user_id":330,"name":"Olaf Gasbrigi","steam_id":76561198000618491,"connected_time":525000000000,"state":"active","ping":73}]},{"server_id":41,"name":"Uncletopia | London | 8 | Community","name_short":"lon-8","host":"lon-1.uk.uncletopia.com","port":27085,"enabled":true,"region":"eu","cc":"gb","latitude":51.509865,"longitude":-0.118092,"reserved":0,"last_update":"0001-01-01T00:00:00Z","name_a2s":"Uncletopia | London | 8 | Community","protocol":17,"map":"workshop/koth_ramjam_rc1.ugc459778887","folder":"tf","game":"Team Fortress","app_id":440,"player_count":3,"max_players":24,"Bots":0,"server_type":"Dedicated","server_os":"Linux","password":true,"vac":true,"version":"7961495","steam_id":85568392924964315,"keywords":["cp","nocrits","nodmgspread","uncletopia"],"game_id":440,"stv_port":27086,"stv_name":"Uncletopia | London | 8 | Community | STV","players":[{"user_id":11,"name":"–£—Ö –¢–∏–º—É—Ä–∫–∞","steam_id":76561198203003862,"connected_time":2965000000000,"state":"active","ping":115},{"user_id":12,"name":"—É—Ö –ê–ª–µ–∫—Å–∞–Ω–¥—Ä","steam_id":76561198995476261,"connected_time":2943000000000,"state":"active","ping":103},{"user_id":13,"name":"—É—Ö –ù–∏–∫–∏—Ç–∫–∞","steam_id":76561199227727933,"connected_time":2807000000000,"state":"active","ping":106}]},{"server_id":300,"name":"Uncletopia | Montr√©al | 1 | All Maps","name_short":"mtl-1","host":"mtl-1.ca.uncletopia.com","port":27015,"enabled":true,"region":"us-east","cc":"ca","latitude":45.50889,"longitude":-73.56167,"reserved":0,"last_update":"0001-01-01T00:00:00Z","name_a2s":"Uncletopia | Montr√©al | 1 | All Maps","protocol":17,"map":"koth_harvest_final","folder":"tf","game":"Team Fortress","app_id":440,"player_count":0,"max_players":24,"Bots":0,"server_type":"Dedicated","server_os":"Linux","password":true,"vac":true,"version":"7961495","steam_id":85568392924500087,"keywords":["cp","nocrits","nodmgspread","uncletopia"],"game_id":440,"stv_port":27016,"stv_name":"Uncletopia | Montr√©al | 1 | All Maps | STV","players":null},{"server_id":301,"name":"Uncletopia | Montr√©al | 2 | All Maps","name_short":"mtl-2","host":"mtl-1.ca.uncletopia.com","port":27025,"enabled":true,"region":"us-east","cc":"ca","latitude":45.50889,"longitude":-73.56167,"reserved":0,"last_update":"0001-01-01T00:00:00Z","name_a2s":"Uncletopia | Montr√©al | 2 | All Maps","protocol":17,"map":"cp_dustbowl","folder":"tf","game":"Team Fortress","app_id":440,"player_count":0,"max_players":24,"Bots":0,"server_type":"Dedicated","server_os":"Linux","password":true,"vac":true,"version":"7961495","steam_id":85568392924500088,"keywords":["cp","nocrits","nodmgspread","uncletopia"],"game_id":440,"stv_port":27026,"stv_name":"Uncletopia | Montr√©al | 2 | All Maps | STV","players":null},{"server_id":302,"name":"Uncletopia | Montr√©al | 3 | All Maps","name_short":"mtl-3","host":"mtl-1.ca.uncletopia.com","port":27035,"enabled":true,"region":"us-east","cc":"ca","latitude":45.50889,"longitude":-73.56167,"reserved":0,"last_update":"0001-01-01T00:00:00Z","name_a2s":"Uncletopia | Montr√©al | 3 | All Maps","protocol":17,"map":"koth_cascade","folder":"tf","game":"Team Fortress","app_id":440,"player_count":0,"max_players":24,"Bots":0,"server_type":"Dedicated","server_os":"Linux","password":true,"vac":true,"version":"7961495","steam_id":85568392924500089,"keywords":["cp","nocrits","nodmgspread","uncletopia"],"game_id":440,"stv_port":27036,"stv_name":"Uncletopia | Montr√©al | 3 | All Maps | STV","players":null},{"server_id":303,"name":"Uncletopia | Montr√©al | 4 | No Payload","name_short":"mtl-4","host":"mtl-1.ca.uncletopia.com","port":27045,"enabled":true,"region":"us-east","cc":"ca","latitude":45.50889,"longitude":-73.56167,"reserved":0,"last_update":"0001-01-01T00:00:00Z","name_a2s":"Uncletopia | Montr√©al | 4 | No Payload","protocol":17,"map":"koth_lakeside_final","folder":"tf","game":"Team Fortress","app_id":440,"player_count":0,"max_players":24,"Bots":0,"server_type":"Dedicated","server_os":"Linux","password":true,"vac":true,"version":"7961495","steam_id":85568392924500090,"keywords":["cp","nocrits","nodmgspread","uncletopia"],"game_id":440,"stv_port":27046,"stv_name":"Uncletopia | Montr√©al | 4 | No Payload | STV","players":null},{"server_id":13,"name":"Uncletopia | New York City | 1 | All Maps","name_short":"nyc-1","host":"nyc-1.us.uncletopia.com","port":27015,"enabled":true,"region":"us-east","cc":"us","latitude":40.73061,"longitude":-73.93524,"reserved":0,"last_update":"0001-01-01T00:00:00Z","name_a2s":"Uncletopia | New York City | 1 | All Maps","protocol":17,"map":"pl_borneo","folder":"tf","game":"Team Fortress","app_id":440,"player_count":24,"max_players":24,"Bots":0,"server_type":"Dedicated","server_os":"Linux","password":true,"vac":true,"version":"7961495","steam_id":85568392924469993,"keywords":["nocrits","nodmgspread","payload","uncletopia"],"game_id":440,"stv_port":27016,"stv_name":"Uncletopia | New York City | 1 | All Maps | STV","players":[{"user_id":88,"name":"Blitzy","steam_id":76561198149472890,"connected_time":5262000000000,"state":"active","ping":92},{"user_id":124,"name":"Feces","steam_id":76561198380219187,"connected_time":2437000000000,"state":"active","ping":73},{"user_id":138,"name":"Provocator","steam_id":76561197961830410,"connected_time":1135000000000,"state":"active","ping":100},{"user_id":143,"name":"he munch","steam_id":76561198339644583,"connected_time":917000000000,"state":"active","ping":78},{"user_id":118,"name":"Kritzburgh","steam_id":76561198149466938,"connected_time":2706000000000,"state":"active","ping":59},{"user_id":113,"name":"turd ferguson","steam_id":76561198071620782,"connected_time":2914000000000,"state":"active","ping":70},{"user_id":146,"name":"anxiety","steam_id":76561198107071834,"connected_time":389000000000,"state":"active","ping":40},{"user_id":133,"name":"Norman","steam_id":76561198154715990,"connected_time":1626000000000,"state":"active","ping":103},{"user_id":73,"name":"üÖúüÖîüÖîüÖöüÖ¢üÖ£üÖî\ufffd\ufffd\ufffd","steam_id":76561197999748343,"connected_time":6324000000000,"state":"active","ping":76},{"user_id":147,"name":"Swifgz","steam_id":76561198162875756,"connected_time":293000000000,"state":"active","ping":48},{"user_id":125,"name":"[NAME-REDACTED]","steam_id":76561198035682975,"connected_time":2264000000000,"state":"active","ping":45},{"user_id":145,"name":"acid","steam_id":76561198055855408,"connected_time":421000000000,"state":"active","ping":58},{"user_id":149,"name":"Navis","steam_id":76561198996230924,"connected_time":272000000000,"state":"active","ping":66},{"user_id":142,"name":"noided","steam_id":76561198353924837,"connected_time":1051000000000,"state":"active","ping":71},{"user_id":80,"name":"Zomboboi_","steam_id":76561198139401380,"connected_time":5501000000000,"state":"active","ping":78},{"user_id":131,"name":"Sprinklingmydoughnut","steam_id":76561198168009092,"connected_time":1687000000000,"state":"active","ping":69},{"user_id":137,"name":"Tile(s)","steam_id":76561198196660338,"connected_time":1170000000000,"state":"active","ping":61},{"user_id":134,"name":"triple_range_merge","steam_id":76561198991225026,"connected_time":1562000000000,"state":"active","ping":63},{"user_id":141,"name":"crenellate","steam_id":76561198165582650,"connected_time":1084000000000,"state":"active","ping":79},{"user_id":114,"name":"yoshido","steam_id":76561198846313229,"connected_time":2876000000000,"state":"active","ping":55},{"user_id":120,"name":"nilftb","steam_id":76561198161952186,"connected_time":2687000000000,"state":"active","ping":58},{"user_id":109,"name":"BellyAche","steam_id":76561198098582202,"connected_time":3145000000000,"state":"active","ping":141},{"user_id":116,"name":"Pugzilla","steam_id":76561198108088960,"connected_time":2807000000000,"state":"active","ping":66},{"user_id":144,"name":"Ninja Steave","steam_id":76561197985884951,"connected_time":464000000000,"state":"active","ping":58}]},{"server_id":14,"name":"Uncletopia | New York City | 2 | All Maps","name_short":"nyc-2","host":"nyc-1.us.uncletopia.com","port":27025,"enabled":true,"region":"us-east","cc":"us","latitude":40.73061,"longitude":-73.93524,"reserved":0,"last_update":"0001-01-01T00:00:00Z","name_a2s":"Uncletopia | New York City | 2 | All Maps","protocol":17,"map":"koth_lakeside_final","folder":"tf","game":"Team Fortress","app_id":440,"player_count":0,"max_players":24,"Bots":0,"server_type":"Dedicated","server_os":"Linux","password":true,"vac":true,"version":"7961495","steam_id":85568392924469994,"keywords":["cp","nocrits","nodmgspread","uncletopia"],"game_id":440,"stv_port":27026,"stv_name":"Uncletopia | New York City | 2 | All Maps | STV","players":null},{"server_id":15,"name":"Uncletopia | New York City | 3 | Stopwatch Beta","name_short":"nyc-3","host":"nyc-1.us.uncletopia.com","port":27035,"enabled":true,"region":"us-east","cc":"us","latitude":40.73061,"longitude":-73.93524,"reserved":0,"last_update":"0001-01-01T00:00:00Z","name_a2s":"Uncletopia | New York City | 3 | Stopwatch Beta","protocol":17,"map":"cp_mountainlab","folder":"tf","game":"Team Fortress","app_id":440,"player_count":0,"max_players":24,"Bots":0,"server_type":"Dedicated","server_os":"Linux","password":true,"vac":true,"version":"7961495","steam_id":85568392924742820,"keywords":["cp","nocrits","nodmgspread","uncletopia"],"game_id":440,"stv_port":27036,"stv_name":"Uncletopia | New York City | 3 | Stopwatch Beta | STV","players":null},{"server_id":16,"name":"Uncletopia | New York City | 4 | Community","name_short":"nyc-4","host":"nyc-1.us.uncletopia.com","port":27045,"enabled":true,"region":"us-east","cc":"us","latitude":40.73061,"longitude":-73.93524,"reserved":0,"last_update":"0001-01-01T00:00:00Z","name_a2s":"Uncletopia | New York City | 4 | Community","protocol":17,"map":"workshop/koth_kemptown_rc1.ugc767410655","folder":"tf","game":"Team Fortress","app_id":440,"player_count":17,"max_players":24,"Bots":0,"server_type":"Dedicated","server_os":"Linux","password":true,"vac":true,"version":"7961495","steam_id":85568392924742821,"keywords":["cp","nocrits","nodmgspread","uncletopia"],"game_id":440,"stv_port":27046,"stv_name":"Uncletopia | New York City | 4 | Community | STV","players":[{"user_id":115,"name":"k3ramb1t","steam_id":76561198097880352,"connected_time":1370000000000,"state":"active","ping":56},{"user_id":120,"name":"soupwithonions37","steam_id":76561199014636515,"connected_time":1121000000000,"state":"active","ping":85},{"user_id":121,"name":"The Sinister Potion","steam_id":76561198131280715,"connected_time":998000000000,"state":"active","ping":54},{"user_id":118,"name":"Hotel Mario","steam_id":76561198083276946,"connected_time":1320000000000,"state":"active","ping":52},{"user_id":135,"name":"Pluto","steam_id":76561198338593690,"connected_time":251000000000,"state":"active","ping":75},{"user_id":137,"name":"crankshaft","steam_id":76561197992798282,"connected_time":68000000000,"state":"active","ping":109},{"user_id":122,"name":"purpledrake08","steam_id":76561199155657280,"connected_time":973000000000,"state":"active","ping":119},{"user_id":109,"name":"defcon","steam_id":76561198100656328,"connected_time":1828000000000,"state":"active","ping":84},{"user_id":129,"name":"LogicDuel","steam_id":76561198840405795,"connected_time":647000000000,"state":"active","ping":86},{"user_id":124,"name":"GandalfTheGrey6","steam_id":76561199116701903,"connected_time":912000000000,"state":"active","ping":91},{"user_id":132,"name":"pan","steam_id":76561199019732036,"connected_time":516000000000,"state":"active","ping":58},{"user_id":136,"name":"Keyblockor","steam_id":76561197997009501,"connected_time":181000000000,"state":"active","ping":127},{"user_id":134,"name":"Hidden Phantom","steam_id":76561198115531799,"connected_time":340000000000,"state":"active","ping":84},{"user_id":99,"name":"ChimpLover445","steam_id":76561199221501810,"connected_time":2569000000000,"state":"active","ping":55},{"user_id":138,"name":"SmearierGold7","steam_id":76561198065689410,"connected_time":15000000000,"state":"spawning","ping":171},{"user_id":139,"name":"OG Water Wraith Kush","steam_id":76561198124765834,"connected_time":10000000000,"state":"spawning","ping":108},{"user_id":111,"name":"The Boss","steam_id":76561198264576571,"connected_time":1751000000000,"state":"active","ping":158}]},{"server_id":142,"name":"Uncletopia | S√£o Paulo | 1 | All Maps","name_short":"sao-1","host":"sao-1.br.uncletopia.com","port":27015,"enabled":true,"region":"sa","cc":"br","latitude":-23.533773,"longitude":-46.62529,"reserved":0,"last_update":"0001-01-01T00:00:00Z","name_a2s":"Uncletopia | S√£o Paulo | 1 | All Maps","protocol":17,"map":"koth_highpass","folder":"tf","game":"Team Fortress","app_id":440,"player_count":0,"max_players":24,"Bots":0,"server_type":"Dedicated","server_os":"Linux","password":true,"vac":true,"version":"7961495","steam_id":85568392924469996,"keywords":["cp","nocrits","nodmgspread","uncletopia"],"game_id":440,"stv_port":27016,"stv_name":"Uncletopia | S√£o Paulo | 1 | All Maps | STV","players":null},{"server_id":143,"name":"Uncletopia | S√£o Paulo | 2 | Community","name_short":"sao-2","host":"sao-2.br.uncletopia.com","port":27015,"enabled":true,"region":"sa","cc":"br","latitude":-23.533773,"longitude":-46.62529,"reserved":0,"last_update":"0001-01-01T00:00:00Z","name_a2s":"Uncletopia | S√£o Paulo | 2 | Community","protocol":17,"map":"workshop/pl_divulgence_b4b.ugc2884808746","folder":"tf","game":"Team Fortress","app_id":440,"player_count":0,"max_players":24,"Bots":0,"server_type":"Dedicated","server_os":"Linux","password":true,"vac":true,"version":"7961495","steam_id":85568392924485349,"keywords":["nocrits","nodmgspread","payload","uncletopia"],"game_id":440,"stv_port":27016,"stv_name":"Uncletopia | S√£o Paulo | 2 | Community | STV","players":null},{"server_id":7,"name":"Uncletopia | Seattle | 1 | All Maps","name_short":"sea-1","host":"sea-1.us.uncletopia.com","port":27015,"enabled":true,"region":"us-west","cc":"us","latitude":47.608013,"longitude":-122.33517,"reserved":0,"last_update":"0001-01-01T00:00:00Z","name_a2s":"Uncletopia | Seattle | 1 | All Maps","protocol":17,"map":"koth_cascade","folder":"tf","game":"Team Fortress","app_id":440,"player_count":24,"max_players":24,"Bots":0,"server_type":"Dedicated","server_os":"Linux","password":true,"vac":true,"version":"7961495","steam_id":85568392924469997,"keywords":["cp","nocrits","nodmgspread","uncletopia"],"game_id":440,"stv_port":27016,"stv_name":"Uncletopia | Seattle | 1 | All Maps | STV","players":[{"user_id":119,"name":"captain red","steam_id":76561198191587983,"connected_time":3112000000000,"state":"active","ping":76},{"user_id":155,"name":"Mythical Lag","steam_id":76561198347031281,"connected_time":2053000000000,"state":"active","ping":114},{"user_id":152,"name":"Cob","steam_id":76561198042518365,"connected_time":2268000000000,"state":"active","ping":67},{"user_id":163,"name":"jayeskae","steam_id":76561198144220801,"connected_time":1392000000000,"state":"active","ping":45},{"user_id":190,"name":"Red Orbama","steam_id":76561198047002366,"connected_time":108000000000,"state":"active","ping":48},{"user_id":167,"name":"Kzjytsugn","steam_id":76561198130241974,"connected_time":1318000000000,"state":"active","ping":45},{"user_id":140,"name":"Mr. DeLarge","steam_id":76561198336820066,"connected_time":2774000000000,"state":"active","ping":63},{"user_id":66,"name":"CasemanTheBlondeBear","steam_id":76561198144862404,"connected_time":4728000000000,"state":"active","ping":58},{"user_id":175,"name":"flamingdorit0s","steam_id":76561198869206247,"connected_time":764000000000,"state":"active","ping":100},{"user_id":183,"name":"Trousers","steam_id":76561198128158481,"connected_time":411000000000,"state":"active","ping":80},{"user_id":192,"name":"[SK] Punish ‚ô• ÁâßÊøëÁ∫¢ËéâÊ†ñ","steam_id":76561198207987376,"connected_time":34000000000,"state":"active","ping":122},{"user_id":174,"name":"dust | she/it","steam_id":76561198045218909,"connected_time":791000000000,"state":"active","ping":44},{"user_id":166,"name":"TRx AxIon2","steam_id":76561198980931557,"connected_time":1346000000000,"state":"active","ping":127},{"user_id":168,"name":"Shwal","steam_id":76561198138840448,"connected_time":1305000000000,"state":"active","ping":128},{"user_id":145,"name":"JesterJasper","steam_id":76561198025338925,"connected_time":2652000000000,"state":"active","ping":46},{"user_id":178,"name":"westward (was/were)","steam_id":76561198805512350,"connected_time":548000000000,"state":"active","ping":61},{"user_id":184,"name":"Troll","steam_id":76561198334059206,"connected_time":389000000000,"state":"active","ping":74},{"user_id":193,"name":"dep","steam_id":76561198044106812,"connected_time":24000000000,"state":"active","ping":155},{"user_id":147,"name":"strawberry","steam_id":76561198101926397,"connected_time":2621000000000,"state":"active","ping":96},{"user_id":181,"name":"2girls1diymo","steam_id":76561198017600790,"connected_time":482000000000,"state":"active","ping":40},{"user_id":185,"name":"Ice cream sandwich","steam_id":76561198172748357,"connected_time":380000000000,"state":"active","ping":73},{"user_id":186,"name":"Applesauce","steam_id":76561198047011689,"connected_time":325000000000,"state":"active","ping":88},{"user_id":187,"name":"Neoranga311","steam_id":76561198148758073,"connected_time":324000000000,"state":"active","ping":76},{"user_id":188,"name":"zinnk","steam_id":76561198092081825,"connected_time":317000000000,"state":"active","ping":66}]},{"server_id":119,"name":"Uncletopia | Seattle | 2 | All Maps","name_short":"sea-2","host":"sea-1.us.uncletopia.com","port":27025,"enabled":true,"region":"us-west","cc":"us","latitude":47.608013,"longitude":-122.33517,"reserved":0,"last_update":"0001-01-01T00:00:00Z","name_a2s":"Uncletopia | Seattle | 2 | All Maps","protocol":17,"map":"pl_pier","folder":"tf","game":"Team Fortress","app_id":440,"player_count":24,"max_players":24,"Bots":0,"server_type":"Dedicated","server_os":"Linux","password":true,"vac":true,"version":"7961495","steam_id":85568392924469998,"keywords":["nocrits","nodmgspread","payload","uncletopia"],"game_id":440,"stv_port":27026,"stv_name":"Uncletopia | Seattle | 2 | All Maps | STV","players":[{"user_id":380,"name":"silly jester","steam_id":76561198079609974,"connected_time":636000000000,"state":"active","ping":78},{"user_id":374,"name":"GameBreaker","steam_id":76561198836171572,"connected_time":1129000000000,"state":"active","ping":64},{"user_id":375,"name":"Jazz2T","steam_id":76561198154418867,"connected_time":1068000000000,"state":"active","ping":139},{"user_id":360,"name":"Soda","steam_id":76561198219209367,"connected_time":1838000000000,"state":"active","ping":58},{"user_id":339,"name":"_almond_milk_","steam_id":76561198415523179,"connected_time":3917000000000,"state":"active","ping":77},{"user_id":361,"name":"Dad 2","steam_id":76561198138546187,"connected_time":1817000000000,"state":"active","ping":116},{"user_id":347,"name":"Cael Thavain","steam_id":76561198136789464,"connected_time":3610000000000,"state":"active","ping":63},{"user_id":372,"name":"Keamy","steam_id":76561199471434875,"connected_time":1323000000000,"state":"active","ping":45},{"user_id":362,"name":"Phyre112","steam_id":76561198064367510,"connected_time":1811000000000,"state":"active","ping":72},{"user_id":381,"name":"Pybro's Day Off","steam_id":76561197996353534,"connected_time":172000000000,"state":"active","ping":83},{"user_id":377,"name":"Lucas","steam_id":76561198399704604,"connected_time":754000000000,"state":"active","ping":83},{"user_id":365,"name":"Twitch.tv/Jinx_VM","steam_id":76561198280150602,"connected_time":1651000000000,"state":"active","ping":55},{"user_id":332,"name":"Laney","steam_id":76561199048555878,"connected_time":4311000000000,"state":"active","ping":67},{"user_id":352,"name":"floofy","steam_id":76561198389769098,"connected_time":3222000000000,"state":"active","ping":128},{"user_id":373,"name":"Bozo","steam_id":76561198915307189,"connected_time":1237000000000,"state":"active","ping":109},{"user_id":357,"name":"BlazedBunny","steam_id":76561198243610560,"connected_time":2398000000000,"state":"active","ping":77},{"user_id":353,"name":"BurdBrain","steam_id":76561197962097737,"connected_time":2836000000000,"state":"active","ping":86},{"user_id":348,"name":"Ludacris","steam_id":76561198829460487,"connected_time":3595000000000,"state":"active","ping":106},{"user_id":308,"name":"fruit brute fiend","steam_id":76561198811500361,"connected_time":5687000000000,"state":"active","ping":45},{"user_id":342,"name":"chanoc","steam_id":76561198026734746,"connected_time":3832000000000,"state":"active","ping":71},{"user_id":378,"name":"Bibleboy","steam_id":76561198049289869,"connected_time":745000000000,"state":"active","ping":119},{"user_id":354,"name":"bobtheninjaman","steam_id":76561198066424544,"connected_time":2820000000000,"state":"active","ping":90},{"user_id":368,"name":"dunk","steam_id":76561198066114874,"connected_time":1549000000000,"state":"active","ping":60},{"user_id":382,"name":"Thequirka (He/They, bc not h","steam_id":76561198968058652,"connected_time":169000000000,"state":"active","ping":52}]},{"server_id":406,"name":"Uncletopia | Seattle | 3 | Stopwatch Beta","name_short":"sea-3","host":"sea-1.us.uncletopia.com","port":27035,"enabled":true,"region":"us-west","cc":"us","latitude":47.608013,"longitude":-122.33517,"reserved":0,"last_update":"0001-01-01T00:00:00Z","name_a2s":"Uncletopia | Seattle | 3 | Stopwatch Beta","protocol":17,"map":"cp_process_final","folder":"tf","game":"Team Fortress","app_id":440,"player_count":0,"max_players":24,"Bots":0,"server_type":"Dedicated","server_os":"Linux","password":true,"vac":true,"version":"7961495","steam_id":85568392924515217,"keywords":["cp","nocrits","nodmgspread","uncletopia"],"game_id":440,"stv_port":27036,"stv_name":"Uncletopia | Seattle | 3 | Stopwatch Beta | STV","players":null},{"server_id":17,"name":"Uncletopia | San Francisco | 1 | All Maps","name_short":"sfo-1","host":"sfo-1.us.uncletopia.com","port":27015,"enabled":true,"region":"us-west","cc":"us","latitude":37.77397,"longitude":-122.4313,"reserved":0,"last_update":"0001-01-01T00:00:00Z","name_a2s":"Uncletopia | San Francisco | 1 | All Maps","protocol":17,"map":"pl_snowycoast","folder":"tf","game":"Team Fortress","app_id":440,"player_count":0,"max_players":24,"Bots":0,"server_type":"Dedicated","server_os":"Linux","password":true,"vac":true,"version":"7961495","steam_id":85568392924469999,"keywords":["nocrits","nodmgspread","payload","uncletopia"],"game_id":440,"stv_port":27016,"stv_name":"Uncletopia | San Francisco | 1 | All Maps | STV","players":null},{"server_id":18,"name":"Uncletopia | San Francisco | 2 | All Maps","name_short":"sfo-2","host":"sfo-1.us.uncletopia.com","port":27025,"enabled":true,"region":"us-west","cc":"us","latitude":37.77397,"longitude":-122.4313,"reserved":0,"last_update":"0001-01-01T00:00:00Z","name_a2s":"Uncletopia | San Francisco | 2 | All Maps","protocol":17,"map":"cp_process_final","folder":"tf","game":"Team Fortress","app_id":440,"player_count":0,"max_players":24,"Bots":0,"server_type":"Dedicated","server_os":"Linux","password":true,"vac":true,"version":"7961495","steam_id":85568392924470000,"keywords":["cp","nocrits","nodmgspread","uncletopia"],"game_id":440,"stv_port":27026,"stv_name":"Uncletopia | San Francisco | 2 | All Maps | STV","players":null},{"server_id":19,"name":"Uncletopia | San Francisco | 3 | Stopwatch Beta","name_short":"sfo-3","host":"sfo-1.us.uncletopia.com","port":27035,"enabled":true,"region":"us-west","cc":"us","latitude":37.77397,"longitude":-122.4313,"reserved":0,"last_update":"0001-01-01T00:00:00Z","name_a2s":"Uncletopia | San Francisco | 3 | Stopwatch Beta","protocol":17,"map":"pl_borneo","folder":"tf","game":"Team Fortress","app_id":440,"player_count":0,"max_players":24,"Bots":0,"server_type":"Dedicated","server_os":"Linux","password":true,"vac":true,"version":"7961495","steam_id":85568392924742824,"keywords":["nocrits","nodmgspread","payload","uncletopia"],"game_id":440,"stv_port":27036,"stv_name":"Uncletopia | San Francisco | 3 | Stopwatch Beta | STV","players":null},{"server_id":20,"name":"Uncletopia | San Francisco | 4 | Community","name_short":"sfo-4","host":"sfo-1.us.uncletopia.com","port":27045,"enabled":true,"region":"us-west","cc":"us","latitude":37.77397,"longitude":-122.4313,"reserved":0,"last_update":"0001-01-01T00:00:00Z","name_a2s":"Uncletopia | San Francisco | 4 | Community","protocol":17,"map":"koth_viaduct","folder":"tf","game":"Team Fortress","app_id":440,"player_count":0,"max_players":24,"Bots":0,"server_type":"Dedicated","server_os":"Linux","password":true,"vac":true,"version":"7961495","steam_id":85568392924742826,"keywords":["cp","nocrits","nodmgspread","uncletopia"],"game_id":440,"stv_port":27046,"stv_name":"Uncletopia | San Francisco | 4 | Community | STV","players":null},{"server_id":141,"name":"Uncletopia | Sydney | 1 | All Maps","name_short":"syd-1","host":"syd-1.au.uncletopia.com","port":27015,"enabled":true,"region":"au","cc":"au","latitude":-33.865143,"longitude":151.2099,"reserved":0,"last_update":"0001-01-01T00:00:00Z","name_a2s":"Uncletopia | Sydney | 1 | All Maps","protocol":17,"map":"koth_cascade","folder":"tf","game":"Team Fortress","app_id":440,"player_count":0,"max_players":24,"Bots":0,"server_type":"Dedicated","server_os":"Linux","password":true,"vac":true,"version":"7961495","steam_id":85568392924470001,"keywords":["cp","nocrits","nodmgspread","uncletopia"],"game_id":440,"stv_port":27016,"stv_name":"Uncletopia | Sydney | 1 | All Maps | STV","players":null},{"server_id":123,"name":"Uncletopia | Sydney | 2 | All Maps","name_short":"syd-2","host":"syd-1.au.uncletopia.com","port":27025,"enabled":true,"region":"au","cc":"au","latitude":-33.865143,"longitude":151.2099,"reserved":0,"last_update":"0001-01-01T00:00:00Z","name_a2s":"Uncletopia | Sydney | 2 | All Maps","protocol":17,"map":"cp_altitude","folder":"tf","game":"Team Fortress","app_id":440,"player_count":0,"max_players":24,"Bots":0,"server_type":"Dedicated","server_os":"Linux","password":true,"vac":true,"version":"7961495","steam_id":85568392924470002,"keywords":["cp","nocrits","nodmgspread","uncletopia"],"game_id":440,"stv_port":27026,"stv_name":"Uncletopia | Sydney | 2 | All Maps | STV","players":null},{"server_id":395,"name":"Uncletopia | Sydney | 3 | All Maps","name_short":"syd-3","host":"syd-1.au.uncletopia.com","port":27035,"enabled":true,"region":"au","cc":"au","latitude":-33.865143,"longitude":151.2099,"reserved":0,"last_update":"0001-01-01T00:00:00Z","name_a2s":"Uncletopia | Sydney | 3 | All Maps","protocol":17,"map":"pl_borneo","folder":"tf","game":"Team Fortress","app_id":440,"player_count":0,"max_players":24,"Bots":0,"server_type":"Dedicated","server_os":"Linux","password":true,"vac":true,"version":"7961495","steam_id":85568392925194467,"keywords":["nocrits","nodmgspread","payload","uncletopia"],"game_id":440,"stv_port":27036,"stv_name":"Uncletopia | Sydney | 3 | All Maps | STV","players":null},{"server_id":396,"name":"Uncletopia | Sydney | 4 | All Maps","name_short":"syd-4","host":"syd-1.au.uncletopia.com","port":27045,"enabled":true,"region":"au","cc":"au","latitude":-33.865143,"longitude":151.2099,"reserved":0,"last_update":"0001-01-01T00:00:00Z","name_a2s":"Uncletopia | Sydney | 4 | All Maps","protocol":17,"map":"koth_highpass","folder":"tf","game":"Team Fortress","app_id":440,"player_count":0,"max_players":24,"Bots":0,"server_type":"Dedicated","server_os":"Linux","password":true,"vac":true,"version":"7961495","steam_id":85568392925397958,"keywords":["cp","nocrits","nodmgspread","uncletopia"],"game_id":440,"stv_port":27046,"stv_name":"Uncletopia | Sydney | 4 | All Maps | STV","players":null},{"server_id":58,"name":"Uncletopia | Sydney | 5 | Stopwatch Beta","name_short":"syd-5","host":"syd-1.au.uncletopia.com","port":27055,"enabled":true,"region":"au","cc":"au","latitude":-33.865143,"longitude":151.2099,"reserved":0,"last_update":"0001-01-01T00:00:00Z","name_a2s":"Uncletopia | Sydney | 5 | Stopwatch Beta","protocol":17,"map":"koth_viaduct","folder":"tf","game":"Team Fortress","app_id":440,"player_count":0,"max_players":24,"Bots":0,"server_type":"Dedicated","server_os":"Linux","password":true,"vac":true,"version":"7961495","steam_id":85568392925397959,"keywords":["cp","nocrits","nodmgspread","uncletopia"],"game_id":440,"stv_port":27056,"stv_name":"Uncletopia | Sydney | 5 | Stopwatch Beta | STV","players":null},{"server_id":59,"name":"Uncletopia | Sydney | 6 | Community","name_short":"syd-6","host":"syd-1.au.uncletopia.com","port":27065,"enabled":true,"region":"au","cc":"au","latitude":-33.865143,"longitude":151.2099,"reserved":0,"last_update":"0001-01-01T00:00:00Z","name_a2s":"Uncletopia | Sydney | 6 | Community","protocol":17,"map":"koth_cascade","folder":"tf","game":"Team Fortress","app_id":440,"player_count":0,"max_players":24,"Bots":0,"server_type":"Dedicated","server_os":"Linux","password":true,"vac":true,"version":"7961495","steam_id":85568392925397960,"keywords":["cp","nocrits","nodmgspread","uncletopia"],"game_id":440,"stv_port":27066,"stv_name":"Uncletopia | Sydney | 6 | Community | STV","players":null},{"server_id":49,"name":"Uncletopia | Warsaw | 1 | All Maps","name_short":"waw-1","host":"waw-1.pl.uncletopia.com","port":27015,"enabled":true,"region":"eu","cc":"pl","latitude":52.2297,"longitude":21.017532,"reserved":0,"last_update":"0001-01-01T00:00:00Z","name_a2s":"Uncletopia | Warsaw | 1 | All Maps","protocol":17,"map":"koth_cascade","folder":"tf","game":"Team Fortress","app_id":440,"player_count":1,"max_players":24,"Bots":0,"server_type":"Dedicated","server_os":"Linux","password":true,"vac":true,"version":"7961495","steam_id":85568392925397850,"keywords":["cp","nocrits","nodmgspread","uncletopia"],"game_id":440,"stv_port":27016,"stv_name":"Uncletopia | Warsaw | 1 | All Maps | STV","players":[{"user_id":11,"name":"Ganasti","steam_id":76561198382925185,"connected_time":549000000000,"state":"active","ping":112}]},{"server_id":50,"name":"Uncletopia | Warsaw | 2 | All Maps","name_short":"waw-2","host":"waw-1.pl.uncletopia.com","port":27025,"enabled":true,"region":"eu","cc":"pl","latitude":52.2297,"longitude":21.017532,"reserved":0,"last_update":"0001-01-01T00:00:00Z","name_a2s":"Uncletopia | Warsaw | 2 | All Maps","protocol":17,"map":"koth_lakeside_final","folder":"tf","game":"Team Fortress","app_id":440,"player_count":0,"max_players":24,"Bots":0,"server_type":"Dedicated","server_os":"Linux","password":true,"vac":true,"version":"7961495","steam_id":85568392925397851,"keywords":["cp","nocrits","nodmgspread","uncletopia"],"game_id":440,"stv_port":27026,"stv_name":"Uncletopia | Warsaw | 2 | All Maps | STV","players":null},{"server_id":51,"name":"Uncletopia | Warsaw | 3 | All Maps","name_short":"waw-3","host":"waw-1.pl.uncletopia.com","port":27035,"enabled":true,"region":"eu","cc":"pl","latitude":52.2297,"longitude":21.017532,"reserved":0,"last_update":"0001-01-01T00:00:00Z","name_a2s":"Uncletopia | Warsaw | 3 | All Maps","protocol":17,"map":"cp_mountainlab","folder":"tf","game":"Team Fortress","app_id":440,"player_count":0,"max_players":24,"Bots":0,"server_type":"Dedicated","server_os":"Linux","password":true,"vac":true,"version":"7961495","steam_id":85568392925397852,"keywords":["cp","nocrits","nodmgspread","uncletopia"],"game_id":440,"stv_port":27036,"stv_name":"Uncletopia | Warsaw | 3 | All Maps | STV","players":null},{"server_id":52,"name":"Uncletopia | Warsaw | 4 | All Maps","name_short":"waw-4","host":"waw-1.pl.uncletopia.com","port":27045,"enabled":true,"region":"eu","cc":"pl","latitude":52.2297,"longitude":21.017532,"reserved":0,"last_update":"0001-01-01T00:00:00Z","name_a2s":"Uncletopia | Warsaw | 4 | All Maps","protocol":17,"map":"koth_viaduct","folder":"tf","game":"Team Fortress","app_id":440,"player_count":0,"max_players":24,"Bots":0,"server_type":"Dedicated","server_os":"Linux","password":true,"vac":true,"version":"7961495","steam_id":85568392925397853,"keywords":["cp","nocrits","nodmgspread","uncletopia"],"game_id":440,"stv_port":27046,"stv_name":"Uncletopia | Warsaw | 4 | All Maps | STV","players":null},{"server_id":53,"name":"Uncletopia | Warsaw | 5 | Stopwatch Beta","name_short":"waw-5","host":"waw-1.pl.uncletopia.com","port":27055,"enabled":true,"region":"eu","cc":"pl","latitude":52.2297,"longitude":21.017532,"reserved":0,"last_update":"0001-01-01T00:00:00Z","name_a2s":"Uncletopia | Warsaw | 5 | Stopwatch Beta","protocol":17,"map":"pl_swiftwater_final1","folder":"tf","game":"Team Fortress","app_id":440,"player_count":0,"max_players":24,"Bots":0,"server_type":"Dedicated","server_os":"Linux","password":true,"vac":true,"version":"7961495","steam_id":85568392925397854,"keywords":["nocrits","nodmgspread","payload","uncletopia"],"game_id":440,"stv_port":27056,"stv_name":"Uncletopia | Warsaw | 5 | Stopwatch Beta | STV","players":null},{"server_id":54,"name":"Uncletopia | Warsaw | 6 | Community","name_short":"waw-6","host":"waw-1.pl.uncletopia.com","port":27065,"enabled":true,"region":"eu","cc":"pl","latitude":52.2297,"longitude":21.017532,"reserved":0,"last_update":"0001-01-01T00:00:00Z","name_a2s":"Uncletopia | Warsaw | 6 | Community","protocol":17,"map":"workshop/pl_fifthcurve_rc1.ugc648227046","folder":"tf","game":"Team Fortress","app_id":440,"player_count":0,"max_players":24,"Bots":0,"server_type":"Dedicated","server_os":"Linux","password":true,"vac":true,"version":"7961495","steam_id":85568392925397856,"keywords":["nocrits","nodmgspread","payload","uncletopia"],"game_id":440,"stv_port":27066,"stv_name":"Uncletopia | Warsaw | 6 | Community | STV","players":null}]}