{"status":true,"message":"","result":[{"server_id":9,"name":"Uncletopia | Atlanta | 1 | All Maps","name_short":"atl-1","host":"atl-1.us.uncletopia.com","port":27015,"enabled":true,"region":"us-east","cc":"us","latitude":33.753746,"longitude":-84.38633,"reserved":0,"last_update":"0001-01-01T00:00:00Z","name_a2s":"Uncletopia | Atlanta | 1 | All Maps","protocol":17,"map":"pl_upward","folder":"tf","game":"Team Fortress","app_id":440,"player_count":24,"max_players":24,"Bots":0,"server_type":"Dedicated","server_os":"Linux","password":true,"vac":true,"version":"7961495","steam_id":85568392924469982,"keywords":["nocrits","nodmgspread","payload","uncletopia"],"game_id":440,"stv_port":27016,"stv_name":"Uncletopia | Atlanta | 1 | All Maps | STV","players":[{"user_id":1339,"name":"Gen-E the Robot Catboy","steam_id":76561199497800989,"connected_time":7627000000000,"state":"active","ping":78},{"user_id":1381,"name":"convict","steam_id":76561198891031643,"connected_time":1930000000000,"state":"active","ping":61},{"user_id":1392,"name":"kite","steam_id":76561198346516392,"connected_time":1090000000000,"state":"active","ping":77},{"user_id":1405,"name":"Onyx","steam_id":76561198275349640,"connected_time":137000000000,"state":"active","ping":74},{"user_id":1376,"name":"bendera","steam_id":76561197965486503,"connected_time":3039000000000,"state":"active","ping":83},{"user_id":1398,"name":"__Megabluezblur_","steam_id":76561198170229711,"connected_time":716000000000,"state":"active","ping":87},{"user_id":1403,"name":"Transformouse","steam_id":76561198004669368,"connected_time":312000000000,"state":"active","ping":75},{"user_id":1393,"name":"Aniz","steam_id":76561199226665024,"connected_time":1086000000000,"state":"active","ping":140},{"user_id":1322,"name":"CoffeeZombee","steam_id":76561198172708053,"connected_time":8807000000000,"state":"active","ping":86},{"user_id":1332,"name":"Today's Tom Sawyer","steam_id":76561198016651241,"connected_time":8381000000000,"state":"active","ping":83},{"user_id":1402,"name":"[BBC] l0ne","steam_id":76561198336898193,"connected_time":340000000000,"state":"active","ping":64},{"user_id":1406,"name":"Skudge Sister","steam_id":76561198041766766,"connected_time":130000000000,"state":"active","ping":88},{"user_id":1384,"name":"AcexPak","steam_id":76561199379459604,"connected_time":1676000000000,"state":"active","ping":100},{"user_id":1394,"name":"Logan","steam_id":76561198153400447,"connected_time":1075000000000,"state":"active","ping":77},{"user_id":1375,"name":"perro","steam_id":76561199055667840,"connected_time":3215000000000,"state":"active","ping":73},{"user_id":1361,"name":"Intro Bonito","steam_id":76561198119478838,"connected_time":4971000000000,"state":"active","ping":48},{"user_id":1387,"name":"Vision Spire","steam_id":76561198095923905,"connected_time":1513000000000,"state":"active","ping":70},{"user_id":1370,"name":"thomasdee725???","steam_id":76561199189526173,"connected_time":4086000000000,"state":"active","ping":86},{"user_id":1372,"name":"ATL1 | cola","steam_id":76561198374390458,"connected_time":3626000000000,"state":"active","ping":66},{"user_id":1255,"name":"Drygongames","steam_id":76561198250418424,"connected_time":12763000000000,"state":"active","ping":89},{"user_id":1378,"name":"thundah!","steam_id":76561199159928133,"connected_time":2372000000000,"state":"active","ping":78},{"user_id":1391,"name":"Tom Pearl","steam_id":76561198143826450,"connected_time":1179000000000,"state":"active","ping":72},{"user_id":1395,"name":"Dark","steam_id":76561198004855334,"connected_time":1069000000000,"state":"active","ping":70},{"user_id":1407,"name":"Kerrplunk","steam_id":76561198058211496,"connected_time":91000000000,"state":"active","ping":134}]},{"server_id":104,"name":"Uncletopia | Atlanta | 2 | All Maps","name_short":"atl-2","host":"atl-1.us.uncletopia.com","port":27025,"enabled":true,"region":"us-east","cc":"us","latitude":33.753746,"longitude":-84.38633,"reserved":0,"last_update":"0001-01-01T00:00:00Z","name_a2s":"Uncletopia | Atlanta | 2 | All Maps","protocol":17,"map":"koth_harvest_final","folder":"tf","game":"Team Fortress","app_id":440,"player_count":23,"max_players":24,"Bots":0,"server_type":"Dedicated","server_os":"Linux","password":true,"vac":true,"version":"7961495","steam_id":85568392924469983,"keywords":["cp","nocrits","nodmgspread","uncletopia"],"game_id":440,"stv_port":27026,"stv_name":"Uncletopia | Atlanta | 2 | All Maps | STV","players":[{"user_id":651,"name":"Chuckagoo","steam_id":76561198148829586,"connected_time":1520000000000,"state":"active","ping":72},{"user_id":674,"name":"NIRVANA","steam_id":76561198124325088,"connected_time":9000000000,"state":"spawning","ping":233},{"user_id":670,"name":"BB Lorexav","steam_id":76561198207565988,"connected_time":136000000000,"state":"active","ping":58},{"user_id":621,"name":"MichelangeloStark","steam_id":76561197976489900,"connected_time":3269000000000,"state":"active","ping":75},{"user_id":642,"name":"Chestnut","steam_id":76561198078198968,"connected_time":1861000000000,"state":"active","ping":77},{"user_id":652,"name":"Pyyr","steam_id":76561198123491005,"connected_time":1483000000000,"state":"active","ping":59},{"user_id":671,"name":"big drink","steam_id":76561198882758067,"connected_time":104000000000,"state":"active","ping":61},{"user_id":672,"name":"tomiz","steam_id":76561198827013832,"connected_time":23000000000,"state":"spawning","ping":107},{"user_id":644,"name":"☙ Corrupt ❧","steam_id":76561197977631915,"connected_time":1840000000000,"state":"active","ping":49},{"user_id":666,"name":"Hakble","steam_id":76561198107829610,"connected_time":534000000000,"state":"active","ping":68},{"user_id":653,"name":"Joply","steam_id":76561198236495392,"connected_time":1445000000000,"state":"active","ping":84},{"user_id":629,"name":"freddy fazbear","steam_id":76561198258062078,"connected_time":2903000000000,"state":"active","ping":58},{"user_id":623,"name":"gerf.","steam_id":76561198811706201,"connected_time":3222000000000,"state":"active","ping":44},{"user_id":673,"name":"(1)Yummy Kabobz","steam_id":76561198067661705,"connected_time":20000000000,"state":"active","ping":54},{"user_id":616,"name":"Nephs","steam_id":76561198136763403,"connected_time":3425000000000,"state":"active","ping":79},{"user_id":656,"name":"Hous Bous","steam_id":76561198413390003,"connected_time":1332000000000,"state":"active","ping":125},{"user_id":669,"name":"A Rope, for big pits","steam_id":76561198068044782,"connected_time":298000000000,"state":"active","ping":75},{"user_id":655,"name":"Hats","steam_id":76561198037171009,"connected_time":1344000000000,"state":"active","ping":124},{"user_id":675,"name":"\"Psychotic Chiaki Nanami\" GF","steam_id":76561198164782653,"connected_time":2000000000,"state":"spawning","ping":69},{"user_id":635,"name":"NAEM CHEGG","steam_id":76561199074984482,"connected_time":2632000000000,"state":"active","ping":84},{"user_id":628,"name":"Wafflez","steam_id":76561198081611996,"connected_time":3066000000000,"state":"active","ping":77},{"user_id":660,"name":"Gram Tokers Count Doinkula","steam_id":76561198112811565,"connected_time":1252000000000,"state":"active","ping":85},{"user_id":667,"name":"Hydroxianchaos","steam_id":76561198043786828,"connected_time":485000000000,"state":"active","ping":64}]},{"server_id":400,"name":"Uncletopia | Atlanta | 3 | Stopwatch","name_short":"atl-3","host":"atl-1.us.uncletopia.com","port":27035,"enabled":true,"region":"us-east","cc":"us","latitude":33.753746,"longitude":-84.38633,"reserved":0,"last_update":"0001-01-01T00:00:00Z","name_a2s":"Uncletopia | Atlanta | 3 | Stopwatch","protocol":17,"map":"cp_metalworks","folder":"tf","game":"Team Fortress","app_id":440,"player_count":0,"max_players":24,"Bots":0,"server_type":"Dedicated","server_os":"Linux","password":true,"vac":true,"version":"7961495","steam_id":85568392924515187,"keywords":["cp","nocrits","nodmgspread","uncletopia"],"game_id":440,"stv_port":27036,"stv_name":"Uncletopia | Atlanta | 3 | Stopwatch | STV","players":null},{"server_id":401,"name":"Uncletopia | Atlanta | 4 | Community","name_short":"atl-4","host":"atl-1.us.uncletopia.com","port":27045,"enabled":true,"region":"us-east","cc":"us","latitude":33.753746,"longitude":-84.38633,"reserved":0,"last_update":"0001-01-01T00:00:00Z","name_a2s":"Uncletopia | Atlanta | 4 | Community","protocol":17,"map":"workshop/pl_divulgence_b4b.ugc2884808746","folder":"tf","game":"Team Fortress","app_id":440,"player_count":0,"max_players":24,"Bots":0,"server_type":"Dedicated","server_os":"Linux","password":true,"vac":true,"version":"7961495","steam_id":85568392924515188,"keywords":["nocrits","nodmgspread","payload","uncletopia"],"game_id":440,"stv_port":27046,"stv_name":"Uncletopia | Atlanta | 4 | Community | STV","players":null},{"server_id":2,"name":"Uncletopia | Chicago | 1 | All Maps","name_short":"chi-1","host":"chi-1.us.uncletopia.com","port":27015,"enabled":true,"region":"us-central","cc":"us","latitude":41.881832,"longitude":-87.62318,"reserved":0,"last_update":"0001-01-01T00:00:00Z","name_a2s":"Uncletopia | Chicago | 1 | All Maps","protocol":17,"map":"pl_swiftwater_final1","folder":"tf","game":"Team Fortress","app_id":440,"player_count":23,"max_players":24,"Bots":0,"server_type":"Dedicated","server_os":"Linux","password":true,"vac":true,"version":"7961495","steam_id":85568392924469984,"keywords":["nocrits","nodmgspread","payload","uncletopia"],"game_id":440,"stv_port":27016,"stv_name":"Uncletopia | Chicago | 1 | All Maps | STV","players":[{"user_id":752,"name":"Raccoon Wizard","steam_id":76561198072562591,"connected_time":815000000000,"state":"active","ping":83},{"user_id":761,"name":"mineblast99","steam_id":76561199065648954,"connected_time":428000000000,"state":"active","ping":77},{"user_id":750,"name":"Makowako","steam_id":76561199016565502,"connected_time":873000000000,"state":"active","ping":85},{"user_id":751,"name":"ISlamHooker","steam_id":76561198050136796,"connected_time":851000000000,"state":"active","ping":76},{"user_id":694,"name":"TinyTator","steam_id":76561198799282234,"connected_time":5103000000000,"state":"active","ping":78},{"user_id":753,"name":"the keebler","steam_id":76561199486326945,"connected_time":798000000000,"state":"active","ping":74},{"user_id":720,"name":"CommieKurtz","steam_id":76561198061687521,"connected_time":2839000000000,"state":"active","ping":53},{"user_id":734,"name":"Fig","steam_id":76561198203889013,"connected_time":1960000000000,"state":"active","ping":97},{"user_id":728,"name":"kira","steam_id":76561198277979851,"connected_time":2227000000000,"state":"active","ping":80},{"user_id":754,"name":"dave","steam_id":76561198135961731,"connected_time":767000000000,"state":"active","ping":89},{"user_id":755,"name":"jade","steam_id":76561198088961574,"connected_time":763000000000,"state":"active","ping":75},{"user_id":727,"name":"john morant","steam_id":76561198133102865,"connected_time":2349000000000,"state":"active","ping":74},{"user_id":747,"name":"Cdesmondd","steam_id":76561198072774462,"connected_time":916000000000,"state":"active","ping":67},{"user_id":767,"name":"Filthy Acts at Reasonable Price","steam_id":76561198354615890,"connected_time":178000000000,"state":"active","ping":60},{"user_id":745,"name":"The Notorious P.U.E.R.","steam_id":76561198046715542,"connected_time":1573000000000,"state":"active","ping":71},{"user_id":710,"name":"Notsocreative","steam_id":76561198236372202,"connected_time":3204000000000,"state":"active","ping":81},{"user_id":759,"name":"L'ASCENSIONE del Chromebook","steam_id":76561198121880516,"connected_time":548000000000,"state":"active","ping":70},{"user_id":748,"name":"Cooler Ye","steam_id":76561198068830312,"connected_time":911000000000,"state":"active","ping":45},{"user_id":741,"name":"Urge-to-Splurge","steam_id":76561198367276158,"connected_time":1817000000000,"state":"active","ping":78},{"user_id":725,"name":"James the way I Harden","steam_id":76561197984579630,"connected_time":2555000000000,"state":"active","ping":104},{"user_id":756,"name":"귀요미","steam_id":76561198125147519,"connected_time":759000000000,"state":"active","ping":67},{"user_id":763,"name":"spaghetti-birds","steam_id":76561198271100554,"connected_time":404000000000,"state":"active","ping":120},{"user_id":766,"name":"Surly Joe","steam_id":76561199150833796,"connected_time":327000000000,"state":"active","ping":122}]},{"server_id":106,"name":"Uncletopia | Chicago | 2 | All Maps","name_short":"chi-2","host":"chi-1.us.uncletopia.com","port":27025,"enabled":true,"region":"us-central","cc":"us","latitude":41.881832,"longitude":-87.62318,"reserved":0,"last_update":"0001-01-01T00:00:00Z","name_a2s":"Uncletopia | Chicago | 2 | All Maps","protocol":17,"map":"cp_dustbowl","folder":"tf","game":"Team Fortress","app_id":440,"player_count":18,"max_players":24,"Bots":0,"server_type":"Dedicated","server_os":"Linux","password":true,"vac":true,"version":"7961495","steam_id":85568392924469985,"keywords":["cp","nocrits","nodmgspread","uncletopia"],"game_id":440,"stv_port":27026,"stv_name":"Uncletopia | Chicago | 2 | All Maps | STV","players":[{"user_id":687,"name":"HollowMan","steam_id":76561198967266827,"connected_time":3038000000000,"state":"active","ping":71},{"user_id":707,"name":"[GUT] tipups","steam_id":76561197972342705,"connected_time":633000000000,"state":"active","ping":58},{"user_id":672,"name":"[GUT] RiDiK®","steam_id":76561197969756446,"connected_time":4227000000000,"state":"active","ping":55},{"user_id":697,"name":"KaosInfinite","steam_id":76561198009126350,"connected_time":1854000000000,"state":"active","ping":97},{"user_id":710,"name":"Gumino","steam_id":76561199080478746,"connected_time":460000000000,"state":"active","ping":99},{"user_id":720,"name":"Paleo","steam_id":76561198053493855,"connected_time":23000000000,"state":"spawning","ping":45},{"user_id":721,"name":"Mr Giggles","steam_id":76561198309912173,"connected_time":9000000000,"state":"spawning","ping":76},{"user_id":684,"name":"loser","steam_id":76561198259380127,"connected_time":3231000000000,"state":"active","ping":46},{"user_id":685,"name":"Some_Arse","steam_id":76561198039095394,"connected_time":3147000000000,"state":"active","ping":61},{"user_id":712,"name":"Nola","steam_id":76561198969082311,"connected_time":280000000000,"state":"active","ping":109},{"user_id":695,"name":"clue","steam_id":76561198299379768,"connected_time":1902000000000,"state":"active","ping":85},{"user_id":686,"name":"8bean","steam_id":76561198239138132,"connected_time":3136000000000,"state":"active","ping":58},{"user_id":673,"name":"[GUT] 13","steam_id":76561197985209820,"connected_time":4220000000000,"state":"active","ping":58},{"user_id":595,"name":"Skipz","steam_id":76561198425244550,"connected_time":9114000000000,"state":"active","ping":75},{"user_id":708,"name":"rei ayanami plush (real)","steam_id":76561198401646789,"connected_time":615000000000,"state":"active","ping":85},{"user_id":717,"name":"Wheat","steam_id":76561198106270789,"connected_time":129000000000,"state":"active","ping":59},{"user_id":665,"name":"twitch.tv/axities","steam_id":76561198278008225,"connected_time":4683000000000,"state":"active","ping":88},{"user_id":690,"name":"HOVY GAMING (REAL)","steam_id":76561199210311096,"connected_time":2931000000000,"state":"active","ping":129}]},{"server_id":402,"name":"Uncletopia | Chicago | 3 | All Maps","name_short":"chi-3","host":"chi-1.us.uncletopia.com","port":27035,"enabled":true,"region":"us-central","cc":"us","latitude":41.881832,"longitude":-87.62318,"reserved":0,"last_update":"0001-01-01T00:00:00Z","name_a2s":"Uncletopia | Chicago | 3 | All Maps","protocol":17,"map":"pl_badwater","folder":"tf","game":"Team Fortress","app_id":440,"player_count":17,"max_players":24,"Bots":0,"server_type":"Dedicated","server_os":"Linux","password":true,"vac":true,"version":"7961495","steam_id":85568392924515191,"keywords":["nocrits","nodmgspread","payload","uncletopia"],"game_id":440,"stv_port":27036,"stv_name":"Uncletopia | Chicago | 3 | All Maps | STV","players":[{"user_id":532,"name":"proud beta","steam_id":76561198136642793,"connected_time":4454000000000,"state":"active","ping":83},{"user_id":573,"name":"geronimo","steam_id":76561198842674869,"connected_time":1750000000000,"state":"active","ping":53},{"user_id":570,"name":"PyroTechno","steam_id":76561198060929872,"connected_time":1969000000000,"state":"active","ping":63},{"user_id":554,"name":"Madrox Who?","steam_id":76561197988859134,"connected_time":3059000000000,"state":"active","ping":65},{"user_id":586,"name":"Keegan","steam_id":76561198051325763,"connected_time":689000000000,"state":"active","ping":161},{"user_id":576,"name":"kennyohmalta","steam_id":76561198133239370,"connected_time":1379000000000,"state":"active","ping":49},{"user_id":580,"name":"Riff III","steam_id":76561198066921423,"connected_time":973000000000,"state":"active","ping":72},{"user_id":503,"name":"Rambly Dambly","steam_id":76561198844496567,"connected_time":7777000000000,"state":"active","ping":46},{"user_id":584,"name":"sfoster","steam_id":76561197993895857,"connected_time":904000000000,"state":"active","ping":88},{"user_id":541,"name":"YOU JUST LOST THE GAME","steam_id":76561198012126625,"connected_time":4149000000000,"state":"active","ping":61},{"user_id":588,"name":"JP\u003c3","steam_id":76561198126686695,"connected_time":304000000000,"state":"active","ping":65},{"user_id":500,"name":"Totally Tuna","steam_id":76561198202031250,"connected_time":8065000000000,"state":"active","ping":55},{"user_id":529,"name":"Am I Good At The Video Game?","steam_id":76561198046053281,"connected_time":4600000000000,"state":"active","ping":63},{"user_id":564,"name":"playguy carter","steam_id":76561198080679337,"connected_time":2727000000000,"state":"active","ping":45},{"user_id":549,"name":"dulg","steam_id":76561198127640309,"connected_time":3746000000000,"state":"active","ping":79},{"user_id":550,"name":"MANWHERETFISMARIOJUDAH?","steam_id":76561198144766439,"connected_time":3693000000000,"state":"active","ping":43},{"user_id":591,"name":"Luffa Rigno","steam_id":76561197998700507,"connected_time":50000000000,"state":"active","ping":122}]},{"server_id":403,"name":"Uncletopia | Chicago | 4 | All Maps","name_short":"chi-4","host":"chi-1.us.uncletopia.com","port":27045,"enabled":true,"region":"us-central","cc":"us","latitude":41.881832,"longitude":-87.62318,"reserved":0,"last_update":"0001-01-01T00:00:00Z","name_a2s":"Uncletopia | Chicago | 4 | All Maps","protocol":17,"map":"pl_pier","folder":"tf","game":"Team Fortress","app_id":440,"player_count":23,"max_players":24,"Bots":0,"server_type":"Dedicated","server_os":"Linux","password":true,"vac":true,"version":"7961495","steam_id":85568392924515193,"keywords":["nocrits","nodmgspread","payload","uncletopia"],"game_id":440,"stv_port":27046,"stv_name":"Uncletopia | Chicago | 4 | All Maps | STV","players":[{"user_id":748,"name":"on that zaza?","steam_id":76561198038713198,"connected_time":2136000000000,"state":"active","ping":62},{"user_id":717,"name":"phonedirectory","steam_id":76561198102360911,"connected_time":4910000000000,"state":"active","ping":80},{"user_id":772,"name":"KarmaKid","steam_id":76561198079580094,"connected_time":595000000000,"state":"active","ping":64},{"user_id":768,"name":"MR SKELTAL","steam_id":76561198031089598,"connected_time":990000000000,"state":"active","ping":74},{"user_id":719,"name":"Major_Mooseman","steam_id":76561198126438141,"connected_time":4900000000000,"state":"active","ping":85},{"user_id":760,"name":"FunkyFridaysNight51","steam_id":76561198411806448,"connected_time":1537000000000,"state":"active","ping":51},{"user_id":756,"name":"Ayylmao","steam_id":76561198104780147,"connected_time":1717000000000,"state":"active","ping":45},{"user_id":780,"name":"Fiendish Frog","steam_id":76561198029478821,"connected_time":184000000000,"state":"active","ping":70},{"user_id":765,"name":"garfielf","steam_id":76561199482149729,"connected_time":1308000000000,"state":"active","ping":55},{"user_id":778,"name":"Circuit Spark","steam_id":76561198832124473,"connected_time":211000000000,"state":"active","ping":76},{"user_id":776,"name":"minte","steam_id":76561198012914428,"connected_time":540000000000,"state":"active","ping":86},{"user_id":770,"name":"smetc","steam_id":76561198240696986,"connected_time":683000000000,"state":"active","ping":62},{"user_id":766,"name":"Predicta","steam_id":76561198017630616,"connected_time":1016000000000,"state":"active","ping":52},{"user_id":773,"name":"Hollow gamer","steam_id":76561198426798913,"connected_time":585000000000,"state":"active","ping":98},{"user_id":782,"name":"gnoll filth","steam_id":76561198066123607,"connected_time":80000000000,"state":"active","ping":45},{"user_id":754,"name":"Sinta","steam_id":76561198098398841,"connected_time":1918000000000,"state":"active","ping":60},{"user_id":755,"name":"Echo","steam_id":76561198072092594,"connected_time":1916000000000,"state":"active","ping":66},{"user_id":721,"name":"SHAZBOT","steam_id":76561198068536790,"connected_time":4624000000000,"state":"active","ping":60},{"user_id":767,"name":"Commodore","steam_id":76561198042112852,"connected_time":1014000000000,"state":"active","ping":45},{"user_id":774,"name":"Lolol_your_bro","steam_id":76561199027039809,"connected_time":581000000000,"state":"active","ping":82},{"user_id":777,"name":"BUFF THE SCORCH SHOT","steam_id":76561198042899484,"connected_time":332000000000,"state":"active","ping":75},{"user_id":728,"name":"Billow","steam_id":76561198056794144,"connected_time":3407000000000,"state":"active","ping":75},{"user_id":723,"name":"tax evasion dog","steam_id":76561198082293288,"connected_time":3666000000000,"state":"active","ping":48}]},{"server_id":36,"name":"Uncletopia | Chicago | 5 | All Maps","name_short":"chi-5","host":"chi-2.us.uncletopia.com","port":27015,"enabled":true,"region":"us-central","cc":"us","latitude":41.881832,"longitude":-87.62318,"reserved":0,"last_update":"0001-01-01T00:00:00Z","name_a2s":"Uncletopia | Chicago | 5 | All Maps","protocol":17,"map":"pl_badwater","folder":"tf","game":"Team Fortress","app_id":440,"player_count":24,"max_players":24,"Bots":0,"server_type":"Dedicated","server_os":"Linux","password":true,"vac":true,"version":"7961495","steam_id":85568392924866362,"keywords":["nocrits","nodmgspread","payload","uncletopia"],"game_id":440,"stv_port":27016,"stv_name":"Uncletopia | Chicago | 5 | All Maps | STV","players":[{"user_id":683,"name":"Tobo","steam_id":76561198085846393,"connected_time":3490000000000,"state":"active","ping":96},{"user_id":717,"name":"Dr. Heinz Doofenschmirtz","steam_id":76561198180454149,"connected_time":1468000000000,"state":"active","ping":77},{"user_id":723,"name":"Ecliptica","steam_id":76561198171951333,"connected_time":761000000000,"state":"active","ping":97},{"user_id":681,"name":"weed lesbian","steam_id":76561198042263805,"connected_time":3503000000000,"state":"active","ping":91},{"user_id":724,"name":"Pho","steam_id":76561198306515742,"connected_time":682000000000,"state":"active","ping":103},{"user_id":725,"name":"jim awesome","steam_id":76561198337486020,"connected_time":629000000000,"state":"active","ping":102},{"user_id":672,"name":"SpockASD","steam_id":76561198307516731,"connected_time":4833000000000,"state":"active","ping":80},{"user_id":726,"name":"tomandjerry085","steam_id":76561198800789071,"connected_time":621000000000,"state":"active","ping":101},{"user_id":715,"name":"PuggsNuggs","steam_id":76561198129753240,"connected_time":2009000000000,"state":"active","ping":71},{"user_id":734,"name":"NiteVisions","steam_id":76561198093618206,"connected_time":292000000000,"state":"active","ping":63},{"user_id":682,"name":"butterthoughts","steam_id":76561198025120284,"connected_time":3502000000000,"state":"active","ping":75},{"user_id":728,"name":"the death of farmers :(","steam_id":76561198075216115,"connected_time":560000000000,"state":"active","ping":156},{"user_id":696,"name":"sooty","steam_id":76561198830243167,"connected_time":3245000000000,"state":"active","ping":71},{"user_id":691,"name":"only a spoonful","steam_id":76561198113180616,"connected_time":3278000000000,"state":"active","ping":99},{"user_id":692,"name":"skrill issue","steam_id":76561198104086771,"connected_time":3266000000000,"state":"active","ping":104},{"user_id":729,"name":"Harry Rage!!","steam_id":76561198873895549,"connected_time":539000000000,"state":"active","ping":148},{"user_id":693,"name":"T1gr","steam_id":76561198126252583,"connected_time":3254000000000,"state":"active","ping":90},{"user_id":706,"name":"Cat™","steam_id":76561198898241158,"connected_time":2400000000000,"state":"active","ping":74},{"user_id":703,"name":"Sizenberg","steam_id":76561198115842661,"connected_time":2808000000000,"state":"active","ping":78},{"user_id":722,"name":"Shrimp Bizkit (Speed Weed)","steam_id":76561198171077434,"connected_time":1087000000000,"state":"active","ping":126},{"user_id":730,"name":"CheekiBreeki","steam_id":76561198008596138,"connected_time":533000000000,"state":"active","ping":86},{"user_id":731,"name":"Galactamarx","steam_id":76561198028065755,"connected_time":509000000000,"state":"active","ping":102},{"user_id":663,"name":"Howard Hamlin","steam_id":76561198881039861,"connected_time":5564000000000,"state":"active","ping":49},{"user_id":732,"name":"YINGBING43","steam_id":76561198166141576,"connected_time":498000000000,"state":"active","ping":92}]},{"server_id":37,"name":"Uncletopia | Chicago | 6 | All Maps","name_short":"chi-6","host":"chi-2.us.uncletopia.com","port":27025,"enabled":true,"region":"us-central","cc":"us","latitude":41.881832,"longitude":-87.62318,"reserved":0,"last_update":"0001-01-01T00:00:00Z","name_a2s":"Uncletopia | Chicago | 6 | All Maps","protocol":17,"map":"pl_badwater","folder":"tf","game":"Team Fortress","app_id":440,"player_count":24,"max_players":24,"Bots":0,"server_type":"Dedicated","server_os":"Linux","password":true,"vac":true,"version":"7961495","steam_id":85568392924866363,"keywords":["nocrits","nodmgspread","payload","uncletopia"],"game_id":440,"stv_port":27026,"stv_name":"Uncletopia | Chicago | 6 | All Maps | STV","players":[{"user_id":562,"name":"Mufalito","steam_id":76561198951889482,"connected_time":1965000000000,"state":"active","ping":132},{"user_id":578,"name":"Bear","steam_id":76561198062949510,"connected_time":1372000000000,"state":"active","ping":57},{"user_id":580,"name":"afroadam","steam_id":76561197993377919,"connected_time":1076000000000,"state":"active","ping":70},{"user_id":584,"name":"ethanf","steam_id":76561198103930234,"connected_time":310000000000,"state":"active","ping":46},{"user_id":564,"name":"Pvt. Parts","steam_id":76561198228821544,"connected_time":1712000000000,"state":"active","ping":67},{"user_id":530,"name":"Disinfected Cum Sock","steam_id":76561198043256782,"connected_time":4796000000000,"state":"active","ping":83},{"user_id":570,"name":"berserker_tf2","steam_id":76561198303464488,"connected_time":1487000000000,"state":"active","ping":65},{"user_id":548,"name":"object permanence","steam_id":76561198050393061,"connected_time":3549000000000,"state":"active","ping":76},{"user_id":566,"name":"LVL","steam_id":76561198334403617,"connected_time":1597000000000,"state":"active","ping":58},{"user_id":571,"name":"for the king","steam_id":76561197973488858,"connected_time":1452000000000,"state":"active","ping":60},{"user_id":563,"name":"Battle Bug","steam_id":76561198005793034,"connected_time":1740000000000,"state":"active","ping":88},{"user_id":558,"name":"Waffle","steam_id":76561199000034608,"connected_time":2579000000000,"state":"active","ping":67},{"user_id":583,"name":"Epifiny","steam_id":76561198027958086,"connected_time":565000000000,"state":"active","ping":81},{"user_id":569,"name":"winning","steam_id":76561198003206947,"connected_time":1526000000000,"state":"active","ping":60},{"user_id":577,"name":"badboy6996","steam_id":76561197969386201,"connected_time":1397000000000,"state":"active","ping":61},{"user_id":554,"name":"Gwendolyn","steam_id":76561198170458145,"connected_time":3346000000000,"state":"active","ping":95},{"user_id":515,"name":"Generic_Soda","steam_id":76561197993528721,"connected_time":5062000000000,"state":"active","ping":61},{"user_id":524,"name":"Catdog32","steam_id":76561198113364714,"connected_time":4896000000000,"state":"active","ping":59},{"user_id":573,"name":"Astronomical-Ravs","steam_id":76561197993919776,"connected_time":1440000000000,"state":"active","ping":91},{"user_id":559,"name":"zpalmtree","steam_id":76561198134307620,"connected_time":2574000000000,"state":"active","ping":62},{"user_id":579,"name":"Medici","steam_id":76561198310130481,"connected_time":1361000000000,"state":"active","ping":66},{"user_id":585,"name":"Associate Justice Neil Gorsuch","steam_id":76561198010774522,"connected_time":308000000000,"state":"active","ping":59},{"user_id":556,"name":"M4N","steam_id":76561199021460632,"connected_time":2731000000000,"state":"active","ping":78},{"user_id":576,"name":"Nazrin","steam_id":76561198246701796,"connected_time":1410000000000,"state":"active","ping":77}]},{"server_id":38,"name":"Uncletopia | Chicago | 7 | Stopwatch","name_short":"chi-7","host":"chi-2.us.uncletopia.com","port":27035,"enabled":true,"region":"us-central","cc":"us","latitude":41.881832,"longitude":-87.62318,"reserved":0,"last_update":"0001-01-01T00:00:00Z","name_a2s":"Uncletopia | Chicago | 7 | Stopwatch","protocol":17,"map":"workshop/koth_product_final.ugc454272353","folder":"tf","game":"Team Fortress","app_id":440,"player_count":6,"max_players":24,"Bots":0,"server_type":"Dedicated","server_os":"Linux","password":true,"vac":true,"version":"7961495","steam_id":85568392924866364,"keywords":["cp","nocrits","nodmgspread","uncletopia"],"game_id":440,"stv_port":27036,"stv_name":"Uncletopia | Chicago | 7 | Stopwatch | STV","players":[{"user_id":100,"name":"Vyyx","steam_id":76561198977893111,"connected_time":4263000000000,"state":"active","ping":85},{"user_id":98,"name":"cali","steam_id":76561198326822403,"connected_time":4291000000000,"state":"active","ping":67},{"user_id":99,"name":"hacvet1971","steam_id":76561198048281537,"connected_time":4286000000000,"state":"active","ping":117},{"user_id":101,"name":"The Fart Sniffer","steam_id":76561198273370381,"connected_time":4142000000000,"state":"active","ping":82},{"user_id":107,"name":"Geometric","steam_id":76561198274794587,"connected_time":798000000000,"state":"active","ping":61},{"user_id":109,"name":"papi perro","steam_id":76561198021649180,"connected_time":142000000000,"state":"active","ping":62}]},{"server_id":39,"name":"Uncletopia | Chicago | 8 | Community","name_short":"chi-8","host":"chi-2.us.uncletopia.com","port":27045,"enabled":true,"region":"us-central","cc":"us","latitude":41.881832,"longitude":-87.62318,"reserved":0,"last_update":"0001-01-01T00:00:00Z","name_a2s":"Uncletopia | Chicago | 8 | Community","protocol":17,"map":"workshop/cp_villa_b19.ugc2113052569","folder":"tf","game":"Team Fortress","app_id":440,"player_count":2,"max_players":24,"Bots":0,"server_type":"Dedicated","server_os":"Linux","password":true,"vac":true,"version":"7961495","steam_id":85568392924866365,"keywords":["cp","nocrits","nodmgspread","uncletopia"],"game_id":440,"stv_port":27046,"stv_name":"Uncletopia | Chicago | 8 | Community | STV","players":[{"user_id":295,"name":"GoGo","steam_id":76561198023080645,"connected_time":1107000000000,"state":"active","ping":79},{"user_id":281,"name":"kenzen","steam_id":76561198188380263,"connected_time":2420000000000,"state":"active","ping":60}]},{"server_id":8,"name":"Uncletopia | Dallas | 1 | All Maps","name_short":"dal-1","host":"dal-1.us.uncletopia.com","port":27015,"enabled":true,"region":"us-central","cc":"us","latitude":32.779167,"longitude":-96.80889,"reserved":0,"last_update":"0001-01-01T00:00:00Z","name_a2s":"Uncletopia | Dallas | 1 | All Maps","protocol":17,"map":"pl_borneo","folder":"tf","game":"Team Fortress","app_id":440,"player_count":24,"max_players":24,"Bots":0,"server_type":"Dedicated","server_os":"Linux","password":true,"vac":true,"version":"7961495","steam_id":85568392924469986,"keywords":["nocrits","nodmgspread","payload","uncletopia"],"game_id":440,"stv_port":27016,"stv_name":"Uncletopia | Dallas | 1 | All Maps | STV","players":[{"user_id":605,"name":"John16Mark","steam_id":76561198119445407,"connected_time":349000000000,"state":"active","ping":64},{"user_id":533,"name":"Texas","steam_id":76561198053276976,"connected_time":7492000000000,"state":"active","ping":90},{"user_id":580,"name":"『 cyill 』","steam_id":76561198157626135,"connected_time":2867000000000,"state":"active","ping":84},{"user_id":591,"name":"Silly-Brained Sh3ba","steam_id":76561198047412394,"connected_time":1579000000000,"state":"active","ping":86},{"user_id":610,"name":"souljaboytellem.com","steam_id":76561198095824426,"connected_time":169000000000,"state":"active","ping":72},{"user_id":588,"name":"Levi","steam_id":76561198089832776,"connected_time":1705000000000,"state":"active","ping":55},{"user_id":439,"name":"leesh","steam_id":76561198079603938,"connected_time":14341000000000,"state":"active","ping":61},{"user_id":545,"name":"Marc Antony","steam_id":76561198011366517,"connected_time":6588000000000,"state":"active","ping":72},{"user_id":561,"name":"THRONGLER","steam_id":76561198198563466,"connected_time":4442000000000,"state":"active","ping":45},{"user_id":556,"name":"Sweet Tooth","steam_id":76561198830158092,"connected_time":4884000000000,"state":"active","ping":85},{"user_id":606,"name":"Len","steam_id":76561199141913673,"connected_time":345000000000,"state":"active","ping":32},{"user_id":602,"name":"Snoogs","steam_id":76561198444880931,"connected_time":812000000000,"state":"active","ping":95},{"user_id":593,"name":"CoolOpossum77","steam_id":76561198085047501,"connected_time":1420000000000,"state":"active","ping":53},{"user_id":566,"name":"chiswola","steam_id":76561198046920142,"connected_time":3817000000000,"state":"active","ping":101},{"user_id":599,"name":"Baby gaming","steam_id":76561198867319323,"connected_time":1129000000000,"state":"active","ping":87},{"user_id":564,"name":"VaL-ASROC","steam_id":76561198886493635,"connected_time":4068000000000,"state":"active","ping":75},{"user_id":608,"name":"Legit_Jaxer","steam_id":76561198172234053,"connected_time":327000000000,"state":"active","ping":90},{"user_id":603,"name":"Bubba Bass","steam_id":76561198026767327,"connected_time":361000000000,"state":"active","ping":55},{"user_id":597,"name":"Mr. DeLarge","steam_id":76561198336820066,"connected_time":1164000000000,"state":"active","ping":118},{"user_id":601,"name":"Zero","steam_id":76561198033384990,"connected_time":862000000000,"state":"active","ping":81},{"user_id":548,"name":"Scoops M'Gooch","steam_id":76561198048423812,"connected_time":6039000000000,"state":"active","ping":95},{"user_id":595,"name":"Jatt","steam_id":76561198822011219,"connected_time":1289000000000,"state":"active","ping":94},{"user_id":609,"name":"ThyPeople42","steam_id":76561198081792016,"connected_time":312000000000,"state":"active","ping":133},{"user_id":584,"name":"Tommy Provolone","steam_id":76561198170062377,"connected_time":2221000000000,"state":"active","ping":71}]},{"server_id":108,"name":"Uncletopia | Dallas | 2 | All Maps","name_short":"dal-2","host":"dal-1.us.uncletopia.com","port":27025,"enabled":true,"region":"us-central","cc":"us","latitude":32.779167,"longitude":-96.80889,"reserved":0,"last_update":"0001-01-01T00:00:00Z","name_a2s":"Uncletopia | Dallas | 2 | All Maps","protocol":17,"map":"pl_borneo","folder":"tf","game":"Team Fortress","app_id":440,"player_count":22,"max_players":24,"Bots":0,"server_type":"Dedicated","server_os":"Linux","password":true,"vac":true,"version":"7961495","steam_id":85568392924469988,"keywords":["nocrits","nodmgspread","payload","uncletopia"],"game_id":440,"stv_port":27026,"stv_name":"Uncletopia | Dallas | 2 | All Maps | STV","players":[{"user_id":564,"name":"Gutter Driver","steam_id":76561198041475279,"connected_time":3766000000000,"state":"active","ping":61},{"user_id":539,"name":"Snivy","steam_id":76561198135488292,"connected_time":5056000000000,"state":"active","ping":71},{"user_id":569,"name":"An Engineer","steam_id":76561198110381643,"connected_time":3498000000000,"state":"active","ping":45},{"user_id":608,"name":"Cat on the Moon","steam_id":76561198272661627,"connected_time":31000000000,"state":"active","ping":83},{"user_id":605,"name":"Kool-Aid Jammer","steam_id":76561198036032168,"connected_time":93000000000,"state":"active","ping":74},{"user_id":535,"name":"Dwake","steam_id":76561198121943676,"connected_time":5374000000000,"state":"active","ping":88},{"user_id":571,"name":"1 Great Wooden Dad","steam_id":76561198377126974,"connected_time":3384000000000,"state":"active","ping":96},{"user_id":572,"name":"Verily","steam_id":76561198200558318,"connected_time":3350000000000,"state":"active","ping":76},{"user_id":591,"name":"Tyth","steam_id":76561198062543298,"connected_time":1680000000000,"state":"active","ping":92},{"user_id":604,"name":"gugcat","steam_id":76561198129822860,"connected_time":116000000000,"state":"active","ping":99},{"user_id":606,"name":"SHADOW","steam_id":76561198207768148,"connected_time":76000000000,"state":"active","ping":106},{"user_id":588,"name":"cass","steam_id":76561198074502046,"connected_time":1813000000000,"state":"active","ping":98},{"user_id":600,"name":"JustaDude","steam_id":76561199151914748,"connected_time":693000000000,"state":"active","ping":73},{"user_id":607,"name":"Junshiii","steam_id":76561198153511831,"connected_time":54000000000,"state":"active","ping":75},{"user_id":598,"name":"wooper","steam_id":76561198953870572,"connected_time":1220000000000,"state":"active","ping":94},{"user_id":567,"name":"Anchor","steam_id":76561198027226487,"connected_time":3618000000000,"state":"active","ping":70},{"user_id":517,"name":"SaaxoM","steam_id":76561198208256603,"connected_time":6909000000000,"state":"active","ping":88},{"user_id":592,"name":"albert581_gaming","steam_id":76561198219209367,"connected_time":1602000000000,"state":"active","ping":63},{"user_id":603,"name":"Bananarama ♫","steam_id":76561198886850124,"connected_time":166000000000,"state":"active","ping":86},{"user_id":536,"name":"BurR","steam_id":76561198055431367,"connected_time":5265000000000,"state":"active","ping":79},{"user_id":577,"name":"ClayTougher (Winter Version)","steam_id":76561199135235387,"connected_time":3267000000000,"state":"active","ping":68},{"user_id":594,"name":"Jolly Goose Ham Mafia","steam_id":76561199137831051,"connected_time":1488000000000,"state":"active","ping":81}]},{"server_id":404,"name":"Uncletopia | Dallas | 3 | All Maps","name_short":"dal-3","host":"dal-1.us.uncletopia.com","port":27035,"enabled":true,"region":"us-central","cc":"us","latitude":32.779167,"longitude":-96.80889,"reserved":0,"last_update":"0001-01-01T00:00:00Z","name_a2s":"Uncletopia | Dallas | 3 | All Maps","protocol":17,"map":"pl_pier","folder":"tf","game":"Team Fortress","app_id":440,"player_count":23,"max_players":24,"Bots":0,"server_type":"Dedicated","server_os":"Linux","password":true,"vac":true,"version":"7961495","steam_id":85568392924515219,"keywords":["nocrits","nodmgspread","payload","uncletopia"],"game_id":440,"stv_port":27036,"stv_name":"Uncletopia | Dallas | 3 | All Maps | STV","players":[{"user_id":404,"name":"(´｡• ω •｡`) ♡","steam_id":76561198120326983,"connected_time":2940000000000,"state":"active","ping":60},{"user_id":417,"name":"Claybae","steam_id":76561198064290179,"connected_time":1414000000000,"state":"active","ping":70},{"user_id":436,"name":"Ninjegeabey","steam_id":76561198217717789,"connected_time":216000000000,"state":"active","ping":66},{"user_id":415,"name":"Polaco","steam_id":76561198176326523,"connected_time":1745000000000,"state":"active","ping":63},{"user_id":418,"name":"Rob","steam_id":76561199187786660,"connected_time":1412000000000,"state":"active","ping":54},{"user_id":437,"name":"ZRMicrowave","steam_id":76561198288574525,"connected_time":124000000000,"state":"active","ping":68},{"user_id":423,"name":"Egg3","steam_id":76561198080190068,"connected_time":1098000000000,"state":"active","ping":97},{"user_id":398,"name":"Unable to Aim","steam_id":76561198268826049,"connected_time":3224000000000,"state":"active","ping":59},{"user_id":414,"name":"MrTea","steam_id":76561198265593563,"connected_time":1791000000000,"state":"active","ping":79},{"user_id":386,"name":"cyborgjo2147","steam_id":76561199184761439,"connected_time":4053000000000,"state":"active","ping":77},{"user_id":435,"name":"Snoopy","steam_id":76561198273735974,"connected_time":290000000000,"state":"active","ping":71},{"user_id":424,"name":"Shmeapalicious7","steam_id":76561198425865340,"connected_time":1088000000000,"state":"active","ping":90},{"user_id":438,"name":"Killerfish360","steam_id":76561198115029584,"connected_time":124000000000,"state":"active","ping":76},{"user_id":431,"name":"big tim","steam_id":76561198075510786,"connected_time":585000000000,"state":"active","ping":73},{"user_id":383,"name":"hounschellxd","steam_id":76561198165243870,"connected_time":4372000000000,"state":"active","ping":60},{"user_id":426,"name":"cringeass nae-nae girl","steam_id":76561198108753857,"connected_time":1052000000000,"state":"active","ping":78},{"user_id":405,"name":"Snoozey","steam_id":76561198017120466,"connected_time":2895000000000,"state":"active","ping":82},{"user_id":432,"name":"Nut Bustray","steam_id":76561198092403883,"connected_time":567000000000,"state":"active","ping":87},{"user_id":428,"name":"New Moon on Monday","steam_id":76561198007647353,"connected_time":1007000000000,"state":"active","ping":49},{"user_id":439,"name":"Kuyumiester","steam_id":76561198126835302,"connected_time":98000000000,"state":"active","ping":65},{"user_id":440,"name":"d u n k","steam_id":76561198066114874,"connected_time":81000000000,"state":"active","ping":105},{"user_id":441,"name":"Barron_Of_Ducks","steam_id":76561199394603713,"connected_time":77000000000,"state":"active","ping":114},{"user_id":442,"name":"Feds taught me how to","steam_id":76561198011675372,"connected_time":69000000000,"state":"active","ping":113}]},{"server_id":405,"name":"Uncletopia | Dallas | 4 | Community","name_short":"dal-4","host":"dal-1.us.uncletopia.com","port":27045,"enabled":true,"region":"us-central","cc":"us","latitude":32.779167,"longitude":-96.80889,"reserved":0,"last_update":"0001-01-01T00:00:00Z","name_a2s":"Uncletopia | Dallas | 4 | Community","protocol":17,"map":"workshop/cp_propaganda_b18.ugc1603743849","folder":"tf","game":"Team Fortress","app_id":440,"player_count":0,"max_players":24,"Bots":0,"server_type":"Dedicated","server_os":"Linux","password":true,"vac":true,"version":"7961495","steam_id":85568392924515220,"keywords":["cp","nocrits","nodmgspread","uncletopia"],"game_id":440,"stv_port":27046,"stv_name":"Uncletopia | Dallas | 4 | Community | STV","players":null},{"server_id":5,"name":"Uncletopia | Frankfurt | 1 | All Maps","name_short":"frk-1","host":"frk-1.de.uncletopia.com","port":27015,"enabled":true,"region":"eu","cc":"de","latitude":50.110924,"longitude":8.682127,"reserved":0,"last_update":"0001-01-01T00:00:00Z","name_a2s":"Uncletopia | Frankfurt | 1 | All Maps","protocol":17,"map":"koth_highpass","folder":"tf","game":"Team Fortress","app_id":440,"player_count":3,"max_players":24,"Bots":0,"server_type":"Dedicated","server_os":"Linux","password":true,"vac":true,"version":"7961495","steam_id":85568392924469989,"keywords":["cp","nocrits","nodmgspread","uncletopia"],"game_id":440,"stv_port":27016,"stv_name":"Uncletopia | Frankfurt | 1 | All Maps | STV","players":[{"user_id":3,"name":"ugandan bruce le","steam_id":76561198826732598,"connected_time":1328000000000,"state":"active","ping":74},{"user_id":4,"name":"ikcikoR","steam_id":76561198208906749,"connected_time":1293000000000,"state":"active","ping":47},{"user_id":7,"name":"Mullins111","steam_id":76561198196125909,"connected_time":120000000000,"state":"spawning","ping":179}]},{"server_id":110,"name":"Uncletopia | Frankfurt | 2 | All Maps","name_short":"frk-2","host":"frk-1.de.uncletopia.com","port":27025,"enabled":true,"region":"eu","cc":"de","latitude":50.110924,"longitude":8.682127,"reserved":0,"last_update":"0001-01-01T00:00:00Z","name_a2s":"Uncletopia | Frankfurt | 2 | All Maps","protocol":17,"map":"cp_dustbowl","folder":"tf","game":"Team Fortress","app_id":440,"player_count":0,"max_players":24,"Bots":0,"server_type":"Dedicated","server_os":"Linux","password":true,"vac":true,"version":"7961495","steam_id":85568392924469990,"keywords":["cp","nocrits","nodmgspread","uncletopia"],"game_id":440,"stv_port":27026,"stv_name":"Uncletopia | Frankfurt | 2 | All Maps | STV","players":null},{"server_id":308,"name":"Uncletopia | Frankfurt | 3 | All Maps","name_short":"frk-3","host":"frk-1.de.uncletopia.com","port":27035,"enabled":true,"region":"eu","cc":"de","latitude":50.110924,"longitude":8.682127,"reserved":0,"last_update":"0001-01-01T00:00:00Z","name_a2s":"Uncletopia | Frankfurt | 3 | All Maps","protocol":17,"map":"pl_barnblitz","folder":"tf","game":"Team Fortress","app_id":440,"player_count":0,"max_players":24,"Bots":0,"server_type":"Dedicated","server_os":"Linux","password":true,"vac":true,"version":"7961495","steam_id":85568392924504274,"keywords":["nocrits","nodmgspread","payload","uncletopia"],"game_id":440,"stv_port":27036,"stv_name":"Uncletopia | Frankfurt | 3 | All Maps | STV","players":null},{"server_id":309,"name":"Uncletopia | Frankfurt | 4 | All Maps","name_short":"frk-4","host":"frk-1.de.uncletopia.com","port":27045,"enabled":true,"region":"eu","cc":"de","latitude":50.110924,"longitude":8.682127,"reserved":0,"last_update":"0001-01-01T00:00:00Z","name_a2s":"Uncletopia | Frankfurt | 4 | All Maps","protocol":17,"map":"koth_highpass","folder":"tf","game":"Team Fortress","app_id":440,"player_count":0,"max_players":24,"Bots":0,"server_type":"Dedicated","server_os":"Linux","password":true,"vac":true,"version":"7961495","steam_id":85568392924504275,"keywords":["cp","nocrits","nodmgspread","uncletopia"],"game_id":440,"stv_port":27046,"stv_name":"Uncletopia | Frankfurt | 4 | All Maps | STV","players":null},{"server_id":310,"name":"Uncletopia | Frankfurt | 5 | All Maps","name_short":"frk-5","host":"frk-1.de.uncletopia.com","port":27055,"enabled":true,"region":"eu","cc":"de","latitude":50.110924,"longitude":8.682127,"reserved":0,"last_update":"0001-01-01T00:00:00Z","name_a2s":"Uncletopia | Frankfurt | 5 | All Maps","protocol":17,"map":"pl_badwater","folder":"tf","game":"Team Fortress","app_id":440,"player_count":0,"max_players":24,"Bots":0,"server_type":"Dedicated","server_os":"Linux","password":true,"vac":true,"version":"7961495","steam_id":85568392924504277,"keywords":["nocrits","nodmgspread","payload","uncletopia"],"game_id":440,"stv_port":27056,"stv_name":"Uncletopia | Frankfurt | 5 | All Maps | STV","players":null},{"server_id":311,"name":"Uncletopia | Frankfurt | 6 | All Maps","name_short":"frk-6","host":"frk-1.de.uncletopia.com","port":27065,"enabled":true,"region":"eu","cc":"de","latitude":50.110924,"longitude":8.682127,"reserved":0,"last_update":"0001-01-01T00:00:00Z","name_a2s":"Uncletopia | Frankfurt | 6 | All Maps","protocol":17,"map":"cp_altitude","folder":"tf","game":"Team Fortress","app_id":440,"player_count":0,"max_players":24,"Bots":0,"server_type":"Dedicated","server_os":"Linux","password":true,"vac":true,"version":"7961495","steam_id":85568392924504278,"keywords":["cp","nocrits","nodmgspread","uncletopia"],"game_id":440,"stv_port":27066,"stv_name":"Uncletopia | Frankfurt | 6 | All Maps | STV","players":null},{"server_id":23,"name":"Uncletopia | Frankfurt | 7 | Stopwatch","name_short":"frk-7","host":"frk-1.de.uncletopia.com","port":27075,"enabled":true,"region":"eu","cc":"de","latitude":50.110924,"longitude":8.682127,"reserved":0,"last_update":"0001-01-01T00:00:00Z","name_a2s":"Uncletopia | Frankfurt | 7 | Stopwatch","protocol":17,"map":"pl_frontier_final","folder":"tf","game":"Team Fortress","app_id":440,"player_count":0,"max_players":24,"Bots":0,"server_type":"Dedicated","server_os":"Linux","password":true,"vac":true,"version":"7961495","steam_id":85568392924742827,"keywords":["nocrits","nodmgspread","payload","uncletopia"],"game_id":440,"stv_port":27076,"stv_name":"Uncletopia | Frankfurt | 7 | Stopwatch | STV","players":null},{"server_id":24,"name":"Uncletopia | Frankfurt | 8 | Community","name_short":"frk-8","host":"frk-1.de.uncletopia.com","port":27085,"enabled":true,"region":"eu","cc":"de","latitude":50.110924,"longitude":8.682127,"reserved":0,"last_update":"0001-01-01T00:00:00Z","name_a2s":"Uncletopia | Frankfurt | 8 | Community","protocol":17,"map":"cp_mountainlab","folder":"tf","game":"Team Fortress","app_id":440,"player_count":0,"max_players":24,"Bots":0,"server_type":"Dedicated","server_os":"Linux","password":true,"vac":true,"version":"7961495","steam_id":85568392924742828,"keywords":["cp","nocrits","nodmgspread","uncletopia"],"game_id":440,"stv_port":27086,"stv_name":"Uncletopia | Frankfurt | 8 | Community | STV","players":null},{"server_id":202,"name":"Uncletopia | Hong Kong | 1 | All Maps","name_short":"hgk-1","host":"hgk-1.hk.uncletopia.com","port":27015,"enabled":true,"region":"asia","cc":"hk","latitude":22.302711,"longitude":114.177216,"reserved":0,"last_update":"0001-01-01T00:00:00Z","name_a2s":"Uncletopia | Hong Kong | 1 | All Maps","protocol":17,"map":"pl_upward","folder":"tf","game":"Team Fortress","app_id":440,"player_count":22,"max_players":24,"Bots":0,"server_type":"Dedicated","server_os":"Linux","password":true,"vac":true,"version":"7961495","steam_id":85568392924494504,"keywords":["nocrits","nodmgspread","payload","uncletopia"],"game_id":440,"stv_port":27016,"stv_name":"Uncletopia | Hong Kong | 1 | All Maps | STV","players":[{"user_id":63,"name":"ArcticDolphin","steam_id":76561198203626319,"connected_time":748000000000,"state":"active","ping":126},{"user_id":31,"name":"screaming sniper","steam_id":76561199085568674,"connected_time":2973000000000,"state":"active","ping":52},{"user_id":65,"name":"swookang","steam_id":76561198234388288,"connected_time":440000000000,"state":"active","ping":81},{"user_id":64,"name":"Portal","steam_id":76561198049121003,"connected_time":684000000000,"state":"active","ping":149},{"user_id":71,"name":"隔壁老赵","steam_id":76561199440874406,"connected_time":0,"state":"spawning","ping":0},{"user_id":16,"name":"Cheesey","steam_id":76561198975684137,"connected_time":3900000000000,"state":"active","ping":78},{"user_id":62,"name":"Exclamator","steam_id":76561199065048552,"connected_time":790000000000,"state":"active","ping":125},{"user_id":59,"name":"Lu ✿","steam_id":76561198320532821,"connected_time":1532000000000,"state":"active","ping":58},{"user_id":66,"name":"Pillboi","steam_id":76561198011172886,"connected_time":402000000000,"state":"active","ping":38},{"user_id":68,"name":"★a̲c̲a̲t̲","steam_id":76561198334099003,"connected_time":113000000000,"state":"active","ping":130},{"user_id":56,"name":"VIETCONG","steam_id":76561199213148079,"connected_time":1603000000000,"state":"active","ping":98},{"user_id":22,"name":"yw","steam_id":76561199382726488,"connected_time":3457000000000,"state":"active","ping":50},{"user_id":33,"name":"Chomeo","steam_id":76561199034546642,"connected_time":2909000000000,"state":"active","ping":113},{"user_id":69,"name":"Giouri","steam_id":76561199152247162,"connected_time":49000000000,"state":"active","ping":215},{"user_id":60,"name":"LEGS","steam_id":76561199111623890,"connected_time":1198000000000,"state":"active","ping":64},{"user_id":27,"name":"BAzooKA","steam_id":76561198061628689,"connected_time":3109000000000,"state":"active","ping":54},{"user_id":58,"name":"corpse_cadaver","steam_id":76561199225360457,"connected_time":1598000000000,"state":"active","ping":76},{"user_id":67,"name":"Kyo","steam_id":76561198088550274,"connected_time":380000000000,"state":"active","ping":45},{"user_id":43,"name":"pyroman51","steam_id":76561198074339034,"connected_time":2307000000000,"state":"active","ping":79},{"user_id":48,"name":"baseball bat","steam_id":76561198199585753,"connected_time":2153000000000,"state":"active","ping":84},{"user_id":38,"name":":(","steam_id":76561198360026912,"connected_time":2698000000000,"state":"active","ping":90},{"user_id":47,"name":"owl","steam_id":76561198088403016,"connected_time":2231000000000,"state":"active","ping":98}]},{"server_id":1,"name":"Uncletopia | Los Angeles | 1 | All Maps","name_short":"lax-1","host":"lax-1.us.uncletopia.com","port":27015,"enabled":true,"region":"us-west","cc":"us","latitude":33.94279,"longitude":-118.41004,"reserved":0,"last_update":"0001-01-01T00:00:00Z","name_a2s":"Uncletopia | Los Angeles | 1 | All Maps","protocol":17,"map":"cp_dustbowl","folder":"tf","game":"Team Fortress","app_id":440,"player_count":23,"max_players":24,"Bots":0,"server_type":"Dedicated","server_os":"Linux","password":true,"vac":true,"version":"7961495","steam_id":85568392924469991,"keywords":["cp","nocrits","nodmgspread","uncletopia"],"game_id":440,"stv_port":27016,"stv_name":"Uncletopia | Los Angeles | 1 | All Maps | STV","players":[{"user_id":625,"name":"Haven","steam_id":76561198087584756,"connected_time":1243000000000,"state":"active","ping":97},{"user_id":620,"name":"Skagerecked","steam_id":76561198006578524,"connected_time":1720000000000,"state":"active","ping":84},{"user_id":604,"name":"Axl Elixen","steam_id":76561198348097569,"connected_time":2551000000000,"state":"active","ping":111},{"user_id":626,"name":"bad spy player","steam_id":76561198873699671,"connected_time":1240000000000,"state":"active","ping":87},{"user_id":606,"name":"RC","steam_id":76561198048127881,"connected_time":2482000000000,"state":"active","ping":45},{"user_id":632,"name":"NAWWWWWWWWWWW","steam_id":76561198878913441,"connected_time":55000000000,"state":"active","ping":44},{"user_id":579,"name":"Fungal","steam_id":76561198078973439,"connected_time":4315000000000,"state":"active","ping":52},{"user_id":601,"name":"Mizer","steam_id":76561198024972154,"connected_time":2646000000000,"state":"active","ping":110},{"user_id":628,"name":"ErasedMuse","steam_id":76561198040183209,"connected_time":655000000000,"state":"active","ping":53},{"user_id":607,"name":"to_op4u","steam_id":76561198354526834,"connected_time":2479000000000,"state":"active","ping":51},{"user_id":608,"name":"Herdez Hot Salsa","steam_id":76561197991740906,"connected_time":2478000000000,"state":"active","ping":125},{"user_id":629,"name":"the fool","steam_id":76561198133933158,"connected_time":545000000000,"state":"active","ping":55},{"user_id":599,"name":"Amogous Supreme","steam_id":76561198025476774,"connected_time":3359000000000,"state":"active","ping":68},{"user_id":619,"name":"Lover Boy","steam_id":76561199200969139,"connected_time":1939000000000,"state":"active","ping":112},{"user_id":612,"name":"Scampy","steam_id":76561198001506924,"connected_time":2379000000000,"state":"active","ping":84},{"user_id":584,"name":"Antis","steam_id":76561198055790522,"connected_time":4141000000000,"state":"active","ping":58},{"user_id":614,"name":"ballistickill64","steam_id":76561199163875433,"connected_time":2322000000000,"state":"active","ping":116},{"user_id":630,"name":"Fami","steam_id":76561198193580105,"connected_time":269000000000,"state":"active","ping":46},{"user_id":408,"name":"sobaka","steam_id":76561198116008934,"connected_time":18054000000000,"state":"active","ping":60},{"user_id":615,"name":"Mem","steam_id":76561198867989016,"connected_time":2321000000000,"state":"active","ping":101},{"user_id":585,"name":"Sergeant Sear","steam_id":76561197963477221,"connected_time":4112000000000,"state":"active","ping":51},{"user_id":611,"name":"Wiener Hole Paper Cut","steam_id":76561198000808203,"connected_time":2443000000000,"state":"active","ping":115},{"user_id":617,"name":"TheButterGamer","steam_id":76561198399817708,"connected_time":2213000000000,"state":"active","ping":133}]},{"server_id":112,"name":"Uncletopia | Los Angeles | 2 | All Maps","name_short":"lax-2","host":"lax-1.us.uncletopia.com","port":27025,"enabled":true,"region":"us-west","cc":"us","latitude":33.94279,"longitude":-118.41004,"reserved":0,"last_update":"0001-01-01T00:00:00Z","name_a2s":"Uncletopia | Los Angeles | 2 | All Maps","protocol":17,"map":"pl_badwater","folder":"tf","game":"Team Fortress","app_id":440,"player_count":24,"max_players":24,"Bots":0,"server_type":"Dedicated","server_os":"Linux","password":true,"vac":true,"version":"7961495","steam_id":85568392924469992,"keywords":["nocrits","nodmgspread","payload","uncletopia"],"game_id":440,"stv_port":27026,"stv_name":"Uncletopia | Los Angeles | 2 | All Maps | STV","players":[{"user_id":177,"name":"Ragnalon","steam_id":76561198807377526,"connected_time":4443000000000,"state":"active","ping":47},{"user_id":227,"name":"An00bis","steam_id":76561198044084508,"connected_time":1509000000000,"state":"active","ping":51},{"user_id":224,"name":"samantha","steam_id":76561198049258493,"connected_time":1636000000000,"state":"active","ping":91},{"user_id":242,"name":"tf2bot","steam_id":76561199016742478,"connected_time":161000000000,"state":"active","ping":54},{"user_id":193,"name":"Rocktra_","steam_id":76561198173272943,"connected_time":3458000000000,"state":"active","ping":66},{"user_id":216,"name":"Doctor X (Michiko Daemon)","steam_id":76561199106264424,"connected_time":1806000000000,"state":"active","ping":107},{"user_id":204,"name":"Evil Sayori","steam_id":76561198957479336,"connected_time":2460000000000,"state":"active","ping":91},{"user_id":211,"name":"Jimmy McGill","steam_id":76561198135137213,"connected_time":2013000000000,"state":"active","ping":75},{"user_id":212,"name":"kim wexler","steam_id":76561199199795741,"connected_time":2009000000000,"state":"active","ping":94},{"user_id":203,"name":"Owl_eyes","steam_id":76561198066199203,"connected_time":2492000000000,"state":"active","ping":56},{"user_id":226,"name":"McSpazatron","steam_id":76561198955942148,"connected_time":1543000000000,"state":"active","ping":82},{"user_id":191,"name":"Jax O'Gaytor","steam_id":76561198288922168,"connected_time":3517000000000,"state":"active","ping":72},{"user_id":217,"name":"PainInTheRuss","steam_id":76561197977960543,"connected_time":1798000000000,"state":"active","ping":49},{"user_id":218,"name":"type \"bad med\" to kick","steam_id":76561198076402476,"connected_time":1772000000000,"state":"active","ping":76},{"user_id":241,"name":"Lambchop","steam_id":76561198043900363,"connected_time":199000000000,"state":"active","ping":69},{"user_id":225,"name":"CampinCarl","steam_id":76561197997373624,"connected_time":1631000000000,"state":"active","ping":59},{"user_id":237,"name":"yummines","steam_id":76561197981540661,"connected_time":632000000000,"state":"active","ping":79},{"user_id":234,"name":"TüCold","steam_id":76561198111278197,"connected_time":858000000000,"state":"active","ping":59},{"user_id":228,"name":"merkury731","steam_id":76561198110565430,"connected_time":1467000000000,"state":"active","ping":110},{"user_id":229,"name":"Snootzdog","steam_id":76561198835737236,"connected_time":1462000000000,"state":"active","ping":135},{"user_id":205,"name":"walrooos","steam_id":76561198024521839,"connected_time":2406000000000,"state":"active","ping":45},{"user_id":238,"name":"Stevokenivo","steam_id":76561198083369950,"connected_time":622000000000,"state":"active","ping":86},{"user_id":147,"name":"roach","steam_id":76561198354811369,"connected_time":6650000000000,"state":"active","ping":52},{"user_id":233,"name":"sublimejer","steam_id":76561198302665344,"connected_time":1170000000000,"state":"active","ping":40}]},{"server_id":324,"name":"Uncletopia | Los Angeles | 3 | All Maps","name_short":"lax-3","host":"lax-1.us.uncletopia.com","port":27035,"enabled":true,"region":"us-west","cc":"us","latitude":33.94279,"longitude":-118.41004,"reserved":0,"last_update":"0001-01-01T00:00:00Z","name_a2s":"Uncletopia | Los Angeles | 3 | All Maps","protocol":17,"map":"cp_sunshine","folder":"tf","game":"Team Fortress","app_id":440,"player_count":23,"max_players":24,"Bots":0,"server_type":"Dedicated","server_os":"Linux","password":true,"vac":true,"version":"7961495","steam_id":85568392924510198,"keywords":["cp","nocrits","nodmgspread","uncletopia"],"game_id":440,"stv_port":27036,"stv_name":"Uncletopia | Los Angeles | 3 | All Maps | STV","players":[{"user_id":186,"name":"4G.B4NDIT","steam_id":76561198121922413,"connected_time":520000000000,"state":"active","ping":44},{"user_id":187,"name":"shreklover69","steam_id":76561198054070811,"connected_time":484000000000,"state":"active","ping":54},{"user_id":188,"name":"Decuplets","steam_id":76561198080661586,"connected_time":375000000000,"state":"active","ping":81},{"user_id":180,"name":"dAiLyGrInD","steam_id":76561198163531915,"connected_time":946000000000,"state":"active","ping":90},{"user_id":175,"name":"copper","steam_id":76561198146250533,"connected_time":1224000000000,"state":"active","ping":83},{"user_id":169,"name":"dogerich404","steam_id":76561199124102546,"connected_time":1322000000000,"state":"active","ping":58},{"user_id":126,"name":"★★thastephen★★","steam_id":76561198080289775,"connected_time":3728000000000,"state":"active","ping":62},{"user_id":168,"name":"Chalupa Jones","steam_id":76561198335855588,"connected_time":1355000000000,"state":"active","ping":51},{"user_id":170,"name":"checkswing","steam_id":76561198999816132,"connected_time":1288000000000,"state":"active","ping":129},{"user_id":144,"name":"HyperAshGaming","steam_id":76561199001959528,"connected_time":2902000000000,"state":"active","ping":46},{"user_id":145,"name":"don't get mad","steam_id":76561198064662875,"connected_time":2891000000000,"state":"active","ping":58},{"user_id":193,"name":"Nortel Network Telephone T7316","steam_id":76561198399261089,"connected_time":88000000000,"state":"active","ping":53},{"user_id":190,"name":"tape | kayn","steam_id":76561198116456594,"connected_time":318000000000,"state":"active","ping":113},{"user_id":167,"name":"Alte","steam_id":76561198040299384,"connected_time":1399000000000,"state":"active","ping":49},{"user_id":191,"name":"Manwiththeblue","steam_id":76561198895919404,"connected_time":278000000000,"state":"active","ping":58},{"user_id":184,"name":"Khang","steam_id":76561199021989566,"connected_time":709000000000,"state":"active","ping":97},{"user_id":185,"name":"LordKirby","steam_id":76561198006938286,"connected_time":640000000000,"state":"active","ping":70},{"user_id":178,"name":"waffles con leche","steam_id":76561198246934872,"connected_time":1194000000000,"state":"active","ping":71},{"user_id":174,"name":"Sunshine On Me","steam_id":76561198042570322,"connected_time":1238000000000,"state":"active","ping":97},{"user_id":156,"name":"DOPEam1ne","steam_id":76561198112204774,"connected_time":2133000000000,"state":"active","ping":53},{"user_id":195,"name":"b","steam_id":76561198156336213,"connected_time":49000000000,"state":"active","ping":65},{"user_id":83,"name":"Owls = Government Drones","steam_id":76561198439793697,"connected_time":6081000000000,"state":"active","ping":132},{"user_id":177,"name":"Person Man","steam_id":76561198293857963,"connected_time":1209000000000,"state":"active","ping":62}]},{"server_id":25,"name":"Uncletopia | Los Angeles | 4 | Stopwatch","name_short":"lax-4","host":"lax-1.us.uncletopia.com","port":27045,"enabled":true,"region":"us-west","cc":"us","latitude":33.94279,"longitude":-118.41004,"reserved":0,"last_update":"0001-01-01T00:00:00Z","name_a2s":"Uncletopia | Los Angeles | 4 | Stopwatch","protocol":17,"map":"workshop/koth_ashville_final.ugc2130459942","folder":"tf","game":"Team Fortress","app_id":440,"player_count":6,"max_players":24,"Bots":0,"server_type":"Dedicated","server_os":"Linux","password":true,"vac":true,"version":"7961495","steam_id":85568392924510199,"keywords":["cp","nocrits","nodmgspread","uncletopia"],"game_id":440,"stv_port":27046,"stv_name":"Uncletopia | Los Angeles | 4 | Stopwatch | STV","players":[{"user_id":25,"name":"MancalaMadMan","steam_id":76561198347324053,"connected_time":2025000000000,"state":"active","ping":85},{"user_id":26,"name":"DeltaForce4Life","steam_id":76561198355534614,"connected_time":1969000000000,"state":"active","ping":89},{"user_id":27,"name":"Fish Lambert","steam_id":76561198098279668,"connected_time":1078000000000,"state":"active","ping":60},{"user_id":28,"name":"Bobletoob","steam_id":76561199184464900,"connected_time":1023000000000,"state":"active","ping":53},{"user_id":29,"name":"Joker's Skull","steam_id":76561199185320627,"connected_time":263000000000,"state":"active","ping":102},{"user_id":30,"name":"Zirch","steam_id":76561198268913937,"connected_time":181000000000,"state":"active","ping":116}]},{"server_id":11,"name":"Uncletopia | London | 1 | All Maps","name_short":"lon-1","host":"lon-1.uk.uncletopia.com","port":27015,"enabled":true,"region":"eu","cc":"gb","latitude":51.509865,"longitude":-0.118092,"reserved":0,"last_update":"0001-01-01T00:00:00Z","name_a2s":"Uncletopia | London | 1 | All Maps","protocol":17,"map":"cp_steel","folder":"tf","game":"Team Fortress","app_id":440,"player_count":24,"max_players":24,"Bots":0,"server_type":"Dedicated","server_os":"Linux","password":true,"vac":true,"version":"7961495","steam_id":85568392924367362,"keywords":["cp","nocrits","nodmgspread","uncletopia"],"game_id":440,"stv_port":27016,"stv_name":"Uncletopia | London | 1 | All Maps | STV","players":[{"user_id":835,"name":"CreepyYellowDuck","steam_id":76561198000479387,"connected_time":4937000000000,"state":"active","ping":30},{"user_id":691,"name":"shh.... tiny carrots r sleeping","steam_id":76561198069649097,"connected_time":8243000000000,"state":"active","ping":60},{"user_id":872,"name":"Luxotrics","steam_id":76561198053455161,"connected_time":825000000000,"state":"active","ping":101},{"user_id":870,"name":"Perpetual Pub Push","steam_id":76561198256714846,"connected_time":861000000000,"state":"active","ping":43},{"user_id":860,"name":"Bubsy 3D","steam_id":76561197988942314,"connected_time":2042000000000,"state":"active","ping":24},{"user_id":843,"name":"Unlicensed Fed","steam_id":76561198166040449,"connected_time":4606000000000,"state":"active","ping":170},{"user_id":875,"name":"digilith","steam_id":76561199106966802,"connected_time":500000000000,"state":"active","ping":96},{"user_id":663,"name":"demps","steam_id":76561198049405872,"connected_time":9268000000000,"state":"active","ping":44},{"user_id":855,"name":"Yelowchy","steam_id":76561198199416121,"connected_time":3260000000000,"state":"active","ping":75},{"user_id":871,"name":"jmp","steam_id":76561198168283286,"connected_time":841000000000,"state":"active","ping":87},{"user_id":849,"name":"Gauss","steam_id":76561199384845492,"connected_time":3559000000000,"state":"active","ping":73},{"user_id":619,"name":"minn","steam_id":76561198099101232,"connected_time":13760000000000,"state":"active","ping":57},{"user_id":492,"name":"shooer!","steam_id":76561198110531281,"connected_time":28868000000000,"state":"active","ping":66},{"user_id":865,"name":"Caitifffriend","steam_id":76561198998684199,"connected_time":1606000000000,"state":"active","ping":131},{"user_id":692,"name":"Sinnamonsters","steam_id":76561198423422354,"connected_time":8243000000000,"state":"active","ping":141},{"user_id":851,"name":"king k rool","steam_id":76561199179040672,"connected_time":3299000000000,"state":"active","ping":54},{"user_id":869,"name":"Xyverle","steam_id":76561198799726415,"connected_time":1154000000000,"state":"active","ping":135},{"user_id":874,"name":"Pahlberg","steam_id":76561198208547929,"connected_time":765000000000,"state":"active","ping":90},{"user_id":810,"name":"Arentrir","steam_id":76561198334126785,"connected_time":5676000000000,"state":"active","ping":75},{"user_id":695,"name":"kbbq","steam_id":76561198346638308,"connected_time":8182000000000,"state":"active","ping":54},{"user_id":866,"name":"did you see it?","steam_id":76561198071440081,"connected_time":1599000000000,"state":"active","ping":90},{"user_id":847,"name":"fishska","steam_id":76561198051166015,"connected_time":3714000000000,"state":"active","ping":55},{"user_id":858,"name":"Marcus","steam_id":76561198205027963,"connected_time":2443000000000,"state":"active","ping":64},{"user_id":867,"name":"cat funt","steam_id":76561198845550388,"connected_time":1597000000000,"state":"active","ping":117}]},{"server_id":114,"name":"Uncletopia | London | 2 | All Maps","name_short":"lon-2","host":"lon-1.uk.uncletopia.com","port":27025,"enabled":true,"region":"eu","cc":"gb","latitude":51.509865,"longitude":-0.118092,"reserved":0,"last_update":"0001-01-01T00:00:00Z","name_a2s":"Uncletopia | London | 2 | All Maps","protocol":17,"map":"cp_altitude","folder":"tf","game":"Team Fortress","app_id":440,"player_count":0,"max_players":24,"Bots":0,"server_type":"Dedicated","server_os":"Linux","password":true,"vac":true,"version":"7961495","steam_id":85568392924470941,"keywords":["cp","nocrits","nodmgspread","uncletopia"],"game_id":440,"stv_port":27026,"stv_name":"Uncletopia | London | 2 | All Maps | STV","players":null},{"server_id":320,"name":"Uncletopia | London | 3 | All Maps","name_short":"lon-3","host":"lon-1.uk.uncletopia.com","port":27035,"enabled":true,"region":"eu","cc":"gb","latitude":51.509865,"longitude":-0.118092,"reserved":0,"last_update":"0001-01-01T00:00:00Z","name_a2s":"Uncletopia | London | 3 | All Maps","protocol":17,"map":"koth_viaduct","folder":"tf","game":"Team Fortress","app_id":440,"player_count":0,"max_players":24,"Bots":0,"server_type":"Dedicated","server_os":"Linux","password":true,"vac":true,"version":"7961495","steam_id":85568392924510192,"keywords":["cp","nocrits","nodmgspread","uncletopia"],"game_id":440,"stv_port":27036,"stv_name":"Uncletopia | London | 3 | All Maps | STV","players":null},{"server_id":321,"name":"Uncletopia | London | 4 | All Maps","name_short":"lon-4","host":"lon-1.uk.uncletopia.com","port":27045,"enabled":true,"region":"eu","cc":"gb","latitude":51.509865,"longitude":-0.118092,"reserved":0,"last_update":"0001-01-01T00:00:00Z","name_a2s":"Uncletopia | London | 4 | All Maps","protocol":17,"map":"koth_cascade","folder":"tf","game":"Team Fortress","app_id":440,"player_count":0,"max_players":24,"Bots":0,"server_type":"Dedicated","server_os":"Linux","password":true,"vac":true,"version":"7961495","steam_id":85568392924510193,"keywords":["cp","nocrits","nodmgspread","uncletopia"],"game_id":440,"stv_port":27046,"stv_name":"Uncletopia | London | 4 | All Maps | STV","players":null},{"server_id":21,"name":"Uncletopia | London | 5 | All Maps","name_short":"lon-5","host":"lon-1.uk.uncletopia.com","port":27055,"enabled":true,"region":"eu","cc":"gb","latitude":51.509865,"longitude":-0.118092,"reserved":0,"last_update":"0001-01-01T00:00:00Z","name_a2s":"Uncletopia | London | 5 | All Maps","protocol":17,"map":"pl_snowycoast","folder":"tf","game":"Team Fortress","app_id":440,"player_count":0,"max_players":24,"Bots":0,"server_type":"Dedicated","server_os":"Linux","password":true,"vac":true,"version":"7961495","steam_id":85568392924742829,"keywords":["nocrits","nodmgspread","payload","uncletopia"],"game_id":440,"stv_port":27056,"stv_name":"Uncletopia | London | 5 | All Maps | STV","players":null},{"server_id":22,"name":"Uncletopia | London | 6 | All Maps","name_short":"lon-6","host":"lon-1.uk.uncletopia.com","port":27065,"enabled":true,"region":"eu","cc":"gb","latitude":51.509865,"longitude":-0.118092,"reserved":0,"last_update":"0001-01-01T00:00:00Z","name_a2s":"Uncletopia | London | 6 | All Maps","protocol":17,"map":"cp_snakewater_final1","folder":"tf","game":"Team Fortress","app_id":440,"player_count":0,"max_players":24,"Bots":0,"server_type":"Dedicated","server_os":"Linux","password":true,"vac":true,"version":"7961495","steam_id":85568392924742830,"keywords":["cp","nocrits","nodmgspread","uncletopia"],"game_id":440,"stv_port":27066,"stv_name":"Uncletopia | London | 6 | All Maps | STV","players":null},{"server_id":40,"name":"Uncletopia | London | 7 | Stopwatch","name_short":"lon-7","host":"lon-1.uk.uncletopia.com","port":27075,"enabled":true,"region":"eu","cc":"gb","latitude":51.509865,"longitude":-0.118092,"reserved":0,"last_update":"0001-01-01T00:00:00Z","name_a2s":"Uncletopia | London | 7 | Stopwatch","protocol":17,"map":"workshop/koth_ashville_final.ugc2130459942","folder":"tf","game":"Team Fortress","app_id":440,"player_count":0,"max_players":24,"Bots":0,"server_type":"Dedicated","server_os":"Linux","password":true,"vac":true,"version":"7961495","steam_id":85568392924964314,"keywords":["cp","nocrits","nodmgspread","uncletopia"],"game_id":440,"stv_port":27076,"stv_name":"Uncletopia | London | 7 | Stopwatch | STV","players":null},{"server_id":41,"name":"Uncletopia | London | 8 | Community","name_short":"lon-8","host":"lon-1.uk.uncletopia.com","port":27085,"enabled":true,"region":"eu","cc":"gb","latitude":51.509865,"longitude":-0.118092,"reserved":0,"last_update":"0001-01-01T00:00:00Z","name_a2s":"Uncletopia | London | 8 | Community","protocol":17,"map":"workshop/pl_boundary_final1.ugc456799153","folder":"tf","game":"Team Fortress","app_id":440,"player_count":0,"max_players":24,"Bots":0,"server_type":"Dedicated","server_os":"Linux","password":true,"vac":true,"version":"7961495","steam_id":85568392924964315,"keywords":["nocrits","nodmgspread","payload","uncletopia"],"game_id":440,"stv_port":27086,"stv_name":"Uncletopia | London | 8 | Community | STV","players":null},{"server_id":300,"name":"Uncletopia | Montréal | 1 | One Thousand Uncles","name_short":"mtl-1","host":"mtl-1.ca.uncletopia.com","port":27015,"enabled":true,"region":"us-east","cc":"ca","latitude":45.50889,"longitude":-73.56167,"reserved":0,"last_update":"0001-01-01T00:00:00Z","name_a2s":"","protocol":0,"map":"","folder":"","game":"","app_id":0,"player_count":6,"max_players":0,"Bots":0,"server_type":"","server_os":"","password":false,"vac":false,"version":"","steam_id":0,"keywords":null,"game_id":0,"stv_port":0,"stv_name":"","players":[{"user_id":273,"name":"DeepDive","steam_id":76561198140542184,"connected_time":3583000000000,"state":"active","ping":52},{"user_id":279,"name":"Phillip Jeffries","steam_id":76561198064052174,"connected_time":2392000000000,"state":"active","ping":71},{"user_id":280,"name":"Rare High Moments","steam_id":76561198053465042,"connected_time":2282000000000,"state":"active","ping":77},{"user_id":300,"name":"Im Groot","steam_id":76561198294943420,"connected_time":1479000000000,"state":"active","ping":79},{"user_id":303,"name":"Thai","steam_id":76561198302397245,"connected_time":1101000000000,"state":"active","ping":51},{"user_id":205,"name":"Disc0","steam_id":76561198067337267,"connected_time":7212000000000,"state":"active","ping":135}]},{"server_id":301,"name":"Uncletopia | Montréal | 2 | One Thousand Uncles","name_short":"mtl-2","host":"mtl-1.ca.uncletopia.com","port":27025,"enabled":true,"region":"us-east","cc":"ca","latitude":45.50889,"longitude":-73.56167,"reserved":0,"last_update":"0001-01-01T00:00:00Z","name_a2s":"","protocol":0,"map":"","folder":"","game":"","app_id":0,"player_count":0,"max_players":0,"Bots":0,"server_type":"","server_os":"","password":false,"vac":false,"version":"","steam_id":0,"keywords":null,"game_id":0,"stv_port":0,"stv_name":"","players":null},{"server_id":302,"name":"Uncletopia | Montréal | 3 | One Thousand Uncles","name_short":"mtl-3","host":"mtl-1.ca.uncletopia.com","port":27035,"enabled":true,"region":"us-east","cc":"ca","latitude":45.50889,"longitude":-73.56167,"reserved":0,"last_update":"0001-01-01T00:00:00Z","name_a2s":"","protocol":0,"map":"","folder":"","game":"","app_id":0,"player_count":0,"max_players":0,"Bots":0,"server_type":"","server_os":"","password":false,"vac":false,"version":"","steam_id":0,"keywords":null,"game_id":0,"stv_port":0,"stv_name":"","players":null},{"server_id":13,"name":"Uncletopia | New York City | 1 | All Maps","name_short":"nyc-1","host":"nyc-1.us.uncletopia.com","port":27015,"enabled":true,"region":"us-east","cc":"us","latitude":40.73061,"longitude":-73.93524,"reserved":0,"last_update":"0001-01-01T00:00:00Z","name_a2s":"Uncletopia | New York City | 1 | All Maps","protocol":17,"map":"cp_dustbowl","folder":"tf","game":"Team Fortress","app_id":440,"player_count":7,"max_players":24,"Bots":0,"server_type":"Dedicated","server_os":"Linux","password":true,"vac":true,"version":"7961495","steam_id":85568392924469993,"keywords":["cp","nocrits","nodmgspread","uncletopia"],"game_id":440,"stv_port":27016,"stv_name":"Uncletopia | New York City | 1 | All Maps | STV","players":[{"user_id":739,"name":"Bones0010","steam_id":76561198096186958,"connected_time":836000000000,"state":"active","ping":90},{"user_id":744,"name":"Kerpal45","steam_id":76561198153340350,"connected_time":198000000000,"state":"active","ping":81},{"user_id":742,"name":"Chechens Spotted","steam_id":76561199028910893,"connected_time":643000000000,"state":"active","ping":86},{"user_id":667,"name":"rattlin' bog","steam_id":76561198224551028,"connected_time":7069000000000,"state":"active","ping":50},{"user_id":672,"name":"DoggyDogWhirl","steam_id":76561198042841344,"connected_time":6993000000000,"state":"active","ping":67},{"user_id":674,"name":"Fart Huffer","steam_id":76561198094125834,"connected_time":6830000000000,"state":"active","ping":70},{"user_id":736,"name":"the gaming master 27;","steam_id":76561199047402142,"connected_time":1169000000000,"state":"active","ping":69}]},{"server_id":14,"name":"Uncletopia | New York City | 2 | All Maps","name_short":"nyc-2","host":"nyc-1.us.uncletopia.com","port":27025,"enabled":true,"region":"us-east","cc":"us","latitude":40.73061,"longitude":-73.93524,"reserved":0,"last_update":"0001-01-01T00:00:00Z","name_a2s":"Uncletopia | New York City | 2 | All Maps","protocol":17,"map":"pl_upward","folder":"tf","game":"Team Fortress","app_id":440,"player_count":24,"max_players":24,"Bots":0,"server_type":"Dedicated","server_os":"Linux","password":true,"vac":true,"version":"7961495","steam_id":85568392924469994,"keywords":["nocrits","nodmgspread","payload","uncletopia"],"game_id":440,"stv_port":27026,"stv_name":"Uncletopia | New York City | 2 | All Maps | STV","players":[{"user_id":741,"name":"ToastBag","steam_id":76561199221849528,"connected_time":4581000000000,"state":"active","ping":132},{"user_id":778,"name":"tydogzilla","steam_id":76561198054254518,"connected_time":1410000000000,"state":"active","ping":48},{"user_id":785,"name":"diego brando","steam_id":76561198162618469,"connected_time":580000000000,"state":"active","ping":41},{"user_id":797,"name":"Pizza Party","steam_id":76561198165730754,"connected_time":49000000000,"state":"active","ping":64},{"user_id":786,"name":"GunSpy872","steam_id":76561198290866348,"connected_time":555000000000,"state":"active","ping":61},{"user_id":758,"name":"DaFox","steam_id":76561198010711796,"connected_time":3001000000000,"state":"active","ping":47},{"user_id":781,"name":"yoingle spoingle","steam_id":76561198336684715,"connected_time":1129000000000,"state":"active","ping":85},{"user_id":750,"name":"Arkh","steam_id":76561198862003669,"connected_time":3800000000000,"state":"active","ping":69},{"user_id":759,"name":"Chilidawg","steam_id":76561198108048855,"connected_time":2996000000000,"state":"active","ping":60},{"user_id":794,"name":"sunglasses","steam_id":76561198173747227,"connected_time":148000000000,"state":"active","ping":65},{"user_id":770,"name":"space man","steam_id":76561198066333670,"connected_time":1788000000000,"state":"active","ping":72},{"user_id":790,"name":"Mystamous","steam_id":76561198158658043,"connected_time":377000000000,"state":"active","ping":84},{"user_id":730,"name":"dyson","steam_id":76561199081837220,"connected_time":5540000000000,"state":"active","ping":79},{"user_id":787,"name":"TYPICAL-HUMAN","steam_id":76561198060914982,"connected_time":553000000000,"state":"active","ping":129},{"user_id":776,"name":"Dot.","steam_id":76561198149463984,"connected_time":1591000000000,"state":"active","ping":47},{"user_id":748,"name":"flappyflap2","steam_id":76561198285048973,"connected_time":4279000000000,"state":"active","ping":45},{"user_id":783,"name":"playr","steam_id":76561198354622099,"connected_time":697000000000,"state":"active","ping":75},{"user_id":767,"name":"Broadway Rose","steam_id":76561198046083342,"connected_time":2537000000000,"state":"active","ping":42},{"user_id":760,"name":"/RANCID/Xanadu","steam_id":76561198025658602,"connected_time":2942000000000,"state":"active","ping":50},{"user_id":791,"name":"Forehead","steam_id":76561198124151399,"connected_time":353000000000,"state":"active","ping":55},{"user_id":788,"name":"the12xu","steam_id":76561198197086561,"connected_time":549000000000,"state":"active","ping":59},{"user_id":796,"name":"slowdance","steam_id":76561198097427947,"connected_time":112000000000,"state":"active","ping":161},{"user_id":761,"name":"Greenman","steam_id":76561198236789422,"connected_time":2929000000000,"state":"active","ping":57},{"user_id":706,"name":"wise","steam_id":76561198030066204,"connected_time":7638000000000,"state":"active","ping":45}]},{"server_id":15,"name":"Uncletopia | New York City | 3 | Stopwatch","name_short":"nyc-3","host":"nyc-1.us.uncletopia.com","port":27035,"enabled":true,"region":"us-east","cc":"us","latitude":40.73061,"longitude":-73.93524,"reserved":0,"last_update":"0001-01-01T00:00:00Z","name_a2s":"Uncletopia | New York City | 3 | Stopwatch","protocol":17,"map":"pl_upward","folder":"tf","game":"Team Fortress","app_id":440,"player_count":0,"max_players":24,"Bots":0,"server_type":"Dedicated","server_os":"Linux","password":true,"vac":true,"version":"7961495","steam_id":85568392924742820,"keywords":["nocrits","nodmgspread","payload","uncletopia"],"game_id":440,"stv_port":27036,"stv_name":"Uncletopia | New York City | 3 | Stopwatch | STV","players":null},{"server_id":16,"name":"Uncletopia | New York City | 4 | Community","name_short":"nyc-4","host":"nyc-1.us.uncletopia.com","port":27045,"enabled":true,"region":"us-east","cc":"us","latitude":40.73061,"longitude":-73.93524,"reserved":0,"last_update":"0001-01-01T00:00:00Z","name_a2s":"Uncletopia | New York City | 4 | Community","protocol":17,"map":"workshop/koth_ramjam_rc1.ugc459778887","folder":"tf","game":"Team Fortress","app_id":440,"player_count":0,"max_players":24,"Bots":0,"server_type":"Dedicated","server_os":"Linux","password":true,"vac":true,"version":"7961495","steam_id":85568392924742821,"keywords":["cp","nocrits","nodmgspread","uncletopia"],"game_id":440,"stv_port":27046,"stv_name":"Uncletopia | New York City | 4 | Community | STV","players":null},{"server_id":142,"name":"Uncletopia | São Paulo | 1 | All Maps","name_short":"sao-1","host":"sao-1.br.uncletopia.com","port":27015,"enabled":true,"region":"sa","cc":"br","latitude":-23.533773,"longitude":-46.62529,"reserved":0,"last_update":"0001-01-01T00:00:00Z","name_a2s":"Uncletopia | São Paulo | 1 | All Maps","protocol":17,"map":"koth_highpass","folder":"tf","game":"Team Fortress","app_id":440,"player_count":0,"max_players":24,"Bots":0,"server_type":"Dedicated","server_os":"Linux","password":true,"vac":true,"version":"7961495","steam_id":85568392924469996,"keywords":["cp","nocrits","nodmgspread","uncletopia"],"game_id":440,"stv_port":27016,"stv_name":"Uncletopia | São Paulo | 1 | All Maps | STV","players":null},{"server_id":143,"name":"Uncletopia | São Paulo | 2 | Community","name_short":"sao-2","host":"sao-2.br.uncletopia.com","port":27015,"enabled":true,"region":"sa","cc":"br","latitude":-23.533773,"longitude":-46.62529,"reserved":0,"last_update":"0001-01-01T00:00:00Z","name_a2s":"Uncletopia | São Paulo | 2 | Community","protocol":17,"map":"workshop/koth_product_final.ugc454272353","folder":"tf","game":"Team Fortress","app_id":440,"player_count":0,"max_players":24,"Bots":0,"server_type":"Dedicated","server_os":"Linux","password":true,"vac":true,"version":"7961495","steam_id":85568392924485349,"keywords":["cp","nocrits","nodmgspread","uncletopia"],"game_id":440,"stv_port":27016,"stv_name":"Uncletopia | São Paulo | 2 | Community | STV","players":null},{"server_id":7,"name":"Uncletopia | Seattle | 1 | All Maps","name_short":"sea-1","host":"sea-1.us.uncletopia.com","port":27015,"enabled":true,"region":"us-west","cc":"us","latitude":47.608013,"longitude":-122.33517,"reserved":0,"last_update":"0001-01-01T00:00:00Z","name_a2s":"Uncletopia | Seattle | 1 | All Maps","protocol":17,"map":"cp_steel","folder":"tf","game":"Team Fortress","app_id":440,"player_count":23,"max_players":24,"Bots":0,"server_type":"Dedicated","server_os":"Linux","password":true,"vac":true,"version":"7961495","steam_id":85568392924469997,"keywords":["cp","nocrits","nodmgspread","uncletopia"],"game_id":440,"stv_port":27016,"stv_name":"Uncletopia | Seattle | 1 | All Maps | STV","players":[{"user_id":736,"name":"Dr. Bubs","steam_id":76561198011696595,"connected_time":393000000000,"state":"active","ping":68},{"user_id":702,"name":"Sadodere Grimace","steam_id":76561198008332028,"connected_time":2575000000000,"state":"active","ping":74},{"user_id":654,"name":"Loading...","steam_id":76561198075555396,"connected_time":5980000000000,"state":"active","ping":32},{"user_id":712,"name":"AT✪MIC","steam_id":76561198100385184,"connected_time":1993000000000,"state":"active","ping":103},{"user_id":726,"name":"[TrC] Dackstrus","steam_id":76561197973518509,"connected_time":961000000000,"state":"active","ping":55},{"user_id":744,"name":"sakura","steam_id":76561199000969112,"connected_time":84000000000,"state":"active","ping":31},{"user_id":733,"name":"rat gets the cheese","steam_id":76561198031234032,"connected_time":454000000000,"state":"active","ping":99},{"user_id":717,"name":"npc energy","steam_id":76561198035342207,"connected_time":1821000000000,"state":"active","ping":93},{"user_id":724,"name":"hosewater","steam_id":76561198023383126,"connected_time":1220000000000,"state":"active","ping":52},{"user_id":727,"name":"evilOlive","steam_id":76561198106222025,"connected_time":864000000000,"state":"active","ping":86},{"user_id":730,"name":"ed LFB","steam_id":76561198080475712,"connected_time":821000000000,"state":"active","ping":64},{"user_id":743,"name":"Kamin","steam_id":76561198255299559,"connected_time":116000000000,"state":"active","ping":126},{"user_id":729,"name":"[TrC] Nosy","steam_id":76561197978859310,"connected_time":853000000000,"state":"active","ping":54},{"user_id":613,"name":"soup","steam_id":76561198043209046,"connected_time":9312000000000,"state":"active","ping":68},{"user_id":699,"name":"Greskrendtregk","steam_id":76561197969553142,"connected_time":2773000000000,"state":"active","ping":50},{"user_id":740,"name":"Keamy","steam_id":76561199471434875,"connected_time":292000000000,"state":"active","ping":30},{"user_id":693,"name":"TruthHut","steam_id":76561198093452436,"connected_time":2906000000000,"state":"active","ping":31},{"user_id":741,"name":"turn around","steam_id":76561198046526036,"connected_time":203000000000,"state":"active","ping":78},{"user_id":731,"name":"whathashit69","steam_id":76561199013105760,"connected_time":667000000000,"state":"active","ping":64},{"user_id":745,"name":"dust | it/she","steam_id":76561198045218909,"connected_time":57000000000,"state":"active","ping":34},{"user_id":714,"name":"Bobby Dazzler 魔鐘","steam_id":76561198007405067,"connected_time":1965000000000,"state":"active","ping":77},{"user_id":709,"name":"Spectre","steam_id":76561198037535169,"connected_time":2056000000000,"state":"active","ping":64},{"user_id":732,"name":"Lili","steam_id":76561199488457138,"connected_time":489000000000,"state":"active","ping":44}]},{"server_id":119,"name":"Uncletopia | Seattle | 2 | All Maps","name_short":"sea-2","host":"sea-1.us.uncletopia.com","port":27025,"enabled":true,"region":"us-west","cc":"us","latitude":47.608013,"longitude":-122.33517,"reserved":0,"last_update":"0001-01-01T00:00:00Z","name_a2s":"Uncletopia | Seattle | 2 | All Maps","protocol":17,"map":"pl_frontier_final","folder":"tf","game":"Team Fortress","app_id":440,"player_count":24,"max_players":24,"Bots":0,"server_type":"Dedicated","server_os":"Linux","password":true,"vac":true,"version":"7961495","steam_id":85568392924469998,"keywords":["nocrits","nodmgspread","payload","uncletopia"],"game_id":440,"stv_port":27026,"stv_name":"Uncletopia | Seattle | 2 | All Maps | STV","players":[{"user_id":481,"name":"vacachimuela","steam_id":76561198297332421,"connected_time":4372000000000,"state":"active","ping":73},{"user_id":594,"name":"onionman0106","steam_id":76561199067766868,"connected_time":1477000000000,"state":"active","ping":45},{"user_id":608,"name":"_D_I_S_P_E_N_S_E_R_","steam_id":76561199383097700,"connected_time":493000000000,"state":"active","ping":47},{"user_id":484,"name":"Dongus","steam_id":76561197979056451,"connected_time":4355000000000,"state":"active","ping":59},{"user_id":586,"name":"Nom Skirrett","steam_id":76561198014600788,"connected_time":1865000000000,"state":"active","ping":71},{"user_id":439,"name":"allahsdroptop","steam_id":76561198133195238,"connected_time":6764000000000,"state":"active","ping":67},{"user_id":348,"name":"❤ Ashley ❤","steam_id":76561198056428303,"connected_time":11069000000000,"state":"active","ping":75},{"user_id":443,"name":"EduardoLopez2005","steam_id":76561198188481309,"connected_time":6470000000000,"state":"active","ping":68},{"user_id":590,"name":"BitPieStudios","steam_id":76561198059216393,"connected_time":1677000000000,"state":"active","ping":72},{"user_id":605,"name":"wendigo","steam_id":76561197994528974,"connected_time":718000000000,"state":"active","ping":80},{"user_id":533,"name":"Gabbiani al tramonto","steam_id":76561198068672882,"connected_time":3714000000000,"state":"active","ping":71},{"user_id":604,"name":"Day Man","steam_id":76561198067154807,"connected_time":865000000000,"state":"active","ping":47},{"user_id":573,"name":"Rabblerouser","steam_id":76561198127930963,"connected_time":2870000000000,"state":"active","ping":59},{"user_id":578,"name":"Uluyo","steam_id":76561198065857148,"connected_time":2603000000000,"state":"active","ping":112},{"user_id":595,"name":"killer fish","steam_id":76561198858474714,"connected_time":1471000000000,"state":"active","ping":61},{"user_id":599,"name":"self sufficient kitten","steam_id":76561197960592612,"connected_time":1063000000000,"state":"active","ping":47},{"user_id":470,"name":"Spread Joy, Not Hate","steam_id":76561198053117503,"connected_time":4413000000000,"state":"active","ping":57},{"user_id":602,"name":"cat","steam_id":76561198302651200,"connected_time":954000000000,"state":"active","ping":75},{"user_id":563,"name":"Preston","steam_id":76561198255721392,"connected_time":3100000000000,"state":"active","ping":113},{"user_id":574,"name":"Repeatings","steam_id":76561198209769009,"connected_time":2676000000000,"state":"active","ping":78},{"user_id":591,"name":"toilet master","steam_id":76561198844273999,"connected_time":1670000000000,"state":"active","ping":46},{"user_id":588,"name":"Zebulon","steam_id":76561198025719753,"connected_time":1772000000000,"state":"active","ping":37},{"user_id":592,"name":"poopfart messiah","steam_id":76561198082551861,"connected_time":1657000000000,"state":"active","ping":48},{"user_id":548,"name":"Rowmaster","steam_id":76561198271659574,"connected_time":3286000000000,"state":"active","ping":119}]},{"server_id":406,"name":"Uncletopia | Seattle | 3 | Stopwatch","name_short":"sea-3","host":"sea-1.us.uncletopia.com","port":27035,"enabled":true,"region":"us-west","cc":"us","latitude":47.608013,"longitude":-122.33517,"reserved":0,"last_update":"0001-01-01T00:00:00Z","name_a2s":"Uncletopia | Seattle | 3 | Stopwatch","protocol":17,"map":"koth_lakeside_final","folder":"tf","game":"Team Fortress","app_id":440,"player_count":0,"max_players":24,"Bots":0,"server_type":"Dedicated","server_os":"Linux","password":true,"vac":true,"version":"7961495","steam_id":85568392924515217,"keywords":["cp","nocrits","nodmgspread","uncletopia"],"game_id":440,"stv_port":27036,"stv_name":"Uncletopia | Seattle | 3 | Stopwatch | STV","players":null},{"server_id":17,"name":"Uncletopia | San Francisco | 1 | All Maps","name_short":"sfo-1","host":"sfo-1.us.uncletopia.com","port":27015,"enabled":true,"region":"us-west","cc":"us","latitude":37.77397,"longitude":-122.4313,"reserved":0,"last_update":"0001-01-01T00:00:00Z","name_a2s":"Uncletopia | San Francisco | 1 | All Maps","protocol":17,"map":"cp_dustbowl","folder":"tf","game":"Team Fortress","app_id":440,"player_count":24,"max_players":24,"Bots":0,"server_type":"Dedicated","server_os":"Linux","password":true,"vac":true,"version":"7961495","steam_id":85568392924469999,"keywords":["cp","nocrits","nodmgspread","uncletopia"],"game_id":440,"stv_port":27016,"stv_name":"Uncletopia | San Francisco | 1 | All Maps | STV","players":[{"user_id":106,"name":"coolenderman5432","steam_id":76561199254370982,"connected_time":434000000000,"state":"active","ping":52},{"user_id":103,"name":"ghostglitch","steam_id":76561197991608573,"connected_time":585000000000,"state":"active","ping":48},{"user_id":102,"name":"D.A.V.I.D","steam_id":76561199443570634,"connected_time":615000000000,"state":"active","ping":83},{"user_id":97,"name":"sans undertale","steam_id":76561199128903858,"connected_time":821000000000,"state":"active","ping":78},{"user_id":81,"name":"zackdarkstar","steam_id":76561198039986133,"connected_time":1766000000000,"state":"active","ping":62},{"user_id":82,"name":"Klopo","steam_id":76561198871108633,"connected_time":1578000000000,"state":"active","ping":36},{"user_id":83,"name":"boob dood","steam_id":76561198082293009,"connected_time":1562000000000,"state":"active","ping":127},{"user_id":84,"name":"Baggot","steam_id":76561198058094858,"connected_time":1541000000000,"state":"active","ping":80},{"user_id":85,"name":"napo poopy-tuff shamarry nite","steam_id":76561198309155116,"connected_time":1405000000000,"state":"active","ping":100},{"user_id":107,"name":"tum","steam_id":76561198084712019,"connected_time":414000000000,"state":"active","ping":60},{"user_id":101,"name":"halfwaysdown","steam_id":76561199344558559,"connected_time":630000000000,"state":"active","ping":111},{"user_id":99,"name":"Brando","steam_id":76561198078306678,"connected_time":702000000000,"state":"active","ping":75},{"user_id":108,"name":"fortzei","steam_id":76561198210920541,"connected_time":406000000000,"state":"active","ping":74},{"user_id":93,"name":"Bolbi","steam_id":76561198051811597,"connected_time":968000000000,"state":"active","ping":67},{"user_id":95,"name":"valmir_19","steam_id":76561198370237891,"connected_time":938000000000,"state":"active","ping":126},{"user_id":115,"name":"Panzer Vor","steam_id":76561198435091099,"connected_time":67000000000,"state":"active","ping":61},{"user_id":109,"name":"Cpt. Dingle","steam_id":76561198025720199,"connected_time":355000000000,"state":"active","ping":81},{"user_id":110,"name":"Thequirka","steam_id":76561198968058652,"connected_time":254000000000,"state":"active","ping":68},{"user_id":111,"name":"God's Drunkest Driver","steam_id":76561198418288939,"connected_time":207000000000,"state":"active","ping":61},{"user_id":116,"name":"Ch4rl33","steam_id":76561198037008621,"connected_time":52000000000,"state":"active","ping":101},{"user_id":113,"name":"TheBuljum","steam_id":76561198114706369,"connected_time":123000000000,"state":"active","ping":67},{"user_id":114,"name":"GH578","steam_id":76561199493262585,"connected_time":96000000000,"state":"active","ping":53},{"user_id":117,"name":"Iverson","steam_id":76561197995086314,"connected_time":46000000000,"state":"active","ping":132},{"user_id":118,"name":"plutonium isotope","steam_id":76561198319442494,"connected_time":42000000000,"state":"active","ping":61}]},{"server_id":18,"name":"Uncletopia | San Francisco | 2 | All Maps","name_short":"sfo-2","host":"sfo-1.us.uncletopia.com","port":27025,"enabled":true,"region":"us-west","cc":"us","latitude":37.77397,"longitude":-122.4313,"reserved":0,"last_update":"0001-01-01T00:00:00Z","name_a2s":"Uncletopia | San Francisco | 2 | All Maps","protocol":17,"map":"pl_thundermountain","folder":"tf","game":"Team Fortress","app_id":440,"player_count":24,"max_players":24,"Bots":0,"server_type":"Dedicated","server_os":"Linux","password":true,"vac":true,"version":"7961495","steam_id":85568392924470000,"keywords":["nocrits","nodmgspread","payload","uncletopia"],"game_id":440,"stv_port":27026,"stv_name":"Uncletopia | San Francisco | 2 | All Maps | STV","players":[{"user_id":62,"name":"rebecca railer 2077","steam_id":76561198028569570,"connected_time":4664000000000,"state":"active","ping":126},{"user_id":81,"name":"Grand","steam_id":76561198290143399,"connected_time":1232000000000,"state":"active","ping":72},{"user_id":30,"name":"SnickerPuffs","steam_id":76561198123430465,"connected_time":5920000000000,"state":"active","ping":112},{"user_id":23,"name":"video james","steam_id":76561198058174520,"connected_time":6211000000000,"state":"active","ping":52},{"user_id":31,"name":"Tabby!!!!","steam_id":76561198018288153,"connected_time":5803000000000,"state":"active","ping":100},{"user_id":68,"name":"Serpentine Muse","steam_id":76561198030499800,"connected_time":3596000000000,"state":"active","ping":131},{"user_id":24,"name":"gretchling","steam_id":76561198046111695,"connected_time":6204000000000,"state":"active","ping":80},{"user_id":33,"name":"bf","steam_id":76561198026032347,"connected_time":5717000000000,"state":"active","ping":68},{"user_id":27,"name":"Lone Dancer","steam_id":76561199096241116,"connected_time":6176000000000,"state":"active","ping":118},{"user_id":36,"name":"Overmeme","steam_id":76561199455124144,"connected_time":5650000000000,"state":"active","ping":86},{"user_id":69,"name":"Sweets","steam_id":76561198998446307,"connected_time":3583000000000,"state":"active","ping":82},{"user_id":41,"name":"Vaccine Eater","steam_id":76561198026301425,"connected_time":5184000000000,"state":"active","ping":71},{"user_id":89,"name":"joseph stalin","steam_id":76561199230441293,"connected_time":306000000000,"state":"active","ping":117},{"user_id":73,"name":"slapgnuts","steam_id":76561198848874098,"connected_time":2453000000000,"state":"active","ping":108},{"user_id":71,"name":"Jimmy Kimmel Gaming","steam_id":76561198171716241,"connected_time":3402000000000,"state":"active","ping":93},{"user_id":65,"name":"Igrium","steam_id":76561198119549811,"connected_time":4028000000000,"state":"active","ping":60},{"user_id":88,"name":"crispy","steam_id":76561198971106376,"connected_time":351000000000,"state":"active","ping":89},{"user_id":70,"name":"Gm_Sweet","steam_id":76561199445091548,"connected_time":3434000000000,"state":"active","ping":80},{"user_id":80,"name":"Lj3online","steam_id":76561198009960926,"connected_time":1704000000000,"state":"active","ping":79},{"user_id":63,"name":"Joy in A Box","steam_id":76561198156820753,"connected_time":4112000000000,"state":"active","ping":186},{"user_id":76,"name":"Lucky","steam_id":76561198124910662,"connected_time":2098000000000,"state":"active","ping":65},{"user_id":86,"name":"Kilora","steam_id":76561198103356827,"connected_time":735000000000,"state":"active","ping":81},{"user_id":83,"name":"magocpotat","steam_id":76561198116136297,"connected_time":864000000000,"state":"active","ping":90},{"user_id":64,"name":"Cheezbeargur","steam_id":76561198164702899,"connected_time":4110000000000,"state":"active","ping":53}]},{"server_id":19,"name":"Uncletopia | San Francisco | 3 | Stopwatch","name_short":"sfo-3","host":"sfo-1.us.uncletopia.com","port":27035,"enabled":true,"region":"us-west","cc":"us","latitude":37.77397,"longitude":-122.4313,"reserved":0,"last_update":"0001-01-01T00:00:00Z","name_a2s":"Uncletopia | San Francisco | 3 | Stopwatch","protocol":17,"map":"cp_sunshine","folder":"tf","game":"Team Fortress","app_id":440,"player_count":0,"max_players":24,"Bots":0,"server_type":"Dedicated","server_os":"Linux","password":true,"vac":true,"version":"7961495","steam_id":85568392924742824,"keywords":["cp","nocrits","nodmgspread","uncletopia"],"game_id":440,"stv_port":27036,"stv_name":"Uncletopia | San Francisco | 3 | Stopwatch | STV","players":null},{"server_id":20,"name":"Uncletopia | San Francisco | 4 | Community","name_short":"sfo-4","host":"sfo-1.us.uncletopia.com","port":27045,"enabled":true,"region":"us-west","cc":"us","latitude":37.77397,"longitude":-122.4313,"reserved":0,"last_update":"0001-01-01T00:00:00Z","name_a2s":"Uncletopia | San Francisco | 4 | Community","protocol":17,"map":"workshop/koth_trenchfoot_b1a.ugc731436616","folder":"tf","game":"Team Fortress","app_id":440,"player_count":0,"max_players":24,"Bots":0,"server_type":"Dedicated","server_os":"Linux","password":true,"vac":true,"version":"7961495","steam_id":85568392924742826,"keywords":["cp","nocrits","nodmgspread","uncletopia"],"game_id":440,"stv_port":27046,"stv_name":"Uncletopia | San Francisco | 4 | Community | STV","players":null},{"server_id":141,"name":"Uncletopia | Sydney | 1 | All Maps","name_short":"syd-1","host":"syd-1.au.uncletopia.com","port":27015,"enabled":true,"region":"au","cc":"au","latitude":-33.865143,"longitude":151.2099,"reserved":0,"last_update":"0001-01-01T00:00:00Z","name_a2s":"Uncletopia | Sydney | 1 | All Maps","protocol":17,"map":"cp_process_final","folder":"tf","game":"Team Fortress","app_id":440,"player_count":24,"max_players":24,"Bots":0,"server_type":"Dedicated","server_os":"Linux","password":true,"vac":true,"version":"7961495","steam_id":85568392924470001,"keywords":["cp","nocrits","nodmgspread","uncletopia"],"game_id":440,"stv_port":27016,"stv_name":"Uncletopia | Sydney | 1 | All Maps | STV","players":[{"user_id":39,"name":"N0thing_but_pure_lag_and_luck","steam_id":76561199002102933,"connected_time":3785000000000,"state":"active","ping":110},{"user_id":43,"name":"ToxicFlame","steam_id":76561199439459721,"connected_time":1662000000000,"state":"active","ping":70},{"user_id":77,"name":"die","steam_id":76561199214859141,"connected_time":340000000000,"state":"active","ping":139},{"user_id":53,"name":"Aqila","steam_id":76561199466509765,"connected_time":1219000000000,"state":"active","ping":74},{"user_id":54,"name":"salladback","steam_id":76561199061987001,"connected_time":1211000000000,"state":"active","ping":81},{"user_id":55,"name":"Concrete Grower","steam_id":76561198031293430,"connected_time":1165000000000,"state":"active","ping":90},{"user_id":78,"name":"Tasman","steam_id":76561198041224384,"connected_time":234000000000,"state":"active","ping":44},{"user_id":79,"name":"Supreme Gentleman","steam_id":76561198046228152,"connected_time":198000000000,"state":"active","ping":58},{"user_id":57,"name":"Slowpoke","steam_id":76561198089176674,"connected_time":1110000000000,"state":"active","ping":35},{"user_id":62,"name":"Senator Armstrong","steam_id":76561199098106608,"connected_time":887000000000,"state":"active","ping":56},{"user_id":60,"name":"\u003e.\u003c","steam_id":76561198331246231,"connected_time":1022000000000,"state":"active","ping":55},{"user_id":61,"name":"Money Man Jones","steam_id":76561199161637215,"connected_time":958000000000,"state":"active","ping":93},{"user_id":65,"name":"SilverPenguin","steam_id":76561199025744213,"connected_time":715000000000,"state":"active","ping":135},{"user_id":66,"name":"A writhing mass of bees","steam_id":76561198317860338,"connected_time":711000000000,"state":"active","ping":45},{"user_id":82,"name":"(ノಠ益ಠ)ノ","steam_id":76561198409853978,"connected_time":134000000000,"state":"active","ping":35},{"user_id":71,"name":"Sover blw.tf","steam_id":76561198136347837,"connected_time":550000000000,"state":"active","ping":124},{"user_id":75,"name":"Wuzzle (Trans rights)","steam_id":76561198009868777,"connected_time":513000000000,"state":"active","ping":60},{"user_id":80,"name":"krandlez` (Any/All)","steam_id":76561198044839726,"connected_time":197000000000,"state":"active","ping":40},{"user_id":76,"name":"Tonnyboi","steam_id":76561198976984012,"connected_time":502000000000,"state":"active","ping":116},{"user_id":83,"name":"Reefo","steam_id":76561198161626796,"connected_time":124000000000,"state":"active","ping":70},{"user_id":84,"name":"horrid webbon ᘛ⁐̤ᕐᐷ","steam_id":76561198061998379,"connected_time":83000000000,"state":"active","ping":49},{"user_id":85,"name":"yitty supersuit","steam_id":76561198053519351,"connected_time":79000000000,"state":"active","ping":59},{"user_id":86,"name":"Blondie","steam_id":76561198046977058,"connected_time":46000000000,"state":"active","ping":68},{"user_id":87,"name":"Skidallion","steam_id":76561198083922206,"connected_time":33000000000,"state":"active","ping":137}]},{"server_id":123,"name":"Uncletopia | Sydney | 2 | All Maps","name_short":"syd-2","host":"syd-1.au.uncletopia.com","port":27025,"enabled":true,"region":"au","cc":"au","latitude":-33.865143,"longitude":151.2099,"reserved":0,"last_update":"0001-01-01T00:00:00Z","name_a2s":"Uncletopia | Sydney | 2 | All Maps","protocol":17,"map":"pl_upward","folder":"tf","game":"Team Fortress","app_id":440,"player_count":1,"max_players":24,"Bots":0,"server_type":"Dedicated","server_os":"Linux","password":true,"vac":true,"version":"7961495","steam_id":85568392924470002,"keywords":["nocrits","nodmgspread","payload","uncletopia"],"game_id":440,"stv_port":27026,"stv_name":"Uncletopia | Sydney | 2 | All Maps | STV","players":[{"user_id":10,"name":"Leaves19","steam_id":76561199262891492,"connected_time":1000000000,"state":"spawning","ping":47}]},{"server_id":395,"name":"Uncletopia | Sydney | 3 | All Maps","name_short":"syd-3","host":"syd-1.au.uncletopia.com","port":27035,"enabled":true,"region":"au","cc":"au","latitude":-33.865143,"longitude":151.2099,"reserved":0,"last_update":"0001-01-01T00:00:00Z","name_a2s":"Uncletopia | Sydney | 3 | All Maps","protocol":17,"map":"pl_barnblitz","folder":"tf","game":"Team Fortress","app_id":440,"player_count":0,"max_players":24,"Bots":0,"server_type":"Dedicated","server_os":"Linux","password":true,"vac":true,"version":"7961495","steam_id":85568392925194467,"keywords":["nocrits","nodmgspread","payload","uncletopia"],"game_id":440,"stv_port":27036,"stv_name":"Uncletopia | Sydney | 3 | All Maps | STV","players":null},{"server_id":396,"name":"Uncletopia | Sydney | 4 | All Maps","name_short":"syd-4","host":"syd-1.au.uncletopia.com","port":27045,"enabled":true,"region":"au","cc":"au","latitude":-33.865143,"longitude":151.2099,"reserved":0,"last_update":"0001-01-01T00:00:00Z","name_a2s":"Uncletopia | Sydney | 4 | All Maps","protocol":17,"map":"pl_frontier_final","folder":"tf","game":"Team Fortress","app_id":440,"player_count":24,"max_players":24,"Bots":0,"server_type":"Dedicated","server_os":"Linux","password":true,"vac":true,"version":"7961495","steam_id":85568392925397958,"keywords":["nocrits","nodmgspread","payload","uncletopia"],"game_id":440,"stv_port":27046,"stv_name":"Uncletopia | Sydney | 4 | All Maps | STV","players":[{"user_id":95,"name":"BoxingRoo","steam_id":76561198089647685,"connected_time":1165000000000,"state":"active","ping":95},{"user_id":100,"name":"lavanderpumpernickle","steam_id":76561199093611800,"connected_time":758000000000,"state":"active","ping":62},{"user_id":58,"name":"LightningBlock","steam_id":76561198289997742,"connected_time":3028000000000,"state":"active","ping":40},{"user_id":96,"name":"Vtricks22","steam_id":76561199132125350,"connected_time":1136000000000,"state":"active","ping":66},{"user_id":105,"name":"Atari-Jimbo","steam_id":76561198075128440,"connected_time":647000000000,"state":"active","ping":65},{"user_id":102,"name":"{Azura Sarah}","steam_id":76561197989210208,"connected_time":706000000000,"state":"active","ping":45},{"user_id":89,"name":"Cluckqistador","steam_id":76561198394730776,"connected_time":1316000000000,"state":"active","ping":61},{"user_id":106,"name":"2200","steam_id":76561198048634605,"connected_time":582000000000,"state":"active","ping":44},{"user_id":97,"name":"XxJACE-CONNORSX69","steam_id":76561198043225916,"connected_time":945000000000,"state":"active","ping":47},{"user_id":39,"name":"dizzy","steam_id":76561198102953163,"connected_time":3803000000000,"state":"active","ping":61},{"user_id":82,"name":"Your Local Karen Hunter","steam_id":76561199469410668,"connected_time":1714000000000,"state":"active","ping":106},{"user_id":84,"name":"Jiggles","steam_id":76561198043939682,"connected_time":1635000000000,"state":"active","ping":37},{"user_id":43,"name":"A Burnt Cheeseburger","steam_id":76561198044178223,"connected_time":3702000000000,"state":"active","ping":67},{"user_id":85,"name":"diamond","steam_id":76561198206754736,"connected_time":1546000000000,"state":"active","ping":54},{"user_id":90,"name":"FlightOfCrows","steam_id":76561198147616151,"connected_time":1307000000000,"state":"active","ping":62},{"user_id":91,"name":"cookiecow111","steam_id":76561198329076213,"connected_time":1301000000000,"state":"active","ping":74},{"user_id":49,"name":"JP","steam_id":76561198026221737,"connected_time":3357000000000,"state":"active","ping":55},{"user_id":92,"name":"TheGoodGuy","steam_id":76561197994105505,"connected_time":1297000000000,"state":"active","ping":59},{"user_id":93,"name":"ProbioticYoghurt","steam_id":76561198358938361,"connected_time":1289000000000,"state":"active","ping":65},{"user_id":108,"name":"WikkyD","steam_id":76561198043452962,"connected_time":428000000000,"state":"active","ping":69},{"user_id":68,"name":"monke","steam_id":76561199088916854,"connected_time":2529000000000,"state":"active","ping":92},{"user_id":94,"name":"CuzzyCuz","steam_id":76561198069054697,"connected_time":1272000000000,"state":"active","ping":59},{"user_id":103,"name":"MAYHEM","steam_id":76561199323730865,"connected_time":691000000000,"state":"active","ping":44},{"user_id":104,"name":"Ajtuay","steam_id":76561198221550108,"connected_time":671000000000,"state":"active","ping":55}]},{"server_id":58,"name":"Uncletopia | Sydney | 5 | Stopwatch","name_short":"syd-5","host":"syd-1.au.uncletopia.com","port":27055,"enabled":true,"region":"au","cc":"au","latitude":-33.865143,"longitude":151.2099,"reserved":0,"last_update":"0001-01-01T00:00:00Z","name_a2s":"Uncletopia | Sydney | 5 | Stopwatch","protocol":17,"map":"pl_frontier_final","folder":"tf","game":"Team Fortress","app_id":440,"player_count":0,"max_players":24,"Bots":0,"server_type":"Dedicated","server_os":"Linux","password":true,"vac":true,"version":"7961495","steam_id":85568392925397959,"keywords":["nocrits","nodmgspread","payload","uncletopia"],"game_id":440,"stv_port":27056,"stv_name":"Uncletopia | Sydney | 5 | Stopwatch | STV","players":null},{"server_id":59,"name":"Uncletopia | Sydney | 6 | Community","name_short":"syd-6","host":"syd-1.au.uncletopia.com","port":27065,"enabled":true,"region":"au","cc":"au","latitude":-33.865143,"longitude":151.2099,"reserved":0,"last_update":"0001-01-01T00:00:00Z","name_a2s":"Uncletopia | Sydney | 6 | Community","protocol":17,"map":"workshop/pl_fifthcurve_rc1.ugc648227046","folder":"tf","game":"Team Fortress","app_id":440,"player_count":0,"max_players":24,"Bots":0,"server_type":"Dedicated","server_os":"Linux","password":true,"vac":true,"version":"7961495","steam_id":85568392925397960,"keywords":["nocrits","nodmgspread","payload","uncletopia"],"game_id":440,"stv_port":27066,"stv_name":"Uncletopia | Sydney | 6 | Community | STV","players":null},{"server_id":49,"name":"Uncletopia | Warsaw | 1 | One Thousand Uncles","name_short":"waw-1","host":"waw-1.pl.uncletopia.com","port":27015,"enabled":true,"region":"eu","cc":"pl","latitude":52.2297,"longitude":21.017532,"reserved":0,"last_update":"0001-01-01T00:00:00Z","name_a2s":"Uncletopia | Warsaw | 1 | One Thousand Uncles","protocol":17,"map":"pl_thundermountain","folder":"tf","game":"Team Fortress","app_id":440,"player_count":19,"max_players":32,"Bots":16,"server_type":"Dedicated","server_os":"Linux","password":true,"vac":true,"version":"7961495","steam_id":85568392925397850,"keywords":["alltalk","bots","danepve","increased_maxplayers","nocrits","norespawntime","payload","uncletopia"],"game_id":440,"stv_port":0,"stv_name":"","players":[{"user_id":21,"name":"zer0_file000","steam_id":76561199437677522,"connected_time":1295000000000,"state":"active","ping":140},{"user_id":20,"name":"Noam","steam_id":76561198057789807,"connected_time":2550000000000,"state":"active","ping":111},{"user_id":39,"name":"tyroksi :D","steam_id":76561198103875245,"connected_time":490000000000,"state":"active","ping":109}]},{"server_id":50,"name":"Uncletopia | Warsaw | 2 | One Thousand Uncles","name_short":"waw-2","host":"waw-1.pl.uncletopia.com","port":27025,"enabled":true,"region":"eu","cc":"pl","latitude":52.2297,"longitude":21.017532,"reserved":0,"last_update":"0001-01-01T00:00:00Z","name_a2s":"Uncletopia | Warsaw | 2 | One Thousand Uncles","protocol":17,"map":"pl_goldrush","folder":"tf","game":"Team Fortress","app_id":440,"player_count":0,"max_players":32,"Bots":0,"server_type":"Dedicated","server_os":"Linux","password":true,"vac":true,"version":"7961495","steam_id":85568392925397851,"keywords":["alltalk","danepve","increased_maxplayers","nocrits","norespawntime","payload","uncletopia"],"game_id":440,"stv_port":0,"stv_name":"","players":null},{"server_id":51,"name":"Uncletopia | Warsaw | 3 | All Maps","name_short":"waw-3","host":"waw-1.pl.uncletopia.com","port":27035,"enabled":true,"region":"eu","cc":"pl","latitude":52.2297,"longitude":21.017532,"reserved":0,"last_update":"0001-01-01T00:00:00Z","name_a2s":"Uncletopia | Warsaw | 3 | All Maps","protocol":17,"map":"plr_pipeline","folder":"tf","game":"Team Fortress","app_id":440,"player_count":0,"max_players":24,"Bots":0,"server_type":"Dedicated","server_os":"Linux","password":true,"vac":true,"version":"7961495","steam_id":85568392925397852,"keywords":["nocrits","nodmgspread","payload","uncletopia"],"game_id":440,"stv_port":27036,"stv_name":"Uncletopia | Warsaw | 3 | All Maps | STV","players":null},{"server_id":52,"name":"Uncletopia | Warsaw | 4 | All Maps","name_short":"waw-4","host":"waw-1.pl.uncletopia.com","port":27045,"enabled":true,"region":"eu","cc":"pl","latitude":52.2297,"longitude":21.017532,"reserved":0,"last_update":"0001-01-01T00:00:00Z","name_a2s":"Uncletopia | Warsaw | 4 | All Maps","protocol":17,"map":"cp_coldfront","folder":"tf","game":"Team Fortress","app_id":440,"player_count":0,"max_players":24,"Bots":0,"server_type":"Dedicated","server_os":"Linux","password":true,"vac":true,"version":"7961495","steam_id":85568392925397853,"keywords":["cp","nocrits","nodmgspread","uncletopia"],"game_id":440,"stv_port":27046,"stv_name":"Uncletopia | Warsaw | 4 | All Maps | STV","players":null},{"server_id":53,"name":"Uncletopia | Warsaw | 5 | Stopwatch","name_short":"waw-5","host":"waw-1.pl.uncletopia.com","port":27055,"enabled":true,"region":"eu","cc":"pl","latitude":52.2297,"longitude":21.017532,"reserved":0,"last_update":"0001-01-01T00:00:00Z","name_a2s":"Uncletopia | Warsaw | 5 | Stopwatch","protocol":17,"map":"workshop/koth_bagel_rc6.ugc2514036946","folder":"tf","game":"Team Fortress","app_id":440,"player_count":0,"max_players":24,"Bots":0,"server_type":"Dedicated","server_os":"Linux","password":true,"vac":true,"version":"7961495","steam_id":85568392925397854,"keywords":["cp","nocrits","nodmgspread","uncletopia"],"game_id":440,"stv_port":27056,"stv_name":"Uncletopia | Warsaw | 5 | Stopwatch | STV","players":null},{"server_id":54,"name":"Uncletopia | Warsaw | 6 | Community","name_short":"waw-6","host":"waw-1.pl.uncletopia.com","port":27065,"enabled":true,"region":"eu","cc":"pl","latitude":52.2297,"longitude":21.017532,"reserved":0,"last_update":"0001-01-01T00:00:00Z","name_a2s":"Uncletopia | Warsaw | 6 | Community","protocol":17,"map":"workshop/pl_badwater_pro_v12.ugc2142942074","folder":"tf","game":"Team Fortress","app_id":440,"player_count":0,"max_players":24,"Bots":0,"server_type":"Dedicated","server_os":"Linux","password":true,"vac":true,"version":"7961495","steam_id":85568392925397856,"keywords":["nocrits","nodmgspread","payload","uncletopia"],"game_id":440,"stv_port":27066,"stv_name":"Uncletopia | Warsaw | 6 | Community | STV","players":null}]}