{"status":true,"message":"","result":[{"server_id":9,"name":"Uncletopia | Atlanta | 1 | All Maps","name_short":"atl-1","host":"atl-1.us.uncletopia.com","port":27015,"enabled":true,"region":"us-east","cc":"us","latitude":33.753746,"longitude":-84.38633,"reserved":0,"last_update":"0001-01-01T00:00:00Z","name_a2s":"Uncletopia | Atlanta | 1 | All Maps","protocol":17,"map":"pl_pier","folder":"tf","game":"Team Fortress","app_id":440,"player_count":24,"max_players":24,"Bots":0,"server_type":"Dedicated","server_os":"Linux","password":true,"vac":true,"version":"7961495","steam_id":85568392924469982,"keywords":["nocrits","nodmgspread","payload","uncletopia"],"game_id":440,"stv_port":27016,"stv_name":"Uncletopia | Atlanta | 1 | All Maps | STV","players":[{"user_id":261,"name":"hill of the king","steam_id":76561198099491925,"connected_time":238000000000,"state":"active","ping":78},{"user_id":250,"name":"Dosux2","steam_id":76561198390916062,"connected_time":819000000000,"state":"active","ping":123},{"user_id":248,"name":"ChimpChampion","steam_id":76561198046520712,"connected_time":859000000000,"state":"active","ping":89},{"user_id":264,"name":"mayor of cool person city","steam_id":76561198048882285,"connected_time":43000000000,"state":"active","ping":72},{"user_id":256,"name":"KBoneski ♡","steam_id":76561198307409065,"connected_time":703000000000,"state":"active","ping":67},{"user_id":245,"name":"Fercho Mo","steam_id":76561198168935077,"connected_time":880000000000,"state":"active","ping":77},{"user_id":108,"name":"Obelisk","steam_id":76561198049416866,"connected_time":11131000000000,"state":"active","ping":46},{"user_id":246,"name":"Joltinjoe","steam_id":76561198353616879,"connected_time":863000000000,"state":"active","ping":56},{"user_id":222,"name":"Thotimus Begonimus","steam_id":76561197970275938,"connected_time":2674000000000,"state":"active","ping":46},{"user_id":247,"name":"purple diesel","steam_id":76561197976548449,"connected_time":860000000000,"state":"active","ping":68},{"user_id":263,"name":"Dragus","steam_id":76561198032967285,"connected_time":48000000000,"state":"active","ping":75},{"user_id":175,"name":"zabloinkus","steam_id":76561198069967245,"connected_time":7408000000000,"state":"active","ping":74},{"user_id":237,"name":"SoundKitKiller","steam_id":76561198053535873,"connected_time":1884000000000,"state":"active","ping":75},{"user_id":232,"name":"lemme get a bbl the ocky way","steam_id":76561198115458307,"connected_time":2151000000000,"state":"active","ping":120},{"user_id":210,"name":"[GC] frog from pond [-15 lp]","steam_id":76561198184900753,"connected_time":4098000000000,"state":"active","ping":77},{"user_id":260,"name":"The Caretaker","steam_id":76561198125241411,"connected_time":417000000000,"state":"active","ping":119},{"user_id":218,"name":"IGOR","steam_id":76561199128786637,"connected_time":2975000000000,"state":"active","ping":76},{"user_id":257,"name":"strategic dier","steam_id":76561197999257178,"connected_time":621000000000,"state":"active","ping":82},{"user_id":241,"name":"Erchius","steam_id":76561198256892300,"connected_time":1047000000000,"state":"active","ping":46},{"user_id":238,"name":"Larry Laffer","steam_id":76561198046832069,"connected_time":1610000000000,"state":"active","ping":62},{"user_id":215,"name":"Dim","steam_id":76561198061411324,"connected_time":3980000000000,"state":"active","ping":77},{"user_id":77,"name":"Ryoko","steam_id":76561198084725087,"connected_time":13331000000000,"state":"active","ping":76},{"user_id":254,"name":"howard-10973","steam_id":76561198449656454,"connected_time":720000000000,"state":"active","ping":68},{"user_id":258,"name":"incredirocks","steam_id":76561198061079993,"connected_time":621000000000,"state":"active","ping":62}]},{"server_id":104,"name":"Uncletopia | Atlanta | 2 | All Maps","name_short":"atl-2","host":"atl-1.us.uncletopia.com","port":27025,"enabled":true,"region":"us-east","cc":"us","latitude":33.753746,"longitude":-84.38633,"reserved":0,"last_update":"0001-01-01T00:00:00Z","name_a2s":"Uncletopia | Atlanta | 2 | All Maps","protocol":17,"map":"koth_lakeside_final","folder":"tf","game":"Team Fortress","app_id":440,"player_count":4,"max_players":24,"Bots":0,"server_type":"Dedicated","server_os":"Linux","password":true,"vac":true,"version":"7961495","steam_id":85568392924469983,"keywords":["cp","nocrits","nodmgspread","uncletopia"],"game_id":440,"stv_port":27026,"stv_name":"Uncletopia | Atlanta | 2 | All Maps | STV","players":[{"user_id":16,"name":"martin.takru","steam_id":76561199503363424,"connected_time":1179000000000,"state":"active","ping":222},{"user_id":19,"name":"Mr. Fluffy Penguins","steam_id":76561198172538149,"connected_time":1023000000000,"state":"active","ping":72},{"user_id":24,"name":"Cheems","steam_id":76561198269074039,"connected_time":225000000000,"state":"active","ping":70},{"user_id":25,"name":"Cowboyfos","steam_id":76561199055740230,"connected_time":28000000000,"state":"active","ping":105}]},{"server_id":400,"name":"Uncletopia | Atlanta | 3 | Stopwatch","name_short":"atl-3","host":"atl-1.us.uncletopia.com","port":27035,"enabled":true,"region":"us-east","cc":"us","latitude":33.753746,"longitude":-84.38633,"reserved":0,"last_update":"0001-01-01T00:00:00Z","name_a2s":"Uncletopia | Atlanta | 3 | Stopwatch","protocol":17,"map":"workshop/koth_jamram_rc1a.ugc2964065613","folder":"tf","game":"Team Fortress","app_id":440,"player_count":0,"max_players":24,"Bots":0,"server_type":"Dedicated","server_os":"Linux","password":true,"vac":true,"version":"7961495","steam_id":85568392924515187,"keywords":["cp","nocrits","nodmgspread","uncletopia"],"game_id":440,"stv_port":27036,"stv_name":"Uncletopia | Atlanta | 3 | Stopwatch | STV","players":null},{"server_id":401,"name":"Uncletopia | Atlanta | 4 | Community","name_short":"atl-4","host":"atl-1.us.uncletopia.com","port":27045,"enabled":true,"region":"us-east","cc":"us","latitude":33.753746,"longitude":-84.38633,"reserved":0,"last_update":"0001-01-01T00:00:00Z","name_a2s":"Uncletopia | Atlanta | 4 | Community","protocol":17,"map":"workshop/cp_reckoner_rc6.ugc674719999","folder":"tf","game":"Team Fortress","app_id":440,"player_count":0,"max_players":24,"Bots":0,"server_type":"Dedicated","server_os":"Linux","password":true,"vac":true,"version":"7961495","steam_id":85568392924515188,"keywords":["cp","nocrits","nodmgspread","uncletopia"],"game_id":440,"stv_port":27046,"stv_name":"Uncletopia | Atlanta | 4 | Community | STV","players":null},{"server_id":2,"name":"Uncletopia | Chicago | 1 | All Maps","name_short":"chi-1","host":"chi-1.us.uncletopia.com","port":27015,"enabled":true,"region":"us-central","cc":"us","latitude":41.881832,"longitude":-87.62318,"reserved":0,"last_update":"0001-01-01T00:00:00Z","name_a2s":"Uncletopia | Chicago | 1 | All Maps","protocol":17,"map":"pl_borneo","folder":"tf","game":"Team Fortress","app_id":440,"player_count":24,"max_players":24,"Bots":0,"server_type":"Dedicated","server_os":"Linux","password":true,"vac":true,"version":"7961495","steam_id":85568392924469984,"keywords":["nocrits","nodmgspread","payload","uncletopia"],"game_id":440,"stv_port":27016,"stv_name":"Uncletopia | Chicago | 1 | All Maps | STV","players":[{"user_id":83,"name":"TheKyleB","steam_id":76561198202515104,"connected_time":1659000000000,"state":"active","ping":35},{"user_id":42,"name":"Drake the Pixel","steam_id":76561198131824401,"connected_time":3728000000000,"state":"active","ping":60},{"user_id":71,"name":"I.C.","steam_id":76561198049256017,"connected_time":1977000000000,"state":"active","ping":80},{"user_id":98,"name":"JRB","steam_id":76561198054629439,"connected_time":1007000000000,"state":"active","ping":52},{"user_id":105,"name":"Bookmark","steam_id":76561198210918443,"connected_time":406000000000,"state":"active","ping":97},{"user_id":100,"name":"UwU","steam_id":76561198971629959,"connected_time":745000000000,"state":"active","ping":147},{"user_id":92,"name":"Praise_to_the_Flashlight!","steam_id":76561199001728789,"connected_time":1458000000000,"state":"active","ping":60},{"user_id":102,"name":"Bruce The Shark","steam_id":76561198128155673,"connected_time":612000000000,"state":"active","ping":53},{"user_id":24,"name":"Boofenshmirtz","steam_id":76561198071649858,"connected_time":4074000000000,"state":"active","ping":57},{"user_id":104,"name":"yum","steam_id":76561199103766971,"connected_time":461000000000,"state":"active","ping":61},{"user_id":26,"name":"Medic!","steam_id":76561198119759695,"connected_time":4042000000000,"state":"active","ping":64},{"user_id":106,"name":"White","steam_id":76561198305863331,"connected_time":154000000000,"state":"active","ping":78},{"user_id":65,"name":"Vanilla Rice","steam_id":76561198315725190,"connected_time":2291000000000,"state":"active","ping":54},{"user_id":72,"name":"resh","steam_id":76561198066619792,"connected_time":1977000000000,"state":"active","ping":75},{"user_id":60,"name":"Nic0","steam_id":76561198305690218,"connected_time":3042000000000,"state":"active","ping":66},{"user_id":35,"name":"Louis Litt","steam_id":76561198170859755,"connected_time":3827000000000,"state":"active","ping":75},{"user_id":66,"name":"Tito","steam_id":76561198041702529,"connected_time":2115000000000,"state":"active","ping":73},{"user_id":37,"name":"Dr. Han","steam_id":76561198811130843,"connected_time":3756000000000,"state":"active","ping":68},{"user_id":62,"name":"TheColdChiliPepper","steam_id":76561199027155811,"connected_time":3035000000000,"state":"active","ping":81},{"user_id":99,"name":"Acid","steam_id":76561198042538896,"connected_time":966000000000,"state":"active","ping":118},{"user_id":64,"name":"SpaceSanctum","steam_id":76561198805242305,"connected_time":2683000000000,"state":"active","ping":67},{"user_id":95,"name":"quadraspazzed on a lifeglug","steam_id":76561198025514255,"connected_time":1432000000000,"state":"active","ping":73},{"user_id":103,"name":"Xsaber","steam_id":76561198285273249,"connected_time":612000000000,"state":"active","ping":54},{"user_id":68,"name":"Kero","steam_id":76561198343231436,"connected_time":2063000000000,"state":"active","ping":61}]},{"server_id":106,"name":"Uncletopia | Chicago | 2 | All Maps","name_short":"chi-2","host":"chi-1.us.uncletopia.com","port":27025,"enabled":true,"region":"us-central","cc":"us","latitude":41.881832,"longitude":-87.62318,"reserved":0,"last_update":"0001-01-01T00:00:00Z","name_a2s":"Uncletopia | Chicago | 2 | All Maps","protocol":17,"map":"ctf_doublecross","folder":"tf","game":"Team Fortress","app_id":440,"player_count":24,"max_players":24,"Bots":0,"server_type":"Dedicated","server_os":"Linux","password":true,"vac":true,"version":"7961495","steam_id":85568392924469985,"keywords":["ctf","nocrits","nodmgspread","uncletopia"],"game_id":440,"stv_port":27026,"stv_name":"Uncletopia | Chicago | 2 | All Maps | STV","players":[{"user_id":387,"name":"Pillows","steam_id":76561198342571075,"connected_time":254000000000,"state":"active","ping":74},{"user_id":333,"name":"Yam Jazzy Jim","steam_id":76561198000788950,"connected_time":3819000000000,"state":"active","ping":68},{"user_id":379,"name":"Peepster","steam_id":76561198297854733,"connected_time":726000000000,"state":"active","ping":60},{"user_id":359,"name":"randomperson88","steam_id":76561199228822173,"connected_time":2465000000000,"state":"active","ping":47},{"user_id":376,"name":"BigPapaBrogan","steam_id":76561199012814165,"connected_time":823000000000,"state":"active","ping":74},{"user_id":363,"name":"tlar","steam_id":76561198060117460,"connected_time":2308000000000,"state":"active","ping":60},{"user_id":382,"name":"♡Josuee !!♡","steam_id":76561198289833607,"connected_time":621000000000,"state":"active","ping":93},{"user_id":340,"name":"chris","steam_id":76561198209248312,"connected_time":3458000000000,"state":"active","ping":58},{"user_id":369,"name":"Luke","steam_id":76561198253533632,"connected_time":1437000000000,"state":"active","ping":59},{"user_id":389,"name":"godtierJack.jpeg","steam_id":76561198089827454,"connected_time":129000000000,"state":"active","ping":69},{"user_id":349,"name":"Sinister Sandwich","steam_id":76561198142327400,"connected_time":3230000000000,"state":"active","ping":59},{"user_id":356,"name":"Cowborg","steam_id":76561199407170452,"connected_time":2521000000000,"state":"active","ping":91},{"user_id":329,"name":"Nerf Clean Hit","steam_id":76561198257691881,"connected_time":4492000000000,"state":"active","ping":74},{"user_id":372,"name":"Hazeyboi","steam_id":76561198130687838,"connected_time":1096000000000,"state":"active","ping":111},{"user_id":336,"name":"Al Cabone","steam_id":76561198956823243,"connected_time":3520000000000,"state":"active","ping":62},{"user_id":313,"name":"DerpyNate","steam_id":76561198100249037,"connected_time":5211000000000,"state":"active","ping":48},{"user_id":361,"name":"Eightypical","steam_id":76561198045885732,"connected_time":2462000000000,"state":"active","ping":118},{"user_id":352,"name":"m2 only","steam_id":76561198817754233,"connected_time":2935000000000,"state":"active","ping":89},{"user_id":373,"name":"Nine-Tails Delsin","steam_id":76561198149825187,"connected_time":1080000000000,"state":"active","ping":163},{"user_id":384,"name":"ChiMaTa","steam_id":76561198067166198,"connected_time":452000000000,"state":"active","ping":58},{"user_id":380,"name":"Tea Leaf","steam_id":76561198123549027,"connected_time":700000000000,"state":"active","ping":74},{"user_id":345,"name":"OFF","steam_id":76561198191971493,"connected_time":3407000000000,"state":"active","ping":49},{"user_id":390,"name":"DogSpoon","steam_id":76561198012485990,"connected_time":122000000000,"state":"active","ping":71},{"user_id":348,"name":"lee ʚїɞ","steam_id":76561198166666746,"connected_time":3372000000000,"state":"active","ping":62}]},{"server_id":402,"name":"Uncletopia | Chicago | 3 | All Maps","name_short":"chi-3","host":"chi-1.us.uncletopia.com","port":27035,"enabled":true,"region":"us-central","cc":"us","latitude":41.881832,"longitude":-87.62318,"reserved":0,"last_update":"0001-01-01T00:00:00Z","name_a2s":"Uncletopia | Chicago | 3 | All Maps","protocol":17,"map":"plr_pipeline","folder":"tf","game":"Team Fortress","app_id":440,"player_count":0,"max_players":24,"Bots":0,"server_type":"Dedicated","server_os":"Linux","password":true,"vac":true,"version":"7961495","steam_id":85568392924515191,"keywords":["nocrits","nodmgspread","payload","uncletopia"],"game_id":440,"stv_port":27036,"stv_name":"Uncletopia | Chicago | 3 | All Maps | STV","players":null},{"server_id":403,"name":"Uncletopia | Chicago | 4 | All Maps","name_short":"chi-4","host":"chi-1.us.uncletopia.com","port":27045,"enabled":true,"region":"us-central","cc":"us","latitude":41.881832,"longitude":-87.62318,"reserved":0,"last_update":"0001-01-01T00:00:00Z","name_a2s":"Uncletopia | Chicago | 4 | All Maps","protocol":17,"map":"cp_dustbowl","folder":"tf","game":"Team Fortress","app_id":440,"player_count":0,"max_players":24,"Bots":0,"server_type":"Dedicated","server_os":"Linux","password":true,"vac":true,"version":"7961495","steam_id":85568392924515193,"keywords":["cp","nocrits","nodmgspread","uncletopia"],"game_id":440,"stv_port":27046,"stv_name":"Uncletopia | Chicago | 4 | All Maps | STV","players":null},{"server_id":36,"name":"Uncletopia | Chicago | 5 | All Maps","name_short":"chi-5","host":"chi-2.us.uncletopia.com","port":27015,"enabled":true,"region":"us-central","cc":"us","latitude":41.881832,"longitude":-87.62318,"reserved":0,"last_update":"0001-01-01T00:00:00Z","name_a2s":"Uncletopia | Chicago | 5 | All Maps","protocol":17,"map":"pl_frontier_final","folder":"tf","game":"Team Fortress","app_id":440,"player_count":23,"max_players":24,"Bots":0,"server_type":"Dedicated","server_os":"Linux","password":true,"vac":true,"version":"7961495","steam_id":85568392924866362,"keywords":["nocrits","nodmgspread","payload","uncletopia"],"game_id":440,"stv_port":27016,"stv_name":"Uncletopia | Chicago | 5 | All Maps | STV","players":[{"user_id":263,"name":"denzell05","steam_id":76561198086987061,"connected_time":2241000000000,"state":"active","ping":96},{"user_id":257,"name":"Take the L","steam_id":76561198379223875,"connected_time":2379000000000,"state":"active","ping":48},{"user_id":260,"name":"Fresh Lychee","steam_id":76561198045399559,"connected_time":2343000000000,"state":"active","ping":51},{"user_id":258,"name":"Fluffeline","steam_id":76561198352909489,"connected_time":2378000000000,"state":"active","ping":137},{"user_id":270,"name":"tiananmensquare1989","steam_id":76561199076837870,"connected_time":1669000000000,"state":"active","ping":71},{"user_id":241,"name":"ol' musty","steam_id":76561198081075865,"connected_time":3822000000000,"state":"active","ping":62},{"user_id":292,"name":"pHsHy","steam_id":76561198013195018,"connected_time":10000000000,"state":"active","ping":74},{"user_id":291,"name":"Nebe0","steam_id":76561199133770186,"connected_time":133000000000,"state":"active","ping":65},{"user_id":236,"name":"dilfbot","steam_id":76561198099988165,"connected_time":3873000000000,"state":"active","ping":61},{"user_id":217,"name":"Kritzburgh","steam_id":76561198149466938,"connected_time":5230000000000,"state":"active","ping":64},{"user_id":203,"name":"Peybot","steam_id":76561198116124784,"connected_time":6532000000000,"state":"active","ping":52},{"user_id":264,"name":"Magik","steam_id":76561198099726660,"connected_time":2210000000000,"state":"active","ping":94},{"user_id":290,"name":"choi","steam_id":76561198053669887,"connected_time":553000000000,"state":"active","ping":116},{"user_id":293,"name":"Crunchy","steam_id":76561198060342804,"connected_time":7000000000,"state":"active","ping":92},{"user_id":229,"name":"Zero","steam_id":76561198033384990,"connected_time":4044000000000,"state":"active","ping":64},{"user_id":262,"name":"the flying spoon","steam_id":76561199039152146,"connected_time":2276000000000,"state":"active","ping":72},{"user_id":289,"name":"The World's Softest Sandwich","steam_id":76561198015577707,"connected_time":596000000000,"state":"active","ping":85},{"user_id":273,"name":"OneTrueCorvid","steam_id":76561199012953221,"connected_time":1580000000000,"state":"active","ping":86},{"user_id":281,"name":"flarifier","steam_id":76561198315072848,"connected_time":1228000000000,"state":"active","ping":58},{"user_id":283,"name":"TacoMan","steam_id":76561198049405741,"connected_time":1198000000000,"state":"active","ping":78},{"user_id":276,"name":"anonion","steam_id":76561198056477584,"connected_time":1465000000000,"state":"active","ping":89},{"user_id":284,"name":"money getting 1 percenter","steam_id":76561198012796388,"connected_time":1198000000000,"state":"active","ping":49},{"user_id":251,"name":"Ceige","steam_id":76561198068538473,"connected_time":2854000000000,"state":"active","ping":78}]},{"server_id":37,"name":"Uncletopia | Chicago | 6 | All Maps","name_short":"chi-6","host":"chi-2.us.uncletopia.com","port":27025,"enabled":true,"region":"us-central","cc":"us","latitude":41.881832,"longitude":-87.62318,"reserved":0,"last_update":"0001-01-01T00:00:00Z","name_a2s":"Uncletopia | Chicago | 6 | All Maps","protocol":17,"map":"pl_upward","folder":"tf","game":"Team Fortress","app_id":440,"player_count":24,"max_players":24,"Bots":0,"server_type":"Dedicated","server_os":"Linux","password":true,"vac":true,"version":"7961495","steam_id":85568392924866363,"keywords":["nocrits","nodmgspread","payload","uncletopia"],"game_id":440,"stv_port":27026,"stv_name":"Uncletopia | Chicago | 6 | All Maps | STV","players":[{"user_id":159,"name":"Clyde","steam_id":76561198158206236,"connected_time":2732000000000,"state":"active","ping":112},{"user_id":143,"name":"Lemon Soda","steam_id":76561198140208761,"connected_time":3812000000000,"state":"active","ping":55},{"user_id":118,"name":"why","steam_id":76561199059732212,"connected_time":5022000000000,"state":"active","ping":60},{"user_id":77,"name":"daemon","steam_id":76561198001541433,"connected_time":6731000000000,"state":"active","ping":50},{"user_id":160,"name":"everything is a lie (wake up)","steam_id":76561198144436132,"connected_time":2716000000000,"state":"active","ping":47},{"user_id":71,"name":"Siz","steam_id":76561198072962154,"connected_time":7202000000000,"state":"active","ping":64},{"user_id":182,"name":"OldCheese","steam_id":76561199208623418,"connected_time":864000000000,"state":"active","ping":108},{"user_id":190,"name":"Brastion","steam_id":76561198257707303,"connected_time":634000000000,"state":"active","ping":75},{"user_id":183,"name":"com lag","steam_id":76561198019019392,"connected_time":860000000000,"state":"active","ping":44},{"user_id":209,"name":"ATLS1 | Strange Festive","steam_id":76561198050385093,"connected_time":4000000000,"state":"spawning","ping":59},{"user_id":158,"name":"Clean Lines","steam_id":76561197960691518,"connected_time":2764000000000,"state":"active","ping":45},{"user_id":156,"name":"hobojoemama","steam_id":76561198108345568,"connected_time":3036000000000,"state":"active","ping":76},{"user_id":185,"name":"sheep","steam_id":76561198994761483,"connected_time":845000000000,"state":"active","ping":75},{"user_id":184,"name":"scarybroccoli","steam_id":76561198296440084,"connected_time":857000000000,"state":"active","ping":61},{"user_id":131,"name":"Kitt(eh)  ∑:3","steam_id":76561198110858518,"connected_time":4339000000000,"state":"active","ping":60},{"user_id":163,"name":"☼ gamble","steam_id":76561198074180953,"connected_time":2490000000000,"state":"active","ping":60},{"user_id":191,"name":"ʏᴜᴊɪ","steam_id":76561198401572620,"connected_time":608000000000,"state":"active","ping":62},{"user_id":186,"name":"Chicken Joe","steam_id":76561198077799885,"connected_time":843000000000,"state":"active","ping":71},{"user_id":139,"name":"Brendan","steam_id":76561198041079914,"connected_time":4141000000000,"state":"active","ping":68},{"user_id":187,"name":"MrFoxyzin","steam_id":76561198968261099,"connected_time":827000000000,"state":"active","ping":198},{"user_id":166,"name":"Yeti (#SaveTF2)","steam_id":76561199151545966,"connected_time":2035000000000,"state":"active","ping":61},{"user_id":189,"name":"ItsTheNebula","steam_id":76561198120576195,"connected_time":793000000000,"state":"active","ping":87},{"user_id":141,"name":"Pockets","steam_id":76561198001742296,"connected_time":4076000000000,"state":"active","ping":54},{"user_id":208,"name":"bee","steam_id":76561198178015361,"connected_time":15000000000,"state":"active","ping":46}]},{"server_id":38,"name":"Uncletopia | Chicago | 7 | Stopwatch","name_short":"chi-7","host":"chi-2.us.uncletopia.com","port":27035,"enabled":true,"region":"us-central","cc":"us","latitude":41.881832,"longitude":-87.62318,"reserved":0,"last_update":"0001-01-01T00:00:00Z","name_a2s":"Uncletopia | Chicago | 7 | Stopwatch","protocol":17,"map":"cp_granary","folder":"tf","game":"Team Fortress","app_id":440,"player_count":0,"max_players":24,"Bots":0,"server_type":"Dedicated","server_os":"Linux","password":true,"vac":true,"version":"7961495","steam_id":85568392924866364,"keywords":["cp","nocrits","nodmgspread","uncletopia"],"game_id":440,"stv_port":27036,"stv_name":"Uncletopia | Chicago | 7 | Stopwatch | STV","players":null},{"server_id":39,"name":"Uncletopia | Chicago | 8 | Community","name_short":"chi-8","host":"chi-2.us.uncletopia.com","port":27045,"enabled":true,"region":"us-central","cc":"us","latitude":41.881832,"longitude":-87.62318,"reserved":0,"last_update":"0001-01-01T00:00:00Z","name_a2s":"Uncletopia | Chicago | 8 | Community","protocol":17,"map":"workshop/koth_slaughter_rc1.ugc1712845210","folder":"tf","game":"Team Fortress","app_id":440,"player_count":0,"max_players":24,"Bots":0,"server_type":"Dedicated","server_os":"Linux","password":true,"vac":true,"version":"7961495","steam_id":85568392924866365,"keywords":["cp","nocrits","nodmgspread","uncletopia"],"game_id":440,"stv_port":27046,"stv_name":"Uncletopia | Chicago | 8 | Community | STV","players":null},{"server_id":8,"name":"Uncletopia | Dallas | 1 | All Maps","name_short":"dal-1","host":"dal-1.us.uncletopia.com","port":27015,"enabled":true,"region":"us-central","cc":"us","latitude":32.779167,"longitude":-96.80889,"reserved":0,"last_update":"0001-01-01T00:00:00Z","name_a2s":"Uncletopia | Dallas | 1 | All Maps","protocol":17,"map":"pl_badwater","folder":"tf","game":"Team Fortress","app_id":440,"player_count":24,"max_players":24,"Bots":0,"server_type":"Dedicated","server_os":"Linux","password":true,"vac":true,"version":"7961495","steam_id":85568392924469986,"keywords":["nocrits","nodmgspread","payload","uncletopia"],"game_id":440,"stv_port":27016,"stv_name":"Uncletopia | Dallas | 1 | All Maps | STV","players":[{"user_id":283,"name":"katiedidsings","steam_id":76561198090433209,"connected_time":2151000000000,"state":"active","ping":76},{"user_id":282,"name":"tunaa","steam_id":76561198362763159,"connected_time":2173000000000,"state":"active","ping":82},{"user_id":301,"name":"bikerkid207","steam_id":76561198390782783,"connected_time":815000000000,"state":"active","ping":79},{"user_id":251,"name":"Erodplayer","steam_id":76561198183840185,"connected_time":5202000000000,"state":"active","ping":37},{"user_id":302,"name":"Power","steam_id":76561197978508626,"connected_time":764000000000,"state":"active","ping":69},{"user_id":292,"name":"cloaker","steam_id":76561199453618642,"connected_time":1304000000000,"state":"active","ping":89},{"user_id":296,"name":"splot","steam_id":76561199133681385,"connected_time":1189000000000,"state":"active","ping":118},{"user_id":303,"name":"Pop Pop","steam_id":76561198211396781,"connected_time":753000000000,"state":"active","ping":88},{"user_id":288,"name":"TheSaltRobot","steam_id":76561198839739497,"connected_time":1854000000000,"state":"active","ping":53},{"user_id":265,"name":"CeLeb144","steam_id":76561199089907740,"connected_time":4104000000000,"state":"active","ping":58},{"user_id":304,"name":"selvhat","steam_id":76561198114225509,"connected_time":740000000000,"state":"active","ping":67},{"user_id":268,"name":"slippyyλ","steam_id":76561198143018098,"connected_time":4048000000000,"state":"active","ping":84},{"user_id":189,"name":"aisu","steam_id":76561198043768507,"connected_time":8643000000000,"state":"active","ping":89},{"user_id":263,"name":"PowerGem3000","steam_id":76561198944644691,"connected_time":4328000000000,"state":"active","ping":69},{"user_id":284,"name":"Q Whang","steam_id":76561198122479810,"connected_time":2111000000000,"state":"active","ping":81},{"user_id":300,"name":"Reed the Flame Shadow","steam_id":76561198348354629,"connected_time":851000000000,"state":"active","ping":72},{"user_id":255,"name":"dara","steam_id":76561198079451856,"connected_time":5185000000000,"state":"active","ping":72},{"user_id":289,"name":"Helmet Hands","steam_id":76561197961141994,"connected_time":1788000000000,"state":"active","ping":141},{"user_id":232,"name":"cxx","steam_id":76561198111995277,"connected_time":6838000000000,"state":"active","ping":83},{"user_id":293,"name":"focused like a ford focus","steam_id":76561198175955138,"connected_time":1302000000000,"state":"active","ping":92},{"user_id":299,"name":"Dr.Pig","steam_id":76561198069496754,"connected_time":944000000000,"state":"active","ping":117},{"user_id":305,"name":"nine","steam_id":76561198097599414,"connected_time":626000000000,"state":"active","ping":91},{"user_id":306,"name":"LaChancla","steam_id":76561198971528917,"connected_time":611000000000,"state":"active","ping":60},{"user_id":297,"name":"DMM","steam_id":76561198065426171,"connected_time":1077000000000,"state":"active","ping":60}]},{"server_id":108,"name":"Uncletopia | Dallas | 2 | All Maps","name_short":"dal-2","host":"dal-1.us.uncletopia.com","port":27025,"enabled":true,"region":"us-central","cc":"us","latitude":32.779167,"longitude":-96.80889,"reserved":0,"last_update":"0001-01-01T00:00:00Z","name_a2s":"Uncletopia | Dallas | 2 | All Maps","protocol":17,"map":"cp_gorge","folder":"tf","game":"Team Fortress","app_id":440,"player_count":24,"max_players":24,"Bots":0,"server_type":"Dedicated","server_os":"Linux","password":true,"vac":true,"version":"7961495","steam_id":85568392924469988,"keywords":["cp","nocrits","nodmgspread","uncletopia"],"game_id":440,"stv_port":27026,"stv_name":"Uncletopia | Dallas | 2 | All Maps | STV","players":[{"user_id":78,"name":"Zetta","steam_id":76561198045710113,"connected_time":467000000000,"state":"active","ping":60},{"user_id":71,"name":"North","steam_id":76561198814844969,"connected_time":1429000000000,"state":"active","ping":66},{"user_id":9,"name":"Lyricalnoot","steam_id":76561199164905065,"connected_time":6528000000000,"state":"active","ping":45},{"user_id":85,"name":"Kc","steam_id":76561199013438745,"connected_time":16000000000,"state":"active","ping":62},{"user_id":13,"name":"Lolxdloldx","steam_id":76561198136887125,"connected_time":5767000000000,"state":"active","ping":71},{"user_id":82,"name":"Gold_S4 #saveTF2","steam_id":76561199082435571,"connected_time":35000000000,"state":"spawning","ping":79},{"user_id":77,"name":"turnip","steam_id":76561197999375941,"connected_time":479000000000,"state":"active","ping":56},{"user_id":45,"name":"sly","steam_id":76561198139240845,"connected_time":4487000000000,"state":"active","ping":70},{"user_id":53,"name":"Rob","steam_id":76561199187786660,"connected_time":3444000000000,"state":"active","ping":41},{"user_id":66,"name":"Two Homeless Men","steam_id":76561199179400763,"connected_time":1660000000000,"state":"active","ping":60},{"user_id":79,"name":"コストコホットドッグ","steam_id":76561198082406533,"connected_time":442000000000,"state":"active","ping":140},{"user_id":70,"name":"Dreszerg","steam_id":76561198838757422,"connected_time":1500000000000,"state":"active","ping":84},{"user_id":83,"name":"A lawless street","steam_id":76561198167075606,"connected_time":31000000000,"state":"active","ping":75},{"user_id":27,"name":"Rin \"Hindwing\" Redtail","steam_id":76561199074865638,"connected_time":5135000000000,"state":"active","ping":49},{"user_id":84,"name":"Kenny","steam_id":76561198835611756,"connected_time":30000000000,"state":"active","ping":63},{"user_id":75,"name":"prophet","steam_id":76561198332989660,"connected_time":1144000000000,"state":"active","ping":83},{"user_id":50,"name":"Yuck","steam_id":76561198001667870,"connected_time":3954000000000,"state":"active","ping":96},{"user_id":57,"name":"TeriyakiDynamite","steam_id":76561198050049346,"connected_time":2535000000000,"state":"active","ping":82},{"user_id":86,"name":"Ðιяту BɄβblє","steam_id":76561198382555244,"connected_time":2000000000,"state":"spawning","ping":47},{"user_id":87,"name":"moe","steam_id":76561198929586245,"connected_time":2000000000,"state":"spawning","ping":65},{"user_id":39,"name":"Elias","steam_id":76561198106431732,"connected_time":4965000000000,"state":"active","ping":75},{"user_id":76,"name":"adapt","steam_id":76561198156181017,"connected_time":745000000000,"state":"active","ping":76},{"user_id":43,"name":"Digit","steam_id":76561198156589157,"connected_time":4803000000000,"state":"active","ping":78},{"user_id":52,"name":"CONKER","steam_id":76561197986079320,"connected_time":3702000000000,"state":"active","ping":90}]},{"server_id":404,"name":"Uncletopia | Dallas | 3 | All Maps","name_short":"dal-3","host":"dal-1.us.uncletopia.com","port":27035,"enabled":true,"region":"us-central","cc":"us","latitude":32.779167,"longitude":-96.80889,"reserved":0,"last_update":"0001-01-01T00:00:00Z","name_a2s":"Uncletopia | Dallas | 3 | All Maps","protocol":17,"map":"koth_cascade","folder":"tf","game":"Team Fortress","app_id":440,"player_count":0,"max_players":24,"Bots":0,"server_type":"Dedicated","server_os":"Linux","password":true,"vac":true,"version":"7961495","steam_id":85568392924515219,"keywords":["cp","nocrits","nodmgspread","uncletopia"],"game_id":440,"stv_port":27036,"stv_name":"Uncletopia | Dallas | 3 | All Maps | STV","players":null},{"server_id":405,"name":"Uncletopia | Dallas | 4 | Community","name_short":"dal-4","host":"dal-1.us.uncletopia.com","port":27045,"enabled":true,"region":"us-central","cc":"us","latitude":32.779167,"longitude":-96.80889,"reserved":0,"last_update":"0001-01-01T00:00:00Z","name_a2s":"Uncletopia | Dallas | 4 | Community","protocol":17,"map":"workshop/koth_synthetic_rc6a.ugc1549817316","folder":"tf","game":"Team Fortress","app_id":440,"player_count":0,"max_players":24,"Bots":0,"server_type":"Dedicated","server_os":"Linux","password":true,"vac":true,"version":"7961495","steam_id":85568392924515220,"keywords":["cp","nocrits","nodmgspread","uncletopia"],"game_id":440,"stv_port":27046,"stv_name":"Uncletopia | Dallas | 4 | Community | STV","players":null},{"server_id":5,"name":"Uncletopia | Frankfurt | 1 | All Maps","name_short":"frk-1","host":"frk-1.de.uncletopia.com","port":27015,"enabled":true,"region":"eu","cc":"de","latitude":50.110924,"longitude":8.682127,"reserved":0,"last_update":"0001-01-01T00:00:00Z","name_a2s":"Uncletopia | Frankfurt | 1 | All Maps","protocol":17,"map":"cp_process_final","folder":"tf","game":"Team Fortress","app_id":440,"player_count":24,"max_players":24,"Bots":0,"server_type":"Dedicated","server_os":"Linux","password":true,"vac":true,"version":"7961495","steam_id":85568392924469989,"keywords":["cp","nocrits","nodmgspread","uncletopia"],"game_id":440,"stv_port":27016,"stv_name":"Uncletopia | Frankfurt | 1 | All Maps | STV","players":[{"user_id":406,"name":"Durin sein Vater","steam_id":76561198021246713,"connected_time":1112000000000,"state":"active","ping":38},{"user_id":412,"name":"Udinese Dion","steam_id":76561198067931573,"connected_time":930000000000,"state":"active","ping":52},{"user_id":377,"name":"MR BUBBLES","steam_id":76561198019005259,"connected_time":2468000000000,"state":"active","ping":89},{"user_id":397,"name":"pepega","steam_id":76561198210509251,"connected_time":1391000000000,"state":"active","ping":103},{"user_id":414,"name":"bright","steam_id":76561198323945338,"connected_time":812000000000,"state":"active","ping":120},{"user_id":403,"name":"dunduu","steam_id":76561198875240717,"connected_time":1155000000000,"state":"active","ping":66},{"user_id":415,"name":"Krabs","steam_id":76561198161679477,"connected_time":772000000000,"state":"active","ping":59},{"user_id":407,"name":"Nithle","steam_id":76561198025372740,"connected_time":1057000000000,"state":"active","ping":50},{"user_id":379,"name":"5tv^","steam_id":76561198063129586,"connected_time":2455000000000,"state":"active","ping":61},{"user_id":400,"name":"GüçlüAYraNsAĞ","steam_id":76561199184988396,"connected_time":1329000000000,"state":"active","ping":86},{"user_id":393,"name":"knowning none noel","steam_id":76561198046873337,"connected_time":2074000000000,"state":"active","ping":66},{"user_id":376,"name":"Head empty","steam_id":76561198067561269,"connected_time":2473000000000,"state":"active","ping":57},{"user_id":417,"name":"Chrisnek1","steam_id":76561198301619646,"connected_time":648000000000,"state":"active","ping":50},{"user_id":394,"name":"soney","steam_id":76561198121177512,"connected_time":1700000000000,"state":"active","ping":74},{"user_id":373,"name":"Bebol_420","steam_id":76561198074604296,"connected_time":3102000000000,"state":"active","ping":60},{"user_id":418,"name":"Ecvani","steam_id":76561198114443700,"connected_time":609000000000,"state":"active","ping":57},{"user_id":402,"name":"Endi","steam_id":76561198914938199,"connected_time":1161000000000,"state":"active","ping":76},{"user_id":408,"name":"Hurans","steam_id":76561198064853199,"connected_time":1029000000000,"state":"active","ping":60},{"user_id":416,"name":"Mr_Joergen","steam_id":76561198364713702,"connected_time":747000000000,"state":"active","ping":57},{"user_id":388,"name":"zdr","steam_id":76561198191074514,"connected_time":2368000000000,"state":"active","ping":60},{"user_id":398,"name":"⛧ AlphaSatanOmega ⛧","steam_id":76561198035125511,"connected_time":1384000000000,"state":"active","ping":132},{"user_id":409,"name":"CuzImACat9053","steam_id":76561198828145485,"connected_time":1024000000000,"state":"active","ping":49},{"user_id":420,"name":"CrazyLemon","steam_id":76561198193513153,"connected_time":502000000000,"state":"active","ping":68},{"user_id":411,"name":"Gibus Gang","steam_id":76561198150755391,"connected_time":1004000000000,"state":"active","ping":51}]},{"server_id":110,"name":"Uncletopia | Frankfurt | 2 | All Maps","name_short":"frk-2","host":"frk-1.de.uncletopia.com","port":27025,"enabled":true,"region":"eu","cc":"de","latitude":50.110924,"longitude":8.682127,"reserved":0,"last_update":"0001-01-01T00:00:00Z","name_a2s":"Uncletopia | Frankfurt | 2 | All Maps","protocol":17,"map":"pl_borneo","folder":"tf","game":"Team Fortress","app_id":440,"player_count":24,"max_players":24,"Bots":0,"server_type":"Dedicated","server_os":"Linux","password":true,"vac":true,"version":"7961495","steam_id":85568392924469990,"keywords":["nocrits","nodmgspread","payload","uncletopia"],"game_id":440,"stv_port":27026,"stv_name":"Uncletopia | Frankfurt | 2 | All Maps | STV","players":[{"user_id":492,"name":"Quinton Heckroth","steam_id":76561197979780972,"connected_time":1199000000000,"state":"active","ping":45},{"user_id":481,"name":"biohazard.pt","steam_id":76561198088367808,"connected_time":2102000000000,"state":"active","ping":74},{"user_id":486,"name":"YuraGreek","steam_id":76561198050182252,"connected_time":1664000000000,"state":"active","ping":104},{"user_id":504,"name":"Kuiko","steam_id":76561198097720052,"connected_time":28000000000,"state":"active","ping":79},{"user_id":468,"name":"corro","steam_id":76561197982510441,"connected_time":2910000000000,"state":"active","ping":45},{"user_id":496,"name":"hasansaeedifar","steam_id":76561198974563618,"connected_time":447000000000,"state":"active","ping":138},{"user_id":422,"name":"Spanns","steam_id":76561197998349793,"connected_time":5457000000000,"state":"active","ping":73},{"user_id":466,"name":"manure merchant","steam_id":76561198010109316,"connected_time":2921000000000,"state":"active","ping":63},{"user_id":503,"name":"the chicken artist","steam_id":76561198138458704,"connected_time":118000000000,"state":"active","ping":69},{"user_id":446,"name":"RIBS GROW BACK","steam_id":76561198123659806,"connected_time":4501000000000,"state":"active","ping":81},{"user_id":498,"name":"Hoxton","steam_id":76561198129209505,"connected_time":311000000000,"state":"active","ping":75},{"user_id":494,"name":"Rigby","steam_id":76561198021552128,"connected_time":557000000000,"state":"active","ping":80},{"user_id":499,"name":"highest noon","steam_id":76561199103959197,"connected_time":275000000000,"state":"active","ping":98},{"user_id":455,"name":"Finnish Farmer","steam_id":76561198205366043,"connected_time":3391000000000,"state":"active","ping":75},{"user_id":488,"name":"Arc","steam_id":76561198805049375,"connected_time":1623000000000,"state":"active","ping":60},{"user_id":493,"name":"Relic","steam_id":76561199499093258,"connected_time":1135000000000,"state":"active","ping":58},{"user_id":501,"name":"simeswipe","steam_id":76561198188471097,"connected_time":253000000000,"state":"active","ping":64},{"user_id":500,"name":"Rudy Karma","steam_id":76561198349348738,"connected_time":274000000000,"state":"active","ping":59},{"user_id":478,"name":"Rocket Man","steam_id":76561199055492362,"connected_time":2185000000000,"state":"active","ping":62},{"user_id":502,"name":"Mr.P","steam_id":76561198866020812,"connected_time":205000000000,"state":"active","ping":73},{"user_id":471,"name":"JepCabestany","steam_id":76561198123812578,"connected_time":2826000000000,"state":"active","ping":78},{"user_id":440,"name":"Mach","steam_id":76561198952487564,"connected_time":4670000000000,"state":"active","ping":180},{"user_id":479,"name":"randompixel","steam_id":76561198003941207,"connected_time":2176000000000,"state":"active","ping":61},{"user_id":484,"name":"rob","steam_id":76561198122211848,"connected_time":1738000000000,"state":"active","ping":85}]},{"server_id":308,"name":"Uncletopia | Frankfurt | 3 | All Maps","name_short":"frk-3","host":"frk-1.de.uncletopia.com","port":27035,"enabled":true,"region":"eu","cc":"de","latitude":50.110924,"longitude":8.682127,"reserved":0,"last_update":"0001-01-01T00:00:00Z","name_a2s":"Uncletopia | Frankfurt | 3 | All Maps","protocol":17,"map":"pl_borneo","folder":"tf","game":"Team Fortress","app_id":440,"player_count":24,"max_players":24,"Bots":0,"server_type":"Dedicated","server_os":"Linux","password":true,"vac":true,"version":"7961495","steam_id":85568392924504274,"keywords":["nocrits","nodmgspread","payload","uncletopia"],"game_id":440,"stv_port":27036,"stv_name":"Uncletopia | Frankfurt | 3 | All Maps | STV","players":[{"user_id":870,"name":"runcar222","steam_id":76561198077085528,"connected_time":45000000000,"state":"active","ping":56},{"user_id":861,"name":"Vyke","steam_id":76561198154810222,"connected_time":581000000000,"state":"active","ping":59},{"user_id":857,"name":"gaming (official)","steam_id":76561198106012909,"connected_time":772000000000,"state":"active","ping":60},{"user_id":869,"name":"Razef","steam_id":76561198030309484,"connected_time":124000000000,"state":"active","ping":54},{"user_id":863,"name":"sokige","steam_id":76561198167112371,"connected_time":375000000000,"state":"active","ping":96},{"user_id":808,"name":"Toasty5050","steam_id":76561198073540881,"connected_time":4680000000000,"state":"active","ping":46},{"user_id":843,"name":"Carrot","steam_id":76561198119340863,"connected_time":2027000000000,"state":"active","ping":52},{"user_id":774,"name":"Hexagon","steam_id":76561198151205758,"connected_time":7020000000000,"state":"active","ping":48},{"user_id":835,"name":"Supercoxylac","steam_id":76561198376300138,"connected_time":2750000000000,"state":"active","ping":58},{"user_id":735,"name":"Nick","steam_id":76561198036109469,"connected_time":9310000000000,"state":"active","ping":91},{"user_id":780,"name":"finbar","steam_id":76561198056812396,"connected_time":6727000000000,"state":"active","ping":77},{"user_id":809,"name":"Rimx","steam_id":76561198053034840,"connected_time":4629000000000,"state":"active","ping":82},{"user_id":833,"name":"ALOX_IKARO","steam_id":76561198196609290,"connected_time":3049000000000,"state":"active","ping":63},{"user_id":864,"name":"Watermelon","steam_id":76561198078349914,"connected_time":350000000000,"state":"active","ping":60},{"user_id":850,"name":"Skulldow","steam_id":76561198431433977,"connected_time":1850000000000,"state":"active","ping":64},{"user_id":865,"name":"mq","steam_id":76561198091888948,"connected_time":329000000000,"state":"active","ping":56},{"user_id":763,"name":"Rock..","steam_id":76561198004641963,"connected_time":8061000000000,"state":"active","ping":75},{"user_id":832,"name":"Cockvin","steam_id":76561199166839164,"connected_time":3102000000000,"state":"active","ping":38},{"user_id":867,"name":"Kavary","steam_id":76561198024792146,"connected_time":289000000000,"state":"active","ping":75},{"user_id":785,"name":"Mr. Mundy","steam_id":76561198132008918,"connected_time":6410000000000,"state":"active","ping":76},{"user_id":862,"name":"say gex","steam_id":76561198265479349,"connected_time":572000000000,"state":"active","ping":57},{"user_id":854,"name":"Dictatorial Karelian","steam_id":76561198196736457,"connected_time":1104000000000,"state":"active","ping":75},{"user_id":868,"name":"just a guy who palys tf2","steam_id":76561198098755384,"connected_time":289000000000,"state":"active","ping":66},{"user_id":851,"name":"KrAk3rs","steam_id":76561198298179344,"connected_time":1560000000000,"state":"active","ping":69}]},{"server_id":309,"name":"Uncletopia | Frankfurt | 4 | All Maps","name_short":"frk-4","host":"frk-1.de.uncletopia.com","port":27045,"enabled":true,"region":"eu","cc":"de","latitude":50.110924,"longitude":8.682127,"reserved":0,"last_update":"0001-01-01T00:00:00Z","name_a2s":"Uncletopia | Frankfurt | 4 | All Maps","protocol":17,"map":"pl_badwater","folder":"tf","game":"Team Fortress","app_id":440,"player_count":24,"max_players":24,"Bots":0,"server_type":"Dedicated","server_os":"Linux","password":true,"vac":true,"version":"7961495","steam_id":85568392924504275,"keywords":["nocrits","nodmgspread","payload","uncletopia"],"game_id":440,"stv_port":27046,"stv_name":"Uncletopia | Frankfurt | 4 | All Maps | STV","players":[{"user_id":637,"name":"RataDeOrdenador","steam_id":76561198071291263,"connected_time":5000000000,"state":"spawning","ping":73},{"user_id":585,"name":"Spinya","steam_id":76561198086653667,"connected_time":4099000000000,"state":"active","ping":64},{"user_id":567,"name":"Doctor Mobius","steam_id":76561197971281806,"connected_time":4836000000000,"state":"active","ping":59},{"user_id":624,"name":"Ama_r0","steam_id":76561198348377332,"connected_time":1624000000000,"state":"active","ping":108},{"user_id":583,"name":"Waltcha","steam_id":76561198007691468,"connected_time":4271000000000,"state":"active","ping":60},{"user_id":604,"name":"HetNet","steam_id":76561198207584963,"connected_time":3583000000000,"state":"active","ping":68},{"user_id":586,"name":"DudeoftheRock","steam_id":76561198059401865,"connected_time":4090000000000,"state":"active","ping":62},{"user_id":636,"name":"WinterBucket","steam_id":76561198381313801,"connected_time":231000000000,"state":"active","ping":67},{"user_id":617,"name":"jinkis","steam_id":76561198304509976,"connected_time":2302000000000,"state":"active","ping":49},{"user_id":511,"name":"✪ m_br3","steam_id":76561198044981990,"connected_time":8115000000000,"state":"active","ping":63},{"user_id":518,"name":"Grumtsior","steam_id":76561198043563111,"connected_time":7620000000000,"state":"active","ping":62},{"user_id":630,"name":"Djingis Khan","steam_id":76561197967864460,"connected_time":511000000000,"state":"active","ping":49},{"user_id":631,"name":"Five Finger Discount","steam_id":76561197994556857,"connected_time":484000000000,"state":"active","ping":63},{"user_id":588,"name":"Tort","steam_id":76561198329646769,"connected_time":4063000000000,"state":"active","ping":57},{"user_id":632,"name":"HilldogGaming♛","steam_id":76561198082209322,"connected_time":453000000000,"state":"active","ping":83},{"user_id":607,"name":"gagalak","steam_id":76561198089979108,"connected_time":3523000000000,"state":"active","ping":91},{"user_id":625,"name":"your personal medic","steam_id":76561197961707932,"connected_time":1622000000000,"state":"active","ping":45},{"user_id":627,"name":"★poyo★","steam_id":76561198150078959,"connected_time":937000000000,"state":"active","ping":72},{"user_id":615,"name":"pyrofightermag","steam_id":76561198089228732,"connected_time":2476000000000,"state":"active","ping":63},{"user_id":633,"name":"Cosmetic brain","steam_id":76561198055936410,"connected_time":448000000000,"state":"active","ping":84},{"user_id":602,"name":"Tin","steam_id":76561198022201818,"connected_time":3625000000000,"state":"active","ping":46},{"user_id":629,"name":"Davidox Vu","steam_id":76561198373047051,"connected_time":695000000000,"state":"active","ping":52},{"user_id":634,"name":"Vince","steam_id":76561199103000131,"connected_time":430000000000,"state":"active","ping":59},{"user_id":635,"name":"deez","steam_id":76561198831476915,"connected_time":424000000000,"state":"active","ping":55}]},{"server_id":310,"name":"Uncletopia | Frankfurt | 5 | All Maps","name_short":"frk-5","host":"frk-1.de.uncletopia.com","port":27055,"enabled":true,"region":"eu","cc":"de","latitude":50.110924,"longitude":8.682127,"reserved":0,"last_update":"0001-01-01T00:00:00Z","name_a2s":"Uncletopia | Frankfurt | 5 | All Maps","protocol":17,"map":"cp_sunshine","folder":"tf","game":"Team Fortress","app_id":440,"player_count":24,"max_players":24,"Bots":0,"server_type":"Dedicated","server_os":"Linux","password":true,"vac":true,"version":"7961495","steam_id":85568392924504277,"keywords":["cp","nocrits","nodmgspread","uncletopia"],"game_id":440,"stv_port":27056,"stv_name":"Uncletopia | Frankfurt | 5 | All Maps | STV","players":[{"user_id":232,"name":"spy","steam_id":76561199402711007,"connected_time":2334000000000,"state":"active","ping":118},{"user_id":242,"name":"IS3BITEL","steam_id":76561199178060325,"connected_time":2016000000000,"state":"active","ping":460},{"user_id":257,"name":"MONEY","steam_id":76561198010924611,"connected_time":1467000000000,"state":"active","ping":114},{"user_id":281,"name":"Just Navlis","steam_id":76561198090479609,"connected_time":423000000000,"state":"active","ping":45},{"user_id":267,"name":"NoobfromHell","steam_id":76561198394221491,"connected_time":1055000000000,"state":"active","ping":55},{"user_id":207,"name":"Pilaarius","steam_id":76561198120273212,"connected_time":3212000000000,"state":"active","ping":92},{"user_id":251,"name":"Reihenhausbewohner","steam_id":76561198049820307,"connected_time":1634000000000,"state":"active","ping":45},{"user_id":278,"name":"MM*","steam_id":76561198091084631,"connected_time":599000000000,"state":"active","ping":119},{"user_id":258,"name":"vic","steam_id":76561197961292479,"connected_time":1454000000000,"state":"active","ping":106},{"user_id":286,"name":"m950h","steam_id":76561199031079496,"connected_time":66000000000,"state":"active","ping":129},{"user_id":276,"name":"Yangus","steam_id":76561198147796010,"connected_time":649000000000,"state":"active","ping":60},{"user_id":285,"name":"Kestrel","steam_id":76561198144033005,"connected_time":110000000000,"state":"active","ping":55},{"user_id":272,"name":"Tioncalai","steam_id":76561198871546599,"connected_time":737000000000,"state":"active","ping":45},{"user_id":277,"name":"Bill_nye_epic","steam_id":76561199216249214,"connected_time":640000000000,"state":"active","ping":154},{"user_id":237,"name":"Kenny","steam_id":76561198994898206,"connected_time":2198000000000,"state":"active","ping":75},{"user_id":262,"name":"Name","steam_id":76561197990757157,"connected_time":1414000000000,"state":"active","ping":73},{"user_id":282,"name":"Kentucky Fried Crab","steam_id":76561198035586715,"connected_time":259000000000,"state":"active","ping":110},{"user_id":283,"name":"Osek","steam_id":76561197972646003,"connected_time":240000000000,"state":"active","ping":62},{"user_id":271,"name":"xavier (T.G.I.F.)","steam_id":76561198076494034,"connected_time":805000000000,"state":"active","ping":59},{"user_id":274,"name":"clozz","steam_id":76561198135315083,"connected_time":718000000000,"state":"active","ping":99},{"user_id":275,"name":"Kolodziej","steam_id":76561198088672385,"connected_time":716000000000,"state":"active","ping":64},{"user_id":222,"name":"Vershal Smershal","steam_id":76561198116223995,"connected_time":2868000000000,"state":"active","ping":61},{"user_id":265,"name":"Autumn","steam_id":76561198288382452,"connected_time":1356000000000,"state":"active","ping":75}]},{"server_id":311,"name":"Uncletopia | Frankfurt | 6 | All Maps","name_short":"frk-6","host":"frk-1.de.uncletopia.com","port":27065,"enabled":true,"region":"eu","cc":"de","latitude":50.110924,"longitude":8.682127,"reserved":0,"last_update":"0001-01-01T00:00:00Z","name_a2s":"Uncletopia | Frankfurt | 6 | All Maps","protocol":17,"map":"cp_dustbowl","folder":"tf","game":"Team Fortress","app_id":440,"player_count":21,"max_players":24,"Bots":0,"server_type":"Dedicated","server_os":"Linux","password":true,"vac":true,"version":"7961495","steam_id":85568392924504278,"keywords":["cp","nocrits","nodmgspread","uncletopia"],"game_id":440,"stv_port":27066,"stv_name":"Uncletopia | Frankfurt | 6 | All Maps | STV","players":[{"user_id":411,"name":"romov","steam_id":76561199182288871,"connected_time":2623000000000,"state":"active","ping":83},{"user_id":421,"name":"emer","steam_id":76561198001420975,"connected_time":1276000000000,"state":"active","ping":94},{"user_id":435,"name":"Volxium ore","steam_id":76561198872222015,"connected_time":200000000000,"state":"active","ping":61},{"user_id":437,"name":"Maximilian1359","steam_id":76561198152439608,"connected_time":35000000000,"state":"active","ping":31},{"user_id":400,"name":"REN","steam_id":76561198000596385,"connected_time":2848000000000,"state":"active","ping":46},{"user_id":372,"name":"R4yzan","steam_id":76561198085146731,"connected_time":5061000000000,"state":"active","ping":99},{"user_id":401,"name":"Borb","steam_id":76561198162156226,"connected_time":2841000000000,"state":"active","ping":150},{"user_id":436,"name":"jester_thomas","steam_id":76561199169559844,"connected_time":187000000000,"state":"spawning","ping":81},{"user_id":418,"name":"wodiw21","steam_id":76561199092252177,"connected_time":1513000000000,"state":"active","ping":80},{"user_id":402,"name":"smell_my_cheese","steam_id":76561198008517427,"connected_time":2798000000000,"state":"active","ping":52},{"user_id":409,"name":"gaming gamer","steam_id":76561198212488780,"connected_time":2710000000000,"state":"active","ping":58},{"user_id":434,"name":"irritable vowel syndrome","steam_id":76561198117033273,"connected_time":344000000000,"state":"active","ping":60},{"user_id":438,"name":"alex","steam_id":76561199281389958,"connected_time":27000000000,"state":"active","ping":50},{"user_id":432,"name":"sαntч","steam_id":76561198046159631,"connected_time":439000000000,"state":"active","ping":41},{"user_id":416,"name":"DEFENDOR62","steam_id":76561199386703896,"connected_time":2234000000000,"state":"spawning","ping":41},{"user_id":424,"name":"meirfa","steam_id":76561198157193506,"connected_time":947000000000,"state":"spawning","ping":228},{"user_id":417,"name":"Andy","steam_id":76561198046918834,"connected_time":2234000000000,"state":"active","ping":50},{"user_id":429,"name":"spungeboob #saveTF2","steam_id":76561198841563383,"connected_time":782000000000,"state":"active","ping":91},{"user_id":426,"name":"4","steam_id":76561197964945192,"connected_time":891000000000,"state":"active","ping":60},{"user_id":427,"name":"Fedmedio","steam_id":76561198128565110,"connected_time":874000000000,"state":"active","ping":57},{"user_id":381,"name":"mümq","steam_id":76561198085153806,"connected_time":4751000000000,"state":"active","ping":45}]},{"server_id":23,"name":"Uncletopia | Frankfurt | 7 | Stopwatch","name_short":"frk-7","host":"frk-1.de.uncletopia.com","port":27075,"enabled":true,"region":"eu","cc":"de","latitude":50.110924,"longitude":8.682127,"reserved":0,"last_update":"0001-01-01T00:00:00Z","name_a2s":"Uncletopia | Frankfurt | 7 | Stopwatch","protocol":17,"map":"pl_swiftwater_final1","folder":"tf","game":"Team Fortress","app_id":440,"player_count":9,"max_players":24,"Bots":0,"server_type":"Dedicated","server_os":"Linux","password":true,"vac":true,"version":"7961495","steam_id":85568392924742827,"keywords":["nocrits","nodmgspread","payload","uncletopia"],"game_id":440,"stv_port":27076,"stv_name":"Uncletopia | Frankfurt | 7 | Stopwatch | STV","players":[{"user_id":167,"name":"SomeBody","steam_id":76561199072771199,"connected_time":1309000000000,"state":"active","ping":87},{"user_id":175,"name":"lepelle","steam_id":76561198191121042,"connected_time":745000000000,"state":"active","ping":56},{"user_id":170,"name":"^1MARAMA PALEX","steam_id":76561198311372563,"connected_time":1143000000000,"state":"active","ping":72},{"user_id":176,"name":"pewpew524","steam_id":76561199049067116,"connected_time":729000000000,"state":"active","ping":61},{"user_id":177,"name":"Von Leining","steam_id":76561198859983504,"connected_time":672000000000,"state":"active","ping":37},{"user_id":88,"name":"roblan11","steam_id":76561198066839258,"connected_time":6063000000000,"state":"active","ping":44},{"user_id":163,"name":"Arturias","steam_id":76561198188720263,"connected_time":1668000000000,"state":"active","ping":51},{"user_id":153,"name":"Nickbro101","steam_id":76561198044271692,"connected_time":2091000000000,"state":"active","ping":59},{"user_id":154,"name":"Mario3ghj","steam_id":76561198069804561,"connected_time":2076000000000,"state":"active","ping":89}]},{"server_id":24,"name":"Uncletopia | Frankfurt | 8 | Community","name_short":"frk-8","host":"frk-1.de.uncletopia.com","port":27085,"enabled":true,"region":"eu","cc":"de","latitude":50.110924,"longitude":8.682127,"reserved":0,"last_update":"0001-01-01T00:00:00Z","name_a2s":"Uncletopia | Frankfurt | 8 | Community","protocol":17,"map":"workshop/koth_jamram_rc1a.ugc2964065613","folder":"tf","game":"Team Fortress","app_id":440,"player_count":6,"max_players":24,"Bots":0,"server_type":"Dedicated","server_os":"Linux","password":true,"vac":true,"version":"7961495","steam_id":85568392924742828,"keywords":["cp","nocrits","nodmgspread","uncletopia"],"game_id":440,"stv_port":27086,"stv_name":"Uncletopia | Frankfurt | 8 | Community | STV","players":[{"user_id":17,"name":"Smol in Abyss","steam_id":76561199001607121,"connected_time":1197000000000,"state":"active","ping":75},{"user_id":18,"name":"Jake in Abyss","steam_id":76561199161084988,"connected_time":1143000000000,"state":"active","ping":243},{"user_id":19,"name":"Kotya","steam_id":76561198264896621,"connected_time":1080000000000,"state":"active","ping":66},{"user_id":20,"name":"Juuni","steam_id":76561198388345739,"connected_time":1023000000000,"state":"active","ping":77},{"user_id":21,"name":"F","steam_id":76561199149462792,"connected_time":553000000000,"state":"active","ping":52},{"user_id":22,"name":"Pyro Gaming","steam_id":76561199127097330,"connected_time":498000000000,"state":"active","ping":77}]},{"server_id":202,"name":"Uncletopia | Hong Kong | 1 | All Maps","name_short":"hgk-1","host":"hgk-1.hk.uncletopia.com","port":27015,"enabled":true,"region":"asia","cc":"hk","latitude":22.302711,"longitude":114.177216,"reserved":0,"last_update":"0001-01-01T00:00:00Z","name_a2s":"Uncletopia | Hong Kong | 1 | All Maps","protocol":17,"map":"pl_frontier_final","folder":"tf","game":"Team Fortress","app_id":440,"player_count":0,"max_players":24,"Bots":0,"server_type":"Dedicated","server_os":"Linux","password":true,"vac":true,"version":"7961495","steam_id":85568392924494504,"keywords":["nocrits","nodmgspread","payload","uncletopia"],"game_id":440,"stv_port":27016,"stv_name":"Uncletopia | Hong Kong | 1 | All Maps | STV","players":null},{"server_id":1,"name":"Uncletopia | Los Angeles | 1 | All Maps","name_short":"lax-1","host":"lax-1.us.uncletopia.com","port":27015,"enabled":true,"region":"us-west","cc":"us","latitude":33.94279,"longitude":-118.41004,"reserved":0,"last_update":"0001-01-01T00:00:00Z","name_a2s":"Uncletopia | Los Angeles | 1 | All Maps","protocol":17,"map":"koth_cascade","folder":"tf","game":"Team Fortress","app_id":440,"player_count":0,"max_players":24,"Bots":0,"server_type":"Dedicated","server_os":"Linux","password":true,"vac":true,"version":"7961495","steam_id":85568392924469991,"keywords":["cp","nocrits","nodmgspread","uncletopia"],"game_id":440,"stv_port":27016,"stv_name":"Uncletopia | Los Angeles | 1 | All Maps | STV","players":null},{"server_id":112,"name":"Uncletopia | Los Angeles | 2 | All Maps","name_short":"lax-2","host":"lax-1.us.uncletopia.com","port":27025,"enabled":true,"region":"us-west","cc":"us","latitude":33.94279,"longitude":-118.41004,"reserved":0,"last_update":"0001-01-01T00:00:00Z","name_a2s":"Uncletopia | Los Angeles | 2 | All Maps","protocol":17,"map":"koth_cascade","folder":"tf","game":"Team Fortress","app_id":440,"player_count":0,"max_players":24,"Bots":0,"server_type":"Dedicated","server_os":"Linux","password":true,"vac":true,"version":"7961495","steam_id":85568392924469992,"keywords":["cp","nocrits","nodmgspread","uncletopia"],"game_id":440,"stv_port":27026,"stv_name":"Uncletopia | Los Angeles | 2 | All Maps | STV","players":null},{"server_id":324,"name":"Uncletopia | Los Angeles | 3 | All Maps","name_short":"lax-3","host":"lax-1.us.uncletopia.com","port":27035,"enabled":true,"region":"us-west","cc":"us","latitude":33.94279,"longitude":-118.41004,"reserved":0,"last_update":"0001-01-01T00:00:00Z","name_a2s":"Uncletopia | Los Angeles | 3 | All Maps","protocol":17,"map":"pl_pier","folder":"tf","game":"Team Fortress","app_id":440,"player_count":0,"max_players":24,"Bots":0,"server_type":"Dedicated","server_os":"Linux","password":true,"vac":true,"version":"7961495","steam_id":85568392924510198,"keywords":["nocrits","nodmgspread","payload","uncletopia"],"game_id":440,"stv_port":27036,"stv_name":"Uncletopia | Los Angeles | 3 | All Maps | STV","players":null},{"server_id":25,"name":"Uncletopia | Los Angeles | 4 | Stopwatch","name_short":"lax-4","host":"lax-1.us.uncletopia.com","port":27045,"enabled":true,"region":"us-west","cc":"us","latitude":33.94279,"longitude":-118.41004,"reserved":0,"last_update":"0001-01-01T00:00:00Z","name_a2s":"Uncletopia | Los Angeles | 4 | Stopwatch","protocol":17,"map":"pl_upward","folder":"tf","game":"Team Fortress","app_id":440,"player_count":0,"max_players":24,"Bots":0,"server_type":"Dedicated","server_os":"Linux","password":true,"vac":true,"version":"7961495","steam_id":85568392924510199,"keywords":["nocrits","nodmgspread","payload","uncletopia"],"game_id":440,"stv_port":27046,"stv_name":"Uncletopia | Los Angeles | 4 | Stopwatch | STV","players":null},{"server_id":11,"name":"Uncletopia | London | 1 | All Maps","name_short":"lon-1","host":"lon-1.uk.uncletopia.com","port":27015,"enabled":true,"region":"eu","cc":"gb","latitude":51.509865,"longitude":-0.118092,"reserved":0,"last_update":"0001-01-01T00:00:00Z","name_a2s":"Uncletopia | London | 1 | All Maps","protocol":17,"map":"plr_bananabay","folder":"tf","game":"Team Fortress","app_id":440,"player_count":24,"max_players":24,"Bots":0,"server_type":"Dedicated","server_os":"Linux","password":true,"vac":true,"version":"7961495","steam_id":85568392924367362,"keywords":["nocrits","nodmgspread","payload","uncletopia"],"game_id":440,"stv_port":27016,"stv_name":"Uncletopia | London | 1 | All Maps | STV","players":[{"user_id":592,"name":"ber","steam_id":76561197993892057,"connected_time":2740000000000,"state":"active","ping":89},{"user_id":610,"name":"BreadBubbles","steam_id":76561198174332826,"connected_time":1000000000,"state":"spawning","ping":77},{"user_id":604,"name":"map","steam_id":76561198370196400,"connected_time":646000000000,"state":"active","ping":87},{"user_id":589,"name":"GamerPanda","steam_id":76561198061454277,"connected_time":2887000000000,"state":"active","ping":79},{"user_id":607,"name":"RomAnjentululiantiarion","steam_id":76561198161417211,"connected_time":336000000000,"state":"active","ping":89},{"user_id":595,"name":"Mystical X™","steam_id":76561198080927012,"connected_time":2069000000000,"state":"active","ping":83},{"user_id":579,"name":"Minimi","steam_id":76561198873850443,"connected_time":3941000000000,"state":"active","ping":45},{"user_id":611,"name":"AuwNina","steam_id":76561198128231464,"connected_time":1000000000,"state":"spawning","ping":34},{"user_id":588,"name":"Kindit","steam_id":76561199029242955,"connected_time":2908000000000,"state":"active","ping":115},{"user_id":600,"name":"Ninjeg","steam_id":76561197995307947,"connected_time":1119000000000,"state":"active","ping":52},{"user_id":606,"name":"Meannaise","steam_id":76561198353496134,"connected_time":530000000000,"state":"active","ping":57},{"user_id":602,"name":"Finkaksu Devourer of Sour Candy","steam_id":76561198201389163,"connected_time":950000000000,"state":"active","ping":70},{"user_id":519,"name":"TheKerhard","steam_id":76561198086772002,"connected_time":9047000000000,"state":"active","ping":131},{"user_id":609,"name":"dongus","steam_id":76561198042774930,"connected_time":25000000000,"state":"active","ping":51},{"user_id":477,"name":"Enjoyer","steam_id":76561198147399855,"connected_time":12282000000000,"state":"active","ping":133},{"user_id":597,"name":"MustangCricket","steam_id":76561197963408317,"connected_time":1705000000000,"state":"active","ping":56},{"user_id":581,"name":"Munibe","steam_id":76561198107967904,"connected_time":3364000000000,"state":"active","ping":57},{"user_id":536,"name":"Pterodactyl P. Jones","steam_id":76561198017513012,"connected_time":7447000000000,"state":"active","ping":51},{"user_id":594,"name":"lily.exe","steam_id":76561198049840460,"connected_time":2641000000000,"state":"active","ping":45},{"user_id":580,"name":"SOPHIIAA","steam_id":76561198443798981,"connected_time":3548000000000,"state":"active","ping":68},{"user_id":578,"name":"Pinkchup","steam_id":76561198106802803,"connected_time":3946000000000,"state":"active","ping":76},{"user_id":517,"name":"realhracosta","steam_id":76561198852753790,"connected_time":9512000000000,"state":"active","ping":118},{"user_id":583,"name":"hmscole09","steam_id":76561198811362788,"connected_time":3224000000000,"state":"active","ping":44},{"user_id":603,"name":"GoblinGaming","steam_id":76561198360395476,"connected_time":949000000000,"state":"active","ping":30}]},{"server_id":114,"name":"Uncletopia | London | 2 | All Maps","name_short":"lon-2","host":"lon-1.uk.uncletopia.com","port":27025,"enabled":true,"region":"eu","cc":"gb","latitude":51.509865,"longitude":-0.118092,"reserved":0,"last_update":"0001-01-01T00:00:00Z","name_a2s":"Uncletopia | London | 2 | All Maps","protocol":17,"map":"pl_frontier_final","folder":"tf","game":"Team Fortress","app_id":440,"player_count":22,"max_players":24,"Bots":0,"server_type":"Dedicated","server_os":"Linux","password":true,"vac":true,"version":"7961495","steam_id":85568392924470941,"keywords":["nocrits","nodmgspread","payload","uncletopia"],"game_id":440,"stv_port":27026,"stv_name":"Uncletopia | London | 2 | All Maps | STV","players":[{"user_id":404,"name":"Aries","steam_id":76561198275816528,"connected_time":769000000000,"state":"active","ping":68},{"user_id":405,"name":"im drunk","steam_id":76561198007494744,"connected_time":458000000000,"state":"active","ping":45},{"user_id":414,"name":"Maybe","steam_id":76561198274455278,"connected_time":116000000000,"state":"active","ping":59},{"user_id":381,"name":"A Pigeon","steam_id":76561198114090555,"connected_time":1773000000000,"state":"active","ping":74},{"user_id":374,"name":"CreepyYellowDuck","steam_id":76561198000479387,"connected_time":2139000000000,"state":"active","ping":42},{"user_id":375,"name":"Oak","steam_id":76561198067315672,"connected_time":2111000000000,"state":"active","ping":46},{"user_id":406,"name":"Doggo","steam_id":76561198091909701,"connected_time":436000000000,"state":"active","ping":87},{"user_id":383,"name":"mr.resetti","steam_id":76561198974520642,"connected_time":1723000000000,"state":"active","ping":60},{"user_id":408,"name":"pardner","steam_id":76561198451471161,"connected_time":410000000000,"state":"active","ping":49},{"user_id":388,"name":"TOP G","steam_id":76561198138928548,"connected_time":1592000000000,"state":"active","ping":66},{"user_id":409,"name":"☠The Boio☠","steam_id":76561198114166378,"connected_time":343000000000,"state":"active","ping":70},{"user_id":410,"name":"Kryastorm","steam_id":76561198045127892,"connected_time":290000000000,"state":"active","ping":62},{"user_id":387,"name":"Kappa","steam_id":76561198089341471,"connected_time":1640000000000,"state":"active","ping":59},{"user_id":411,"name":"WarBoyAnthem","steam_id":76561198207589235,"connected_time":272000000000,"state":"active","ping":140},{"user_id":402,"name":"wG auto","steam_id":76561198062247888,"connected_time":1011000000000,"state":"active","ping":57},{"user_id":391,"name":"flamingosaurus","steam_id":76561198051455397,"connected_time":1556000000000,"state":"active","ping":42},{"user_id":392,"name":"L4gman","steam_id":76561198048227040,"connected_time":1544000000000,"state":"active","ping":74},{"user_id":412,"name":"The worst TF2 player(Real)","steam_id":76561199184873889,"connected_time":271000000000,"state":"active","ping":59},{"user_id":394,"name":"phong","steam_id":76561198090990465,"connected_time":1533000000000,"state":"active","ping":60},{"user_id":413,"name":"Nikt Luv Bunnies","steam_id":76561199273293257,"connected_time":198000000000,"state":"active","ping":102},{"user_id":346,"name":"Tavish","steam_id":76561197971486686,"connected_time":3672000000000,"state":"active","ping":52},{"user_id":398,"name":"Mr_Sve.","steam_id":76561198196685086,"connected_time":1525000000000,"state":"active","ping":60}]},{"server_id":320,"name":"Uncletopia | London | 3 | All Maps","name_short":"lon-3","host":"lon-1.uk.uncletopia.com","port":27035,"enabled":true,"region":"eu","cc":"gb","latitude":51.509865,"longitude":-0.118092,"reserved":0,"last_update":"0001-01-01T00:00:00Z","name_a2s":"Uncletopia | London | 3 | All Maps","protocol":17,"map":"pl_swiftwater_final1","folder":"tf","game":"Team Fortress","app_id":440,"player_count":24,"max_players":24,"Bots":0,"server_type":"Dedicated","server_os":"Linux","password":true,"vac":true,"version":"7961495","steam_id":85568392924510192,"keywords":["nocrits","nodmgspread","payload","uncletopia"],"game_id":440,"stv_port":27036,"stv_name":"Uncletopia | London | 3 | All Maps | STV","players":[{"user_id":93,"name":"Vanilla Autismotron","steam_id":76561198278604277,"connected_time":1802000000000,"state":"active","ping":45},{"user_id":105,"name":"The Burger","steam_id":76561198124463930,"connected_time":1140000000000,"state":"active","ping":44},{"user_id":114,"name":"joosssh","steam_id":76561198072130805,"connected_time":375000000000,"state":"active","ping":56},{"user_id":72,"name":"Vista","steam_id":76561199091524536,"connected_time":3377000000000,"state":"active","ping":147},{"user_id":85,"name":"FreyjaBreadWitch","steam_id":76561199211405367,"connected_time":2253000000000,"state":"active","ping":92},{"user_id":86,"name":"Team Discovery Channel!","steam_id":76561198007653168,"connected_time":2245000000000,"state":"active","ping":60},{"user_id":83,"name":"YARrICk.«+»","steam_id":76561197990126485,"connected_time":2456000000000,"state":"active","ping":62},{"user_id":79,"name":"ha,burger","steam_id":76561199093584225,"connected_time":2608000000000,"state":"active","ping":45},{"user_id":50,"name":"141216","steam_id":76561198011015750,"connected_time":4044000000000,"state":"active","ping":49},{"user_id":78,"name":"zayd","steam_id":76561198895235231,"connected_time":2648000000000,"state":"active","ping":55},{"user_id":108,"name":"Tero","steam_id":76561198073147972,"connected_time":785000000000,"state":"active","ping":73},{"user_id":65,"name":"child cruncher","steam_id":76561199376433147,"connected_time":3762000000000,"state":"active","ping":31},{"user_id":51,"name":"ruschca","steam_id":76561198041966522,"connected_time":4042000000000,"state":"active","ping":38},{"user_id":113,"name":"niandits","steam_id":76561198419798900,"connected_time":449000000000,"state":"active","ping":115},{"user_id":68,"name":"IHaveConsumed30KmofMeth","steam_id":76561199221172552,"connected_time":3574000000000,"state":"active","ping":69},{"user_id":94,"name":"Emerald","steam_id":76561199141384216,"connected_time":1782000000000,"state":"active","ping":50},{"user_id":97,"name":"LEGEND FUMO.","steam_id":76561198061033903,"connected_time":1767000000000,"state":"active","ping":60},{"user_id":115,"name":"hawkblob","steam_id":76561198803720565,"connected_time":123000000000,"state":"active","ping":74},{"user_id":98,"name":"DooWooD","steam_id":76561198335810106,"connected_time":1746000000000,"state":"active","ping":79},{"user_id":111,"name":"Lyell","steam_id":76561198350329389,"connected_time":556000000000,"state":"active","ping":69},{"user_id":103,"name":"monikka","steam_id":76561198297003397,"connected_time":1321000000000,"state":"active","ping":61},{"user_id":100,"name":"Haha?","steam_id":76561198056882245,"connected_time":1546000000000,"state":"active","ping":37},{"user_id":107,"name":"Mr. Hunts","steam_id":76561197981910397,"connected_time":1056000000000,"state":"active","ping":60},{"user_id":112,"name":"Laru","steam_id":76561197998838438,"connected_time":532000000000,"state":"active","ping":74}]},{"server_id":321,"name":"Uncletopia | London | 4 | All Maps","name_short":"lon-4","host":"lon-1.uk.uncletopia.com","port":27045,"enabled":true,"region":"eu","cc":"gb","latitude":51.509865,"longitude":-0.118092,"reserved":0,"last_update":"0001-01-01T00:00:00Z","name_a2s":"Uncletopia | London | 4 | All Maps","protocol":17,"map":"pl_borneo","folder":"tf","game":"Team Fortress","app_id":440,"player_count":24,"max_players":24,"Bots":0,"server_type":"Dedicated","server_os":"Linux","password":true,"vac":true,"version":"7961495","steam_id":85568392924510193,"keywords":["nocrits","nodmgspread","payload","uncletopia"],"game_id":440,"stv_port":27046,"stv_name":"Uncletopia | London | 4 | All Maps | STV","players":[{"user_id":273,"name":"Houlles","steam_id":76561198095277383,"connected_time":76000000000,"state":"active","ping":46},{"user_id":228,"name":"whatever","steam_id":76561198095943461,"connected_time":1859000000000,"state":"active","ping":70},{"user_id":260,"name":"ZeeZer0","steam_id":76561198043828441,"connected_time":539000000000,"state":"active","ping":48},{"user_id":250,"name":"TylowStar","steam_id":76561198357107806,"connected_time":834000000000,"state":"active","ping":61},{"user_id":257,"name":"padillacampos","steam_id":76561198161923970,"connected_time":675000000000,"state":"active","ping":67},{"user_id":265,"name":"bad 2 za bona","steam_id":76561199065919134,"connected_time":447000000000,"state":"active","ping":61},{"user_id":266,"name":"Medigun beam addict","steam_id":76561198256328990,"connected_time":443000000000,"state":"active","ping":83},{"user_id":252,"name":"BottledSprite","steam_id":76561199131957081,"connected_time":807000000000,"state":"active","ping":63},{"user_id":232,"name":"ATARAKSIA","steam_id":76561198119392756,"connected_time":1716000000000,"state":"active","ping":74},{"user_id":267,"name":"Genshin Ballsack","steam_id":76561198120035423,"connected_time":388000000000,"state":"active","ping":47},{"user_id":244,"name":"XxBenShapiro420xX","steam_id":76561199229373972,"connected_time":1256000000000,"state":"active","ping":61},{"user_id":240,"name":"Ullr","steam_id":76561198140547483,"connected_time":1365000000000,"state":"active","ping":43},{"user_id":274,"name":"Brian","steam_id":76561198077756206,"connected_time":55000000000,"state":"active","ping":43},{"user_id":187,"name":"Macci - Obismal","steam_id":76561198050485404,"connected_time":5450000000000,"state":"active","ping":76},{"user_id":224,"name":"watch thief","steam_id":76561198036730191,"connected_time":2330000000000,"state":"active","ping":58},{"user_id":268,"name":"Ray William Johnson from =3","steam_id":76561198129755592,"connected_time":381000000000,"state":"active","ping":32},{"user_id":259,"name":"Ricord","steam_id":76561198104369167,"connected_time":569000000000,"state":"active","ping":45},{"user_id":255,"name":"Cinnamon","steam_id":76561198195816311,"connected_time":779000000000,"state":"active","ping":35},{"user_id":272,"name":"Chance","steam_id":76561198076530208,"connected_time":299000000000,"state":"active","ping":44},{"user_id":167,"name":"R8N - Obismal","steam_id":76561198007482714,"connected_time":5826000000000,"state":"active","ping":77},{"user_id":256,"name":"SentineL","steam_id":76561198220318183,"connected_time":779000000000,"state":"active","ping":58},{"user_id":263,"name":"TranvesTito","steam_id":76561198140034262,"connected_time":518000000000,"state":"active","ping":60},{"user_id":269,"name":"Saxton Jailbate","steam_id":76561198043536092,"connected_time":376000000000,"state":"active","ping":45},{"user_id":271,"name":"aja","steam_id":76561198972253395,"connected_time":364000000000,"state":"active","ping":42}]},{"server_id":21,"name":"Uncletopia | London | 5 | All Maps","name_short":"lon-5","host":"lon-1.uk.uncletopia.com","port":27055,"enabled":true,"region":"eu","cc":"gb","latitude":51.509865,"longitude":-0.118092,"reserved":0,"last_update":"0001-01-01T00:00:00Z","name_a2s":"Uncletopia | London | 5 | All Maps","protocol":17,"map":"pl_swiftwater_final1","folder":"tf","game":"Team Fortress","app_id":440,"player_count":24,"max_players":24,"Bots":0,"server_type":"Dedicated","server_os":"Linux","password":true,"vac":true,"version":"7961495","steam_id":85568392924742829,"keywords":["nocrits","nodmgspread","payload","uncletopia"],"game_id":440,"stv_port":27056,"stv_name":"Uncletopia | London | 5 | All Maps | STV","players":[{"user_id":146,"name":"Rudoss","steam_id":76561198018415787,"connected_time":1625000000000,"state":"active","ping":69},{"user_id":127,"name":"andeddk","steam_id":76561198261869475,"connected_time":3047000000000,"state":"active","ping":80},{"user_id":157,"name":"Stefman","steam_id":76561199025104038,"connected_time":868000000000,"state":"active","ping":40},{"user_id":169,"name":"A Table","steam_id":76561198056456470,"connected_time":65000000000,"state":"active","ping":61},{"user_id":128,"name":"After8","steam_id":76561198090750865,"connected_time":3032000000000,"state":"active","ping":76},{"user_id":163,"name":"Garoseth","steam_id":76561197961387454,"connected_time":338000000000,"state":"active","ping":64},{"user_id":139,"name":"Sparky","steam_id":76561198036754195,"connected_time":2270000000000,"state":"active","ping":46},{"user_id":145,"name":"andrew tate's kitten","steam_id":76561198173218318,"connected_time":1646000000000,"state":"active","ping":46},{"user_id":159,"name":"Estamie","steam_id":76561198058527691,"connected_time":669000000000,"state":"active","ping":72},{"user_id":137,"name":"Coac","steam_id":76561198085265740,"connected_time":2388000000000,"state":"active","ping":69},{"user_id":143,"name":"Nesster","steam_id":76561198071688242,"connected_time":1740000000000,"state":"active","ping":114},{"user_id":129,"name":"Maxin","steam_id":76561197999923364,"connected_time":2998000000000,"state":"active","ping":69},{"user_id":165,"name":"hmm yes","steam_id":76561198170322809,"connected_time":321000000000,"state":"active","ping":32},{"user_id":170,"name":"cop killer","steam_id":76561198039966198,"connected_time":21000000000,"state":"spawning","ping":74},{"user_id":58,"name":"Ozzie","steam_id":76561197992915315,"connected_time":8805000000000,"state":"active","ping":75},{"user_id":148,"name":"American Chjeff (✪oficial)","steam_id":76561198019917466,"connected_time":1614000000000,"state":"active","ping":46},{"user_id":108,"name":"lulu","steam_id":76561199147764133,"connected_time":4592000000000,"state":"active","ping":68},{"user_id":162,"name":"Gibbo","steam_id":76561198021814576,"connected_time":423000000000,"state":"active","ping":42},{"user_id":149,"name":"mary","steam_id":76561198014828037,"connected_time":1598000000000,"state":"active","ping":58},{"user_id":131,"name":"world's weakest, stupidest male","steam_id":76561198000369215,"connected_time":2973000000000,"state":"active","ping":47},{"user_id":89,"name":"MrFailsALot","steam_id":76561199226018880,"connected_time":6499000000000,"state":"active","ping":70},{"user_id":150,"name":"please do not the cat","steam_id":76561198089003514,"connected_time":1595000000000,"state":"active","ping":59},{"user_id":160,"name":"Dezalt","steam_id":76561198154866092,"connected_time":617000000000,"state":"active","ping":70},{"user_id":168,"name":"God's Goofiest Goober","steam_id":76561198103175187,"connected_time":77000000000,"state":"active","ping":65}]},{"server_id":22,"name":"Uncletopia | London | 6 | All Maps","name_short":"lon-6","host":"lon-1.uk.uncletopia.com","port":27065,"enabled":true,"region":"eu","cc":"gb","latitude":51.509865,"longitude":-0.118092,"reserved":0,"last_update":"0001-01-01T00:00:00Z","name_a2s":"Uncletopia | London | 6 | All Maps","protocol":17,"map":"koth_highpass","folder":"tf","game":"Team Fortress","app_id":440,"player_count":7,"max_players":24,"Bots":0,"server_type":"Dedicated","server_os":"Linux","password":true,"vac":true,"version":"7961495","steam_id":85568392924742830,"keywords":["cp","nocrits","nodmgspread","uncletopia"],"game_id":440,"stv_port":27066,"stv_name":"Uncletopia | London | 6 | All Maps | STV","players":[{"user_id":197,"name":"tjeerdoweirdo06","steam_id":76561198972138498,"connected_time":1591000000000,"state":"active","ping":43},{"user_id":221,"name":"letranger gunspy (real)","steam_id":76561199286764992,"connected_time":253000000000,"state":"active","ping":81},{"user_id":207,"name":"ProblematicAgent","steam_id":76561199144778550,"connected_time":1086000000000,"state":"active","ping":46},{"user_id":222,"name":"Marl Karx","steam_id":76561198396797516,"connected_time":205000000000,"state":"active","ping":47},{"user_id":219,"name":"Kwetch","steam_id":76561199405413425,"connected_time":327000000000,"state":"active","ping":106},{"user_id":213,"name":"Fish_n_Chips","steam_id":76561199039556489,"connected_time":720000000000,"state":"active","ping":95},{"user_id":209,"name":"Meerkat","steam_id":76561199245435539,"connected_time":907000000000,"state":"active","ping":196}]},{"server_id":40,"name":"Uncletopia | London | 7 | Stopwatch","name_short":"lon-7","host":"lon-1.uk.uncletopia.com","port":27075,"enabled":true,"region":"eu","cc":"gb","latitude":51.509865,"longitude":-0.118092,"reserved":0,"last_update":"0001-01-01T00:00:00Z","name_a2s":"Uncletopia | London | 7 | Stopwatch","protocol":17,"map":"workshop/koth_jamram_rc1a.ugc2964065613","folder":"tf","game":"Team Fortress","app_id":440,"player_count":1,"max_players":24,"Bots":0,"server_type":"Dedicated","server_os":"Linux","password":true,"vac":true,"version":"7961495","steam_id":85568392924964314,"keywords":["cp","nocrits","nodmgspread","uncletopia"],"game_id":440,"stv_port":27076,"stv_name":"Uncletopia | London | 7 | Stopwatch | STV","players":[{"user_id":10,"name":"Tx_madmash","steam_id":76561198924656512,"connected_time":489000000000,"state":"active","ping":68}]},{"server_id":41,"name":"Uncletopia | London | 8 | Community","name_short":"lon-8","host":"lon-1.uk.uncletopia.com","port":27085,"enabled":true,"region":"eu","cc":"gb","latitude":51.509865,"longitude":-0.118092,"reserved":0,"last_update":"0001-01-01T00:00:00Z","name_a2s":"Uncletopia | London | 8 | Community","protocol":17,"map":"workshop/cp_alloy_rc3.ugc592805587","folder":"tf","game":"Team Fortress","app_id":440,"player_count":0,"max_players":24,"Bots":0,"server_type":"Dedicated","server_os":"Linux","password":true,"vac":true,"version":"7961495","steam_id":85568392924964315,"keywords":["cp","nocrits","nodmgspread","uncletopia"],"game_id":440,"stv_port":27086,"stv_name":"Uncletopia | London | 8 | Community | STV","players":null},{"server_id":300,"name":"Uncletopia | Montréal | 1 | One Thousand Uncles","name_short":"mtl-1","host":"mtl-1.ca.uncletopia.com","port":27015,"enabled":true,"region":"us-east","cc":"ca","latitude":45.50889,"longitude":-73.56167,"reserved":0,"last_update":"0001-01-01T00:00:00Z","name_a2s":"Uncletopia | Montréal | 1 | One Thousand Uncles","protocol":17,"map":"pl_chilly","folder":"tf","game":"Team Fortress","app_id":440,"player_count":21,"max_players":32,"Bots":16,"server_type":"Dedicated","server_os":"Linux","password":true,"vac":true,"version":"7961495","steam_id":85568392924500087,"keywords":["alltalk","bots","danepve","increased_maxplayers","norespawntime","payload","uncletopia"],"game_id":440,"stv_port":0,"stv_name":"","players":[{"user_id":47,"name":"Slasher69","steam_id":76561198027679752,"connected_time":1859000000000,"state":"active","ping":87},{"user_id":51,"name":"charleslanzillottoiii","steam_id":76561199484768104,"connected_time":402000000000,"state":"active","ping":45},{"user_id":39,"name":"Monday","steam_id":76561198310811821,"connected_time":5311000000000,"state":"active","ping":101},{"user_id":44,"name":"ECCO","steam_id":76561198002821513,"connected_time":2156000000000,"state":"active","ping":74},{"user_id":46,"name":"D","steam_id":76561198292908619,"connected_time":2101000000000,"state":"active","ping":88}]},{"server_id":301,"name":"Uncletopia | Montréal | 2 | One Thousand Uncles","name_short":"mtl-2","host":"mtl-1.ca.uncletopia.com","port":27025,"enabled":true,"region":"us-east","cc":"ca","latitude":45.50889,"longitude":-73.56167,"reserved":0,"last_update":"0001-01-01T00:00:00Z","name_a2s":"Uncletopia | Montréal | 2 | One Thousand Uncles","protocol":17,"map":"pl_chilly","folder":"tf","game":"Team Fortress","app_id":440,"player_count":0,"max_players":32,"Bots":0,"server_type":"Dedicated","server_os":"Linux","password":true,"vac":true,"version":"7961495","steam_id":85568392924500088,"keywords":["alltalk","danepve","increased_maxplayers","norespawntime","payload","uncletopia"],"game_id":440,"stv_port":0,"stv_name":"","players":null},{"server_id":302,"name":"Uncletopia | Montréal | 3 | One Thousand Uncles","name_short":"mtl-3","host":"mtl-1.ca.uncletopia.com","port":27035,"enabled":true,"region":"us-east","cc":"ca","latitude":45.50889,"longitude":-73.56167,"reserved":0,"last_update":"0001-01-01T00:00:00Z","name_a2s":"Uncletopia | Montréal | 3 | One Thousand Uncles","protocol":17,"map":"pl_goldrush","folder":"tf","game":"Team Fortress","app_id":440,"player_count":21,"max_players":32,"Bots":16,"server_type":"Dedicated","server_os":"Linux","password":true,"vac":true,"version":"7961495","steam_id":85568392924500089,"keywords":["alltalk","bots","danepve","increased_maxplayers","norespawntime","payload","uncletopia"],"game_id":440,"stv_port":0,"stv_name":"","players":[{"user_id":132,"name":"St. Arnold of Soissons","steam_id":76561197974133892,"connected_time":4918000000000,"state":"active","ping":58},{"user_id":143,"name":"Waaagh!","steam_id":76561197995317887,"connected_time":2233000000000,"state":"active","ping":37},{"user_id":150,"name":"VENOM","steam_id":76561198345268938,"connected_time":50000000000,"state":"active","ping":64},{"user_id":127,"name":"Rhutebeer","steam_id":76561198018302761,"connected_time":5700000000000,"state":"active","ping":91},{"user_id":149,"name":"Why not Zoidberg?","steam_id":76561197982207556,"connected_time":1109000000000,"state":"active","ping":75}]},{"server_id":13,"name":"Uncletopia | New York City | 1 | All Maps","name_short":"nyc-1","host":"nyc-1.us.uncletopia.com","port":27015,"enabled":true,"region":"us-east","cc":"us","latitude":40.73061,"longitude":-73.93524,"reserved":0,"last_update":"0001-01-01T00:00:00Z","name_a2s":"Uncletopia | New York City | 1 | All Maps","protocol":17,"map":"koth_brazil","folder":"tf","game":"Team Fortress","app_id":440,"player_count":0,"max_players":24,"Bots":0,"server_type":"Dedicated","server_os":"Linux","password":true,"vac":true,"version":"7961495","steam_id":85568392924469993,"keywords":["cp","nocrits","nodmgspread","uncletopia"],"game_id":440,"stv_port":27016,"stv_name":"Uncletopia | New York City | 1 | All Maps | STV","players":null},{"server_id":14,"name":"Uncletopia | New York City | 2 | All Maps","name_short":"nyc-2","host":"nyc-1.us.uncletopia.com","port":27025,"enabled":true,"region":"us-east","cc":"us","latitude":40.73061,"longitude":-73.93524,"reserved":0,"last_update":"0001-01-01T00:00:00Z","name_a2s":"Uncletopia | New York City | 2 | All Maps","protocol":17,"map":"pl_barnblitz","folder":"tf","game":"Team Fortress","app_id":440,"player_count":24,"max_players":24,"Bots":0,"server_type":"Dedicated","server_os":"Linux","password":true,"vac":true,"version":"7961495","steam_id":85568392924469994,"keywords":["nocrits","nodmgspread","payload","uncletopia"],"game_id":440,"stv_port":27026,"stv_name":"Uncletopia | New York City | 2 | All Maps | STV","players":[{"user_id":59,"name":"MILF Gaming","steam_id":76561198155378170,"connected_time":1250000000000,"state":"active","ping":38},{"user_id":60,"name":"Barack Obama","steam_id":76561198142290648,"connected_time":1230000000000,"state":"active","ping":50},{"user_id":20,"name":"loscemo","steam_id":76561197994884609,"connected_time":2986000000000,"state":"active","ping":69},{"user_id":49,"name":"wack","steam_id":76561198095697330,"connected_time":1828000000000,"state":"active","ping":64},{"user_id":33,"name":"LuckyTaco","steam_id":76561198871931383,"connected_time":2582000000000,"state":"active","ping":45},{"user_id":75,"name":"Tanner Jarring","steam_id":76561198172024365,"connected_time":173000000000,"state":"active","ping":55},{"user_id":66,"name":"Shooter of Walls","steam_id":76561197988105207,"connected_time":762000000000,"state":"active","ping":60},{"user_id":61,"name":"Fredrick","steam_id":76561197981419964,"connected_time":1219000000000,"state":"active","ping":44},{"user_id":36,"name":"costum","steam_id":76561198197086561,"connected_time":2476000000000,"state":"active","ping":44},{"user_id":27,"name":"Female Gamer","steam_id":76561199366482682,"connected_time":2807000000000,"state":"active","ping":112},{"user_id":28,"name":"gulch (cool and liked by everyo","steam_id":76561199227946025,"connected_time":2714000000000,"state":"active","ping":90},{"user_id":32,"name":"bony","steam_id":76561198241893988,"connected_time":2609000000000,"state":"active","ping":49},{"user_id":68,"name":"lizard","steam_id":76561198851312147,"connected_time":408000000000,"state":"active","ping":49},{"user_id":73,"name":"consume tofu","steam_id":76561198882758067,"connected_time":293000000000,"state":"active","ping":83},{"user_id":71,"name":"Shack","steam_id":76561198035503322,"connected_time":310000000000,"state":"active","ping":56},{"user_id":55,"name":"Sprinklingmydoughnut","steam_id":76561198168009092,"connected_time":1423000000000,"state":"active","ping":71},{"user_id":54,"name":"TheBoneyBitt","steam_id":76561199085471091,"connected_time":1439000000000,"state":"active","ping":45},{"user_id":69,"name":"wahooka","steam_id":76561197981211922,"connected_time":366000000000,"state":"active","ping":46},{"user_id":70,"name":"Acro","steam_id":76561198092451804,"connected_time":314000000000,"state":"active","ping":81},{"user_id":64,"name":"dam","steam_id":76561198991633113,"connected_time":1157000000000,"state":"active","ping":132},{"user_id":53,"name":"Herdez Hot Salsa","steam_id":76561197991740906,"connected_time":1474000000000,"state":"active","ping":61},{"user_id":74,"name":"Koi","steam_id":76561198064411172,"connected_time":285000000000,"state":"active","ping":45},{"user_id":47,"name":"IdkProlly","steam_id":76561198269212968,"connected_time":2291000000000,"state":"active","ping":46},{"user_id":58,"name":"on my backup mouse","steam_id":76561198072179483,"connected_time":1318000000000,"state":"active","ping":76}]},{"server_id":15,"name":"Uncletopia | New York City | 3 | Stopwatch","name_short":"nyc-3","host":"nyc-1.us.uncletopia.com","port":27035,"enabled":true,"region":"us-east","cc":"us","latitude":40.73061,"longitude":-73.93524,"reserved":0,"last_update":"0001-01-01T00:00:00Z","name_a2s":"Uncletopia | New York City | 3 | Stopwatch","protocol":17,"map":"workshop/koth_product_final.ugc454272353","folder":"tf","game":"Team Fortress","app_id":440,"player_count":0,"max_players":24,"Bots":0,"server_type":"Dedicated","server_os":"Linux","password":true,"vac":true,"version":"7961495","steam_id":85568392924742820,"keywords":["cp","nocrits","nodmgspread","uncletopia"],"game_id":440,"stv_port":27036,"stv_name":"Uncletopia | New York City | 3 | Stopwatch | STV","players":null},{"server_id":16,"name":"Uncletopia | New York City | 4 | Community","name_short":"nyc-4","host":"nyc-1.us.uncletopia.com","port":27045,"enabled":true,"region":"us-east","cc":"us","latitude":40.73061,"longitude":-73.93524,"reserved":0,"last_update":"0001-01-01T00:00:00Z","name_a2s":"Uncletopia | New York City | 4 | Community","protocol":17,"map":"workshop/koth_slaughter_rc1.ugc1712845210","folder":"tf","game":"Team Fortress","app_id":440,"player_count":0,"max_players":24,"Bots":0,"server_type":"Dedicated","server_os":"Linux","password":true,"vac":true,"version":"7961495","steam_id":85568392924742821,"keywords":["cp","nocrits","nodmgspread","uncletopia"],"game_id":440,"stv_port":27046,"stv_name":"Uncletopia | New York City | 4 | Community | STV","players":null},{"server_id":142,"name":"Uncletopia | São Paulo | 1 | All Maps","name_short":"sao-1","host":"sao-1.br.uncletopia.com","port":27015,"enabled":true,"region":"sa","cc":"br","latitude":-23.533773,"longitude":-46.62529,"reserved":0,"last_update":"0001-01-01T00:00:00Z","name_a2s":"Uncletopia | São Paulo | 1 | All Maps","protocol":17,"map":"cp_granary","folder":"tf","game":"Team Fortress","app_id":440,"player_count":0,"max_players":24,"Bots":0,"server_type":"Dedicated","server_os":"Linux","password":true,"vac":true,"version":"7961495","steam_id":85568392924469996,"keywords":["cp","nocrits","nodmgspread","uncletopia"],"game_id":440,"stv_port":27016,"stv_name":"Uncletopia | São Paulo | 1 | All Maps | STV","players":null},{"server_id":143,"name":"Uncletopia | São Paulo | 2 | Community","name_short":"sao-2","host":"sao-2.br.uncletopia.com","port":27015,"enabled":true,"region":"sa","cc":"br","latitude":-23.533773,"longitude":-46.62529,"reserved":0,"last_update":"0001-01-01T00:00:00Z","name_a2s":"Uncletopia | São Paulo | 2 | Community","protocol":17,"map":"workshop/cp_logjam_rc12.ugc454812035","folder":"tf","game":"Team Fortress","app_id":440,"player_count":0,"max_players":24,"Bots":0,"server_type":"Dedicated","server_os":"Linux","password":true,"vac":true,"version":"7961495","steam_id":85568392924485349,"keywords":["cp","nocrits","nodmgspread","uncletopia"],"game_id":440,"stv_port":27016,"stv_name":"Uncletopia | São Paulo | 2 | Community | STV","players":null},{"server_id":7,"name":"Uncletopia | Seattle | 1 | All Maps","name_short":"sea-1","host":"sea-1.us.uncletopia.com","port":27015,"enabled":true,"region":"us-west","cc":"us","latitude":47.608013,"longitude":-122.33517,"reserved":0,"last_update":"0001-01-01T00:00:00Z","name_a2s":"Uncletopia | Seattle | 1 | All Maps","protocol":17,"map":"pl_frontier_final","folder":"tf","game":"Team Fortress","app_id":440,"player_count":25,"max_players":24,"Bots":0,"server_type":"Dedicated","server_os":"Linux","password":true,"vac":true,"version":"7961495","steam_id":85568392924469997,"keywords":["nocrits","nodmgspread","payload","uncletopia"],"game_id":440,"stv_port":27016,"stv_name":"Uncletopia | Seattle | 1 | All Maps | STV","players":[{"user_id":137,"name":"a","steam_id":76561198074209737,"connected_time":3437000000000,"state":"active","ping":90},{"user_id":180,"name":"FunnyGoomba","steam_id":76561198279865229,"connected_time":1003000000000,"state":"active","ping":80},{"user_id":157,"name":"Wheaty","steam_id":76561198003553412,"connected_time":2376000000000,"state":"active","ping":51},{"user_id":163,"name":"0","steam_id":76561198450073779,"connected_time":1786000000000,"state":"active","ping":48},{"user_id":179,"name":"The Grim Heaper","steam_id":76561197987759101,"connected_time":1036000000000,"state":"active","ping":47},{"user_id":164,"name":"Scrux","steam_id":76561198129763115,"connected_time":1762000000000,"state":"active","ping":74},{"user_id":184,"name":"BlazedBunny","steam_id":76561198243610560,"connected_time":672000000000,"state":"active","ping":65},{"user_id":170,"name":"Eden","steam_id":76561198081284664,"connected_time":1627000000000,"state":"active","ping":87},{"user_id":147,"name":"Bungus Addict","steam_id":76561198069721018,"connected_time":3054000000000,"state":"active","ping":77},{"user_id":178,"name":"Dr. Karl, the AUS Science Guy","steam_id":76561198031278747,"connected_time":1185000000000,"state":"active","ping":45},{"user_id":176,"name":"Severeburrito16","steam_id":76561198353155991,"connected_time":1287000000000,"state":"active","ping":103},{"user_id":166,"name":"Captain Underbelly","steam_id":76561198811270935,"connected_time":1691000000000,"state":"active","ping":57},{"user_id":189,"name":"Vincent Van Bro","steam_id":76561197966919802,"connected_time":151000000000,"state":"active","ping":45},{"user_id":127,"name":"tmm (theManMan)","steam_id":76561199488457138,"connected_time":4111000000000,"state":"active","ping":60},{"user_id":141,"name":"YOU WHAT?!","steam_id":76561198418679471,"connected_time":3259000000000,"state":"active","ping":116},{"user_id":153,"name":"SibilantSerpent","steam_id":76561198154488754,"connected_time":2560000000000,"state":"active","ping":45},{"user_id":188,"name":"doodoo bing","steam_id":76561198099980149,"connected_time":188000000000,"state":"active","ping":91},{"user_id":191,"name":"trackpad gaming | f2p","steam_id":76561198840414371,"connected_time":69000000000,"state":"active","ping":51},{"user_id":190,"name":"wrongthink","steam_id":76561198830293087,"connected_time":87000000000,"state":"active","ping":89},{"user_id":193,"name":"SOMETHING FUNNY","steam_id":76561198116023052,"connected_time":11000000000,"state":"spawning","ping":67},{"user_id":171,"name":"Siix","steam_id":76561198144668063,"connected_time":1601000000000,"state":"active","ping":78},{"user_id":35,"name":"echelon","steam_id":76561198139172979,"connected_time":10644000000000,"state":"active","ping":63},{"user_id":173,"name":"Furry Femboy Hooters (CEO)","steam_id":76561198097745857,"connected_time":1508000000000,"state":"active","ping":52},{"user_id":185,"name":"recovery addict","steam_id":76561198088954220,"connected_time":291000000000,"state":"active","ping":72},{"user_id":187,"name":"Keamy","steam_id":76561199471434875,"connected_time":228000000000,"state":"active","ping":44}]},{"server_id":119,"name":"Uncletopia | Seattle | 2 | All Maps","name_short":"sea-2","host":"sea-1.us.uncletopia.com","port":27025,"enabled":true,"region":"us-west","cc":"us","latitude":47.608013,"longitude":-122.33517,"reserved":0,"last_update":"0001-01-01T00:00:00Z","name_a2s":"Uncletopia | Seattle | 2 | All Maps","protocol":17,"map":"koth_lakeside_final","folder":"tf","game":"Team Fortress","app_id":440,"player_count":0,"max_players":24,"Bots":0,"server_type":"Dedicated","server_os":"Linux","password":true,"vac":true,"version":"7961495","steam_id":85568392924469998,"keywords":["cp","nocrits","nodmgspread","uncletopia"],"game_id":440,"stv_port":27026,"stv_name":"Uncletopia | Seattle | 2 | All Maps | STV","players":null},{"server_id":406,"name":"Uncletopia | Seattle | 3 | Stopwatch","name_short":"sea-3","host":"sea-1.us.uncletopia.com","port":27035,"enabled":true,"region":"us-west","cc":"us","latitude":47.608013,"longitude":-122.33517,"reserved":0,"last_update":"0001-01-01T00:00:00Z","name_a2s":"Uncletopia | Seattle | 3 | Stopwatch","protocol":17,"map":"cp_gullywash_final1","folder":"tf","game":"Team Fortress","app_id":440,"player_count":0,"max_players":24,"Bots":0,"server_type":"Dedicated","server_os":"Linux","password":true,"vac":true,"version":"7961495","steam_id":85568392924515217,"keywords":["cp","nocrits","nodmgspread","uncletopia"],"game_id":440,"stv_port":27036,"stv_name":"Uncletopia | Seattle | 3 | Stopwatch | STV","players":null},{"server_id":17,"name":"Uncletopia | San Francisco | 1 | All Maps","name_short":"sfo-1","host":"sfo-1.us.uncletopia.com","port":27015,"enabled":true,"region":"us-west","cc":"us","latitude":37.77397,"longitude":-122.4313,"reserved":0,"last_update":"0001-01-01T00:00:00Z","name_a2s":"Uncletopia | San Francisco | 1 | All Maps","protocol":17,"map":"koth_highpass","folder":"tf","game":"Team Fortress","app_id":440,"player_count":0,"max_players":24,"Bots":0,"server_type":"Dedicated","server_os":"Linux","password":true,"vac":true,"version":"7961495","steam_id":85568392924469999,"keywords":["cp","nocrits","nodmgspread","uncletopia"],"game_id":440,"stv_port":27016,"stv_name":"Uncletopia | San Francisco | 1 | All Maps | STV","players":null},{"server_id":18,"name":"Uncletopia | San Francisco | 2 | All Maps","name_short":"sfo-2","host":"sfo-1.us.uncletopia.com","port":27025,"enabled":true,"region":"us-west","cc":"us","latitude":37.77397,"longitude":-122.4313,"reserved":0,"last_update":"0001-01-01T00:00:00Z","name_a2s":"Uncletopia | San Francisco | 2 | All Maps","protocol":17,"map":"cp_freight_final1","folder":"tf","game":"Team Fortress","app_id":440,"player_count":0,"max_players":24,"Bots":0,"server_type":"Dedicated","server_os":"Linux","password":true,"vac":true,"version":"7961495","steam_id":85568392924470000,"keywords":["cp","nocrits","nodmgspread","uncletopia"],"game_id":440,"stv_port":27026,"stv_name":"Uncletopia | San Francisco | 2 | All Maps | STV","players":null},{"server_id":19,"name":"Uncletopia | San Francisco | 3 | Stopwatch","name_short":"sfo-3","host":"sfo-1.us.uncletopia.com","port":27035,"enabled":true,"region":"us-west","cc":"us","latitude":37.77397,"longitude":-122.4313,"reserved":0,"last_update":"0001-01-01T00:00:00Z","name_a2s":"Uncletopia | San Francisco | 3 | Stopwatch","protocol":17,"map":"workshop/koth_product_final.ugc454272353","folder":"tf","game":"Team Fortress","app_id":440,"player_count":0,"max_players":24,"Bots":0,"server_type":"Dedicated","server_os":"Linux","password":true,"vac":true,"version":"7961495","steam_id":85568392924742824,"keywords":["cp","nocrits","nodmgspread","uncletopia"],"game_id":440,"stv_port":27036,"stv_name":"Uncletopia | San Francisco | 3 | Stopwatch | STV","players":null},{"server_id":20,"name":"Uncletopia | San Francisco | 4 | Community","name_short":"sfo-4","host":"sfo-1.us.uncletopia.com","port":27045,"enabled":true,"region":"us-west","cc":"us","latitude":37.77397,"longitude":-122.4313,"reserved":0,"last_update":"0001-01-01T00:00:00Z","name_a2s":"Uncletopia | San Francisco | 4 | Community","protocol":17,"map":"workshop/pl_cactuscanyon_redux_final2.ugc2579644293","folder":"tf","game":"Team Fortress","app_id":440,"player_count":0,"max_players":24,"Bots":0,"server_type":"Dedicated","server_os":"Linux","password":true,"vac":true,"version":"7961495","steam_id":85568392924742826,"keywords":["nocrits","nodmgspread","payload","uncletopia"],"game_id":440,"stv_port":27046,"stv_name":"Uncletopia | San Francisco | 4 | Community | STV","players":null},{"server_id":141,"name":"Uncletopia | Sydney | 1 | All Maps","name_short":"syd-1","host":"syd-1.au.uncletopia.com","port":27015,"enabled":true,"region":"au","cc":"au","latitude":-33.865143,"longitude":151.2099,"reserved":0,"last_update":"0001-01-01T00:00:00Z","name_a2s":"Uncletopia | Sydney | 1 | All Maps","protocol":17,"map":"koth_nucleus","folder":"tf","game":"Team Fortress","app_id":440,"player_count":0,"max_players":24,"Bots":0,"server_type":"Dedicated","server_os":"Linux","password":true,"vac":true,"version":"7961495","steam_id":85568392924470001,"keywords":["cp","nocrits","nodmgspread","uncletopia"],"game_id":440,"stv_port":27016,"stv_name":"Uncletopia | Sydney | 1 | All Maps | STV","players":null},{"server_id":123,"name":"Uncletopia | Sydney | 2 | All Maps","name_short":"syd-2","host":"syd-1.au.uncletopia.com","port":27025,"enabled":true,"region":"au","cc":"au","latitude":-33.865143,"longitude":151.2099,"reserved":0,"last_update":"0001-01-01T00:00:00Z","name_a2s":"Uncletopia | Sydney | 2 | All Maps","protocol":17,"map":"cp_fastlane","folder":"tf","game":"Team Fortress","app_id":440,"player_count":0,"max_players":24,"Bots":0,"server_type":"Dedicated","server_os":"Linux","password":true,"vac":true,"version":"7961495","steam_id":85568392924470002,"keywords":["cp","nocrits","nodmgspread","uncletopia"],"game_id":440,"stv_port":27026,"stv_name":"Uncletopia | Sydney | 2 | All Maps | STV","players":null},{"server_id":395,"name":"Uncletopia | Sydney | 3 | All Maps","name_short":"syd-3","host":"syd-1.au.uncletopia.com","port":27035,"enabled":true,"region":"au","cc":"au","latitude":-33.865143,"longitude":151.2099,"reserved":0,"last_update":"0001-01-01T00:00:00Z","name_a2s":"Uncletopia | Sydney | 3 | All Maps","protocol":17,"map":"cp_metalworks","folder":"tf","game":"Team Fortress","app_id":440,"player_count":0,"max_players":24,"Bots":0,"server_type":"Dedicated","server_os":"Linux","password":true,"vac":true,"version":"7961495","steam_id":85568392925194467,"keywords":["cp","nocrits","nodmgspread","uncletopia"],"game_id":440,"stv_port":27036,"stv_name":"Uncletopia | Sydney | 3 | All Maps | STV","players":null},{"server_id":396,"name":"Uncletopia | Sydney | 4 | All Maps","name_short":"syd-4","host":"syd-1.au.uncletopia.com","port":27045,"enabled":true,"region":"au","cc":"au","latitude":-33.865143,"longitude":151.2099,"reserved":0,"last_update":"0001-01-01T00:00:00Z","name_a2s":"Uncletopia | Sydney | 4 | All Maps","protocol":17,"map":"koth_cascade","folder":"tf","game":"Team Fortress","app_id":440,"player_count":0,"max_players":24,"Bots":0,"server_type":"Dedicated","server_os":"Linux","password":true,"vac":true,"version":"7961495","steam_id":85568392925397958,"keywords":["cp","nocrits","nodmgspread","uncletopia"],"game_id":440,"stv_port":27046,"stv_name":"Uncletopia | Sydney | 4 | All Maps | STV","players":null},{"server_id":58,"name":"Uncletopia | Sydney | 5 | Stopwatch","name_short":"syd-5","host":"syd-1.au.uncletopia.com","port":27055,"enabled":true,"region":"au","cc":"au","latitude":-33.865143,"longitude":151.2099,"reserved":0,"last_update":"0001-01-01T00:00:00Z","name_a2s":"Uncletopia | Sydney | 5 | Stopwatch","protocol":17,"map":"workshop/koth_product_final.ugc454272353","folder":"tf","game":"Team Fortress","app_id":440,"player_count":0,"max_players":24,"Bots":0,"server_type":"Dedicated","server_os":"Linux","password":true,"vac":true,"version":"7961495","steam_id":85568392925397959,"keywords":["cp","nocrits","nodmgspread","uncletopia"],"game_id":440,"stv_port":27056,"stv_name":"Uncletopia | Sydney | 5 | Stopwatch | STV","players":null},{"server_id":59,"name":"Uncletopia | Sydney | 6 | Community","name_short":"syd-6","host":"syd-1.au.uncletopia.com","port":27065,"enabled":true,"region":"au","cc":"au","latitude":-33.865143,"longitude":151.2099,"reserved":0,"last_update":"0001-01-01T00:00:00Z","name_a2s":"Uncletopia | Sydney | 6 | Community","protocol":17,"map":"workshop/koth_trenchfoot_ab1.ugc731436616","folder":"tf","game":"Team Fortress","app_id":440,"player_count":0,"max_players":24,"Bots":0,"server_type":"Dedicated","server_os":"Linux","password":true,"vac":true,"version":"7961495","steam_id":85568392925397960,"keywords":["cp","nocrits","nodmgspread","uncletopia"],"game_id":440,"stv_port":27066,"stv_name":"Uncletopia | Sydney | 6 | Community | STV","players":null},{"server_id":49,"name":"Uncletopia | Warsaw | 1 | One Thousand Uncles","name_short":"waw-1","host":"waw-1.pl.uncletopia.com","port":27015,"enabled":true,"region":"eu","cc":"pl","latitude":52.2297,"longitude":21.017532,"reserved":0,"last_update":"0001-01-01T00:00:00Z","name_a2s":"Uncletopia | Warsaw | 1 | One Thousand Uncles","protocol":17,"map":"cp_dustbowl","folder":"tf","game":"Team Fortress","app_id":440,"player_count":24,"max_players":32,"Bots":16,"server_type":"Dedicated","server_os":"Linux","password":true,"vac":true,"version":"7961495","steam_id":85568392925397850,"keywords":["alltalk","bots","cp","danepve","increased_maxplayers","norespawntime","uncletopia"],"game_id":440,"stv_port":0,"stv_name":"","players":[{"user_id":731,"name":"Mati [EST]","steam_id":76561197994743813,"connected_time":101000000000,"state":"active","ping":104},{"user_id":730,"name":"Aar0n","steam_id":76561198203165979,"connected_time":174000000000,"state":"active","ping":78},{"user_id":709,"name":"the baddest boy in btd5","steam_id":76561199487914508,"connected_time":2883000000000,"state":"active","ping":38},{"user_id":718,"name":"robo_xeque","steam_id":76561199467536524,"connected_time":1650000000000,"state":"active","ping":232},{"user_id":688,"name":"Darkgege22","steam_id":76561198176636583,"connected_time":3460000000000,"state":"active","ping":80},{"user_id":666,"name":"serbanstein","steam_id":76561199112672194,"connected_time":5958000000000,"state":"active","ping":113},{"user_id":726,"name":"ff.bhimasena","steam_id":76561199405820630,"connected_time":575000000000,"state":"active","ping":93},{"user_id":672,"name":"Tispy","steam_id":76561199207410049,"connected_time":5036000000000,"state":"active","ping":136}]},{"server_id":50,"name":"Uncletopia | Warsaw | 2 | One Thousand Uncles","name_short":"waw-2","host":"waw-1.pl.uncletopia.com","port":27025,"enabled":true,"region":"eu","cc":"pl","latitude":52.2297,"longitude":21.017532,"reserved":0,"last_update":"0001-01-01T00:00:00Z","name_a2s":"Uncletopia | Warsaw | 2 | One Thousand Uncles","protocol":17,"map":"pl_upward","folder":"tf","game":"Team Fortress","app_id":440,"player_count":25,"max_players":32,"Bots":16,"server_type":"Dedicated","server_os":"Linux","password":true,"vac":true,"version":"7961495","steam_id":85568392925397851,"keywords":["alltalk","bots","danepve","increased_maxplayers","norespawntime","payload","uncletopia"],"game_id":440,"stv_port":0,"stv_name":"","players":[{"user_id":436,"name":"DaGeoKat","steam_id":76561198448542023,"connected_time":123000000000,"state":"active","ping":76},{"user_id":437,"name":"Narvhalø","steam_id":76561198147495474,"connected_time":54000000000,"state":"active","ping":60},{"user_id":370,"name":"Red wine gaming","steam_id":76561198134378108,"connected_time":6479000000000,"state":"active","ping":87},{"user_id":431,"name":"big black oiled monkey hairy me","steam_id":76561199084680369,"connected_time":362000000000,"state":"active","ping":33},{"user_id":411,"name":"aaaaaa","steam_id":76561198086304421,"connected_time":1713000000000,"state":"active","ping":81},{"user_id":435,"name":"Dave","steam_id":76561197991425486,"connected_time":328000000000,"state":"active","ping":87},{"user_id":405,"name":"SansaKissa326","steam_id":76561199189803939,"connected_time":2546000000000,"state":"active","ping":92},{"user_id":386,"name":"me","steam_id":76561198055512527,"connected_time":5082000000000,"state":"active","ping":75},{"user_id":408,"name":"CurlyPaty - [YouTube]","steam_id":76561198125025171,"connected_time":2171000000000,"state":"active","ping":30}]},{"server_id":51,"name":"Uncletopia | Warsaw | 3 | All Maps","name_short":"waw-3","host":"waw-1.pl.uncletopia.com","port":27035,"enabled":true,"region":"eu","cc":"pl","latitude":52.2297,"longitude":21.017532,"reserved":0,"last_update":"0001-01-01T00:00:00Z","name_a2s":"Uncletopia | Warsaw | 3 | All Maps","protocol":17,"map":"cp_mountainlab","folder":"tf","game":"Team Fortress","app_id":440,"player_count":0,"max_players":24,"Bots":0,"server_type":"Dedicated","server_os":"Linux","password":true,"vac":true,"version":"7961495","steam_id":85568392925397852,"keywords":["cp","nocrits","nodmgspread","uncletopia"],"game_id":440,"stv_port":27036,"stv_name":"Uncletopia | Warsaw | 3 | All Maps | STV","players":null},{"server_id":52,"name":"Uncletopia | Warsaw | 4 | All Maps","name_short":"waw-4","host":"waw-1.pl.uncletopia.com","port":27045,"enabled":true,"region":"eu","cc":"pl","latitude":52.2297,"longitude":21.017532,"reserved":0,"last_update":"0001-01-01T00:00:00Z","name_a2s":"Uncletopia | Warsaw | 4 | All Maps","protocol":17,"map":"koth_lakeside_final","folder":"tf","game":"Team Fortress","app_id":440,"player_count":0,"max_players":24,"Bots":0,"server_type":"Dedicated","server_os":"Linux","password":true,"vac":true,"version":"7961495","steam_id":85568392925397853,"keywords":["cp","nocrits","nodmgspread","uncletopia"],"game_id":440,"stv_port":27046,"stv_name":"Uncletopia | Warsaw | 4 | All Maps | STV","players":null},{"server_id":53,"name":"Uncletopia | Warsaw | 5 | Stopwatch","name_short":"waw-5","host":"waw-1.pl.uncletopia.com","port":27055,"enabled":true,"region":"eu","cc":"pl","latitude":52.2297,"longitude":21.017532,"reserved":0,"last_update":"0001-01-01T00:00:00Z","name_a2s":"Uncletopia | Warsaw | 5 | Stopwatch","protocol":17,"map":"pl_swiftwater_final1","folder":"tf","game":"Team Fortress","app_id":440,"player_count":0,"max_players":24,"Bots":0,"server_type":"Dedicated","server_os":"Linux","password":true,"vac":true,"version":"7961495","steam_id":85568392925397854,"keywords":["nocrits","nodmgspread","payload","uncletopia"],"game_id":440,"stv_port":27056,"stv_name":"Uncletopia | Warsaw | 5 | Stopwatch | STV","players":null},{"server_id":54,"name":"Uncletopia | Warsaw | 6 | Community","name_short":"waw-6","host":"waw-1.pl.uncletopia.com","port":27065,"enabled":true,"region":"eu","cc":"pl","latitude":52.2297,"longitude":21.017532,"reserved":0,"last_update":"0001-01-01T00:00:00Z","name_a2s":"Uncletopia | Warsaw | 6 | Community","protocol":17,"map":"workshop/koth_trenchfoot_ab1.ugc731436616","folder":"tf","game":"Team Fortress","app_id":440,"player_count":0,"max_players":24,"Bots":0,"server_type":"Dedicated","server_os":"Linux","password":true,"vac":true,"version":"7961495","steam_id":85568392925397856,"keywords":["cp","nocrits","nodmgspread","uncletopia"],"game_id":440,"stv_port":27066,"stv_name":"Uncletopia | Warsaw | 6 | Community | STV","players":null}]}