{"status":true,"message":"","result":[{"server_id":9,"name":"Uncletopia | Atlanta | 1 | All Maps","name_short":"atl-1","host":"atl-1.us.uncletopia.com","port":27015,"enabled":true,"region":"us-east","cc":"us","latitude":33.753746,"longitude":-84.38633,"reserved":0,"last_update":"0001-01-01T00:00:00Z","name_a2s":"Uncletopia | Atlanta | 1 | All Maps","protocol":17,"map":"pl_pier","folder":"tf","game":"Team Fortress","app_id":440,"player_count":24,"max_players":24,"Bots":0,"server_type":"Dedicated","server_os":"Linux","password":true,"vac":true,"version":"7882260","steam_id":85568392924469982,"keywords":["nocrits","nodmgspread","payload","uncletopia"],"game_id":440,"stv_port":27016,"stv_name":"Uncletopia | Atlanta | 1 | All Maps | STV","players":[{"user_id":511,"name":"sansa musa","steam_id":76561198163723555,"connected_time":4165000000000,"state":"active","ping":67},{"user_id":394,"name":"emily","steam_id":76561198148132163,"connected_time":7878000000000,"state":"active","ping":83},{"user_id":400,"name":"eish","steam_id":76561198089463603,"connected_time":7620000000000,"state":"active","ping":120},{"user_id":529,"name":"DragonFalcon‚Ñ¢","steam_id":76561198044559930,"connected_time":1894000000000,"state":"active","ping":61},{"user_id":517,"name":"lemon","steam_id":76561198086406706,"connected_time":3176000000000,"state":"active","ping":68},{"user_id":276,"name":"FheeseWurger Insouptitty","steam_id":76561198130772096,"connected_time":18698000000000,"state":"active","ping":58},{"user_id":553,"name":"aidenaidenaiden","steam_id":76561198170381402,"connected_time":6000000000,"state":"spawning","ping":59},{"user_id":548,"name":"HARRY","steam_id":76561198842067238,"connected_time":605000000000,"state":"active","ping":64},{"user_id":551,"name":"B flat chord","steam_id":76561199169985978,"connected_time":187000000000,"state":"active","ping":72},{"user_id":538,"name":"SparkStorm","steam_id":76561198095817025,"connected_time":1256000000000,"state":"active","ping":37},{"user_id":545,"name":"kite","steam_id":76561198346516392,"connected_time":912000000000,"state":"active","ping":87},{"user_id":546,"name":"V!CT!M","steam_id":76561198962721502,"connected_time":899000000000,"state":"active","ping":94},{"user_id":326,"name":"ATL1 | on my hunting trip","steam_id":76561198315341646,"connected_time":12441000000000,"state":"active","ping":71},{"user_id":510,"name":"AlmondMilk","steam_id":76561198151229725,"connected_time":4220000000000,"state":"active","ping":80},{"user_id":530,"name":"Magic65","steam_id":76561198873545313,"connected_time":1889000000000,"state":"active","ping":80},{"user_id":527,"name":"HarryjusttHarry","steam_id":76561198982810452,"connected_time":2040000000000,"state":"active","ping":82},{"user_id":552,"name":"Dreszerg","steam_id":76561198838757422,"connected_time":187000000000,"state":"active","ping":86},{"user_id":541,"name":"Jin","steam_id":76561198119873148,"connected_time":1243000000000,"state":"active","ping":81},{"user_id":523,"name":"Le4n!!!","steam_id":76561198045522596,"connected_time":2736000000000,"state":"active","ping":62},{"user_id":513,"name":"AlexLovesYou","steam_id":76561199163263543,"connected_time":4027000000000,"state":"active","ping":78},{"user_id":379,"name":"lil hog","steam_id":76561199230929836,"connected_time":10294000000000,"state":"active","ping":105},{"user_id":536,"name":"hoboways","steam_id":76561198168035195,"connected_time":1665000000000,"state":"active","ping":82},{"user_id":524,"name":"Anonymouse","steam_id":76561198034195736,"connected_time":2736000000000,"state":"active","ping":115},{"user_id":547,"name":"bollweevil","steam_id":76561199030726701,"connected_time":816000000000,"state":"active","ping":99}]},{"server_id":104,"name":"Uncletopia | Atlanta | 2 | All Maps","name_short":"atl-2","host":"atl-1.us.uncletopia.com","port":27025,"enabled":true,"region":"us-east","cc":"us","latitude":33.753746,"longitude":-84.38633,"reserved":0,"last_update":"0001-01-01T00:00:00Z","name_a2s":"Uncletopia | Atlanta | 2 | All Maps","protocol":17,"map":"pl_snowycoast","folder":"tf","game":"Team Fortress","app_id":440,"player_count":24,"max_players":24,"Bots":0,"server_type":"Dedicated","server_os":"Linux","password":true,"vac":true,"version":"7882260","steam_id":85568392924469983,"keywords":["nocrits","nodmgspread","payload","uncletopia"],"game_id":440,"stv_port":27026,"stv_name":"Uncletopia | Atlanta | 2 | All Maps | STV","players":[{"user_id":180,"name":"Transfem Furry \u003c3","steam_id":76561198288036403,"connected_time":1606000000000,"state":"active","ping":119},{"user_id":199,"name":"Gummie","steam_id":76561198807069433,"connected_time":908000000000,"state":"active","ping":86},{"user_id":188,"name":"Shrek I Guess","steam_id":76561198152587680,"connected_time":1505000000000,"state":"active","ping":71},{"user_id":200,"name":"THE MONARCH","steam_id":76561198144158938,"connected_time":740000000000,"state":"active","ping":51},{"user_id":185,"name":"Atlas","steam_id":76561198127975050,"connected_time":1579000000000,"state":"active","ping":63},{"user_id":203,"name":"bean d eafs","steam_id":76561199480473421,"connected_time":502000000000,"state":"active","ping":79},{"user_id":164,"name":"ObsidianP","steam_id":76561198158203527,"connected_time":2477000000000,"state":"active","ping":71},{"user_id":189,"name":"quakefile","steam_id":76561198069741528,"connected_time":1500000000000,"state":"active","ping":97},{"user_id":204,"name":"Eldritch Curio.üëÅ","steam_id":76561198044669027,"connected_time":499000000000,"state":"active","ping":100},{"user_id":166,"name":"RoboWarrior0410a","steam_id":76561199106531261,"connected_time":2324000000000,"state":"active","ping":53},{"user_id":183,"name":"blabman","steam_id":76561198426531445,"connected_time":1598000000000,"state":"active","ping":124},{"user_id":128,"name":"I am Seth","steam_id":76561198068182899,"connected_time":3653000000000,"state":"active","ping":77},{"user_id":171,"name":"hausmahn","steam_id":76561198277469049,"connected_time":2123000000000,"state":"active","ping":116},{"user_id":202,"name":"GOBlINMANGOBLINMAN!!!!!!!","steam_id":76561199073526699,"connected_time":650000000000,"state":"active","ping":102},{"user_id":205,"name":"Jesus used Dead Ringer","steam_id":76561198268991349,"connected_time":47000000000,"state":"active","ping":55},{"user_id":201,"name":"Likely Scripting","steam_id":76561199173343569,"connected_time":722000000000,"state":"active","ping":69},{"user_id":190,"name":"-œÄ- BakaD","steam_id":76561197960559169,"connected_time":1495000000000,"state":"active","ping":57},{"user_id":175,"name":"troll","steam_id":76561198040890252,"connected_time":1951000000000,"state":"active","ping":55},{"user_id":193,"name":"Jesse","steam_id":76561198157305426,"connected_time":1351000000000,"state":"active","ping":45},{"user_id":104,"name":"AlcoholicDad454","steam_id":76561198157414556,"connected_time":5482000000000,"state":"active","ping":78},{"user_id":187,"name":"Asanez3","steam_id":76561198037381436,"connected_time":1570000000000,"state":"active","ping":69},{"user_id":198,"name":"the piss maker (F2P)","steam_id":76561199338113724,"connected_time":969000000000,"state":"active","ping":117},{"user_id":140,"name":"Mecha","steam_id":76561198014927379,"connected_time":3439000000000,"state":"active","ping":85},{"user_id":197,"name":"coolkid","steam_id":76561198072600034,"connected_time":1167000000000,"state":"active","ping":111}]},{"server_id":400,"name":"Uncletopia | Atlanta | 3 | Community","name_short":"atl-3","host":"atl-1.us.uncletopia.com","port":27035,"enabled":true,"region":"us-east","cc":"us","latitude":33.753746,"longitude":-84.38633,"reserved":0,"last_update":"0001-01-01T00:00:00Z","name_a2s":"Uncletopia | Atlanta | 3 | Community","protocol":17,"map":"workshop/pl_emerge_rc2.ugc888027758","folder":"tf","game":"Team Fortress","app_id":440,"player_count":0,"max_players":24,"Bots":0,"server_type":"Dedicated","server_os":"Linux","password":true,"vac":true,"version":"7882260","steam_id":85568392924515187,"keywords":["nocrits","nodmgspread","payload","uncletopia"],"game_id":440,"stv_port":27036,"stv_name":"Uncletopia | Atlanta | 3 | Community | STV","players":null},{"server_id":401,"name":"Uncletopia | Atlanta | 4 | No Payload","name_short":"atl-4","host":"atl-1.us.uncletopia.com","port":27045,"enabled":true,"region":"us-east","cc":"us","latitude":33.753746,"longitude":-84.38633,"reserved":0,"last_update":"0001-01-01T00:00:00Z","name_a2s":"","protocol":0,"map":"","folder":"","game":"","app_id":0,"player_count":0,"max_players":0,"Bots":0,"server_type":"","server_os":"","password":false,"vac":false,"version":"","steam_id":0,"keywords":null,"game_id":0,"stv_port":0,"stv_name":"","players":null},{"server_id":2,"name":"Uncletopia | Chicago | 1 | All Maps","name_short":"chi-1","host":"chi-1.us.uncletopia.com","port":27015,"enabled":true,"region":"us-central","cc":"us","latitude":41.881832,"longitude":-87.62318,"reserved":0,"last_update":"0001-01-01T00:00:00Z","name_a2s":"Uncletopia | Chicago | 1 | All Maps","protocol":17,"map":"cp_dustbowl","folder":"tf","game":"Team Fortress","app_id":440,"player_count":24,"max_players":24,"Bots":0,"server_type":"Dedicated","server_os":"Linux","password":true,"vac":true,"version":"7882260","steam_id":85568392924469984,"keywords":["cp","nocrits","nodmgspread","uncletopia"],"game_id":440,"stv_port":27016,"stv_name":"Uncletopia | Chicago | 1 | All Maps | STV","players":[{"user_id":616,"name":"Undertime Slopper","steam_id":76561198396789061,"connected_time":1510000000000,"state":"active","ping":82},{"user_id":621,"name":"Burny Sanders","steam_id":76561197961879048,"connected_time":1211000000000,"state":"active","ping":69},{"user_id":615,"name":"Ras","steam_id":76561198123546775,"connected_time":1540000000000,"state":"active","ping":59},{"user_id":564,"name":"Rhutebeer","steam_id":76561198018302761,"connected_time":3782000000000,"state":"active","ping":100},{"user_id":637,"name":"DinkleBerg","steam_id":76561198891626233,"connected_time":71000000000,"state":"active","ping":81},{"user_id":555,"name":"Horizon","steam_id":76561198088957930,"connected_time":4173000000000,"state":"active","ping":56},{"user_id":633,"name":"Whale","steam_id":76561198121013951,"connected_time":769000000000,"state":"active","ping":98},{"user_id":634,"name":"coodge","steam_id":76561198139080439,"connected_time":592000000000,"state":"active","ping":73},{"user_id":618,"name":"nekoknight tf2","steam_id":76561198400058665,"connected_time":1257000000000,"state":"active","ping":82},{"user_id":586,"name":"Owen","steam_id":76561198025446908,"connected_time":2823000000000,"state":"active","ping":68},{"user_id":635,"name":"Zoot","steam_id":76561198121944243,"connected_time":537000000000,"state":"active","ping":71},{"user_id":608,"name":"Jihad","steam_id":76561198199803242,"connected_time":1700000000000,"state":"active","ping":82},{"user_id":612,"name":"aiming with drawing tablet","steam_id":76561198397662124,"connected_time":1616000000000,"state":"active","ping":85},{"user_id":628,"name":"JoeJoeysin","steam_id":76561198108383255,"connected_time":869000000000,"state":"active","ping":46},{"user_id":630,"name":"Tick","steam_id":76561198184161214,"connected_time":849000000000,"state":"active","ping":43},{"user_id":636,"name":"edwinbrood","steam_id":76561198044848769,"connected_time":266000000000,"state":"active","ping":61},{"user_id":591,"name":"xen","steam_id":76561198048568188,"connected_time":2788000000000,"state":"active","ping":61},{"user_id":544,"name":"SchmitySchmit","steam_id":76561198127024448,"connected_time":5293000000000,"state":"active","ping":58},{"user_id":596,"name":"Sone","steam_id":76561198069601032,"connected_time":2544000000000,"state":"active","ping":76},{"user_id":562,"name":"MrDudeMan","steam_id":76561198959351282,"connected_time":3865000000000,"state":"active","ping":71},{"user_id":589,"name":"Mr. Klauk","steam_id":76561199085666301,"connected_time":2817000000000,"state":"active","ping":69},{"user_id":598,"name":"Lunacy","steam_id":76561199386273760,"connected_time":2457000000000,"state":"active","ping":106},{"user_id":625,"name":"Astoriae!","steam_id":76561199090168858,"connected_time":1078000000000,"state":"active","ping":68},{"user_id":624,"name":"crouton","steam_id":76561198828709358,"connected_time":1175000000000,"state":"active","ping":68}]},{"server_id":106,"name":"Uncletopia | Chicago | 2 | All Maps","name_short":"chi-2","host":"chi-1.us.uncletopia.com","port":27025,"enabled":true,"region":"us-central","cc":"us","latitude":41.881832,"longitude":-87.62318,"reserved":0,"last_update":"0001-01-01T00:00:00Z","name_a2s":"Uncletopia | Chicago | 2 | All Maps","protocol":17,"map":"pl_borneo","folder":"tf","game":"Team Fortress","app_id":440,"player_count":24,"max_players":24,"Bots":0,"server_type":"Dedicated","server_os":"Linux","password":true,"vac":true,"version":"7882260","steam_id":85568392924469985,"keywords":["nocrits","nodmgspread","payload","uncletopia"],"game_id":440,"stv_port":27026,"stv_name":"Uncletopia | Chicago | 2 | All Maps | STV","players":[{"user_id":351,"name":"Corpse01","steam_id":76561198153671643,"connected_time":2241000000000,"state":"active","ping":68},{"user_id":371,"name":"cumscumscumscumscumscumscumscum","steam_id":76561198057861378,"connected_time":805000000000,"state":"active","ping":72},{"user_id":370,"name":"It's Over!","steam_id":76561198104086771,"connected_time":1004000000000,"state":"active","ping":102},{"user_id":308,"name":"basil smoking weed","steam_id":76561198119590214,"connected_time":5610000000000,"state":"active","ping":65},{"user_id":378,"name":"Waaagh!","steam_id":76561197995317887,"connected_time":578000000000,"state":"active","ping":64},{"user_id":367,"name":"E^2","steam_id":76561198815644949,"connected_time":1341000000000,"state":"active","ping":57},{"user_id":372,"name":"fyg","steam_id":76561198027610614,"connected_time":759000000000,"state":"active","ping":58},{"user_id":309,"name":"Big Dick Swinging","steam_id":76561198053819929,"connected_time":5437000000000,"state":"active","ping":77},{"user_id":361,"name":"Lifial","steam_id":76561198271885819,"connected_time":1716000000000,"state":"active","ping":73},{"user_id":379,"name":"caption cool","steam_id":76561197990612056,"connected_time":469000000000,"state":"active","ping":46},{"user_id":375,"name":"jpuzza","steam_id":76561198035535731,"connected_time":641000000000,"state":"active","ping":78},{"user_id":374,"name":"cornealvase9152","steam_id":76561198851958868,"connected_time":676000000000,"state":"active","ping":95},{"user_id":373,"name":"Deathpill","steam_id":76561197994404793,"connected_time":756000000000,"state":"active","ping":76},{"user_id":384,"name":"rontu","steam_id":76561199072955534,"connected_time":91000000000,"state":"active","ping":51},{"user_id":383,"name":"Aedaxe","steam_id":76561198036555143,"connected_time":416000000000,"state":"active","ping":74},{"user_id":376,"name":"the real babytron","steam_id":76561197989627918,"connected_time":623000000000,"state":"active","ping":86},{"user_id":297,"name":"Sysadmin Stress Release","steam_id":76561197997326384,"connected_time":6672000000000,"state":"active","ping":81},{"user_id":360,"name":"angry auby","steam_id":76561198088024854,"connected_time":1990000000000,"state":"active","ping":84},{"user_id":381,"name":"Direwolf","steam_id":76561198344501130,"connected_time":457000000000,"state":"active","ping":80},{"user_id":326,"name":"Jill the Owl","steam_id":76561197999210583,"connected_time":4370000000000,"state":"active","ping":74},{"user_id":313,"name":"TF2 Drip Designer","steam_id":76561198069735882,"connected_time":4612000000000,"state":"active","ping":75},{"user_id":368,"name":"Ludography","steam_id":76561198046354069,"connected_time":1229000000000,"state":"active","ping":78},{"user_id":377,"name":"SIN K4RMA ringme","steam_id":76561198869287223,"connected_time":621000000000,"state":"active","ping":86},{"user_id":354,"name":"flop","steam_id":76561199230528008,"connected_time":2223000000000,"state":"active","ping":125}]},{"server_id":402,"name":"Uncletopia | Chicago | 3 | All Maps","name_short":"chi-3","host":"chi-1.us.uncletopia.com","port":27035,"enabled":true,"region":"us-central","cc":"us","latitude":41.881832,"longitude":-87.62318,"reserved":0,"last_update":"0001-01-01T00:00:00Z","name_a2s":"Uncletopia | Chicago | 3 | All Maps","protocol":17,"map":"pl_barnblitz","folder":"tf","game":"Team Fortress","app_id":440,"player_count":24,"max_players":24,"Bots":0,"server_type":"Dedicated","server_os":"Linux","password":true,"vac":true,"version":"7882260","steam_id":85568392924515191,"keywords":["nocrits","nodmgspread","payload","uncletopia"],"game_id":440,"stv_port":27036,"stv_name":"Uncletopia | Chicago | 3 | All Maps | STV","players":[{"user_id":504,"name":"Got Poop in my Soup","steam_id":76561198059678425,"connected_time":269000000000,"state":"active","ping":83},{"user_id":486,"name":"PCR","steam_id":76561198048748102,"connected_time":1962000000000,"state":"active","ping":48},{"user_id":510,"name":"FrostStorm","steam_id":76561198142685151,"connected_time":216000000000,"state":"active","ping":63},{"user_id":508,"name":"BIG HOG","steam_id":76561198079923652,"connected_time":246000000000,"state":"active","ping":75},{"user_id":426,"name":"uhooter","steam_id":76561198007829078,"connected_time":5760000000000,"state":"active","ping":48},{"user_id":495,"name":"jolo","steam_id":76561198042831480,"connected_time":874000000000,"state":"active","ping":70},{"user_id":459,"name":"aphexjh","steam_id":76561197985854658,"connected_time":4246000000000,"state":"active","ping":57},{"user_id":369,"name":"WeegeePJ","steam_id":76561199383362382,"connected_time":10461000000000,"state":"active","ping":87},{"user_id":500,"name":"va l v's melee hit registration","steam_id":76561199039152146,"connected_time":345000000000,"state":"active","ping":68},{"user_id":460,"name":"Rylan","steam_id":76561198318862129,"connected_time":4209000000000,"state":"active","ping":57},{"user_id":402,"name":"Homosexual Warmachine","steam_id":76561198040425096,"connected_time":7477000000000,"state":"active","ping":65},{"user_id":483,"name":"shalankawanak","steam_id":76561198987719376,"connected_time":2004000000000,"state":"active","ping":61},{"user_id":489,"name":"CHEEKY EUNUCH","steam_id":76561198990825232,"connected_time":1310000000000,"state":"active","ping":57},{"user_id":487,"name":"DerpFace89","steam_id":76561199087944011,"connected_time":1780000000000,"state":"active","ping":58},{"user_id":501,"name":"jaketl","steam_id":76561198124871820,"connected_time":340000000000,"state":"active","ping":117},{"user_id":482,"name":"Cpt.Rex","steam_id":76561199104175331,"connected_time":2016000000000,"state":"active","ping":78},{"user_id":513,"name":"Cat in Your Backyard","steam_id":76561197979078330,"connected_time":30000000000,"state":"active","ping":66},{"user_id":499,"name":"Bread Zoo","steam_id":76561198013732450,"connected_time":813000000000,"state":"active","ping":54},{"user_id":506,"name":"melvinsaurus56430","steam_id":76561198170276601,"connected_time":252000000000,"state":"active","ping":93},{"user_id":507,"name":"LIL BEAN","steam_id":76561198115403223,"connected_time":249000000000,"state":"active","ping":56},{"user_id":502,"name":"Skeleton Dad","steam_id":76561198021489595,"connected_time":309000000000,"state":"active","ping":84},{"user_id":509,"name":"n1g","steam_id":76561198166982558,"connected_time":236000000000,"state":"active","ping":88},{"user_id":498,"name":"Kazul","steam_id":76561198014925555,"connected_time":843000000000,"state":"active","ping":56}]},{"server_id":403,"name":"Uncletopia | Chicago | 4 | All Maps","name_short":"chi-4","host":"chi-1.us.uncletopia.com","port":27045,"enabled":true,"region":"us-central","cc":"us","latitude":41.881832,"longitude":-87.62318,"reserved":0,"last_update":"0001-01-01T00:00:00Z","name_a2s":"Uncletopia | Chicago | 4 | All Maps","protocol":17,"map":"cp_mountainlab","folder":"tf","game":"Team Fortress","app_id":440,"player_count":24,"max_players":24,"Bots":0,"server_type":"Dedicated","server_os":"Linux","password":true,"vac":true,"version":"7882260","steam_id":85568392924515193,"keywords":["cp","nocrits","nodmgspread","uncletopia"],"game_id":440,"stv_port":27046,"stv_name":"Uncletopia | Chicago | 4 | All Maps | STV","players":[{"user_id":628,"name":"Flowers","steam_id":76561198031669899,"connected_time":1246000000000,"state":"active","ping":83},{"user_id":607,"name":"benjamoney","steam_id":76561199023027047,"connected_time":2704000000000,"state":"active","ping":100},{"user_id":640,"name":"S H I T K I C K E R","steam_id":76561198063381214,"connected_time":103000000000,"state":"active","ping":111},{"user_id":638,"name":"TheSnipersHat","steam_id":76561198057684066,"connected_time":278000000000,"state":"active","ping":69},{"user_id":603,"name":"Wubbie","steam_id":76561198089361674,"connected_time":3496000000000,"state":"active","ping":74},{"user_id":407,"name":"WALL-E","steam_id":76561198154701370,"connected_time":18207000000000,"state":"active","ping":86},{"user_id":642,"name":"bug lover","steam_id":76561199004451589,"connected_time":11000000000,"state":"spawning","ping":59},{"user_id":566,"name":"Pongallow","steam_id":76561198146876078,"connected_time":6076000000000,"state":"active","ping":45},{"user_id":627,"name":"‚ô´Pilk King‚ô´","steam_id":76561198073660779,"connected_time":1312000000000,"state":"active","ping":62},{"user_id":636,"name":"‚ô¶‚ô£Quadric‚ô•‚ô†","steam_id":76561198061003853,"connected_time":439000000000,"state":"active","ping":72},{"user_id":629,"name":"Ceiling Man","steam_id":76561198003959902,"connected_time":1196000000000,"state":"active","ping":60},{"user_id":633,"name":"Bilgecrank","steam_id":76561197967191751,"connected_time":520000000000,"state":"active","ping":88},{"user_id":639,"name":"Smug ¬¨‚Äø¬¨ Smug","steam_id":76561198325526945,"connected_time":167000000000,"state":"active","ping":106},{"user_id":641,"name":"bluliciouscow","steam_id":76561198839866507,"connected_time":85000000000,"state":"active","ping":122},{"user_id":634,"name":"Carthage (TRANSRIGHTS)","steam_id":76561198049001571,"connected_time":508000000000,"state":"active","ping":102},{"user_id":632,"name":"TwoKoi","steam_id":76561198097567149,"connected_time":693000000000,"state":"active","ping":73},{"user_id":625,"name":"an inebriated newt fancier","steam_id":76561197985428155,"connected_time":1473000000000,"state":"active","ping":58},{"user_id":600,"name":"6t26j","steam_id":76561198278282836,"connected_time":3577000000000,"state":"active","ping":58},{"user_id":598,"name":"MAXIMUM OVERDRIVE","steam_id":76561198113992547,"connected_time":3638000000000,"state":"active","ping":92},{"user_id":631,"name":"lconanl","steam_id":76561198071633770,"connected_time":713000000000,"state":"active","ping":156},{"user_id":630,"name":"AJTarcza","steam_id":76561198070800190,"connected_time":915000000000,"state":"active","ping":85},{"user_id":596,"name":"Ry58","steam_id":76561199083841480,"connected_time":4246000000000,"state":"active","ping":94},{"user_id":635,"name":"Erectile Dysfunction Gaming","steam_id":76561198349437251,"connected_time":501000000000,"state":"active","ping":73}]},{"server_id":36,"name":"Uncletopia | Chicago | 5 | All Maps","name_short":"chi-5","host":"chi-2.us.uncletopia.com","port":27015,"enabled":true,"region":"us-central","cc":"us","latitude":41.881832,"longitude":-87.62318,"reserved":0,"last_update":"0001-01-01T00:00:00Z","name_a2s":"Uncletopia | Chicago | 5 | All Maps","protocol":17,"map":"pl_thundermountain","folder":"tf","game":"Team Fortress","app_id":440,"player_count":24,"max_players":24,"Bots":0,"server_type":"Dedicated","server_os":"Linux","password":true,"vac":true,"version":"7882260","steam_id":85568392924866362,"keywords":["nocrits","nodmgspread","payload","uncletopia"],"game_id":440,"stv_port":27016,"stv_name":"Uncletopia | Chicago | 5 | All Maps | STV","players":[{"user_id":317,"name":"Jomo716","steam_id":76561199098476021,"connected_time":398000000000,"state":"active","ping":109},{"user_id":322,"name":"Banana Jim","steam_id":76561198124049947,"connected_time":234000000000,"state":"active","ping":82},{"user_id":289,"name":"comet sooicidy","steam_id":76561198025173479,"connected_time":2039000000000,"state":"active","ping":95},{"user_id":319,"name":"Pandabare","steam_id":76561198446411056,"connected_time":377000000000,"state":"active","ping":86},{"user_id":280,"name":"uberslak","steam_id":76561198064715241,"connected_time":3151000000000,"state":"active","ping":108},{"user_id":264,"name":"StarManMatt","steam_id":76561198125513574,"connected_time":3580000000000,"state":"active","ping":97},{"user_id":320,"name":"Mister36","steam_id":76561198019132100,"connected_time":372000000000,"state":"active","ping":58},{"user_id":312,"name":"the.land.of.avalon","steam_id":76561198245431668,"connected_time":868000000000,"state":"active","ping":59},{"user_id":292,"name":"Cedric","steam_id":76561198072090580,"connected_time":1822000000000,"state":"active","ping":89},{"user_id":293,"name":"J O S H¬≥¬≤","steam_id":76561198122603779,"connected_time":1799000000000,"state":"active","ping":103},{"user_id":304,"name":"Lord Razor","steam_id":76561198373286283,"connected_time":1627000000000,"state":"active","ping":90},{"user_id":303,"name":"trapsis","steam_id":76561198069474149,"connected_time":1663000000000,"state":"active","ping":61},{"user_id":276,"name":"Seinfeld's Chosen","steam_id":76561198067556825,"connected_time":3286000000000,"state":"active","ping":75},{"user_id":302,"name":"eepy kitty","steam_id":76561198106313563,"connected_time":1673000000000,"state":"active","ping":69},{"user_id":296,"name":"Sh/7 Stain","steam_id":76561198408817739,"connected_time":1782000000000,"state":"active","ping":71},{"user_id":305,"name":"Reisen Udongein Inaba","steam_id":76561198051082314,"connected_time":1609000000000,"state":"active","ping":105},{"user_id":270,"name":"dicksnip","steam_id":76561198356515396,"connected_time":3402000000000,"state":"active","ping":79},{"user_id":299,"name":"Synergy","steam_id":76561198098630198,"connected_time":1732000000000,"state":"active","ping":105},{"user_id":300,"name":"[GUT] 13","steam_id":76561197985209820,"connected_time":1728000000000,"state":"active","ping":64},{"user_id":306,"name":"Junko","steam_id":76561198146089003,"connected_time":1602000000000,"state":"active","ping":51},{"user_id":308,"name":"[GUT] RiDiK¬Æ","steam_id":76561197969756446,"connected_time":1586000000000,"state":"active","ping":59},{"user_id":309,"name":"GuyGoom","steam_id":76561198254522178,"connected_time":1533000000000,"state":"active","ping":60},{"user_id":287,"name":"yee haw","steam_id":76561198398638164,"connected_time":2624000000000,"state":"active","ping":64},{"user_id":314,"name":"STONKS (she/they)","steam_id":76561198965475199,"connected_time":697000000000,"state":"active","ping":72}]},{"server_id":37,"name":"Uncletopia | Chicago | 6 | All Maps","name_short":"chi-6","host":"chi-2.us.uncletopia.com","port":27025,"enabled":true,"region":"us-central","cc":"us","latitude":41.881832,"longitude":-87.62318,"reserved":0,"last_update":"0001-01-01T00:00:00Z","name_a2s":"Uncletopia | Chicago | 6 | All Maps","protocol":17,"map":"cp_well","folder":"tf","game":"Team Fortress","app_id":440,"player_count":23,"max_players":24,"Bots":0,"server_type":"Dedicated","server_os":"Linux","password":true,"vac":true,"version":"7882260","steam_id":85568392924866363,"keywords":["cp","nocrits","nodmgspread","uncletopia"],"game_id":440,"stv_port":27026,"stv_name":"Uncletopia | Chicago | 6 | All Maps | STV","players":[{"user_id":148,"name":"Ultra","steam_id":76561198858574016,"connected_time":164000000000,"state":"active","ping":81},{"user_id":143,"name":"MR_KRABS_SOCCER","steam_id":76561199364746412,"connected_time":220000000000,"state":"active","ping":102},{"user_id":97,"name":"PyroManiac","steam_id":76561198005988491,"connected_time":4660000000000,"state":"active","ping":117},{"user_id":141,"name":"Quibbli","steam_id":76561199214866732,"connected_time":418000000000,"state":"active","ping":64},{"user_id":119,"name":"Charlie","steam_id":76561198798127908,"connected_time":2078000000000,"state":"active","ping":67},{"user_id":133,"name":"tesagi","steam_id":76561198026664629,"connected_time":1049000000000,"state":"active","ping":59},{"user_id":136,"name":"MankTKO","steam_id":76561198189421005,"connected_time":1014000000000,"state":"active","ping":52},{"user_id":144,"name":"Kazmirl | Youtuber","steam_id":76561198116008410,"connected_time":219000000000,"state":"active","ping":105},{"user_id":120,"name":"Pim","steam_id":76561198046050375,"connected_time":2072000000000,"state":"active","ping":108},{"user_id":145,"name":"gabaghoulio","steam_id":76561198013650292,"connected_time":215000000000,"state":"active","ping":116},{"user_id":135,"name":"Also Known As Assteeth","steam_id":76561198049837377,"connected_time":1019000000000,"state":"active","ping":48},{"user_id":137,"name":"Maceman007","steam_id":76561199166008171,"connected_time":965000000000,"state":"active","ping":50},{"user_id":104,"name":"ZeroTwoMedicGayming","steam_id":76561199470465243,"connected_time":2749000000000,"state":"active","ping":84},{"user_id":138,"name":"Dustin Cheeks","steam_id":76561198040936008,"connected_time":959000000000,"state":"active","ping":80},{"user_id":132,"name":"Chris P. Bacon","steam_id":76561198000851038,"connected_time":1273000000000,"state":"active","ping":69},{"user_id":127,"name":"tacoodoom","steam_id":76561199123075248,"connected_time":1645000000000,"state":"active","ping":178},{"user_id":130,"name":"rawrski","steam_id":76561197972464020,"connected_time":1401000000000,"state":"active","ping":73},{"user_id":147,"name":"Milky Luggage","steam_id":76561198433728893,"connected_time":197000000000,"state":"active","ping":56},{"user_id":139,"name":"Goomby","steam_id":76561198079416561,"connected_time":918000000000,"state":"active","ping":77},{"user_id":124,"name":"blythe","steam_id":76561198254999149,"connected_time":1993000000000,"state":"active","ping":78},{"user_id":98,"name":"Nuwrox1","steam_id":76561198406951007,"connected_time":4660000000000,"state":"active","ping":65},{"user_id":129,"name":"INFINITE","steam_id":76561197971285557,"connected_time":1421000000000,"state":"active","ping":65},{"user_id":142,"name":"Victor Skull","steam_id":76561198352212864,"connected_time":399000000000,"state":"active","ping":55}]},{"server_id":38,"name":"Uncletopia | Chicago | 7 | Stopwatch Beta","name_short":"chi-7","host":"chi-2.us.uncletopia.com","port":27035,"enabled":true,"region":"us-central","cc":"us","latitude":41.881832,"longitude":-87.62318,"reserved":0,"last_update":"0001-01-01T00:00:00Z","name_a2s":"Uncletopia | Chicago | 7 | Stopwatch Beta","protocol":17,"map":"pl_borneo","folder":"tf","game":"Team Fortress","app_id":440,"player_count":0,"max_players":24,"Bots":0,"server_type":"Dedicated","server_os":"Linux","password":true,"vac":true,"version":"7882260","steam_id":85568392924866364,"keywords":["nocrits","nodmgspread","payload","uncletopia"],"game_id":440,"stv_port":27036,"stv_name":"Uncletopia | Chicago | 7 | Stopwatch Beta | STV","players":null},{"server_id":39,"name":"Uncletopia | Chicago | 8 | Community","name_short":"chi-8","host":"chi-2.us.uncletopia.com","port":27045,"enabled":true,"region":"us-central","cc":"us","latitude":41.881832,"longitude":-87.62318,"reserved":0,"last_update":"0001-01-01T00:00:00Z","name_a2s":"Uncletopia | Chicago | 8 | Community","protocol":17,"map":"workshop/cp_caldera_rc2.ugc2834196889","folder":"tf","game":"Team Fortress","app_id":440,"player_count":0,"max_players":24,"Bots":0,"server_type":"Dedicated","server_os":"Linux","password":true,"vac":true,"version":"7882260","steam_id":85568392924866365,"keywords":["cp","nocrits","nodmgspread","uncletopia"],"game_id":440,"stv_port":27046,"stv_name":"Uncletopia | Chicago | 8 | Community | STV","players":null},{"server_id":8,"name":"Uncletopia | Dallas | 1 | All Maps","name_short":"dal-1","host":"dal-1.us.uncletopia.com","port":27015,"enabled":true,"region":"us-central","cc":"us","latitude":32.779167,"longitude":-96.80889,"reserved":0,"last_update":"0001-01-01T00:00:00Z","name_a2s":"Uncletopia | Dallas | 1 | All Maps","protocol":17,"map":"koth_viaduct","folder":"tf","game":"Team Fortress","app_id":440,"player_count":24,"max_players":24,"Bots":0,"server_type":"Dedicated","server_os":"Linux","password":true,"vac":true,"version":"7882260","steam_id":85568392924469986,"keywords":["cp","nocrits","nodmgspread","uncletopia"],"game_id":440,"stv_port":27016,"stv_name":"Uncletopia | Dallas | 1 | All Maps | STV","players":[{"user_id":397,"name":"agert","steam_id":76561199028751406,"connected_time":799000000000,"state":"active","ping":100},{"user_id":403,"name":"ÊàëÈúÄË¶ÅÂ§©ÈôÖÂè£‰∫§d-_-b","steam_id":76561198159310724,"connected_time":132000000000,"state":"active","ping":79},{"user_id":405,"name":"Meowmers","steam_id":76561197994170810,"connected_time":115000000000,"state":"active","ping":56},{"user_id":398,"name":"Project_Counter","steam_id":76561198152786076,"connected_time":797000000000,"state":"active","ping":52},{"user_id":399,"name":"Communist Zobomafoo","steam_id":76561198068173978,"connected_time":762000000000,"state":"active","ping":55},{"user_id":364,"name":"sokodarou","steam_id":76561198401100177,"connected_time":2749000000000,"state":"active","ping":80},{"user_id":395,"name":"Luxcraz","steam_id":76561198035278349,"connected_time":869000000000,"state":"active","ping":79},{"user_id":408,"name":"Ballista","steam_id":76561197983182562,"connected_time":24000000000,"state":"active","ping":55},{"user_id":402,"name":"GLG.Liz","steam_id":76561198021957956,"connected_time":152000000000,"state":"active","ping":50},{"user_id":393,"name":"Zigadox","steam_id":76561198079813479,"connected_time":984000000000,"state":"active","ping":89},{"user_id":379,"name":"OverPowered64","steam_id":76561198291027287,"connected_time":1239000000000,"state":"active","ping":59},{"user_id":385,"name":"Pinetree w/ apples.","steam_id":76561198105411709,"connected_time":1157000000000,"state":"active","ping":107},{"user_id":407,"name":"Fuzzy Toast","steam_id":76561198028067781,"connected_time":53000000000,"state":"active","ping":77},{"user_id":371,"name":"Karma","steam_id":76561198320530905,"connected_time":2010000000000,"state":"active","ping":52},{"user_id":377,"name":"justwhothehelldoyouthinkiam","steam_id":76561198013064750,"connected_time":1305000000000,"state":"active","ping":194},{"user_id":338,"name":"Lspan","steam_id":76561199002806208,"connected_time":4070000000000,"state":"active","ping":128},{"user_id":394,"name":"carly rae jepsen","steam_id":76561198336144991,"connected_time":942000000000,"state":"active","ping":74},{"user_id":388,"name":"TurkeyBaconEggz","steam_id":76561198881942791,"connected_time":1061000000000,"state":"active","ping":114},{"user_id":406,"name":"Enddramon","steam_id":76561198169461084,"connected_time":111000000000,"state":"active","ping":84},{"user_id":400,"name":"Ping","steam_id":76561199206514106,"connected_time":754000000000,"state":"active","ping":76},{"user_id":281,"name":"Trash Rummager","steam_id":76561198085388962,"connected_time":9985000000000,"state":"active","ping":73},{"user_id":396,"name":"Friendly dispenser scoot","steam_id":76561199130459740,"connected_time":868000000000,"state":"active","ping":77},{"user_id":392,"name":"Noremac_","steam_id":76561198074701001,"connected_time":1031000000000,"state":"active","ping":156},{"user_id":365,"name":"Frank D Azar","steam_id":76561198225910596,"connected_time":2696000000000,"state":"active","ping":58}]},{"server_id":108,"name":"Uncletopia | Dallas | 2 | All Maps","name_short":"dal-2","host":"dal-1.us.uncletopia.com","port":27025,"enabled":true,"region":"us-central","cc":"us","latitude":32.779167,"longitude":-96.80889,"reserved":0,"last_update":"0001-01-01T00:00:00Z","name_a2s":"Uncletopia | Dallas | 2 | All Maps","protocol":17,"map":"pl_upward","folder":"tf","game":"Team Fortress","app_id":440,"player_count":24,"max_players":24,"Bots":0,"server_type":"Dedicated","server_os":"Linux","password":true,"vac":true,"version":"7882260","steam_id":85568392924469988,"keywords":["nocrits","nodmgspread","payload","uncletopia"],"game_id":440,"stv_port":27026,"stv_name":"Uncletopia | Dallas | 2 | All Maps | STV","players":[{"user_id":276,"name":"Totally Not a Queek Main","steam_id":76561198990721106,"connected_time":1396000000000,"state":"active","ping":80},{"user_id":291,"name":"Apricot","steam_id":76561198355699935,"connected_time":968000000000,"state":"active","ping":82},{"user_id":292,"name":"—Å—á–∏–∑—è—≥","steam_id":76561199182960322,"connected_time":966000000000,"state":"active","ping":52},{"user_id":304,"name":"G–µ—è–æ","steam_id":76561198082463658,"connected_time":149000000000,"state":"active","ping":107},{"user_id":293,"name":"KaiserArc","steam_id":76561198201702142,"connected_time":946000000000,"state":"active","ping":88},{"user_id":298,"name":"hforce11","steam_id":76561198087647130,"connected_time":676000000000,"state":"active","ping":60},{"user_id":241,"name":"19037189","steam_id":76561198053960810,"connected_time":3308000000000,"state":"active","ping":58},{"user_id":301,"name":"Help! I'm Underwater!","steam_id":76561198030291655,"connected_time":426000000000,"state":"active","ping":72},{"user_id":281,"name":"Choppah","steam_id":76561198269193530,"connected_time":1266000000000,"state":"active","ping":57},{"user_id":282,"name":"RedMustrd","steam_id":76561199246218857,"connected_time":1211000000000,"state":"active","ping":92},{"user_id":289,"name":"alset333","steam_id":76561198405345260,"connected_time":1027000000000,"state":"active","ping":88},{"user_id":299,"name":"Durazorn","steam_id":76561198096327396,"connected_time":633000000000,"state":"active","ping":100},{"user_id":242,"name":"rapscallion","steam_id":76561198188722751,"connected_time":3289000000000,"state":"active","ping":86},{"user_id":243,"name":"Serene Salamander","steam_id":76561198001094770,"connected_time":3278000000000,"state":"active","ping":90},{"user_id":244,"name":"rat","steam_id":76561198313364985,"connected_time":3262000000000,"state":"active","ping":92},{"user_id":307,"name":"jazzmcjazz23","steam_id":76561199480087227,"connected_time":88000000000,"state":"spawning","ping":192},{"user_id":300,"name":"Dragorf2010","steam_id":76561199238402270,"connected_time":561000000000,"state":"active","ping":73},{"user_id":283,"name":"TG_16","steam_id":76561199109196768,"connected_time":1199000000000,"state":"active","ping":53},{"user_id":215,"name":"deb","steam_id":76561198414336279,"connected_time":5812000000000,"state":"active","ping":59},{"user_id":272,"name":"Glaceon","steam_id":76561198177715869,"connected_time":1607000000000,"state":"active","ping":70},{"user_id":302,"name":"Poop_toast","steam_id":76561199251933053,"connected_time":416000000000,"state":"active","ping":107},{"user_id":288,"name":"Manic","steam_id":76561198128149670,"connected_time":1105000000000,"state":"active","ping":46},{"user_id":308,"name":"Corbe","steam_id":76561198353893927,"connected_time":86000000000,"state":"active","ping":176},{"user_id":296,"name":"Alien Figure","steam_id":76561198057999536,"connected_time":733000000000,"state":"active","ping":95}]},{"server_id":5,"name":"Uncletopia | Frankfurt | 1 | All Maps","name_short":"frk-1","host":"frk-1.de.uncletopia.com","port":27015,"enabled":true,"region":"eu","cc":"de","latitude":50.110924,"longitude":8.682127,"reserved":0,"last_update":"0001-01-01T00:00:00Z","name_a2s":"Uncletopia | Frankfurt | 1 | All Maps","protocol":17,"map":"koth_cascade","folder":"tf","game":"Team Fortress","app_id":440,"player_count":0,"max_players":24,"Bots":0,"server_type":"Dedicated","server_os":"Linux","password":true,"vac":true,"version":"7882260","steam_id":85568392924469989,"keywords":["cp","nocrits","nodmgspread","uncletopia"],"game_id":440,"stv_port":27016,"stv_name":"Uncletopia | Frankfurt | 1 | All Maps | STV","players":null},{"server_id":110,"name":"Uncletopia | Frankfurt | 2 | All Maps","name_short":"frk-2","host":"frk-1.de.uncletopia.com","port":27025,"enabled":true,"region":"eu","cc":"de","latitude":50.110924,"longitude":8.682127,"reserved":0,"last_update":"0001-01-01T00:00:00Z","name_a2s":"Uncletopia | Frankfurt | 2 | All Maps","protocol":17,"map":"pl_borneo","folder":"tf","game":"Team Fortress","app_id":440,"player_count":24,"max_players":24,"Bots":0,"server_type":"Dedicated","server_os":"Linux","password":true,"vac":true,"version":"7882260","steam_id":85568392924469990,"keywords":["nocrits","nodmgspread","payload","uncletopia"],"game_id":440,"stv_port":27026,"stv_name":"Uncletopia | Frankfurt | 2 | All Maps | STV","players":[{"user_id":660,"name":"bachusa1657","steam_id":76561198202175911,"connected_time":234000000000,"state":"active","ping":72},{"user_id":632,"name":"AjsTii","steam_id":76561198070734444,"connected_time":1714000000000,"state":"active","ping":60},{"user_id":623,"name":"Xx_EpicGaymer_xX","steam_id":76561198846784757,"connected_time":2496000000000,"state":"active","ping":67},{"user_id":633,"name":"aimtroll","steam_id":76561198164806677,"connected_time":1671000000000,"state":"active","ping":75},{"user_id":526,"name":"üå≠ 0mger #YNWA","steam_id":76561198053615827,"connected_time":9828000000000,"state":"active","ping":60},{"user_id":593,"name":"‚ô•","steam_id":76561198411841477,"connected_time":4968000000000,"state":"active","ping":75},{"user_id":595,"name":"biggie cheese","steam_id":76561198119633223,"connected_time":4856000000000,"state":"active","ping":95},{"user_id":634,"name":"Azrael","steam_id":76561198169975561,"connected_time":1532000000000,"state":"active","ping":63},{"user_id":635,"name":"Geese Goose","steam_id":76561198070903248,"connected_time":1526000000000,"state":"active","ping":61},{"user_id":656,"name":"BREATHING ENJOYER","steam_id":76561197977122134,"connected_time":484000000000,"state":"active","ping":61},{"user_id":657,"name":"H-say","steam_id":76561198177400362,"connected_time":479000000000,"state":"active","ping":83},{"user_id":659,"name":"Slifer the Sky Dragon","steam_id":76561198062255803,"connected_time":413000000000,"state":"active","ping":59},{"user_id":649,"name":"Norfy","steam_id":76561197996469493,"connected_time":897000000000,"state":"active","ping":105},{"user_id":638,"name":"Jannu","steam_id":76561198139067430,"connected_time":1187000000000,"state":"active","ping":97},{"user_id":639,"name":"Peat","steam_id":76561197992168067,"connected_time":1142000000000,"state":"active","ping":72},{"user_id":640,"name":"DiscoTraveler","steam_id":76561199240168088,"connected_time":1139000000000,"state":"active","ping":131},{"user_id":652,"name":"ArmedWithWings","steam_id":76561198154615474,"connected_time":716000000000,"state":"active","ping":85},{"user_id":643,"name":"Tiger Woods","steam_id":76561198863528877,"connected_time":1068000000000,"state":"active","ping":78},{"user_id":642,"name":"tl.rybar","steam_id":76561197960377282,"connected_time":1091000000000,"state":"active","ping":62},{"user_id":653,"name":"Zina Tv","steam_id":76561198116530769,"connected_time":497000000000,"state":"active","ping":90},{"user_id":662,"name":"Samuel L. Jackson","steam_id":76561198130427881,"connected_time":14000000000,"state":"active","ping":162},{"user_id":648,"name":"B4R10N","steam_id":76561198047167954,"connected_time":914000000000,"state":"active","ping":50},{"user_id":650,"name":"Nerevar","steam_id":76561198021409554,"connected_time":883000000000,"state":"active","ping":52},{"user_id":655,"name":"fb","steam_id":76561197988802856,"connected_time":495000000000,"state":"active","ping":58}]},{"server_id":308,"name":"Uncletopia | Frankfurt | 3 | All Maps","name_short":"frk-3","host":"frk-1.de.uncletopia.com","port":27035,"enabled":true,"region":"eu","cc":"de","latitude":50.110924,"longitude":8.682127,"reserved":0,"last_update":"0001-01-01T00:00:00Z","name_a2s":"Uncletopia | Frankfurt | 3 | All Maps","protocol":17,"map":"koth_viaduct","folder":"tf","game":"Team Fortress","app_id":440,"player_count":0,"max_players":24,"Bots":0,"server_type":"Dedicated","server_os":"Linux","password":true,"vac":true,"version":"7882260","steam_id":85568392924504274,"keywords":["cp","nocrits","nodmgspread","uncletopia"],"game_id":440,"stv_port":27036,"stv_name":"Uncletopia | Frankfurt | 3 | All Maps | STV","players":null},{"server_id":309,"name":"Uncletopia | Frankfurt | 4 | All Maps","name_short":"frk-4","host":"frk-1.de.uncletopia.com","port":27045,"enabled":true,"region":"eu","cc":"de","latitude":50.110924,"longitude":8.682127,"reserved":0,"last_update":"0001-01-01T00:00:00Z","name_a2s":"Uncletopia | Frankfurt | 4 | All Maps","protocol":17,"map":"pl_upward","folder":"tf","game":"Team Fortress","app_id":440,"player_count":0,"max_players":24,"Bots":0,"server_type":"Dedicated","server_os":"Linux","password":true,"vac":true,"version":"7882260","steam_id":85568392924504275,"keywords":["nocrits","nodmgspread","payload","uncletopia"],"game_id":440,"stv_port":27046,"stv_name":"Uncletopia | Frankfurt | 4 | All Maps | STV","players":null},{"server_id":310,"name":"Uncletopia | Frankfurt | 5 | All Maps","name_short":"frk-5","host":"frk-1.de.uncletopia.com","port":27055,"enabled":true,"region":"eu","cc":"de","latitude":50.110924,"longitude":8.682127,"reserved":0,"last_update":"0001-01-01T00:00:00Z","name_a2s":"Uncletopia | Frankfurt | 5 | All Maps","protocol":17,"map":"cp_dustbowl","folder":"tf","game":"Team Fortress","app_id":440,"player_count":0,"max_players":24,"Bots":0,"server_type":"Dedicated","server_os":"Linux","password":true,"vac":true,"version":"7882260","steam_id":85568392924504277,"keywords":["cp","nocrits","nodmgspread","uncletopia"],"game_id":440,"stv_port":27056,"stv_name":"Uncletopia | Frankfurt | 5 | All Maps | STV","players":null},{"server_id":311,"name":"Uncletopia | Frankfurt | 6 | All Maps","name_short":"frk-6","host":"frk-1.de.uncletopia.com","port":27065,"enabled":true,"region":"eu","cc":"de","latitude":50.110924,"longitude":8.682127,"reserved":0,"last_update":"0001-01-01T00:00:00Z","name_a2s":"Uncletopia | Frankfurt | 6 | All Maps","protocol":17,"map":"pl_barnblitz","folder":"tf","game":"Team Fortress","app_id":440,"player_count":0,"max_players":24,"Bots":0,"server_type":"Dedicated","server_os":"Linux","password":true,"vac":true,"version":"7882260","steam_id":85568392924504278,"keywords":["nocrits","nodmgspread","payload","uncletopia"],"game_id":440,"stv_port":27066,"stv_name":"Uncletopia | Frankfurt | 6 | All Maps | STV","players":null},{"server_id":23,"name":"Uncletopia | Frankfurt | 7 | Stopwatch Beta","name_short":"frk-7","host":"frk-1.de.uncletopia.com","port":27075,"enabled":true,"region":"eu","cc":"de","latitude":50.110924,"longitude":8.682127,"reserved":0,"last_update":"0001-01-01T00:00:00Z","name_a2s":"Uncletopia | Frankfurt | 7 | Stopwatch Beta","protocol":17,"map":"workshop/pl_badwater_pro_v12.ugc2142942074","folder":"tf","game":"Team Fortress","app_id":440,"player_count":0,"max_players":24,"Bots":0,"server_type":"Dedicated","server_os":"Linux","password":true,"vac":true,"version":"7882260","steam_id":85568392924742827,"keywords":["nocrits","nodmgspread","payload","uncletopia"],"game_id":440,"stv_port":27076,"stv_name":"Uncletopia | Frankfurt | 7 | Stopwatch Beta | STV","players":null},{"server_id":24,"name":"Uncletopia | Frankfurt | 8 | Community","name_short":"frk-8","host":"frk-1.de.uncletopia.com","port":27085,"enabled":true,"region":"eu","cc":"de","latitude":50.110924,"longitude":8.682127,"reserved":0,"last_update":"0001-01-01T00:00:00Z","name_a2s":"Uncletopia | Frankfurt | 8 | Community","protocol":17,"map":"workshop/koth_trenchfoot_b1a.ugc731436616","folder":"tf","game":"Team Fortress","app_id":440,"player_count":0,"max_players":24,"Bots":0,"server_type":"Dedicated","server_os":"Linux","password":true,"vac":true,"version":"7882260","steam_id":85568392924742828,"keywords":["cp","nocrits","nodmgspread","uncletopia"],"game_id":440,"stv_port":27086,"stv_name":"Uncletopia | Frankfurt | 8 | Community | STV","players":null},{"server_id":202,"name":"Uncletopia | Hong Kong | 1 | All Maps","name_short":"hgk-1","host":"hgk-1.hk.uncletopia.com","port":27015,"enabled":true,"region":"asia","cc":"hk","latitude":22.302711,"longitude":114.177216,"reserved":0,"last_update":"0001-01-01T00:00:00Z","name_a2s":"Uncletopia | Hong Kong | 1 | All Maps","protocol":17,"map":"koth_highpass","folder":"tf","game":"Team Fortress","app_id":440,"player_count":0,"max_players":24,"Bots":0,"server_type":"Dedicated","server_os":"Linux","password":true,"vac":true,"version":"7882260","steam_id":85568392924494504,"keywords":["cp","nocrits","nodmgspread","uncletopia"],"game_id":440,"stv_port":27016,"stv_name":"Uncletopia | Hong Kong | 1 | All Maps | STV","players":null},{"server_id":1,"name":"Uncletopia | Los Angeles | 1 | All Maps","name_short":"lax-1","host":"lax-1.us.uncletopia.com","port":27015,"enabled":true,"region":"us-west","cc":"us","latitude":33.94279,"longitude":-118.41004,"reserved":0,"last_update":"0001-01-01T00:00:00Z","name_a2s":"Uncletopia | Los Angeles | 1 | All Maps","protocol":17,"map":"pl_badwater","folder":"tf","game":"Team Fortress","app_id":440,"player_count":24,"max_players":24,"Bots":0,"server_type":"Dedicated","server_os":"Linux","password":true,"vac":true,"version":"7882260","steam_id":85568392924469991,"keywords":["nocrits","nodmgspread","payload","uncletopia"],"game_id":440,"stv_port":27016,"stv_name":"Uncletopia | Los Angeles | 1 | All Maps | STV","players":[{"user_id":294,"name":"luiggi (that's me)","steam_id":76561199111418221,"connected_time":4940000000000,"state":"active","ping":60},{"user_id":361,"name":"Reem0h","steam_id":76561198169848690,"connected_time":847000000000,"state":"active","ping":112},{"user_id":362,"name":"Tomoscones","steam_id":76561198813586588,"connected_time":800000000000,"state":"active","ping":66},{"user_id":345,"name":"Takyon","steam_id":76561198240014196,"connected_time":2221000000000,"state":"active","ping":50},{"user_id":349,"name":"cielael","steam_id":76561198043971956,"connected_time":2125000000000,"state":"active","ping":48},{"user_id":346,"name":"1738 gecs","steam_id":76561198058617608,"connected_time":2208000000000,"state":"active","ping":51},{"user_id":366,"name":"no vc no c","steam_id":76561197989503095,"connected_time":554000000000,"state":"active","ping":165},{"user_id":368,"name":"tiananmensquare1989","steam_id":76561199076837870,"connected_time":337000000000,"state":"active","ping":117},{"user_id":254,"name":"Apprentice Pybro","steam_id":76561197996353534,"connected_time":8191000000000,"state":"active","ping":55},{"user_id":363,"name":"BoX_hEaD101","steam_id":76561198200875467,"connected_time":755000000000,"state":"active","ping":68},{"user_id":356,"name":"VicLoL","steam_id":76561198045580784,"connected_time":1160000000000,"state":"active","ping":57},{"user_id":324,"name":"Anthid","steam_id":76561198074493797,"connected_time":3838000000000,"state":"active","ping":75},{"user_id":355,"name":"MR MODE","steam_id":76561198046775352,"connected_time":1314000000000,"state":"active","ping":60},{"user_id":353,"name":"Cheese nugget","steam_id":76561198854064022,"connected_time":1612000000000,"state":"active","ping":49},{"user_id":365,"name":"laughing luok smithers","steam_id":76561198209333517,"connected_time":673000000000,"state":"active","ping":122},{"user_id":344,"name":"magunyamu","steam_id":76561198823083676,"connected_time":2244000000000,"state":"active","ping":60},{"user_id":367,"name":"the man","steam_id":76561199103120314,"connected_time":438000000000,"state":"active","ping":52},{"user_id":358,"name":"oil","steam_id":76561198099980149,"connected_time":1037000000000,"state":"active","ping":50},{"user_id":343,"name":"El Super Monkey Ball","steam_id":76561198135634819,"connected_time":2428000000000,"state":"active","ping":56},{"user_id":309,"name":"Red","steam_id":76561198082958231,"connected_time":4465000000000,"state":"active","ping":105},{"user_id":354,"name":"BrightOrangeMango","steam_id":76561198023144607,"connected_time":1596000000000,"state":"active","ping":68},{"user_id":359,"name":"So√ºlHntr","steam_id":76561199093686398,"connected_time":1013000000000,"state":"active","ping":73},{"user_id":325,"name":"BucketofIce","steam_id":76561199108563726,"connected_time":3829000000000,"state":"active","ping":55},{"user_id":360,"name":"Pangolin","steam_id":76561198318126190,"connected_time":1012000000000,"state":"active","ping":154}]},{"server_id":112,"name":"Uncletopia | Los Angeles | 2 | All Maps","name_short":"lax-2","host":"lax-1.us.uncletopia.com","port":27025,"enabled":true,"region":"us-west","cc":"us","latitude":33.94279,"longitude":-118.41004,"reserved":0,"last_update":"0001-01-01T00:00:00Z","name_a2s":"Uncletopia | Los Angeles | 2 | All Maps","protocol":17,"map":"pl_upward","folder":"tf","game":"Team Fortress","app_id":440,"player_count":24,"max_players":24,"Bots":0,"server_type":"Dedicated","server_os":"Linux","password":true,"vac":true,"version":"7882260","steam_id":85568392924469992,"keywords":["nocrits","nodmgspread","payload","uncletopia"],"game_id":440,"stv_port":27026,"stv_name":"Uncletopia | Los Angeles | 2 | All Maps | STV","players":[{"user_id":83,"name":"Dob Bole","steam_id":76561198056367220,"connected_time":605000000000,"state":"active","ping":44},{"user_id":51,"name":"--_Cook_--","steam_id":76561198080855748,"connected_time":2762000000000,"state":"active","ping":80},{"user_id":72,"name":"Aequalis747","steam_id":76561199456589841,"connected_time":1504000000000,"state":"active","ping":68},{"user_id":85,"name":"Sturdy","steam_id":76561198138131840,"connected_time":572000000000,"state":"active","ping":85},{"user_id":84,"name":"trappy (washed)","steam_id":76561198402801140,"connected_time":603000000000,"state":"active","ping":114},{"user_id":92,"name":"shakoiwa","steam_id":76561199059441773,"connected_time":474000000000,"state":"active","ping":73},{"user_id":86,"name":"PageBoiSkull","steam_id":76561198237353578,"connected_time":572000000000,"state":"active","ping":68},{"user_id":19,"name":"Dankest Cat","steam_id":76561198152685045,"connected_time":4264000000000,"state":"active","ping":126},{"user_id":70,"name":"LiftN","steam_id":76561198167974713,"connected_time":1694000000000,"state":"active","ping":107},{"user_id":22,"name":"DoesZeMason","steam_id":76561198186303547,"connected_time":4207000000000,"state":"active","ping":117},{"user_id":87,"name":"Penny Giri","steam_id":76561198106836586,"connected_time":555000000000,"state":"active","ping":104},{"user_id":76,"name":"TheOtherBrush","steam_id":76561199048222977,"connected_time":1397000000000,"state":"active","ping":79},{"user_id":74,"name":"pandoRA","steam_id":76561198075490385,"connected_time":1486000000000,"state":"active","ping":51},{"user_id":88,"name":"manbearswineflu","steam_id":76561198083945137,"connected_time":554000000000,"state":"active","ping":116},{"user_id":29,"name":"Trotsky Gaming","steam_id":76561199101638460,"connected_time":4075000000000,"state":"active","ping":79},{"user_id":89,"name":"NinjaZebra123","steam_id":76561199057849611,"connected_time":546000000000,"state":"active","ping":66},{"user_id":90,"name":"T9 Raincool","steam_id":76561198042953645,"connected_time":540000000000,"state":"active","ping":113},{"user_id":32,"name":"maase","steam_id":76561199215396532,"connected_time":3993000000000,"state":"active","ping":128},{"user_id":91,"name":"Bacon Hoodie","steam_id":76561198843822629,"connected_time":540000000000,"state":"active","ping":78},{"user_id":77,"name":"GamerMan","steam_id":76561199058616824,"connected_time":1359000000000,"state":"active","ping":85},{"user_id":66,"name":"dzcreeper","steam_id":76561198072250723,"connected_time":2497000000000,"state":"active","ping":85},{"user_id":78,"name":"FALRayne","steam_id":76561198113348816,"connected_time":1339000000000,"state":"active","ping":93},{"user_id":69,"name":"cattzer","steam_id":76561199055713543,"connected_time":2242000000000,"state":"active","ping":71},{"user_id":80,"name":"Homura Simp","steam_id":76561198246080762,"connected_time":1225000000000,"state":"active","ping":59}]},{"server_id":324,"name":"Uncletopia | Los Angeles | 3 | All Maps","name_short":"lax-3","host":"lax-1.us.uncletopia.com","port":27035,"enabled":true,"region":"us-west","cc":"us","latitude":33.94279,"longitude":-118.41004,"reserved":0,"last_update":"0001-01-01T00:00:00Z","name_a2s":"Uncletopia | Los Angeles | 3 | All Maps","protocol":17,"map":"pl_upward","folder":"tf","game":"Team Fortress","app_id":440,"player_count":24,"max_players":24,"Bots":0,"server_type":"Dedicated","server_os":"Linux","password":true,"vac":true,"version":"7882260","steam_id":85568392924510198,"keywords":["nocrits","nodmgspread","payload","uncletopia"],"game_id":440,"stv_port":27036,"stv_name":"Uncletopia | Los Angeles | 3 | All Maps | STV","players":[{"user_id":55,"name":"riSygneD","steam_id":76561198331618687,"connected_time":1618000000000,"state":"active","ping":35},{"user_id":25,"name":"Renz","steam_id":76561198118995036,"connected_time":2590000000000,"state":"active","ping":72},{"user_id":69,"name":"Spectral","steam_id":76561198074678801,"connected_time":499000000000,"state":"active","ping":84},{"user_id":62,"name":"BreadQuest","steam_id":76561198082425960,"connected_time":886000000000,"state":"active","ping":73},{"user_id":78,"name":"hoos","steam_id":76561198045985910,"connected_time":171000000000,"state":"active","ping":139},{"user_id":63,"name":"Nuck Chorris","steam_id":76561197962588421,"connected_time":870000000000,"state":"active","ping":51},{"user_id":79,"name":"hacivad","steam_id":76561198205981316,"connected_time":159000000000,"state":"active","ping":104},{"user_id":80,"name":"luigiclub","steam_id":76561198180548194,"connected_time":16000000000,"state":"spawning","ping":147},{"user_id":33,"name":"Sleempreem","steam_id":76561198131987251,"connected_time":2224000000000,"state":"active","ping":43},{"user_id":68,"name":"Re:Lie","steam_id":76561198125401588,"connected_time":576000000000,"state":"active","ping":65},{"user_id":36,"name":"the man","steam_id":76561198389268114,"connected_time":2131000000000,"state":"active","ping":97},{"user_id":37,"name":"≈ölimak","steam_id":76561198296476784,"connected_time":2124000000000,"state":"active","ping":72},{"user_id":72,"name":"|LeNachoCrimson|","steam_id":76561197987542660,"connected_time":388000000000,"state":"active","ping":63},{"user_id":75,"name":"Victrok","steam_id":76561199441398791,"connected_time":311000000000,"state":"active","ping":96},{"user_id":70,"name":"Jazz Hands","steam_id":76561199225708271,"connected_time":476000000000,"state":"active","ping":96},{"user_id":41,"name":"Fluffy","steam_id":76561198213561811,"connected_time":2023000000000,"state":"active","ping":41},{"user_id":44,"name":"Moonman327","steam_id":76561197992616059,"connected_time":1871000000000,"state":"active","ping":93},{"user_id":76,"name":"A Bloody Meat Bicycle","steam_id":76561198358757709,"connected_time":285000000000,"state":"active","ping":123},{"user_id":46,"name":"Sprit ‚ô•","steam_id":76561198268780781,"connected_time":1796000000000,"state":"active","ping":100},{"user_id":47,"name":"Goldensliv","steam_id":76561198161673891,"connected_time":1795000000000,"state":"active","ping":41},{"user_id":49,"name":"N'wah","steam_id":76561198066297673,"connected_time":1726000000000,"state":"active","ping":79},{"user_id":77,"name":"DungeonKeeper","steam_id":76561199475507686,"connected_time":249000000000,"state":"active","ping":98},{"user_id":58,"name":"mocha","steam_id":76561199100342013,"connected_time":1583000000000,"state":"active","ping":46},{"user_id":60,"name":"orange","steam_id":76561198272694642,"connected_time":1303000000000,"state":"active","ping":76}]},{"server_id":25,"name":"Uncletopia | Los Angeles | 4 | Stopwatch Beta","name_short":"lax-4","host":"lax-1.us.uncletopia.com","port":27045,"enabled":true,"region":"us-west","cc":"us","latitude":33.94279,"longitude":-118.41004,"reserved":0,"last_update":"0001-01-01T00:00:00Z","name_a2s":"Uncletopia | Los Angeles | 4 | Stopwatch Beta","protocol":17,"map":"workshop/koth_product_final.ugc454272353","folder":"tf","game":"Team Fortress","app_id":440,"player_count":0,"max_players":24,"Bots":0,"server_type":"Dedicated","server_os":"Linux","password":true,"vac":true,"version":"7882260","steam_id":85568392924510199,"keywords":["cp","nocrits","nodmgspread","uncletopia"],"game_id":440,"stv_port":27046,"stv_name":"Uncletopia | Los Angeles | 4 | Stopwatch Beta | STV","players":null},{"server_id":11,"name":"Uncletopia | London | 1 | All Maps","name_short":"lon-1","host":"lon-1.uk.uncletopia.com","port":27015,"enabled":true,"region":"eu","cc":"gb","latitude":51.509865,"longitude":-0.118092,"reserved":0,"last_update":"0001-01-01T00:00:00Z","name_a2s":"Uncletopia | London | 1 | All Maps","protocol":17,"map":"koth_harvest_final","folder":"tf","game":"Team Fortress","app_id":440,"player_count":24,"max_players":24,"Bots":0,"server_type":"Dedicated","server_os":"Linux","password":true,"vac":true,"version":"7882260","steam_id":85568392924367362,"keywords":["cp","nocrits","nodmgspread","uncletopia"],"game_id":440,"stv_port":27016,"stv_name":"Uncletopia | London | 1 | All Maps | STV","players":[{"user_id":500,"name":"hmscole09","steam_id":76561198811362788,"connected_time":2361000000000,"state":"active","ping":57},{"user_id":540,"name":"snowycoast","steam_id":76561198346638308,"connected_time":511000000000,"state":"active","ping":45},{"user_id":520,"name":"Asfedia","steam_id":76561199386836351,"connected_time":1236000000000,"state":"active","ping":57},{"user_id":544,"name":"M. Bubbles","steam_id":76561199353424484,"connected_time":481000000000,"state":"active","ping":140},{"user_id":498,"name":"Galzra87","steam_id":76561198063414443,"connected_time":2600000000000,"state":"active","ping":60},{"user_id":546,"name":"Unfunny Name","steam_id":76561198799372115,"connected_time":383000000000,"state":"active","ping":70},{"user_id":534,"name":"beebo","steam_id":76561199120277007,"connected_time":573000000000,"state":"active","ping":44},{"user_id":548,"name":"Big Smoke","steam_id":76561198118625233,"connected_time":183000000000,"state":"active","ping":65},{"user_id":528,"name":"Shy cute eboy baka","steam_id":76561198353334467,"connected_time":633000000000,"state":"active","ping":70},{"user_id":499,"name":"Sta≈Ñczyk","steam_id":76561197998906563,"connected_time":2452000000000,"state":"active","ping":42},{"user_id":449,"name":"Sabour","steam_id":76561197963965445,"connected_time":5166000000000,"state":"active","ping":72},{"user_id":529,"name":"pijacka","steam_id":76561198103899658,"connected_time":610000000000,"state":"active","ping":68},{"user_id":416,"name":"Cabbch","steam_id":76561198045955679,"connected_time":6559000000000,"state":"active","ping":50},{"user_id":530,"name":"Cymric","steam_id":76561198208749713,"connected_time":594000000000,"state":"active","ping":70},{"user_id":514,"name":"stuntz","steam_id":76561197974814348,"connected_time":1536000000000,"state":"active","ping":70},{"user_id":547,"name":"Grub","steam_id":76561198174510235,"connected_time":336000000000,"state":"active","ping":46},{"user_id":506,"name":"Lag","steam_id":76561198159360376,"connected_time":2124000000000,"state":"active","ping":37},{"user_id":533,"name":"Dent0R","steam_id":76561198308841098,"connected_time":583000000000,"state":"active","ping":73},{"user_id":496,"name":"Saunaveijari","steam_id":76561198160562822,"connected_time":2683000000000,"state":"active","ping":75},{"user_id":549,"name":"28ilija28","steam_id":76561198868993172,"connected_time":175000000000,"state":"active","ping":72},{"user_id":545,"name":"Solima","steam_id":76561198045349099,"connected_time":464000000000,"state":"active","ping":58},{"user_id":537,"name":"MxQuiteGood","steam_id":76561198069780233,"connected_time":546000000000,"state":"active","ping":51},{"user_id":550,"name":"OGStrawbs","steam_id":76561198141827931,"connected_time":154000000000,"state":"active","ping":130},{"user_id":543,"name":"Maya","steam_id":76561198128616615,"connected_time":504000000000,"state":"active","ping":72}]},{"server_id":114,"name":"Uncletopia | London | 2 | All Maps","name_short":"lon-2","host":"lon-1.uk.uncletopia.com","port":27025,"enabled":true,"region":"eu","cc":"gb","latitude":51.509865,"longitude":-0.118092,"reserved":0,"last_update":"0001-01-01T00:00:00Z","name_a2s":"Uncletopia | London | 2 | All Maps","protocol":17,"map":"koth_cascade","folder":"tf","game":"Team Fortress","app_id":440,"player_count":0,"max_players":24,"Bots":0,"server_type":"Dedicated","server_os":"Linux","password":true,"vac":true,"version":"7882260","steam_id":85568392924470941,"keywords":["cp","nocrits","nodmgspread","uncletopia"],"game_id":440,"stv_port":27026,"stv_name":"Uncletopia | London | 2 | All Maps | STV","players":null},{"server_id":320,"name":"Uncletopia | London | 3 | All Maps","name_short":"lon-3","host":"lon-1.uk.uncletopia.com","port":27035,"enabled":true,"region":"eu","cc":"gb","latitude":51.509865,"longitude":-0.118092,"reserved":0,"last_update":"0001-01-01T00:00:00Z","name_a2s":"Uncletopia | London | 3 | All Maps","protocol":17,"map":"pl_badwater","folder":"tf","game":"Team Fortress","app_id":440,"player_count":10,"max_players":24,"Bots":0,"server_type":"Dedicated","server_os":"Linux","password":true,"vac":true,"version":"7882260","steam_id":85568392924510192,"keywords":["nocrits","nodmgspread","payload","uncletopia"],"game_id":440,"stv_port":27036,"stv_name":"Uncletopia | London | 3 | All Maps | STV","players":[{"user_id":286,"name":"ImBread","steam_id":76561198347426531,"connected_time":71000000000,"state":"active","ping":67},{"user_id":265,"name":"Dr. Kawashima","steam_id":76561198130666000,"connected_time":2541000000000,"state":"active","ping":44},{"user_id":272,"name":"Ran33","steam_id":76561197991474499,"connected_time":1916000000000,"state":"active","ping":78},{"user_id":273,"name":"SparkPhoenix","steam_id":76561198012953574,"connected_time":1913000000000,"state":"active","ping":105},{"user_id":258,"name":"plastic","steam_id":76561198333306300,"connected_time":2837000000000,"state":"active","ping":54},{"user_id":266,"name":"etc","steam_id":76561197998394797,"connected_time":2234000000000,"state":"active","ping":45},{"user_id":275,"name":"Davey","steam_id":76561198256879107,"connected_time":1820000000000,"state":"active","ping":75},{"user_id":284,"name":"ack","steam_id":76561198139796077,"connected_time":201000000000,"state":"active","ping":57},{"user_id":285,"name":"beep!","steam_id":76561198111674607,"connected_time":193000000000,"state":"active","ping":53},{"user_id":282,"name":"Velocircopter","steam_id":76561198847582048,"connected_time":531000000000,"state":"active","ping":176}]},{"server_id":321,"name":"Uncletopia | London | 4 | All Maps","name_short":"lon-4","host":"lon-1.uk.uncletopia.com","port":27045,"enabled":true,"region":"eu","cc":"gb","latitude":51.509865,"longitude":-0.118092,"reserved":0,"last_update":"0001-01-01T00:00:00Z","name_a2s":"Uncletopia | London | 4 | All Maps","protocol":17,"map":"pl_barnblitz","folder":"tf","game":"Team Fortress","app_id":440,"player_count":23,"max_players":24,"Bots":0,"server_type":"Dedicated","server_os":"Linux","password":true,"vac":true,"version":"7882260","steam_id":85568392924510193,"keywords":["nocrits","nodmgspread","payload","uncletopia"],"game_id":440,"stv_port":27046,"stv_name":"Uncletopia | London | 4 | All Maps | STV","players":[{"user_id":404,"name":"Amayuri","steam_id":76561198068666784,"connected_time":645000000000,"state":"active","ping":60},{"user_id":384,"name":"Captain Scrumpe","steam_id":76561198032206577,"connected_time":1750000000000,"state":"active","ping":87},{"user_id":412,"name":"SprintSnail","steam_id":76561198037950814,"connected_time":144000000000,"state":"active","ping":55},{"user_id":352,"name":"Acbh","steam_id":76561198158271672,"connected_time":4872000000000,"state":"active","ping":70},{"user_id":385,"name":"Doobie","steam_id":76561198257836694,"connected_time":1741000000000,"state":"active","ping":37},{"user_id":376,"name":"Keke","steam_id":76561198042032908,"connected_time":3194000000000,"state":"active","ping":56},{"user_id":360,"name":"tm`","steam_id":76561197993580412,"connected_time":4585000000000,"state":"active","ping":72},{"user_id":413,"name":"S4ND","steam_id":76561198048817387,"connected_time":114000000000,"state":"active","ping":62},{"user_id":408,"name":"Malsi","steam_id":76561199061284165,"connected_time":355000000000,"state":"active","ping":84},{"user_id":402,"name":"Eidolon","steam_id":76561198043919565,"connected_time":703000000000,"state":"active","ping":68},{"user_id":375,"name":"cinny","steam_id":76561198832112629,"connected_time":3422000000000,"state":"active","ping":83},{"user_id":361,"name":"Bridget's butt hitboxes","steam_id":76561198101624996,"connected_time":4570000000000,"state":"active","ping":84},{"user_id":368,"name":"Portal2Player","steam_id":76561198062870114,"connected_time":4172000000000,"state":"active","ping":138},{"user_id":383,"name":"Kumquat","steam_id":76561198200490386,"connected_time":2155000000000,"state":"active","ping":68},{"user_id":320,"name":"wieto","steam_id":76561198050626427,"connected_time":7433000000000,"state":"active","ping":60},{"user_id":414,"name":"medicinal man","steam_id":76561198202668788,"connected_time":98000000000,"state":"active","ping":93},{"user_id":415,"name":"emerge","steam_id":76561198186882891,"connected_time":78000000000,"state":"active","ping":146},{"user_id":392,"name":"Hobo Lord","steam_id":76561198074857364,"connected_time":1564000000000,"state":"active","ping":55},{"user_id":380,"name":"Valen","steam_id":76561198049614521,"connected_time":2888000000000,"state":"active","ping":75},{"user_id":381,"name":"XL54M15Y","steam_id":76561198048250715,"connected_time":2455000000000,"state":"active","ping":66},{"user_id":403,"name":"i drink a lot of coffee","steam_id":76561199233979726,"connected_time":685000000000,"state":"active","ping":94},{"user_id":407,"name":"weedminion","steam_id":76561198061248329,"connected_time":471000000000,"state":"active","ping":63},{"user_id":401,"name":"Tink","steam_id":76561198118235443,"connected_time":721000000000,"state":"active","ping":55}]},{"server_id":21,"name":"Uncletopia | London | 5 | All Maps","name_short":"lon-5","host":"lon-1.uk.uncletopia.com","port":27055,"enabled":true,"region":"eu","cc":"gb","latitude":51.509865,"longitude":-0.118092,"reserved":0,"last_update":"0001-01-01T00:00:00Z","name_a2s":"Uncletopia | London | 5 | All Maps","protocol":17,"map":"koth_lakeside_final","folder":"tf","game":"Team Fortress","app_id":440,"player_count":0,"max_players":24,"Bots":0,"server_type":"Dedicated","server_os":"Linux","password":true,"vac":true,"version":"7882260","steam_id":85568392924742829,"keywords":["cp","nocrits","nodmgspread","uncletopia"],"game_id":440,"stv_port":27056,"stv_name":"Uncletopia | London | 5 | All Maps | STV","players":null},{"server_id":22,"name":"Uncletopia | London | 6 | All Maps","name_short":"lon-6","host":"lon-1.uk.uncletopia.com","port":27065,"enabled":true,"region":"eu","cc":"gb","latitude":51.509865,"longitude":-0.118092,"reserved":0,"last_update":"0001-01-01T00:00:00Z","name_a2s":"Uncletopia | London | 6 | All Maps","protocol":17,"map":"pl_borneo","folder":"tf","game":"Team Fortress","app_id":440,"player_count":21,"max_players":24,"Bots":0,"server_type":"Dedicated","server_os":"Linux","password":true,"vac":true,"version":"7882260","steam_id":85568392924742830,"keywords":["nocrits","nodmgspread","payload","uncletopia"],"game_id":440,"stv_port":27066,"stv_name":"Uncletopia | London | 6 | All Maps | STV","players":[{"user_id":671,"name":"BastLover","steam_id":76561198247062724,"connected_time":409000000000,"state":"active","ping":60},{"user_id":655,"name":"HilldogGaming","steam_id":76561198082209322,"connected_time":2471000000000,"state":"active","ping":74},{"user_id":676,"name":"Dr.Disrespect","steam_id":76561198043820228,"connected_time":59000000000,"state":"active","ping":45},{"user_id":611,"name":":P","steam_id":76561198106399430,"connected_time":5778000000000,"state":"active","ping":41},{"user_id":612,"name":"deadbeat dad","steam_id":76561198380267081,"connected_time":5739000000000,"state":"active","ping":57},{"user_id":672,"name":"Soradesu","steam_id":76561198193631487,"connected_time":316000000000,"state":"active","ping":138},{"user_id":673,"name":" Ä…™·¥ã·¥è·¥ò‚ìΩ","steam_id":76561198101822510,"connected_time":220000000000,"state":"active","ping":84},{"user_id":669,"name":"shits in urinals","steam_id":76561199480942903,"connected_time":661000000000,"state":"active","ping":74},{"user_id":674,"name":"gibb (official)","steam_id":76561198074097655,"connected_time":184000000000,"state":"active","ping":43},{"user_id":646,"name":"I pocket u for 10 ref/hour","steam_id":76561198126179060,"connected_time":3144000000000,"state":"active","ping":71},{"user_id":675,"name":"reformed i swear","steam_id":76561198152392309,"connected_time":97000000000,"state":"active","ping":45},{"user_id":677,"name":"Hivel","steam_id":76561198151390773,"connected_time":45000000000,"state":"active","ping":87},{"user_id":678,"name":"Avg. Santa Believer (Nice list)","steam_id":76561198040444697,"connected_time":34000000000,"state":"active","ping":117},{"user_id":649,"name":"PapelFZ","steam_id":76561198193466351,"connected_time":2849000000000,"state":"active","ping":89},{"user_id":650,"name":"ham","steam_id":76561198981917711,"connected_time":2816000000000,"state":"active","ping":172},{"user_id":653,"name":"Medeaz","steam_id":76561197984426403,"connected_time":2556000000000,"state":"active","ping":30},{"user_id":679,"name":"Solivisor","steam_id":76561198846866721,"connected_time":29000000000,"state":"active","ping":202},{"user_id":680,"name":"nick murphy","steam_id":76561198086592534,"connected_time":21000000000,"state":"spawning","ping":41},{"user_id":656,"name":"cocotte","steam_id":76561199043766687,"connected_time":2333000000000,"state":"active","ping":56},{"user_id":664,"name":"Maid","steam_id":76561198104863288,"connected_time":1998000000000,"state":"active","ping":38},{"user_id":665,"name":"IKEA Self-Checkout Station","steam_id":76561198386873511,"connected_time":1980000000000,"state":"active","ping":51}]},{"server_id":40,"name":"Uncletopia | London | 7 | No Payload","name_short":"lon-7","host":"lon-1.uk.uncletopia.com","port":27075,"enabled":true,"region":"eu","cc":"gb","latitude":51.509865,"longitude":-0.118092,"reserved":0,"last_update":"0001-01-01T00:00:00Z","name_a2s":"Uncletopia | London | 7 | No Payload","protocol":17,"map":"koth_viaduct","folder":"tf","game":"Team Fortress","app_id":440,"player_count":0,"max_players":24,"Bots":0,"server_type":"Dedicated","server_os":"Linux","password":true,"vac":true,"version":"7882260","steam_id":85568392924964314,"keywords":["cp","nocrits","nodmgspread","uncletopia"],"game_id":440,"stv_port":27076,"stv_name":"Uncletopia | London | 7 | No Payload | STV","players":null},{"server_id":41,"name":"Uncletopia | London | 8 | Community","name_short":"lon-8","host":"lon-1.uk.uncletopia.com","port":27085,"enabled":true,"region":"eu","cc":"gb","latitude":51.509865,"longitude":-0.118092,"reserved":0,"last_update":"0001-01-01T00:00:00Z","name_a2s":"Uncletopia | London | 8 | Community","protocol":17,"map":"workshop/koth_kemptown_rc1.ugc767410655","folder":"tf","game":"Team Fortress","app_id":440,"player_count":0,"max_players":24,"Bots":0,"server_type":"Dedicated","server_os":"Linux","password":true,"vac":true,"version":"7882260","steam_id":85568392924964315,"keywords":["cp","nocrits","nodmgspread","uncletopia"],"game_id":440,"stv_port":27086,"stv_name":"Uncletopia | London | 8 | Community | STV","players":null},{"server_id":300,"name":"Uncletopia | Montr√©al | 1 | All Maps","name_short":"mtl-1","host":"mtl-1.ca.uncletopia.com","port":27015,"enabled":true,"region":"us-east","cc":"ca","latitude":45.50889,"longitude":-73.56167,"reserved":0,"last_update":"0001-01-01T00:00:00Z","name_a2s":"Uncletopia | Montr√©al | 1 | All Maps","protocol":17,"map":"koth_viaduct","folder":"tf","game":"Team Fortress","app_id":440,"player_count":0,"max_players":24,"Bots":0,"server_type":"Dedicated","server_os":"Linux","password":true,"vac":true,"version":"7882260","steam_id":85568392924500087,"keywords":["cp","nocrits","nodmgspread","uncletopia"],"game_id":440,"stv_port":27016,"stv_name":"Uncletopia | Montr√©al | 1 | All Maps | STV","players":null},{"server_id":301,"name":"Uncletopia | Montr√©al | 2 | All Maps","name_short":"mtl-2","host":"mtl-1.ca.uncletopia.com","port":27025,"enabled":true,"region":"us-east","cc":"ca","latitude":45.50889,"longitude":-73.56167,"reserved":0,"last_update":"0001-01-01T00:00:00Z","name_a2s":"Uncletopia | Montr√©al | 2 | All Maps","protocol":17,"map":"pl_upward","folder":"tf","game":"Team Fortress","app_id":440,"player_count":24,"max_players":24,"Bots":0,"server_type":"Dedicated","server_os":"Linux","password":true,"vac":true,"version":"7882260","steam_id":85568392924500088,"keywords":["nocrits","nodmgspread","payload","uncletopia"],"game_id":440,"stv_port":27026,"stv_name":"Uncletopia | Montr√©al | 2 | All Maps | STV","players":[{"user_id":96,"name":"Anyar","steam_id":76561198160174097,"connected_time":2382000000000,"state":"active","ping":88},{"user_id":124,"name":"UNIT 220","steam_id":76561198042243497,"connected_time":383000000000,"state":"active","ping":74},{"user_id":131,"name":"A Can of Arizona Green Tea","steam_id":76561198062481133,"connected_time":201000000000,"state":"active","ping":103},{"user_id":94,"name":"Razz","steam_id":76561198158027533,"connected_time":2525000000000,"state":"active","ping":84},{"user_id":133,"name":"catgirl giantess in heat","steam_id":76561198439042583,"connected_time":100000000000,"state":"active","ping":105},{"user_id":109,"name":"ZestyLemons","steam_id":76561198274236507,"connected_time":1614000000000,"state":"active","ping":70},{"user_id":127,"name":"yoklaty","steam_id":76561199020932212,"connected_time":322000000000,"state":"active","ping":185},{"user_id":121,"name":"joyful-sk3lly","steam_id":76561199111044051,"connected_time":861000000000,"state":"active","ping":63},{"user_id":36,"name":"Codcruiser17","steam_id":76561199118698384,"connected_time":6656000000000,"state":"active","ping":103},{"user_id":105,"name":"nhbiker","steam_id":76561198081277675,"connected_time":2033000000000,"state":"active","ping":59},{"user_id":114,"name":"dnaak","steam_id":76561197960489193,"connected_time":1249000000000,"state":"active","ping":79},{"user_id":120,"name":"gnome","steam_id":76561198052978969,"connected_time":1016000000000,"state":"active","ping":64},{"user_id":20,"name":"RHD BRAZIL [\u003c O \u003e]","steam_id":76561198028190080,"connected_time":7772000000000,"state":"active","ping":173},{"user_id":108,"name":"Marshall","steam_id":76561198042570322,"connected_time":1745000000000,"state":"active","ping":92},{"user_id":122,"name":"Ros","steam_id":76561199055963822,"connected_time":722000000000,"state":"active","ping":83},{"user_id":132,"name":"Illuminaughty","steam_id":76561199163662910,"connected_time":198000000000,"state":"active","ping":62},{"user_id":123,"name":"GawdStien","steam_id":76561199226886067,"connected_time":708000000000,"state":"active","ping":75},{"user_id":83,"name":"Wilhelmktx","steam_id":76561198158102295,"connected_time":2973000000000,"state":"active","ping":90},{"user_id":129,"name":"cognitiveAfflatus","steam_id":76561198295181426,"connected_time":315000000000,"state":"active","ping":60},{"user_id":113,"name":"The_Pacific_gamer","steam_id":76561198089491446,"connected_time":1258000000000,"state":"active","ping":122},{"user_id":117,"name":"Protato","steam_id":76561198061182563,"connected_time":1148000000000,"state":"active","ping":88},{"user_id":116,"name":"Shuu","steam_id":76561199199180558,"connected_time":1162000000000,"state":"active","ping":71},{"user_id":130,"name":"TJThomas","steam_id":76561198038292405,"connected_time":315000000000,"state":"active","ping":53},{"user_id":93,"name":"Triple-Edged","steam_id":76561198308472155,"connected_time":2558000000000,"state":"active","ping":48}]},{"server_id":302,"name":"Uncletopia | Montr√©al | 3 | All Maps","name_short":"mtl-3","host":"mtl-1.ca.uncletopia.com","port":27035,"enabled":true,"region":"us-east","cc":"ca","latitude":45.50889,"longitude":-73.56167,"reserved":0,"last_update":"0001-01-01T00:00:00Z","name_a2s":"Uncletopia | Montr√©al | 3 | All Maps","protocol":17,"map":"koth_lakeside_final","folder":"tf","game":"Team Fortress","app_id":440,"player_count":0,"max_players":24,"Bots":0,"server_type":"Dedicated","server_os":"Linux","password":true,"vac":true,"version":"7882260","steam_id":85568392924500089,"keywords":["cp","nocrits","nodmgspread","uncletopia"],"game_id":440,"stv_port":27036,"stv_name":"Uncletopia | Montr√©al | 3 | All Maps | STV","players":null},{"server_id":303,"name":"Uncletopia | Montr√©al | 4 | No Payload","name_short":"mtl-4","host":"mtl-1.ca.uncletopia.com","port":27045,"enabled":true,"region":"us-east","cc":"ca","latitude":45.50889,"longitude":-73.56167,"reserved":0,"last_update":"0001-01-01T00:00:00Z","name_a2s":"Uncletopia | Montr√©al | 4 | No Payload","protocol":17,"map":"cp_altitude","folder":"tf","game":"Team Fortress","app_id":440,"player_count":0,"max_players":24,"Bots":0,"server_type":"Dedicated","server_os":"Linux","password":true,"vac":true,"version":"7882260","steam_id":85568392924500090,"keywords":["cp","nocrits","nodmgspread","uncletopia"],"game_id":440,"stv_port":27046,"stv_name":"Uncletopia | Montr√©al | 4 | No Payload | STV","players":null},{"server_id":13,"name":"Uncletopia | New York City | 1 | All Maps","name_short":"nyc-1","host":"nyc-1.us.uncletopia.com","port":27015,"enabled":true,"region":"us-east","cc":"us","latitude":40.73061,"longitude":-73.93524,"reserved":0,"last_update":"0001-01-01T00:00:00Z","name_a2s":"Uncletopia | New York City | 1 | All Maps","protocol":17,"map":"pl_goldrush","folder":"tf","game":"Team Fortress","app_id":440,"player_count":24,"max_players":24,"Bots":0,"server_type":"Dedicated","server_os":"Linux","password":true,"vac":true,"version":"7882260","steam_id":85568392924469993,"keywords":["nocrits","nodmgspread","payload","uncletopia"],"game_id":440,"stv_port":27016,"stv_name":"Uncletopia | New York City | 1 | All Maps | STV","players":[{"user_id":214,"name":"Team Fortress 2","steam_id":76561198045746493,"connected_time":1027000000000,"state":"active","ping":62},{"user_id":205,"name":"drain.pablo.2005","steam_id":76561198303963691,"connected_time":1386000000000,"state":"active","ping":72},{"user_id":130,"name":"CRAZY engineer","steam_id":76561198887937902,"connected_time":6099000000000,"state":"active","ping":57},{"user_id":222,"name":"Nerrrd_","steam_id":76561198870129960,"connected_time":932000000000,"state":"active","ping":41},{"user_id":216,"name":"Queso2469","steam_id":76561197993024580,"connected_time":994000000000,"state":"active","ping":47},{"user_id":179,"name":"CheeseLikeSubstance","steam_id":76561197977170646,"connected_time":2549000000000,"state":"active","ping":60},{"user_id":209,"name":"oddlyobtuselemon1654","steam_id":76561198877069773,"connected_time":1228000000000,"state":"active","ping":87},{"user_id":217,"name":"ObsessedNerd505","steam_id":76561199045531456,"connected_time":992000000000,"state":"active","ping":52},{"user_id":181,"name":"J21","steam_id":76561198066590783,"connected_time":2469000000000,"state":"active","ping":64},{"user_id":192,"name":"Mattron1","steam_id":76561198012270524,"connected_time":1990000000000,"state":"active","ping":72},{"user_id":187,"name":"Shame","steam_id":76561198100490994,"connected_time":2280000000000,"state":"active","ping":72},{"user_id":193,"name":"Bottom Ramen","steam_id":76561197970450546,"connected_time":1980000000000,"state":"active","ping":127},{"user_id":218,"name":"lwyr","steam_id":76561198007982579,"connected_time":988000000000,"state":"active","ping":45},{"user_id":231,"name":"lyingdyingwonderbody2","steam_id":76561199039366017,"connected_time":636000000000,"state":"active","ping":91},{"user_id":185,"name":"PieTheMan","steam_id":76561198027825469,"connected_time":2431000000000,"state":"active","ping":87},{"user_id":230,"name":"sagekiss","steam_id":76561198038831240,"connected_time":702000000000,"state":"active","ping":127},{"user_id":225,"name":"Makoe","steam_id":76561198293771436,"connected_time":916000000000,"state":"active","ping":49},{"user_id":207,"name":"Case","steam_id":76561198136862467,"connected_time":1277000000000,"state":"active","ping":132},{"user_id":175,"name":"CapnKris22","steam_id":76561198049010994,"connected_time":2864000000000,"state":"active","ping":75},{"user_id":232,"name":"Joy #savetf2","steam_id":76561198073690173,"connected_time":449000000000,"state":"active","ping":56},{"user_id":208,"name":"faye","steam_id":76561198044176988,"connected_time":1250000000000,"state":"active","ping":73},{"user_id":233,"name":"Baron von Whoopsie","steam_id":76561197996691013,"connected_time":78000000000,"state":"active","ping":65},{"user_id":211,"name":"cactus eater","steam_id":76561199107499844,"connected_time":1159000000000,"state":"active","ping":135},{"user_id":227,"name":"Tangle","steam_id":76561198880768350,"connected_time":909000000000,"state":"active","ping":94}]},{"server_id":14,"name":"Uncletopia | New York City | 2 | All Maps","name_short":"nyc-2","host":"nyc-1.us.uncletopia.com","port":27025,"enabled":true,"region":"us-east","cc":"us","latitude":40.73061,"longitude":-73.93524,"reserved":0,"last_update":"0001-01-01T00:00:00Z","name_a2s":"Uncletopia | New York City | 2 | All Maps","protocol":17,"map":"pl_upward","folder":"tf","game":"Team Fortress","app_id":440,"player_count":24,"max_players":24,"Bots":0,"server_type":"Dedicated","server_os":"Linux","password":true,"vac":true,"version":"7882260","steam_id":85568392924469994,"keywords":["nocrits","nodmgspread","payload","uncletopia"],"game_id":440,"stv_port":27026,"stv_name":"Uncletopia | New York City | 2 | All Maps | STV","players":[{"user_id":106,"name":"You've been trolled!","steam_id":76561198799740059,"connected_time":648000000000,"state":"active","ping":59},{"user_id":96,"name":"Gamerdude313","steam_id":76561198869211435,"connected_time":890000000000,"state":"active","ping":71},{"user_id":83,"name":"meat glasses","steam_id":76561198046742645,"connected_time":2071000000000,"state":"active","ping":60},{"user_id":73,"name":"ÔΩ°‚óï‚Äø‚óïÔΩ°","steam_id":76561198294013916,"connected_time":3037000000000,"state":"active","ping":46},{"user_id":88,"name":"Willem Dafoe","steam_id":76561198037453253,"connected_time":1399000000000,"state":"active","ping":72},{"user_id":105,"name":"Noid","steam_id":76561198227804500,"connected_time":708000000000,"state":"active","ping":79},{"user_id":95,"name":"totally nuts","steam_id":76561198072856511,"connected_time":912000000000,"state":"active","ping":70},{"user_id":94,"name":"weedcat","steam_id":76561198346054736,"connected_time":914000000000,"state":"active","ping":70},{"user_id":93,"name":"Kartyac","steam_id":76561197991069005,"connected_time":1070000000000,"state":"active","ping":63},{"user_id":82,"name":"Ye","steam_id":76561198284576334,"connected_time":2424000000000,"state":"active","ping":35},{"user_id":108,"name":"Evan","steam_id":76561197972292926,"connected_time":559000000000,"state":"active","ping":62},{"user_id":113,"name":"Lost CS player","steam_id":76561198892387723,"connected_time":176000000000,"state":"active","ping":70},{"user_id":114,"name":"quint","steam_id":76561198046797995,"connected_time":25000000000,"state":"active","ping":77},{"user_id":100,"name":"Diarrhea Gaming","steam_id":76561198090589784,"connected_time":836000000000,"state":"active","ping":75},{"user_id":69,"name":"MidSobbes08","steam_id":76561199013101925,"connected_time":3479000000000,"state":"active","ping":117},{"user_id":101,"name":"Archer","steam_id":76561197995675381,"connected_time":833000000000,"state":"active","ping":54},{"user_id":110,"name":"PenguinJack","steam_id":76561198120680312,"connected_time":436000000000,"state":"active","ping":66},{"user_id":92,"name":"Ghost","steam_id":76561198110914180,"connected_time":1113000000000,"state":"active","ping":159},{"user_id":81,"name":"SnareString","steam_id":76561199082119457,"connected_time":2504000000000,"state":"active","ping":125},{"user_id":102,"name":"robokitten55","steam_id":76561199153659003,"connected_time":830000000000,"state":"active","ping":91},{"user_id":103,"name":"Daisy Le Nerd","steam_id":76561198149350087,"connected_time":795000000000,"state":"active","ping":169},{"user_id":112,"name":"Yeti","steam_id":76561198035450920,"connected_time":374000000000,"state":"active","ping":59},{"user_id":86,"name":"nebby","steam_id":76561197990815274,"connected_time":1562000000000,"state":"active","ping":60},{"user_id":109,"name":"Aycey Spacey","steam_id":76561198862522941,"connected_time":554000000000,"state":"active","ping":158}]},{"server_id":15,"name":"Uncletopia | New York City | 3 | Stopwatch Beta","name_short":"nyc-3","host":"nyc-1.us.uncletopia.com","port":27035,"enabled":true,"region":"us-east","cc":"us","latitude":40.73061,"longitude":-73.93524,"reserved":0,"last_update":"0001-01-01T00:00:00Z","name_a2s":"Uncletopia | New York City | 3 | Stopwatch Beta","protocol":17,"map":"workshop/koth_ashville_final.ugc2130459942","folder":"tf","game":"Team Fortress","app_id":440,"player_count":0,"max_players":24,"Bots":0,"server_type":"Dedicated","server_os":"Linux","password":true,"vac":true,"version":"7882260","steam_id":85568392924742820,"keywords":["cp","nocrits","nodmgspread","uncletopia"],"game_id":440,"stv_port":27036,"stv_name":"Uncletopia | New York City | 3 | Stopwatch Beta | STV","players":null},{"server_id":16,"name":"Uncletopia | New York City | 4 | Community","name_short":"nyc-4","host":"nyc-1.us.uncletopia.com","port":27045,"enabled":true,"region":"us-east","cc":"us","latitude":40.73061,"longitude":-73.93524,"reserved":0,"last_update":"0001-01-01T00:00:00Z","name_a2s":"Uncletopia | New York City | 4 | Community","protocol":17,"map":"workshop/koth_slaughter_rc1.ugc1712845210","folder":"tf","game":"Team Fortress","app_id":440,"player_count":7,"max_players":24,"Bots":0,"server_type":"Dedicated","server_os":"Linux","password":true,"vac":true,"version":"7882260","steam_id":85568392924742821,"keywords":["cp","nocrits","nodmgspread","uncletopia"],"game_id":440,"stv_port":27046,"stv_name":"Uncletopia | New York City | 4 | Community | STV","players":[{"user_id":94,"name":"TF2 enjoyer","steam_id":76561199067038870,"connected_time":606000000000,"state":"active","ping":41},{"user_id":92,"name":"Friedrich Van Bingle","steam_id":76561198185952115,"connected_time":1041000000000,"state":"active","ping":94},{"user_id":95,"name":"Un-Destroyer","steam_id":76561199441945270,"connected_time":601000000000,"state":"active","ping":86},{"user_id":96,"name":"‚ù§Flaxks‚ù§","steam_id":76561198410260447,"connected_time":553000000000,"state":"active","ping":100},{"user_id":97,"name":"Pot8to","steam_id":76561198247598000,"connected_time":249000000000,"state":"active","ping":108},{"user_id":98,"name":"Reverie","steam_id":76561198987005784,"connected_time":73000000000,"state":"active","ping":73},{"user_id":99,"name":"Cheesemelt","steam_id":76561198008221847,"connected_time":44000000000,"state":"spawning","ping":224}]},{"server_id":142,"name":"Uncletopia | S√£o Paulo | 1 | All Maps","name_short":"sao-1","host":"sao-1.br.uncletopia.com","port":27015,"enabled":true,"region":"sa","cc":"br","latitude":-23.533773,"longitude":-46.62529,"reserved":0,"last_update":"0001-01-01T00:00:00Z","name_a2s":"Uncletopia | S√£o Paulo | 1 | All Maps","protocol":17,"map":"koth_viaduct","folder":"tf","game":"Team Fortress","app_id":440,"player_count":0,"max_players":24,"Bots":0,"server_type":"Dedicated","server_os":"Linux","password":true,"vac":true,"version":"7882260","steam_id":85568392924469996,"keywords":["cp","nocrits","nodmgspread","uncletopia"],"game_id":440,"stv_port":27016,"stv_name":"Uncletopia | S√£o Paulo | 1 | All Maps | STV","players":null},{"server_id":143,"name":"Uncletopia | S√£o Paulo | 2 | All Maps","name_short":"sao-2","host":"sao-2.br.uncletopia.com","port":27015,"enabled":true,"region":"sa","cc":"br","latitude":-23.533773,"longitude":-46.62529,"reserved":0,"last_update":"0001-01-01T00:00:00Z","name_a2s":"Uncletopia | S√£o Paulo | 2 | All Maps","protocol":17,"map":"koth_viaduct","folder":"tf","game":"Team Fortress","app_id":440,"player_count":23,"max_players":24,"Bots":0,"server_type":"Dedicated","server_os":"Linux","password":true,"vac":true,"version":"7882260","steam_id":85568392924485349,"keywords":["cp","nocrits","nodmgspread","uncletopia"],"game_id":440,"stv_port":27016,"stv_name":"Uncletopia | S√£o Paulo | 2 | All Maps | STV","players":[{"user_id":62,"name":"Evanbrs","steam_id":76561198041508327,"connected_time":4160000000000,"state":"active","ping":80},{"user_id":125,"name":"Kenny","steam_id":76561198112794904,"connected_time":1174000000000,"state":"active","ping":68},{"user_id":124,"name":"Vi-create","steam_id":76561198277032656,"connected_time":1306000000000,"state":"active","ping":40},{"user_id":126,"name":"Miguel Dixon","steam_id":76561199276339866,"connected_time":1066000000000,"state":"active","ping":163},{"user_id":116,"name":"Shadeblack","steam_id":76561198141902208,"connected_time":1792000000000,"state":"active","ping":52},{"user_id":71,"name":"Tusk ‚≠ê‚≠ê‚≠ê","steam_id":76561198109725714,"connected_time":3922000000000,"state":"active","ping":90},{"user_id":86,"name":"flamingo","steam_id":76561198854099251,"connected_time":3161000000000,"state":"active","ping":119},{"user_id":100,"name":"delete","steam_id":76561198351372235,"connected_time":2481000000000,"state":"active","ping":61},{"user_id":131,"name":"Absoluto Yin","steam_id":76561198817578192,"connected_time":719000000000,"state":"active","ping":71},{"user_id":78,"name":"matheus_lanches","steam_id":76561199359501901,"connected_time":3432000000000,"state":"active","ping":43},{"user_id":128,"name":".fnord","steam_id":76561198119754613,"connected_time":979000000000,"state":"active","ping":55},{"user_id":104,"name":"Wife","steam_id":76561199015982068,"connected_time":2175000000000,"state":"active","ping":104},{"user_id":50,"name":"Ori ‚ô•","steam_id":76561198096883134,"connected_time":4791000000000,"state":"active","ping":76},{"user_id":133,"name":"OH GOD OH FUCK!!","steam_id":76561198055445565,"connected_time":436000000000,"state":"active","ping":117},{"user_id":81,"name":"Dio","steam_id":76561198801487696,"connected_time":3301000000000,"state":"active","ping":145},{"user_id":134,"name":"Gustavocoste","steam_id":76561198233692404,"connected_time":427000000000,"state":"active","ping":40},{"user_id":137,"name":"QSelite101","steam_id":76561198154936405,"connected_time":286000000000,"state":"active","ping":168},{"user_id":141,"name":"jarb","steam_id":76561198298965060,"connected_time":104000000000,"state":"active","ping":55},{"user_id":136,"name":"Artur6768","steam_id":76561198118726347,"connected_time":360000000000,"state":"active","ping":50},{"user_id":82,"name":"cavaleiro no deserto","steam_id":76561198869886282,"connected_time":3288000000000,"state":"active","ping":87},{"user_id":118,"name":"F3_BC03","steam_id":76561199211376269,"connected_time":1701000000000,"state":"active","ping":56},{"user_id":138,"name":"Gigi","steam_id":76561198348971878,"connected_time":273000000000,"state":"active","ping":62},{"user_id":140,"name":"DIGOSSAURO","steam_id":76561197978445479,"connected_time":208000000000,"state":"active","ping":47}]},{"server_id":7,"name":"Uncletopia | Seattle | 1 | All Maps","name_short":"sea-1","host":"sea-1.us.uncletopia.com","port":27015,"enabled":true,"region":"us-west","cc":"us","latitude":47.608013,"longitude":-122.33517,"reserved":0,"last_update":"0001-01-01T00:00:00Z","name_a2s":"Uncletopia | Seattle | 1 | All Maps","protocol":17,"map":"plr_hightower","folder":"tf","game":"Team Fortress","app_id":440,"player_count":24,"max_players":24,"Bots":0,"server_type":"Dedicated","server_os":"Linux","password":true,"vac":true,"version":"7882260","steam_id":85568392924469997,"keywords":["nocrits","nodmgspread","payload","uncletopia"],"game_id":440,"stv_port":27016,"stv_name":"Uncletopia | Seattle | 1 | All Maps | STV","players":[{"user_id":388,"name":"Mignyanne :3","steam_id":76561198048754056,"connected_time":8554000000000,"state":"active","ping":64},{"user_id":476,"name":"smeasly","steam_id":76561198028718812,"connected_time":241000000000,"state":"active","ping":44},{"user_id":462,"name":"Hassium","steam_id":76561198162541373,"connected_time":687000000000,"state":"active","ping":52},{"user_id":469,"name":"Yeove","steam_id":76561198042113219,"connected_time":318000000000,"state":"active","ping":115},{"user_id":431,"name":"O","steam_id":76561198450073779,"connected_time":3350000000000,"state":"active","ping":45},{"user_id":464,"name":"BlazedBunny","steam_id":76561198243610560,"connected_time":433000000000,"state":"active","ping":75},{"user_id":449,"name":"Forty","steam_id":76561198257410181,"connected_time":1997000000000,"state":"active","ping":60},{"user_id":443,"name":"MCman","steam_id":76561198412110305,"connected_time":2363000000000,"state":"active","ping":75},{"user_id":433,"name":"C U Next Tuesday","steam_id":76561198058493492,"connected_time":3244000000000,"state":"active","ping":54},{"user_id":459,"name":"jacix3 [gay wolfgirl]{she/it}","steam_id":76561198205004165,"connected_time":1370000000000,"state":"active","ping":63},{"user_id":450,"name":"Owl of Delos","steam_id":76561198437116566,"connected_time":1996000000000,"state":"active","ping":57},{"user_id":477,"name":"robertJMP","steam_id":76561199066260919,"connected_time":219000000000,"state":"active","ping":166},{"user_id":471,"name":"Vandhoming","steam_id":76561198183775386,"connected_time":314000000000,"state":"active","ping":62},{"user_id":472,"name":"pastaroasta","steam_id":76561198302965298,"connected_time":302000000000,"state":"active","ping":102},{"user_id":474,"name":"WhoWantsACat","steam_id":76561198137880454,"connected_time":263000000000,"state":"active","ping":70},{"user_id":465,"name":"Tungsten","steam_id":76561198312854342,"connected_time":361000000000,"state":"active","ping":64},{"user_id":391,"name":"Stick Drift","steam_id":76561199019675078,"connected_time":8123000000000,"state":"active","ping":109},{"user_id":466,"name":"MacchuPeachu","steam_id":76561199093242587,"connected_time":355000000000,"state":"active","ping":62},{"user_id":473,"name":"Pretzel","steam_id":76561198092856398,"connected_time":287000000000,"state":"active","ping":60},{"user_id":455,"name":"JanTheGhost","steam_id":76561198279500049,"connected_time":1649000000000,"state":"active","ping":36},{"user_id":457,"name":"Kc","steam_id":76561198210734407,"connected_time":1535000000000,"state":"active","ping":114},{"user_id":478,"name":"I EAT DRYWALL","steam_id":76561198370925029,"connected_time":198000000000,"state":"active","ping":129},{"user_id":480,"name":"jackhillard83","steam_id":76561199057098390,"connected_time":93000000000,"state":"active","ping":129},{"user_id":432,"name":"Astronat","steam_id":76561198096321896,"connected_time":3349000000000,"state":"active","ping":62}]},{"server_id":119,"name":"Uncletopia | Seattle | 2 | All Maps","name_short":"sea-2","host":"sea-1.us.uncletopia.com","port":27025,"enabled":true,"region":"us-west","cc":"us","latitude":47.608013,"longitude":-122.33517,"reserved":0,"last_update":"0001-01-01T00:00:00Z","name_a2s":"Uncletopia | Seattle | 2 | All Maps","protocol":17,"map":"pl_thundermountain","folder":"tf","game":"Team Fortress","app_id":440,"player_count":24,"max_players":24,"Bots":0,"server_type":"Dedicated","server_os":"Linux","password":true,"vac":true,"version":"7882260","steam_id":85568392924469998,"keywords":["nocrits","nodmgspread","payload","uncletopia"],"game_id":440,"stv_port":27026,"stv_name":"Uncletopia | Seattle | 2 | All Maps | STV","players":[{"user_id":367,"name":"Wingman","steam_id":76561198066270405,"connected_time":1247000000000,"state":"active","ping":61},{"user_id":374,"name":"jBracko","steam_id":76561198019261602,"connected_time":924000000000,"state":"active","ping":61},{"user_id":369,"name":"exephur","steam_id":76561198135763234,"connected_time":1209000000000,"state":"active","ping":66},{"user_id":284,"name":"Thunder","steam_id":76561198097721532,"connected_time":6354000000000,"state":"active","ping":71},{"user_id":363,"name":"Drake from State Farm","steam_id":76561199069029812,"connected_time":1480000000000,"state":"active","ping":78},{"user_id":360,"name":"COOL master_9","steam_id":76561198073041151,"connected_time":1686000000000,"state":"active","ping":98},{"user_id":357,"name":"Mega","steam_id":76561198121258379,"connected_time":1906000000000,"state":"active","ping":114},{"user_id":353,"name":"veemo","steam_id":76561198321393225,"connected_time":1972000000000,"state":"active","ping":106},{"user_id":375,"name":"Mitch McHoover","steam_id":76561198178827614,"connected_time":802000000000,"state":"active","ping":58},{"user_id":355,"name":"some nerd","steam_id":76561198297272878,"connected_time":1940000000000,"state":"active","ping":71},{"user_id":377,"name":"ratgey","steam_id":76561198117113848,"connected_time":725000000000,"state":"active","ping":118},{"user_id":370,"name":"Follow God not others","steam_id":76561198452519031,"connected_time":1199000000000,"state":"active","ping":50},{"user_id":371,"name":"hi i got new glasses","steam_id":76561198424248616,"connected_time":1176000000000,"state":"active","ping":81},{"user_id":379,"name":"Renota","steam_id":76561198058224488,"connected_time":414000000000,"state":"active","ping":128},{"user_id":373,"name":"a Hippobottomus","steam_id":76561198126853441,"connected_time":1016000000000,"state":"active","ping":104},{"user_id":376,"name":"geyrats","steam_id":76561198042941628,"connected_time":774000000000,"state":"active","ping":84},{"user_id":342,"name":"June","steam_id":76561198141803658,"connected_time":2593000000000,"state":"active","ping":73},{"user_id":359,"name":"SYMBOL_YT","steam_id":76561198848655517,"connected_time":1728000000000,"state":"active","ping":65},{"user_id":348,"name":"The Theory Of Everything","steam_id":76561198286792807,"connected_time":2304000000000,"state":"active","ping":113},{"user_id":362,"name":"da clown","steam_id":76561199096780590,"connected_time":1513000000000,"state":"active","ping":62},{"user_id":378,"name":"Mormon Discoball","steam_id":76561198028006216,"connected_time":450000000000,"state":"active","ping":78},{"user_id":372,"name":"aisu","steam_id":76561198043768507,"connected_time":1121000000000,"state":"active","ping":101},{"user_id":338,"name":"Babyface","steam_id":76561199240579044,"connected_time":2834000000000,"state":"active","ping":110},{"user_id":344,"name":"dep","steam_id":76561198044106812,"connected_time":2574000000000,"state":"active","ping":110}]},{"server_id":406,"name":"Uncletopia | Seattle | 3 | Stopwatch Beta","name_short":"sea-3","host":"sea-1.us.uncletopia.com","port":27035,"enabled":true,"region":"us-west","cc":"us","latitude":47.608013,"longitude":-122.33517,"reserved":0,"last_update":"0001-01-01T00:00:00Z","name_a2s":"Uncletopia | Seattle | 3 | Stopwatch Beta","protocol":17,"map":"workshop/pl_badwater_pro_v12.ugc2142942074","folder":"tf","game":"Team Fortress","app_id":440,"player_count":0,"max_players":24,"Bots":0,"server_type":"Dedicated","server_os":"Linux","password":true,"vac":true,"version":"7882260","steam_id":85568392924515217,"keywords":["nocrits","nodmgspread","payload","uncletopia"],"game_id":440,"stv_port":27036,"stv_name":"Uncletopia | Seattle | 3 | Stopwatch Beta | STV","players":null},{"server_id":17,"name":"Uncletopia | San Francisco | 1 | All Maps","name_short":"sfo-1","host":"sfo-1.us.uncletopia.com","port":27015,"enabled":true,"region":"us-west","cc":"us","latitude":37.77397,"longitude":-122.4313,"reserved":0,"last_update":"0001-01-01T00:00:00Z","name_a2s":"Uncletopia | San Francisco | 1 | All Maps","protocol":17,"map":"cp_process_final","folder":"tf","game":"Team Fortress","app_id":440,"player_count":0,"max_players":24,"Bots":0,"server_type":"Dedicated","server_os":"Linux","password":true,"vac":true,"version":"7757534","steam_id":85568392924469999,"keywords":["cp","nocrits","nodmgspread","uncletopia"],"game_id":440,"stv_port":27016,"stv_name":"Uncletopia | San Francisco | 1 | All Maps | STV","players":null},{"server_id":18,"name":"Uncletopia | San Francisco | 2 | All Maps","name_short":"sfo-2","host":"sfo-1.us.uncletopia.com","port":27025,"enabled":true,"region":"us-west","cc":"us","latitude":37.77397,"longitude":-122.4313,"reserved":0,"last_update":"0001-01-01T00:00:00Z","name_a2s":"Uncletopia | San Francisco | 2 | All Maps","protocol":17,"map":"koth_highpass","folder":"tf","game":"Team Fortress","app_id":440,"player_count":0,"max_players":24,"Bots":0,"server_type":"Dedicated","server_os":"Linux","password":true,"vac":true,"version":"7757534","steam_id":85568392924470000,"keywords":["cp","nocrits","nodmgspread","uncletopia"],"game_id":440,"stv_port":27026,"stv_name":"Uncletopia | San Francisco | 2 | All Maps | STV","players":null},{"server_id":19,"name":"Uncletopia | San Francisco | 3 | Stopwatch Beta","name_short":"sfo-3","host":"sfo-1.us.uncletopia.com","port":27035,"enabled":true,"region":"us-west","cc":"us","latitude":37.77397,"longitude":-122.4313,"reserved":0,"last_update":"0001-01-01T00:00:00Z","name_a2s":"Uncletopia | San Francisco | 3 | Stopwatch Beta","protocol":17,"map":"koth_lakeside_final","folder":"tf","game":"Team Fortress","app_id":440,"player_count":0,"max_players":24,"Bots":0,"server_type":"Dedicated","server_os":"Linux","password":true,"vac":true,"version":"7757534","steam_id":85568392924742824,"keywords":["cp","nocrits","nodmgspread","uncletopia"],"game_id":440,"stv_port":27036,"stv_name":"Uncletopia | San Francisco | 3 | Stopwatch Beta | STV","players":null},{"server_id":20,"name":"Uncletopia | San Francisco | 4 | Community","name_short":"sfo-4","host":"sfo-1.us.uncletopia.com","port":27045,"enabled":true,"region":"us-west","cc":"us","latitude":37.77397,"longitude":-122.4313,"reserved":0,"last_update":"0001-01-01T00:00:00Z","name_a2s":"Uncletopia | San Francisco | 4 | Community","protocol":17,"map":"cp_altitude","folder":"tf","game":"Team Fortress","app_id":440,"player_count":0,"max_players":24,"Bots":0,"server_type":"Dedicated","server_os":"Linux","password":true,"vac":true,"version":"7757534","steam_id":85568392924742826,"keywords":["cp","nocrits","nodmgspread","uncletopia"],"game_id":440,"stv_port":27046,"stv_name":"Uncletopia | San Francisco | 4 | Community | STV","players":null},{"server_id":141,"name":"Uncletopia | Sydney | 1 | All Maps","name_short":"syd-1","host":"syd-1.au.uncletopia.com","port":27015,"enabled":true,"region":"au","cc":"au","latitude":-33.865143,"longitude":151.2099,"reserved":0,"last_update":"0001-01-01T00:00:00Z","name_a2s":"Uncletopia | Sydney | 1 | All Maps","protocol":17,"map":"pl_badwater","folder":"tf","game":"Team Fortress","app_id":440,"player_count":7,"max_players":24,"Bots":0,"server_type":"Dedicated","server_os":"Linux","password":true,"vac":true,"version":"7882260","steam_id":85568392924470001,"keywords":["nocrits","nodmgspread","payload","uncletopia"],"game_id":440,"stv_port":27016,"stv_name":"Uncletopia | Sydney | 1 | All Maps | STV","players":[{"user_id":27,"name":"hive","steam_id":76561199099744527,"connected_time":425000000000,"state":"active","ping":45},{"user_id":22,"name":"Nopper","steam_id":76561198800907279,"connected_time":1451000000000,"state":"active","ping":65},{"user_id":15,"name":"HollowNaught","steam_id":76561198197382111,"connected_time":3941000000000,"state":"active","ping":45},{"user_id":23,"name":"dreamydoggy","steam_id":76561198448243169,"connected_time":923000000000,"state":"active","ping":56},{"user_id":13,"name":"perturb (feed/seed)","steam_id":76561198085124297,"connected_time":4561000000000,"state":"active","ping":44},{"user_id":18,"name":"AmethystDragon10","steam_id":76561198412979983,"connected_time":3082000000000,"state":"active","ping":77},{"user_id":28,"name":"cloudy","steam_id":76561199168844778,"connected_time":72000000000,"state":"active","ping":92}]},{"server_id":123,"name":"Uncletopia | Sydney | 2 | All Maps","name_short":"syd-2","host":"syd-1.au.uncletopia.com","port":27025,"enabled":true,"region":"au","cc":"au","latitude":-33.865143,"longitude":151.2099,"reserved":0,"last_update":"0001-01-01T00:00:00Z","name_a2s":"Uncletopia | Sydney | 2 | All Maps","protocol":17,"map":"koth_viaduct","folder":"tf","game":"Team Fortress","app_id":440,"player_count":0,"max_players":24,"Bots":0,"server_type":"Dedicated","server_os":"Linux","password":true,"vac":true,"version":"7882260","steam_id":85568392924470002,"keywords":["cp","nocrits","nodmgspread","uncletopia"],"game_id":440,"stv_port":27026,"stv_name":"Uncletopia | Sydney | 2 | All Maps | STV","players":null},{"server_id":395,"name":"Uncletopia | Sydney | 3 | All Maps","name_short":"syd-3","host":"syd-1.au.uncletopia.com","port":27035,"enabled":true,"region":"au","cc":"au","latitude":-33.865143,"longitude":151.2099,"reserved":0,"last_update":"0001-01-01T00:00:00Z","name_a2s":"Uncletopia | Sydney | 3 | All Maps","protocol":17,"map":"pl_badwater","folder":"tf","game":"Team Fortress","app_id":440,"player_count":0,"max_players":24,"Bots":0,"server_type":"Dedicated","server_os":"Linux","password":true,"vac":true,"version":"7882260","steam_id":85568392925194467,"keywords":["nocrits","nodmgspread","payload","uncletopia"],"game_id":440,"stv_port":27036,"stv_name":"Uncletopia | Sydney | 3 | All Maps | STV","players":null},{"server_id":396,"name":"Uncletopia | Sydney | 4 | All Maps","name_short":"syd-4","host":"syd-1.au.uncletopia.com","port":27045,"enabled":true,"region":"au","cc":"au","latitude":-33.865143,"longitude":151.2099,"reserved":0,"last_update":"0001-01-01T00:00:00Z","name_a2s":"Uncletopia | Sydney | 4 | All Maps","protocol":17,"map":"cp_dustbowl","folder":"tf","game":"Team Fortress","app_id":440,"player_count":0,"max_players":24,"Bots":0,"server_type":"Dedicated","server_os":"Linux","password":true,"vac":true,"version":"7882260","steam_id":85568392925397958,"keywords":["cp","nocrits","nodmgspread","uncletopia"],"game_id":440,"stv_port":27046,"stv_name":"Uncletopia | Sydney | 4 | All Maps | STV","players":null},{"server_id":58,"name":"Uncletopia | Sydney | 5 | Stopwatch Beta","name_short":"syd-5","host":"syd-1.au.uncletopia.com","port":27055,"enabled":true,"region":"au","cc":"au","latitude":-33.865143,"longitude":151.2099,"reserved":0,"last_update":"0001-01-01T00:00:00Z","name_a2s":"Uncletopia | Sydney | 5 | Stopwatch Beta","protocol":17,"map":"cp_snakewater_final1","folder":"tf","game":"Team Fortress","app_id":440,"player_count":0,"max_players":24,"Bots":0,"server_type":"Dedicated","server_os":"Linux","password":true,"vac":true,"version":"7882260","steam_id":85568392925397959,"keywords":["cp","nocrits","nodmgspread","uncletopia"],"game_id":440,"stv_port":27056,"stv_name":"Uncletopia | Sydney | 5 | Stopwatch Beta | STV","players":null},{"server_id":59,"name":"Uncletopia | Sydney | 6 | Community","name_short":"syd-6","host":"syd-1.au.uncletopia.com","port":27065,"enabled":true,"region":"au","cc":"au","latitude":-33.865143,"longitude":151.2099,"reserved":0,"last_update":"0001-01-01T00:00:00Z","name_a2s":"Uncletopia | Sydney | 6 | Community","protocol":17,"map":"workshop/koth_ramjam_rc1.ugc459778887","folder":"tf","game":"Team Fortress","app_id":440,"player_count":0,"max_players":24,"Bots":0,"server_type":"Dedicated","server_os":"Linux","password":true,"vac":true,"version":"7882260","steam_id":85568392925397960,"keywords":["cp","nocrits","nodmgspread","uncletopia"],"game_id":440,"stv_port":27066,"stv_name":"Uncletopia | Sydney | 6 | Community | STV","players":null},{"server_id":49,"name":"Uncletopia | Warsaw | 1 | All Maps","name_short":"waw-1","host":"waw-1.pl.uncletopia.com","port":27015,"enabled":true,"region":"eu","cc":"pl","latitude":52.2297,"longitude":21.017532,"reserved":0,"last_update":"0001-01-01T00:00:00Z","name_a2s":"","protocol":0,"map":"","folder":"","game":"","app_id":0,"player_count":0,"max_players":0,"Bots":0,"server_type":"","server_os":"","password":false,"vac":false,"version":"","steam_id":0,"keywords":null,"game_id":0,"stv_port":0,"stv_name":"","players":null},{"server_id":50,"name":"Uncletopia | Warsaw | 2 | All Maps","name_short":"waw-2","host":"waw-1.pl.uncletopia.com","port":27025,"enabled":true,"region":"eu","cc":"pl","latitude":52.2297,"longitude":21.017532,"reserved":0,"last_update":"0001-01-01T00:00:00Z","name_a2s":"Uncletopia | Warsaw | 2 | All Maps","protocol":17,"map":"cp_snakewater_final1","folder":"tf","game":"Team Fortress","app_id":440,"player_count":0,"max_players":24,"Bots":0,"server_type":"Dedicated","server_os":"Linux","password":true,"vac":true,"version":"7882260","steam_id":85568392925397851,"keywords":["cp","nocrits","nodmgspread","uncletopia"],"game_id":440,"stv_port":27026,"stv_name":"Uncletopia | Warsaw | 2 | All Maps | STV","players":null},{"server_id":51,"name":"Uncletopia | Warsaw | 3 | All Maps","name_short":"waw-3","host":"waw-1.pl.uncletopia.com","port":27035,"enabled":true,"region":"eu","cc":"pl","latitude":52.2297,"longitude":21.017532,"reserved":0,"last_update":"0001-01-01T00:00:00Z","name_a2s":"Uncletopia | Warsaw | 3 | All Maps","protocol":17,"map":"koth_lakeside_final","folder":"tf","game":"Team Fortress","app_id":440,"player_count":0,"max_players":24,"Bots":0,"server_type":"Dedicated","server_os":"Linux","password":true,"vac":true,"version":"7882260","steam_id":85568392925397852,"keywords":["cp","nocrits","nodmgspread","uncletopia"],"game_id":440,"stv_port":27036,"stv_name":"Uncletopia | Warsaw | 3 | All Maps | STV","players":null},{"server_id":52,"name":"Uncletopia | Warsaw | 4 | All Maps","name_short":"waw-4","host":"waw-1.pl.uncletopia.com","port":27045,"enabled":true,"region":"eu","cc":"pl","latitude":52.2297,"longitude":21.017532,"reserved":0,"last_update":"0001-01-01T00:00:00Z","name_a2s":"Uncletopia | Warsaw | 4 | All Maps","protocol":17,"map":"koth_highpass","folder":"tf","game":"Team Fortress","app_id":440,"player_count":0,"max_players":24,"Bots":0,"server_type":"Dedicated","server_os":"Linux","password":true,"vac":true,"version":"7882260","steam_id":85568392925397853,"keywords":["cp","nocrits","nodmgspread","uncletopia"],"game_id":440,"stv_port":27046,"stv_name":"Uncletopia | Warsaw | 4 | All Maps | STV","players":null},{"server_id":53,"name":"Uncletopia | Warsaw | 5 | Stopwatch Beta","name_short":"waw-5","host":"waw-1.pl.uncletopia.com","port":27055,"enabled":true,"region":"eu","cc":"pl","latitude":52.2297,"longitude":21.017532,"reserved":0,"last_update":"0001-01-01T00:00:00Z","name_a2s":"Uncletopia | Warsaw | 5 | Stopwatch Beta","protocol":17,"map":"cp_mountainlab","folder":"tf","game":"Team Fortress","app_id":440,"player_count":0,"max_players":24,"Bots":0,"server_type":"Dedicated","server_os":"Linux","password":true,"vac":true,"version":"7882260","steam_id":85568392925397854,"keywords":["cp","nocrits","nodmgspread","uncletopia"],"game_id":440,"stv_port":27056,"stv_name":"Uncletopia | Warsaw | 5 | Stopwatch Beta | STV","players":null},{"server_id":54,"name":"Uncletopia | Warsaw | 6 | Community","name_short":"waw-6","host":"waw-1.pl.uncletopia.com","port":27065,"enabled":true,"region":"eu","cc":"pl","latitude":52.2297,"longitude":21.017532,"reserved":0,"last_update":"0001-01-01T00:00:00Z","name_a2s":"Uncletopia | Warsaw | 6 | Community","protocol":17,"map":"workshop/pl_badwater_pro_v12.ugc2142942074","folder":"tf","game":"Team Fortress","app_id":440,"player_count":2,"max_players":24,"Bots":0,"server_type":"Dedicated","server_os":"Linux","password":true,"vac":true,"version":"7882260","steam_id":85568392925397856,"keywords":["nocrits","nodmgspread","payload","uncletopia"],"game_id":440,"stv_port":27066,"stv_name":"Uncletopia | Warsaw | 6 | Community | STV","players":[{"user_id":31,"name":"Excel","steam_id":76561199013551562,"connected_time":1113000000000,"state":"active","ping":71},{"user_id":32,"name":"Suuusl","steam_id":76561199045720179,"connected_time":1047000000000,"state":"active","ping":88}]}]}