{"status":true,"message":"","result":[{"server_id":9,"name":"Uncletopia | Atlanta | 1 | All Maps","name_short":"atl-1","host":"atl-1.us.uncletopia.com","port":27015,"enabled":true,"region":"us-east","cc":"us","latitude":33.753746,"longitude":-84.38633,"reserved":0,"last_update":"0001-01-01T00:00:00Z","name_a2s":"Uncletopia | Atlanta | 1 | All Maps","protocol":17,"map":"cp_dustbowl","folder":"tf","game":"Team Fortress","app_id":440,"player_count":0,"max_players":24,"Bots":0,"server_type":"Dedicated","server_os":"Linux","password":true,"vac":true,"version":"7757534","steam_id":85568392924469982,"keywords":["cp","nocrits","nodmgspread","uncletopia"],"game_id":440,"stv_port":27016,"stv_name":"Uncletopia | Atlanta | 1 | All Maps | STV","players":null},{"server_id":400,"name":"Uncletopia | Atlanta | 3 | Stopwatch Beta","name_short":"atl-3","host":"atl-1.us.uncletopia.com","port":27035,"enabled":true,"region":"us-east","cc":"us","latitude":33.753746,"longitude":-84.38633,"reserved":0,"last_update":"0001-01-01T00:00:00Z","name_a2s":"Uncletopia | Atlanta | 3 | Stopwatch Beta","protocol":17,"map":"pl_upward","folder":"tf","game":"Team Fortress","app_id":440,"player_count":0,"max_players":24,"Bots":0,"server_type":"Dedicated","server_os":"Linux","password":true,"vac":true,"version":"7757534","steam_id":85568392924515187,"keywords":["nocrits","nodmgspread","payload","uncletopia"],"game_id":440,"stv_port":27036,"stv_name":"Uncletopia | Atlanta | 3 | Stopwatch Beta | STV","players":null},{"server_id":401,"name":"Uncletopia | Atlanta | 4 | No Payload","name_short":"atl-4","host":"atl-1.us.uncletopia.com","port":27045,"enabled":true,"region":"us-east","cc":"us","latitude":33.753746,"longitude":-84.38633,"reserved":0,"last_update":"0001-01-01T00:00:00Z","name_a2s":"Uncletopia | Atlanta | 4 | No Payload","protocol":17,"map":"pl_pier","folder":"tf","game":"Team Fortress","app_id":440,"player_count":0,"max_players":24,"Bots":0,"server_type":"Dedicated","server_os":"Linux","password":true,"vac":true,"version":"7723704","steam_id":85568392924515188,"keywords":["nocrits","nodmgspread","payload","uncletopia"],"game_id":440,"stv_port":27046,"stv_name":"Uncletopia | Atlanta | 4 | No Payload | STV","players":null},{"server_id":2,"name":"Uncletopia | Chicago | 1 | All Maps","name_short":"chi-1","host":"chi-1.us.uncletopia.com","port":27015,"enabled":true,"region":"us-central","cc":"us","latitude":41.881832,"longitude":-87.62318,"reserved":0,"last_update":"0001-01-01T00:00:00Z","name_a2s":"Uncletopia | Chicago | 1 | All Maps","protocol":17,"map":"pl_upward","folder":"tf","game":"Team Fortress","app_id":440,"player_count":23,"max_players":24,"Bots":0,"server_type":"Dedicated","server_os":"Linux","password":true,"vac":true,"version":"7757534","steam_id":85568392924469984,"keywords":["nocrits","nodmgspread","payload","uncletopia"],"game_id":440,"stv_port":27016,"stv_name":"Uncletopia | Chicago | 1 | All Maps | STV","players":[{"user_id":6,"name":"ethanfive","steam_id":76561198035294132,"connected_time":2871000000000,"state":"spawning","ping":47},{"user_id":41,"name":"A Man Named Pancho","steam_id":76561197984895522,"connected_time":532000000000,"state":"spawning","ping":104},{"user_id":29,"name":"仙女头子于谦","steam_id":76561199031075505,"connected_time":1083000000000,"state":"spawning","ping":187},{"user_id":8,"name":"Zoro01","steam_id":76561198407989540,"connected_time":2388000000000,"state":"spawning","ping":180},{"user_id":44,"name":"skull","steam_id":76561198821775083,"connected_time":33000000000,"state":"spawning","ping":71},{"user_id":43,"name":"fat pan man","steam_id":76561199105346853,"connected_time":92000000000,"state":"spawning","ping":39},{"user_id":11,"name":"Blue Necromancer","steam_id":76561198275755146,"connected_time":2100000000000,"state":"spawning","ping":108},{"user_id":42,"name":"GREG","steam_id":76561198073021168,"connected_time":281000000000,"state":"spawning","ping":65},{"user_id":20,"name":"Lucille_Bluth","steam_id":76561198206133916,"connected_time":1543000000000,"state":"spawning","ping":80},{"user_id":14,"name":"A Box of Kobolds","steam_id":76561198057070883,"connected_time":1836000000000,"state":"spawning","ping":73},{"user_id":22,"name":"spimtmot733","steam_id":76561199029189825,"connected_time":1352000000000,"state":"spawning","ping":49},{"user_id":45,"name":"Harold Butts","steam_id":76561198008938931,"connected_time":21000000000,"state":"spawning","ping":101},{"user_id":23,"name":"when that knee surgery is today","steam_id":76561198992371280,"connected_time":1331000000000,"state":"spawning","ping":90},{"user_id":24,"name":"Sweetie","steam_id":76561198806688369,"connected_time":1276000000000,"state":"spawning","ping":67},{"user_id":25,"name":"Coffee with a Stranger","steam_id":76561198307422313,"connected_time":1240000000000,"state":"spawning","ping":49},{"user_id":26,"name":"Quillz","steam_id":76561197996567754,"connected_time":1178000000000,"state":"spawning","ping":65},{"user_id":27,"name":"earl","steam_id":76561199004370870,"connected_time":1135000000000,"state":"spawning","ping":172},{"user_id":28,"name":"brug","steam_id":76561199086261574,"connected_time":1127000000000,"state":"spawning","ping":61},{"user_id":33,"name":"The Chosen One","steam_id":76561199046984627,"connected_time":1002000000000,"state":"spawning","ping":68},{"user_id":31,"name":"Jimmy Two-Times","steam_id":76561198013308693,"connected_time":1054000000000,"state":"spawning","ping":65},{"user_id":32,"name":"SomeRandomPerson (f2p)","steam_id":76561198977045933,"connected_time":1038000000000,"state":"spawning","ping":75},{"user_id":34,"name":"ReapinRuns","steam_id":76561199356961069,"connected_time":998000000000,"state":"spawning","ping":76},{"user_id":37,"name":"Super Noob","steam_id":76561199179611350,"connected_time":883000000000,"state":"spawning","ping":46}]},{"server_id":106,"name":"Uncletopia | Chicago | 2 | All Maps","name_short":"chi-2","host":"chi-1.us.uncletopia.com","port":27025,"enabled":true,"region":"us-central","cc":"us","latitude":41.881832,"longitude":-87.62318,"reserved":0,"last_update":"0001-01-01T00:00:00Z","name_a2s":"Uncletopia | Chicago | 2 | All Maps","protocol":17,"map":"koth_lakeside_final","folder":"tf","game":"Team Fortress","app_id":440,"player_count":0,"max_players":24,"Bots":0,"server_type":"Dedicated","server_os":"Linux","password":true,"vac":true,"version":"7757534","steam_id":85568392924469985,"keywords":["cp","nocrits","nodmgspread","uncletopia"],"game_id":440,"stv_port":27026,"stv_name":"Uncletopia | Chicago | 2 | All Maps | STV","players":null},{"server_id":402,"name":"Uncletopia | Chicago | 3 | All Maps","name_short":"chi-3","host":"chi-1.us.uncletopia.com","port":27035,"enabled":true,"region":"us-central","cc":"us","latitude":41.881832,"longitude":-87.62318,"reserved":0,"last_update":"0001-01-01T00:00:00Z","name_a2s":"Uncletopia | Chicago | 3 | All Maps","protocol":17,"map":"cp_mountainlab","folder":"tf","game":"Team Fortress","app_id":440,"player_count":0,"max_players":24,"Bots":0,"server_type":"Dedicated","server_os":"Linux","password":true,"vac":true,"version":"7757534","steam_id":85568392924515191,"keywords":["cp","nocrits","nodmgspread","uncletopia"],"game_id":440,"stv_port":27036,"stv_name":"Uncletopia | Chicago | 3 | All Maps | STV","players":null},{"server_id":403,"name":"Uncletopia | Chicago | 4 | All Maps","name_short":"chi-4","host":"chi-1.us.uncletopia.com","port":27045,"enabled":true,"region":"us-central","cc":"us","latitude":41.881832,"longitude":-87.62318,"reserved":0,"last_update":"0001-01-01T00:00:00Z","name_a2s":"Uncletopia | Chicago | 4 | All Maps","protocol":17,"map":"cp_altitude","folder":"tf","game":"Team Fortress","app_id":440,"player_count":0,"max_players":24,"Bots":0,"server_type":"Dedicated","server_os":"Linux","password":true,"vac":true,"version":"7757534","steam_id":85568392924515193,"keywords":["cp","nocrits","nodmgspread","uncletopia"],"game_id":440,"stv_port":27046,"stv_name":"Uncletopia | Chicago | 4 | All Maps | STV","players":null},{"server_id":36,"name":"Uncletopia | Chicago | 5 | All Maps","name_short":"chi-5","host":"chi-2.us.uncletopia.com","port":27015,"enabled":true,"region":"us-central","cc":"us","latitude":41.881832,"longitude":-87.62318,"reserved":0,"last_update":"0001-01-01T00:00:00Z","name_a2s":"Uncletopia | Chicago | 5 | All Maps","protocol":17,"map":"koth_cascade","folder":"tf","game":"Team Fortress","app_id":440,"player_count":4,"max_players":24,"Bots":0,"server_type":"Dedicated","server_os":"Linux","password":true,"vac":true,"version":"7757534","steam_id":85568392924866362,"keywords":["cp","nocrits","nodmgspread","uncletopia"],"game_id":440,"stv_port":27016,"stv_name":"Uncletopia | Chicago | 5 | All Maps | STV","players":[{"user_id":3,"name":"Otzeo","steam_id":76561198835657637,"connected_time":449000000000,"state":"active","ping":144},{"user_id":4,"name":"labrebis","steam_id":76561198977575946,"connected_time":441000000000,"state":"active","ping":145},{"user_id":5,"name":"Dog Food Lid","steam_id":76561198360097175,"connected_time":212000000000,"state":"active","ping":49},{"user_id":6,"name":"folie","steam_id":76561198041393929,"connected_time":205000000000,"state":"active","ping":73}]},{"server_id":37,"name":"Uncletopia | Chicago | 6 | All Maps","name_short":"chi-6","host":"chi-2.us.uncletopia.com","port":27025,"enabled":true,"region":"us-central","cc":"us","latitude":41.881832,"longitude":-87.62318,"reserved":0,"last_update":"0001-01-01T00:00:00Z","name_a2s":"Uncletopia | Chicago | 6 | All Maps","protocol":17,"map":"cp_mountainlab","folder":"tf","game":"Team Fortress","app_id":440,"player_count":0,"max_players":24,"Bots":0,"server_type":"Dedicated","server_os":"Linux","password":true,"vac":true,"version":"7757534","steam_id":85568392924866363,"keywords":["cp","nocrits","nodmgspread","uncletopia"],"game_id":440,"stv_port":27026,"stv_name":"Uncletopia | Chicago | 6 | All Maps | STV","players":null},{"server_id":38,"name":"Uncletopia | Chicago | 7 | Stopwatch Beta","name_short":"chi-7","host":"chi-2.us.uncletopia.com","port":27035,"enabled":true,"region":"us-central","cc":"us","latitude":41.881832,"longitude":-87.62318,"reserved":0,"last_update":"0001-01-01T00:00:00Z","name_a2s":"Uncletopia | Chicago | 7 | Stopwatch Beta","protocol":17,"map":"cp_sunshine","folder":"tf","game":"Team Fortress","app_id":440,"player_count":0,"max_players":24,"Bots":0,"server_type":"Dedicated","server_os":"Linux","password":true,"vac":true,"version":"7757534","steam_id":85568392924866364,"keywords":["cp","nocrits","nodmgspread","uncletopia"],"game_id":440,"stv_port":27036,"stv_name":"Uncletopia | Chicago | 7 | Stopwatch Beta | STV","players":null},{"server_id":39,"name":"Uncletopia | Chicago | 8 | Community","name_short":"chi-8","host":"chi-2.us.uncletopia.com","port":27045,"enabled":true,"region":"us-central","cc":"us","latitude":41.881832,"longitude":-87.62318,"reserved":0,"last_update":"0001-01-01T00:00:00Z","name_a2s":"Uncletopia | Chicago | 8 | Community","protocol":17,"map":"pl_pier","folder":"tf","game":"Team Fortress","app_id":440,"player_count":0,"max_players":24,"Bots":0,"server_type":"Dedicated","server_os":"Linux","password":true,"vac":true,"version":"7757534","steam_id":85568392924866365,"keywords":["nocrits","nodmgspread","payload","uncletopia"],"game_id":440,"stv_port":27046,"stv_name":"Uncletopia | Chicago | 8 | Community | STV","players":null},{"server_id":8,"name":"Uncletopia | Dallas | 1 | All Maps","name_short":"dal-1","host":"dal-1.us.uncletopia.com","port":27015,"enabled":true,"region":"us-central","cc":"us","latitude":32.779167,"longitude":-96.80889,"reserved":0,"last_update":"0001-01-01T00:00:00Z","name_a2s":"Uncletopia | Dallas | 1 | All Maps","protocol":17,"map":"pl_badwater","folder":"tf","game":"Team Fortress","app_id":440,"player_count":1,"max_players":24,"Bots":0,"server_type":"Dedicated","server_os":"Linux","password":true,"vac":true,"version":"7757534","steam_id":85568392924469986,"keywords":["nocrits","nodmgspread","payload","uncletopia"],"game_id":440,"stv_port":27016,"stv_name":"Uncletopia | Dallas | 1 | All Maps | STV","players":[{"user_id":3,"name":"Mrakan","steam_id":76561199239780769,"connected_time":23000000000,"state":"spawning","ping":208}]},{"server_id":108,"name":"Uncletopia | Dallas | 2 | All Maps","name_short":"dal-2","host":"dal-1.us.uncletopia.com","port":27025,"enabled":true,"region":"us-central","cc":"us","latitude":32.779167,"longitude":-96.80889,"reserved":0,"last_update":"0001-01-01T00:00:00Z","name_a2s":"Uncletopia | Dallas | 2 | All Maps","protocol":17,"map":"koth_highpass","folder":"tf","game":"Team Fortress","app_id":440,"player_count":0,"max_players":24,"Bots":0,"server_type":"Dedicated","server_os":"Linux","password":true,"vac":true,"version":"7757534","steam_id":85568392924469988,"keywords":["cp","nocrits","nodmgspread","uncletopia"],"game_id":440,"stv_port":27026,"stv_name":"Uncletopia | Dallas | 2 | All Maps | STV","players":null},{"server_id":5,"name":"Uncletopia | Frankfurt | 1 | All Maps","name_short":"frk-1","host":"frk-1.de.uncletopia.com","port":27015,"enabled":true,"region":"eu","cc":"de","latitude":50.110924,"longitude":8.682127,"reserved":0,"last_update":"0001-01-01T00:00:00Z","name_a2s":"Uncletopia | Frankfurt | 1 | All Maps","protocol":17,"map":"pl_upward","folder":"tf","game":"Team Fortress","app_id":440,"player_count":24,"max_players":24,"Bots":0,"server_type":"Dedicated","server_os":"Linux","password":true,"vac":true,"version":"7757534","steam_id":85568392924469989,"keywords":["nocrits","nodmgspread","payload","uncletopia"],"game_id":440,"stv_port":27016,"stv_name":"Uncletopia | Frankfurt | 1 | All Maps | STV","players":[{"user_id":145,"name":"Hannü","steam_id":76561197969886128,"connected_time":2201000000000,"state":"active","ping":65},{"user_id":147,"name":"walluu","steam_id":76561198121830870,"connected_time":2128000000000,"state":"active","ping":74},{"user_id":146,"name":"KeanuCheems","steam_id":76561198145580689,"connected_time":2186000000000,"state":"active","ping":70},{"user_id":174,"name":"核nucleoneツ","steam_id":76561198099372569,"connected_time":373000000000,"state":"active","ping":59},{"user_id":178,"name":"Hifumi Togo","steam_id":76561198074930636,"connected_time":22000000000,"state":"active","ping":138},{"user_id":155,"name":"VERS","steam_id":76561198884232373,"connected_time":1513000000000,"state":"active","ping":59},{"user_id":172,"name":"Mr. Hunts","steam_id":76561197981910397,"connected_time":503000000000,"state":"active","ping":67},{"user_id":120,"name":"Dos","steam_id":76561198410598772,"connected_time":2925000000000,"state":"active","ping":44},{"user_id":160,"name":"makin' piss","steam_id":76561198052136478,"connected_time":1029000000000,"state":"active","ping":71},{"user_id":177,"name":"Chambersite","steam_id":76561198197022399,"connected_time":95000000000,"state":"active","ping":65},{"user_id":144,"name":"Choruptian","steam_id":76561198017686366,"connected_time":2241000000000,"state":"active","ping":53},{"user_id":162,"name":"Naginacz","steam_id":76561199099232534,"connected_time":880000000000,"state":"active","ping":62},{"user_id":176,"name":"duster cat","steam_id":76561198832231975,"connected_time":307000000000,"state":"active","ping":91},{"user_id":167,"name":"Borazilla","steam_id":76561198083626821,"connected_time":836000000000,"state":"active","ping":100},{"user_id":111,"name":"bleak autumn night","steam_id":76561198142183478,"connected_time":3372000000000,"state":"active","ping":91},{"user_id":139,"name":"Laura ❤","steam_id":76561198975652501,"connected_time":2312000000000,"state":"active","ping":95},{"user_id":169,"name":"EdSuedi","steam_id":76561199387956486,"connected_time":804000000000,"state":"active","ping":52},{"user_id":129,"name":"Dzan50","steam_id":76561198059758591,"connected_time":2487000000000,"state":"active","ping":90},{"user_id":112,"name":"tqla","steam_id":76561198073092585,"connected_time":3274000000000,"state":"active","ping":100},{"user_id":173,"name":"Fancy","steam_id":76561198350658462,"connected_time":501000000000,"state":"active","ping":75},{"user_id":170,"name":"Serton♝","steam_id":76561198011061126,"connected_time":571000000000,"state":"active","ping":82},{"user_id":132,"name":"глупец","steam_id":76561199003520305,"connected_time":2457000000000,"state":"active","ping":137},{"user_id":143,"name":"LOBZIK","steam_id":76561198114830120,"connected_time":2266000000000,"state":"active","ping":76},{"user_id":154,"name":"Kid named finger","steam_id":76561199213971402,"connected_time":1683000000000,"state":"active","ping":82}]},{"server_id":110,"name":"Uncletopia | Frankfurt | 2 | All Maps","name_short":"frk-2","host":"frk-1.de.uncletopia.com","port":27025,"enabled":true,"region":"eu","cc":"de","latitude":50.110924,"longitude":8.682127,"reserved":0,"last_update":"0001-01-01T00:00:00Z","name_a2s":"Uncletopia | Frankfurt | 2 | All Maps","protocol":17,"map":"pl_upward","folder":"tf","game":"Team Fortress","app_id":440,"player_count":24,"max_players":24,"Bots":0,"server_type":"Dedicated","server_os":"Linux","password":true,"vac":true,"version":"7757534","steam_id":85568392924469990,"keywords":["nocrits","nodmgspread","payload","uncletopia"],"game_id":440,"stv_port":27026,"stv_name":"Uncletopia | Frankfurt | 2 | All Maps | STV","players":[{"user_id":64,"name":"Ta grenouille mangeuse de caca","steam_id":76561198091242337,"connected_time":125000000000,"state":"active","ping":45},{"user_id":42,"name":"Thermal","steam_id":76561198142872443,"connected_time":1806000000000,"state":"active","ping":57},{"user_id":48,"name":"giorno giovanna","steam_id":76561198993161087,"connected_time":939000000000,"state":"active","ping":54},{"user_id":11,"name":"Blyatwork","steam_id":76561198825379598,"connected_time":2885000000000,"state":"active","ping":38},{"user_id":49,"name":"Dolcelatte","steam_id":76561198038501770,"connected_time":930000000000,"state":"active","ping":54},{"user_id":58,"name":"Rezkey","steam_id":76561198206079048,"connected_time":316000000000,"state":"active","ping":58},{"user_id":59,"name":"Taskyy","steam_id":76561198134901175,"connected_time":294000000000,"state":"active","ping":85},{"user_id":54,"name":"Melon","steam_id":76561198150893860,"connected_time":891000000000,"state":"active","ping":60},{"user_id":16,"name":"My pee is red","steam_id":76561198219126032,"connected_time":2752000000000,"state":"active","ping":77},{"user_id":62,"name":"Arche","steam_id":76561198000866089,"connected_time":193000000000,"state":"active","ping":72},{"user_id":63,"name":"xd","steam_id":76561198066523881,"connected_time":161000000000,"state":"active","ping":56},{"user_id":27,"name":"Your dad","steam_id":76561199046215821,"connected_time":2144000000000,"state":"active","ping":82},{"user_id":29,"name":"DrilleR_","steam_id":76561198284636705,"connected_time":2107000000000,"state":"active","ping":91},{"user_id":51,"name":"poorchel","steam_id":76561198056905953,"connected_time":919000000000,"state":"active","ping":123},{"user_id":31,"name":"so cute it kils","steam_id":76561198256660599,"connected_time":2066000000000,"state":"active","ping":70},{"user_id":32,"name":"JunketsGM","steam_id":76561199122728626,"connected_time":1993000000000,"state":"active","ping":74},{"user_id":61,"name":"Kubino148","steam_id":76561198028756615,"connected_time":208000000000,"state":"active","ping":76},{"user_id":65,"name":"Ander Escobar","steam_id":76561198335366902,"connected_time":5000000000,"state":"spawning","ping":72},{"user_id":46,"name":"CosminSL","steam_id":76561198055827684,"connected_time":985000000000,"state":"active","ping":68},{"user_id":53,"name":"Bloodstreak","steam_id":76561199237730134,"connected_time":908000000000,"state":"active","ping":126},{"user_id":38,"name":"Dwarf from Kingdom Rush","steam_id":76561198357110085,"connected_time":1929000000000,"state":"active","ping":63},{"user_id":39,"name":"Yony","steam_id":76561199070569941,"connected_time":1921000000000,"state":"active","ping":58},{"user_id":45,"name":"Pastoss","steam_id":76561198379098260,"connected_time":1391000000000,"state":"active","ping":60},{"user_id":41,"name":"T_G_G","steam_id":76561199114568070,"connected_time":1861000000000,"state":"active","ping":100}]},{"server_id":308,"name":"Uncletopia | Frankfurt | 3 | All Maps","name_short":"frk-3","host":"frk-1.de.uncletopia.com","port":27035,"enabled":true,"region":"eu","cc":"de","latitude":50.110924,"longitude":8.682127,"reserved":0,"last_update":"0001-01-01T00:00:00Z","name_a2s":"Uncletopia | Frankfurt | 3 | All Maps","protocol":17,"map":"pl_upward","folder":"tf","game":"Team Fortress","app_id":440,"player_count":24,"max_players":24,"Bots":0,"server_type":"Dedicated","server_os":"Linux","password":true,"vac":true,"version":"7757534","steam_id":85568392924504274,"keywords":["nocrits","nodmgspread","payload","uncletopia"],"game_id":440,"stv_port":27036,"stv_name":"Uncletopia | Frankfurt | 3 | All Maps | STV","players":[{"user_id":195,"name":"PrivatePengu","steam_id":76561198100112667,"connected_time":4360000000000,"state":"active","ping":52},{"user_id":165,"name":"john fortress","steam_id":76561198013237629,"connected_time":7172000000000,"state":"active","ping":95},{"user_id":257,"name":"1couver","steam_id":76561198168553215,"connected_time":537000000000,"state":"active","ping":91},{"user_id":196,"name":"Loading","steam_id":76561198201981190,"connected_time":4358000000000,"state":"active","ping":72},{"user_id":258,"name":"Jin","steam_id":76561198248878364,"connected_time":532000000000,"state":"active","ping":50},{"user_id":242,"name":"OverallConcept","steam_id":76561198085385714,"connected_time":1824000000000,"state":"active","ping":67},{"user_id":251,"name":"Izzie","steam_id":76561198090287325,"connected_time":1132000000000,"state":"active","ping":77},{"user_id":237,"name":"Alerxy","steam_id":76561198930670117,"connected_time":2370000000000,"state":"active","ping":46},{"user_id":234,"name":"soil.dirt.earth","steam_id":76561198014377623,"connected_time":2479000000000,"state":"active","ping":73},{"user_id":255,"name":"Miatthew","steam_id":76561198034102895,"connected_time":544000000000,"state":"active","ping":61},{"user_id":240,"name":"Oki (Bon)","steam_id":76561199047748534,"connected_time":1874000000000,"state":"active","ping":69},{"user_id":254,"name":"Ljubansky","steam_id":76561198012948059,"connected_time":553000000000,"state":"active","ping":51},{"user_id":261,"name":"Leszy","steam_id":76561198372172135,"connected_time":316000000000,"state":"active","ping":62},{"user_id":263,"name":"Arasey","steam_id":76561198996948426,"connected_time":280000000000,"state":"active","ping":75},{"user_id":236,"name":"luma","steam_id":76561198081649669,"connected_time":2374000000000,"state":"active","ping":60},{"user_id":259,"name":"Iva","steam_id":76561198254963150,"connected_time":531000000000,"state":"active","ping":53},{"user_id":250,"name":"Sandvich Gaming","steam_id":76561199079493666,"connected_time":1201000000000,"state":"active","ping":88},{"user_id":247,"name":"Lassesjov","steam_id":76561198089792081,"connected_time":1711000000000,"state":"active","ping":71},{"user_id":264,"name":"walking plane","steam_id":76561198146779559,"connected_time":41000000000,"state":"active","ping":89},{"user_id":256,"name":"lawrencefishdom","steam_id":76561199190918059,"connected_time":541000000000,"state":"active","ping":84},{"user_id":260,"name":"I was good before.","steam_id":76561198187045217,"connected_time":517000000000,"state":"active","ping":74},{"user_id":229,"name":"Overhaul","steam_id":76561198878610347,"connected_time":2812000000000,"state":"active","ping":109},{"user_id":253,"name":"dubysa","steam_id":76561198079774530,"connected_time":1051000000000,"state":"active","ping":67},{"user_id":246,"name":"Officer Dan_dk","steam_id":76561198365053592,"connected_time":1767000000000,"state":"active","ping":122}]},{"server_id":309,"name":"Uncletopia | Frankfurt | 4 | All Maps","name_short":"frk-4","host":"frk-1.de.uncletopia.com","port":27045,"enabled":true,"region":"eu","cc":"de","latitude":50.110924,"longitude":8.682127,"reserved":0,"last_update":"0001-01-01T00:00:00Z","name_a2s":"Uncletopia | Frankfurt | 4 | All Maps","protocol":17,"map":"pl_upward","folder":"tf","game":"Team Fortress","app_id":440,"player_count":24,"max_players":24,"Bots":0,"server_type":"Dedicated","server_os":"Linux","password":true,"vac":true,"version":"7757534","steam_id":85568392924504275,"keywords":["nocrits","nodmgspread","payload","uncletopia"],"game_id":440,"stv_port":27046,"stv_name":"Uncletopia | Frankfurt | 4 | All Maps | STV","players":[{"user_id":100,"name":"Mr. Pickles #SaveTF2","steam_id":76561199210183560,"connected_time":126000000000,"state":"active","ping":129},{"user_id":92,"name":"cop killer","steam_id":76561198039966198,"connected_time":972000000000,"state":"active","ping":60},{"user_id":76,"name":"murderwow","steam_id":76561198024566944,"connected_time":1681000000000,"state":"active","ping":103},{"user_id":101,"name":"Sweat Plantation","steam_id":76561198025086883,"connected_time":126000000000,"state":"active","ping":85},{"user_id":91,"name":"Mingus #transrights","steam_id":76561198356993139,"connected_time":1115000000000,"state":"active","ping":45},{"user_id":96,"name":"Hot Beverage Enjoyer","steam_id":76561198060638325,"connected_time":669000000000,"state":"active","ping":43},{"user_id":59,"name":"KingofCubes","steam_id":76561198258037513,"connected_time":2616000000000,"state":"active","ping":74},{"user_id":78,"name":"barack obama (real)","steam_id":76561198415256353,"connected_time":1593000000000,"state":"active","ping":111},{"user_id":86,"name":"LAMC","steam_id":76561199066888917,"connected_time":1393000000000,"state":"active","ping":66},{"user_id":102,"name":"Senko","steam_id":76561198149361291,"connected_time":119000000000,"state":"active","ping":68},{"user_id":103,"name":"KGiorgios_Bully","steam_id":76561198825392728,"connected_time":116000000000,"state":"active","ping":122},{"user_id":87,"name":"reik","steam_id":76561198075239099,"connected_time":1372000000000,"state":"active","ping":62},{"user_id":70,"name":"bruh","steam_id":76561198109262927,"connected_time":2010000000000,"state":"active","ping":70},{"user_id":90,"name":"better call selo","steam_id":76561198976793469,"connected_time":1186000000000,"state":"active","ping":89},{"user_id":95,"name":"Lord of the Lockerroom","steam_id":76561198080619697,"connected_time":746000000000,"state":"active","ping":89},{"user_id":27,"name":"GuSkand","steam_id":76561198043775605,"connected_time":5159000000000,"state":"active","ping":76},{"user_id":104,"name":"S.Scary","steam_id":76561198248602386,"connected_time":96000000000,"state":"active","ping":66},{"user_id":29,"name":"BΣNZOIC","steam_id":76561198875665995,"connected_time":5157000000000,"state":"active","ping":82},{"user_id":105,"name":"sesw","steam_id":76561198057332404,"connected_time":77000000000,"state":"active","ping":55},{"user_id":82,"name":"Paska, perse vittu","steam_id":76561198093000666,"connected_time":1566000000000,"state":"active","ping":70},{"user_id":83,"name":"GogsCrunchyNuts","steam_id":76561198150599213,"connected_time":1560000000000,"state":"spawning","ping":81},{"user_id":99,"name":"Florua","steam_id":76561198182297846,"connected_time":227000000000,"state":"active","ping":54},{"user_id":93,"name":"позiтiвнiй","steam_id":76561198973737944,"connected_time":907000000000,"state":"active","ping":91},{"user_id":106,"name":"Miloleopard (bad at TF2)","steam_id":76561199196616680,"connected_time":61000000000,"state":"active","ping":74}]},{"server_id":310,"name":"Uncletopia | Frankfurt | 5 | All Maps","name_short":"frk-5","host":"frk-1.de.uncletopia.com","port":27055,"enabled":true,"region":"eu","cc":"de","latitude":50.110924,"longitude":8.682127,"reserved":0,"last_update":"0001-01-01T00:00:00Z","name_a2s":"Uncletopia | Frankfurt | 5 | All Maps","protocol":17,"map":"koth_lakeside_final","folder":"tf","game":"Team Fortress","app_id":440,"player_count":0,"max_players":24,"Bots":0,"server_type":"Dedicated","server_os":"Linux","password":true,"vac":true,"version":"7757534","steam_id":85568392924504277,"keywords":["cp","nocrits","nodmgspread","uncletopia"],"game_id":440,"stv_port":27056,"stv_name":"Uncletopia | Frankfurt | 5 | All Maps | STV","players":null},{"server_id":311,"name":"Uncletopia | Frankfurt | 6 | All Maps","name_short":"frk-6","host":"frk-1.de.uncletopia.com","port":27065,"enabled":true,"region":"eu","cc":"de","latitude":50.110924,"longitude":8.682127,"reserved":0,"last_update":"0001-01-01T00:00:00Z","name_a2s":"Uncletopia | Frankfurt | 6 | All Maps","protocol":17,"map":"koth_highpass","folder":"tf","game":"Team Fortress","app_id":440,"player_count":0,"max_players":24,"Bots":0,"server_type":"Dedicated","server_os":"Linux","password":true,"vac":true,"version":"7757534","steam_id":85568392924504278,"keywords":["cp","nocrits","nodmgspread","uncletopia"],"game_id":440,"stv_port":27066,"stv_name":"Uncletopia | Frankfurt | 6 | All Maps | STV","players":null},{"server_id":23,"name":"Uncletopia | Frankfurt | 7 | Stopwatch Beta","name_short":"frk-7","host":"frk-1.de.uncletopia.com","port":27075,"enabled":true,"region":"eu","cc":"de","latitude":50.110924,"longitude":8.682127,"reserved":0,"last_update":"0001-01-01T00:00:00Z","name_a2s":"Uncletopia | Frankfurt | 7 | Stopwatch Beta","protocol":17,"map":"workshop/koth_ramjam_rc1.ugc459778887","folder":"tf","game":"Team Fortress","app_id":440,"player_count":0,"max_players":24,"Bots":0,"server_type":"Dedicated","server_os":"Linux","password":true,"vac":true,"version":"7757534","steam_id":85568392924742827,"keywords":["cp","nocrits","nodmgspread","uncletopia"],"game_id":440,"stv_port":27076,"stv_name":"Uncletopia | Frankfurt | 7 | Stopwatch Beta | STV","players":null},{"server_id":24,"name":"Uncletopia | Frankfurt | 8 | Community","name_short":"frk-8","host":"frk-1.de.uncletopia.com","port":27085,"enabled":true,"region":"eu","cc":"de","latitude":50.110924,"longitude":8.682127,"reserved":0,"last_update":"0001-01-01T00:00:00Z","name_a2s":"Uncletopia | Frankfurt | 8 | Community","protocol":17,"map":"workshop/cp_logjam_rc12.ugc454812035","folder":"tf","game":"Team Fortress","app_id":440,"player_count":22,"max_players":24,"Bots":0,"server_type":"Dedicated","server_os":"Linux","password":true,"vac":true,"version":"7757534","steam_id":85568392924742828,"keywords":["cp","nocrits","nodmgspread","uncletopia"],"game_id":440,"stv_port":27086,"stv_name":"Uncletopia | Frankfurt | 8 | Community | STV","players":[{"user_id":172,"name":"alvinulv","steam_id":76561198024487177,"connected_time":913000000000,"state":"active","ping":60},{"user_id":156,"name":"mcdonaldburger54@yahoo.com","steam_id":76561198846982793,"connected_time":1597000000000,"state":"active","ping":58},{"user_id":171,"name":"the real lancer from deltarune","steam_id":76561199078505144,"connected_time":939000000000,"state":"active","ping":90},{"user_id":185,"name":"NothingMan","steam_id":76561198051284446,"connected_time":241000000000,"state":"active","ping":56},{"user_id":184,"name":"Gio'sMonkey","steam_id":76561198892432223,"connected_time":358000000000,"state":"active","ping":96},{"user_id":142,"name":"Owlet","steam_id":76561198065613974,"connected_time":2279000000000,"state":"active","ping":71},{"user_id":146,"name":"Chris","steam_id":76561198018626828,"connected_time":2136000000000,"state":"active","ping":56},{"user_id":174,"name":"Konswil","steam_id":76561198107019657,"connected_time":894000000000,"state":"active","ping":75},{"user_id":187,"name":"tekt","steam_id":76561198044554387,"connected_time":204000000000,"state":"active","ping":97},{"user_id":165,"name":"Guru","steam_id":76561198093853069,"connected_time":1032000000000,"state":"active","ping":57},{"user_id":166,"name":"Moe Jama","steam_id":76561198021676997,"connected_time":1030000000000,"state":"active","ping":79},{"user_id":147,"name":"R","steam_id":76561198148030229,"connected_time":2056000000000,"state":"active","ping":73},{"user_id":176,"name":"Tonys202","steam_id":76561198058331473,"connected_time":692000000000,"state":"active","ping":75},{"user_id":177,"name":"zek","steam_id":76561198862763731,"connected_time":675000000000,"state":"active","ping":59},{"user_id":178,"name":"NojusKojos","steam_id":76561199060478662,"connected_time":648000000000,"state":"active","ping":73},{"user_id":167,"name":"Fuzz","steam_id":76561198837586838,"connected_time":1023000000000,"state":"active","ping":83},{"user_id":180,"name":"JinStupid","steam_id":76561199220675135,"connected_time":584000000000,"state":"active","ping":153},{"user_id":181,"name":"Dispenser (Lopata)","steam_id":76561198820264239,"connected_time":468000000000,"state":"active","ping":136},{"user_id":155,"name":"Wattoz","steam_id":76561198127779511,"connected_time":1695000000000,"state":"active","ping":72},{"user_id":111,"name":"♠R4nge_R♠","steam_id":76561198040655921,"connected_time":4453000000000,"state":"active","ping":148},{"user_id":182,"name":"random clit","steam_id":76561198404802175,"connected_time":468000000000,"state":"active","ping":187},{"user_id":183,"name":"Mad Cat Kivima","steam_id":76561198028959678,"connected_time":425000000000,"state":"active","ping":98}]},{"server_id":202,"name":"Uncletopia | Hong Kong | 1 | All Maps","name_short":"hgk-1","host":"hgk-1.hk.uncletopia.com","port":27015,"enabled":true,"region":"asia","cc":"hk","latitude":22.302711,"longitude":114.177216,"reserved":0,"last_update":"0001-01-01T00:00:00Z","name_a2s":"Uncletopia | Hong Kong | 1 | All Maps","protocol":17,"map":"pl_swiftwater_final1","folder":"tf","game":"Team Fortress","app_id":440,"player_count":24,"max_players":24,"Bots":0,"server_type":"Dedicated","server_os":"Linux","password":true,"vac":true,"version":"7757534","steam_id":85568392924494504,"keywords":["nocrits","nodmgspread","payload","uncletopia"],"game_id":440,"stv_port":27016,"stv_name":"Uncletopia | Hong Kong | 1 | All Maps | STV","players":[{"user_id":559,"name":"Corhix","steam_id":76561198968706355,"connected_time":2024000000000,"state":"active","ping":49},{"user_id":602,"name":"ey","steam_id":76561198413116920,"connected_time":553000000000,"state":"active","ping":75},{"user_id":588,"name":"let cook","steam_id":76561198055553140,"connected_time":760000000000,"state":"active","ping":93},{"user_id":599,"name":"Bollocks","steam_id":76561198978868701,"connected_time":569000000000,"state":"active","ping":142},{"user_id":603,"name":"timmy.1366","steam_id":76561199065433547,"connected_time":551000000000,"state":"active","ping":79},{"user_id":573,"name":"쿠키","steam_id":76561197997220367,"connected_time":1159000000000,"state":"active","ping":51},{"user_id":600,"name":"SavingPrivateEpa","steam_id":76561199126651013,"connected_time":564000000000,"state":"active","ping":163},{"user_id":571,"name":"RinRin the pansexual witch","steam_id":76561199024333803,"connected_time":1991000000000,"state":"active","ping":97},{"user_id":601,"name":"uptriste","steam_id":76561198158666692,"connected_time":556000000000,"state":"active","ping":43},{"user_id":580,"name":"Nimbus","steam_id":76561198877713016,"connected_time":925000000000,"state":"active","ping":165},{"user_id":583,"name":"LudE","steam_id":76561198828840546,"connected_time":829000000000,"state":"active","ping":77},{"user_id":608,"name":"Edgy","steam_id":76561199096849508,"connected_time":190000000000,"state":"active","ping":60},{"user_id":560,"name":"Steve","steam_id":76561198429235506,"connected_time":2024000000000,"state":"active","ping":75},{"user_id":531,"name":"Vortex Morez","steam_id":76561198833527091,"connected_time":3733000000000,"state":"active","ping":104},{"user_id":606,"name":"ccripplegamigng blw.tf","steam_id":76561199224830107,"connected_time":288000000000,"state":"active","ping":182},{"user_id":564,"name":"sloth of the fragment clan","steam_id":76561198214192048,"connected_time":2014000000000,"state":"active","ping":95},{"user_id":525,"name":"the butchers club","steam_id":76561198318126190,"connected_time":4332000000000,"state":"active","ping":102},{"user_id":590,"name":"qb","steam_id":76561198412329672,"connected_time":749000000000,"state":"active","ping":99},{"user_id":604,"name":"Mr.Fredrickson","steam_id":76561198321091424,"connected_time":525000000000,"state":"active","ping":134},{"user_id":609,"name":"ghuzik","steam_id":76561199107596818,"connected_time":120000000000,"state":"active","ping":126},{"user_id":605,"name":"707","steam_id":76561198846610729,"connected_time":479000000000,"state":"active","ping":114},{"user_id":538,"name":"御釜が家に中にいる","steam_id":76561198306574432,"connected_time":3463000000000,"state":"active","ping":83},{"user_id":519,"name":"TomCat","steam_id":76561198133744053,"connected_time":5131000000000,"state":"active","ping":123},{"user_id":569,"name":":)","steam_id":76561198437941450,"connected_time":2002000000000,"state":"active","ping":90}]},{"server_id":1,"name":"Uncletopia | Los Angeles | 1 | All Maps","name_short":"lax-1","host":"lax-1.us.uncletopia.com","port":27015,"enabled":true,"region":"us-west","cc":"us","latitude":33.94279,"longitude":-118.41004,"reserved":0,"last_update":"0001-01-01T00:00:00Z","name_a2s":"Uncletopia | Los Angeles | 1 | All Maps","protocol":17,"map":"koth_cascade","folder":"tf","game":"Team Fortress","app_id":440,"player_count":0,"max_players":24,"Bots":0,"server_type":"Dedicated","server_os":"Linux","password":true,"vac":true,"version":"7757534","steam_id":85568392924469991,"keywords":["cp","nocrits","nodmgspread","uncletopia"],"game_id":440,"stv_port":27016,"stv_name":"Uncletopia | Los Angeles | 1 | All Maps | STV","players":null},{"server_id":112,"name":"Uncletopia | Los Angeles | 2 | All Maps","name_short":"lax-2","host":"lax-1.us.uncletopia.com","port":27025,"enabled":true,"region":"us-west","cc":"us","latitude":33.94279,"longitude":-118.41004,"reserved":0,"last_update":"0001-01-01T00:00:00Z","name_a2s":"Uncletopia | Los Angeles | 2 | All Maps","protocol":17,"map":"koth_highpass","folder":"tf","game":"Team Fortress","app_id":440,"player_count":0,"max_players":24,"Bots":0,"server_type":"Dedicated","server_os":"Linux","password":true,"vac":true,"version":"7757534","steam_id":85568392924469992,"keywords":["cp","nocrits","nodmgspread","uncletopia"],"game_id":440,"stv_port":27026,"stv_name":"Uncletopia | Los Angeles | 2 | All Maps | STV","players":null},{"server_id":324,"name":"Uncletopia | Los Angeles | 3 | All Maps","name_short":"lax-3","host":"lax-1.us.uncletopia.com","port":27035,"enabled":true,"region":"us-west","cc":"us","latitude":33.94279,"longitude":-118.41004,"reserved":0,"last_update":"0001-01-01T00:00:00Z","name_a2s":"Uncletopia | Los Angeles | 3 | All Maps","protocol":17,"map":"cp_sunshine","folder":"tf","game":"Team Fortress","app_id":440,"player_count":0,"max_players":24,"Bots":0,"server_type":"Dedicated","server_os":"Linux","password":true,"vac":true,"version":"7757534","steam_id":85568392924510198,"keywords":["cp","nocrits","nodmgspread","uncletopia"],"game_id":440,"stv_port":27036,"stv_name":"Uncletopia | Los Angeles | 3 | All Maps | STV","players":null},{"server_id":25,"name":"Uncletopia | Los Angeles | 4 | Stopwatch Beta","name_short":"lax-4","host":"lax-1.us.uncletopia.com","port":27045,"enabled":true,"region":"us-west","cc":"us","latitude":33.94279,"longitude":-118.41004,"reserved":0,"last_update":"0001-01-01T00:00:00Z","name_a2s":"Uncletopia | Los Angeles | 4 | Stopwatch Beta","protocol":17,"map":"workshop/pl_barnblitz_pro7.ugc582280235","folder":"tf","game":"Team Fortress","app_id":440,"player_count":0,"max_players":24,"Bots":0,"server_type":"Dedicated","server_os":"Linux","password":true,"vac":true,"version":"7757534","steam_id":85568392924510199,"keywords":["nocrits","nodmgspread","payload","uncletopia"],"game_id":440,"stv_port":27046,"stv_name":"Uncletopia | Los Angeles | 4 | Stopwatch Beta | STV","players":null},{"server_id":11,"name":"Uncletopia | London | 1 | All Maps","name_short":"lon-1","host":"lon-1.uk.uncletopia.com","port":27015,"enabled":true,"region":"eu","cc":"gb","latitude":51.509865,"longitude":-0.118092,"reserved":0,"last_update":"0001-01-01T00:00:00Z","name_a2s":"Uncletopia | London | 1 | All Maps","protocol":17,"map":"plr_bananabay","folder":"tf","game":"Team Fortress","app_id":440,"player_count":24,"max_players":24,"Bots":0,"server_type":"Dedicated","server_os":"Linux","password":true,"vac":true,"version":"7757534","steam_id":85568392924367362,"keywords":["nocrits","nodmgspread","payload","uncletopia"],"game_id":440,"stv_port":27016,"stv_name":"Uncletopia | London | 1 | All Maps | STV","players":[{"user_id":95,"name":"Nobaddy","steam_id":76561198037871007,"connected_time":1500000000000,"state":"active","ping":70},{"user_id":104,"name":"aaron","steam_id":76561198090143282,"connected_time":1024000000000,"state":"active","ping":72},{"user_id":115,"name":"Tryrex","steam_id":76561198157824042,"connected_time":385000000000,"state":"active","ping":40},{"user_id":118,"name":"attention freaks it's me","steam_id":76561198025592636,"connected_time":23000000000,"state":"active","ping":45},{"user_id":69,"name":"Fargo","steam_id":76561197977513303,"connected_time":3240000000000,"state":"active","ping":55},{"user_id":77,"name":"Mefuu","steam_id":76561198287729818,"connected_time":2864000000000,"state":"active","ping":104},{"user_id":107,"name":"CouchPotato","steam_id":76561198849369915,"connected_time":973000000000,"state":"active","ping":65},{"user_id":117,"name":"MyFirstTimeeeeelel","steam_id":76561199235376543,"connected_time":75000000000,"state":"active","ping":77},{"user_id":116,"name":"PABOOLo.gonzalez31@hotmail.com","steam_id":76561198123475157,"connected_time":110000000000,"state":"active","ping":75},{"user_id":94,"name":"2 metric tons of loam topsoil","steam_id":76561199083249137,"connected_time":1601000000000,"state":"active","ping":49},{"user_id":93,"name":"Crab communist","steam_id":76561198368339225,"connected_time":1721000000000,"state":"active","ping":111},{"user_id":114,"name":"Karl","steam_id":76561198235000972,"connected_time":444000000000,"state":"active","ping":35},{"user_id":112,"name":"astra","steam_id":76561198042980579,"connected_time":736000000000,"state":"active","ping":73},{"user_id":111,"name":"keith","steam_id":76561198371322977,"connected_time":743000000000,"state":"active","ping":48},{"user_id":85,"name":"Spieller","steam_id":76561198057197847,"connected_time":2623000000000,"state":"active","ping":82},{"user_id":83,"name":"Edgey","steam_id":76561198271461309,"connected_time":2718000000000,"state":"active","ping":165},{"user_id":75,"name":"Waldmeister","steam_id":76561198007216522,"connected_time":2891000000000,"state":"active","ping":68},{"user_id":119,"name":"heavy sings (real)","steam_id":76561199023804405,"connected_time":23000000000,"state":"active","ping":69},{"user_id":39,"name":"Денис Базука","steam_id":76561198835849082,"connected_time":4204000000000,"state":"active","ping":101},{"user_id":40,"name":"†☭|ĐØØḾ|☭†","steam_id":76561197983605586,"connected_time":4190000000000,"state":"active","ping":105},{"user_id":120,"name":"Otter With A Darkside","steam_id":76561198888213218,"connected_time":3000000000,"state":"spawning","ping":95},{"user_id":80,"name":"the meme lord","steam_id":76561198279369377,"connected_time":2781000000000,"state":"active","ping":64},{"user_id":82,"name":"FELHEEE","steam_id":76561197987151150,"connected_time":2739000000000,"state":"active","ping":88},{"user_id":110,"name":"Blossom \u003c3","steam_id":76561198377192638,"connected_time":874000000000,"state":"active","ping":72}]},{"server_id":114,"name":"Uncletopia | London | 2 | All Maps","name_short":"lon-2","host":"lon-1.uk.uncletopia.com","port":27025,"enabled":true,"region":"eu","cc":"gb","latitude":51.509865,"longitude":-0.118092,"reserved":0,"last_update":"0001-01-01T00:00:00Z","name_a2s":"Uncletopia | London | 2 | All Maps","protocol":17,"map":"pl_frontier_final","folder":"tf","game":"Team Fortress","app_id":440,"player_count":24,"max_players":24,"Bots":0,"server_type":"Dedicated","server_os":"Linux","password":true,"vac":true,"version":"7757534","steam_id":85568392924470941,"keywords":["nocrits","nodmgspread","payload","uncletopia"],"game_id":440,"stv_port":27026,"stv_name":"Uncletopia | London | 2 | All Maps | STV","players":[{"user_id":307,"name":"bad at tf2 episode 2","steam_id":76561198002451113,"connected_time":517000000000,"state":"active","ping":97},{"user_id":314,"name":"Christmas Ham","steam_id":76561198119601623,"connected_time":222000000000,"state":"active","ping":54},{"user_id":279,"name":"Sgreff","steam_id":76561198036304365,"connected_time":1827000000000,"state":"active","ping":43},{"user_id":315,"name":"no bitches nigusman","steam_id":76561199466723428,"connected_time":119000000000,"state":"active","ping":87},{"user_id":308,"name":"Yakashii","steam_id":76561198073297078,"connected_time":485000000000,"state":"active","ping":73},{"user_id":305,"name":"Innocent Bystander","steam_id":76561198259885007,"connected_time":839000000000,"state":"active","ping":46},{"user_id":296,"name":"SpeddyMeddy","steam_id":76561197999693825,"connected_time":1307000000000,"state":"active","ping":81},{"user_id":297,"name":"Mogwai","steam_id":76561198078832314,"connected_time":1303000000000,"state":"active","ping":90},{"user_id":274,"name":"mogdrogen","steam_id":76561198827552986,"connected_time":2183000000000,"state":"active","ping":122},{"user_id":291,"name":"Senior","steam_id":76561198065014164,"connected_time":1510000000000,"state":"active","ping":46},{"user_id":243,"name":"Tomau5","steam_id":76561198027409468,"connected_time":4461000000000,"state":"active","ping":55},{"user_id":293,"name":"Sou1Eater7","steam_id":76561198011330131,"connected_time":1372000000000,"state":"active","ping":168},{"user_id":309,"name":"burritoeater","steam_id":76561199124197813,"connected_time":421000000000,"state":"active","ping":88},{"user_id":310,"name":"Dakkafex","steam_id":76561198020254869,"connected_time":403000000000,"state":"active","ping":47},{"user_id":306,"name":"xiiski","steam_id":76561198152387747,"connected_time":615000000000,"state":"active","ping":101},{"user_id":311,"name":"Glitch","steam_id":76561198002221911,"connected_time":384000000000,"state":"active","ping":105},{"user_id":312,"name":"PierraNova","steam_id":76561198145686102,"connected_time":380000000000,"state":"active","ping":52},{"user_id":283,"name":"Fish 'n' Chips","steam_id":76561198033476886,"connected_time":1704000000000,"state":"active","ping":55},{"user_id":277,"name":"Gaius","steam_id":76561198188174963,"connected_time":1891000000000,"state":"active","ping":45},{"user_id":313,"name":"Mr.B","steam_id":76561199204478925,"connected_time":377000000000,"state":"active","ping":113},{"user_id":316,"name":"Davey","steam_id":76561198256879107,"connected_time":76000000000,"state":"active","ping":79},{"user_id":288,"name":"Gustavo","steam_id":76561198310387331,"connected_time":1564000000000,"state":"active","ping":128},{"user_id":290,"name":"SoupER","steam_id":76561198063056668,"connected_time":1526000000000,"state":"active","ping":46},{"user_id":264,"name":"Záporák","steam_id":76561198207175503,"connected_time":3090000000000,"state":"active","ping":66}]},{"server_id":320,"name":"Uncletopia | London | 3 | All Maps","name_short":"lon-3","host":"lon-1.uk.uncletopia.com","port":27035,"enabled":true,"region":"eu","cc":"gb","latitude":51.509865,"longitude":-0.118092,"reserved":0,"last_update":"0001-01-01T00:00:00Z","name_a2s":"Uncletopia | London | 3 | All Maps","protocol":17,"map":"cp_mountainlab","folder":"tf","game":"Team Fortress","app_id":440,"player_count":0,"max_players":24,"Bots":0,"server_type":"Dedicated","server_os":"Linux","password":true,"vac":true,"version":"7757534","steam_id":85568392924510192,"keywords":["cp","nocrits","nodmgspread","uncletopia"],"game_id":440,"stv_port":27036,"stv_name":"Uncletopia | London | 3 | All Maps | STV","players":null},{"server_id":321,"name":"Uncletopia | London | 4 | All Maps","name_short":"lon-4","host":"lon-1.uk.uncletopia.com","port":27045,"enabled":true,"region":"eu","cc":"gb","latitude":51.509865,"longitude":-0.118092,"reserved":0,"last_update":"0001-01-01T00:00:00Z","name_a2s":"Uncletopia | London | 4 | All Maps","protocol":17,"map":"koth_cascade","folder":"tf","game":"Team Fortress","app_id":440,"player_count":0,"max_players":24,"Bots":0,"server_type":"Dedicated","server_os":"Linux","password":true,"vac":true,"version":"7757534","steam_id":85568392924510193,"keywords":["cp","nocrits","nodmgspread","uncletopia"],"game_id":440,"stv_port":27046,"stv_name":"Uncletopia | London | 4 | All Maps | STV","players":null},{"server_id":21,"name":"Uncletopia | London | 5 | All Maps","name_short":"lon-5","host":"lon-1.uk.uncletopia.com","port":27055,"enabled":true,"region":"eu","cc":"gb","latitude":51.509865,"longitude":-0.118092,"reserved":0,"last_update":"0001-01-01T00:00:00Z","name_a2s":"Uncletopia | London | 5 | All Maps","protocol":17,"map":"cp_process_final","folder":"tf","game":"Team Fortress","app_id":440,"player_count":24,"max_players":24,"Bots":0,"server_type":"Dedicated","server_os":"Linux","password":true,"vac":true,"version":"7757534","steam_id":85568392924742829,"keywords":["cp","nocrits","nodmgspread","uncletopia"],"game_id":440,"stv_port":27056,"stv_name":"Uncletopia | London | 5 | All Maps | STV","players":[{"user_id":233,"name":"Fat Pigeon","steam_id":76561198817940142,"connected_time":2692000000000,"state":"active","ping":45},{"user_id":227,"name":"AwterSix","steam_id":76561198042561678,"connected_time":3482000000000,"state":"active","ping":63},{"user_id":258,"name":"clunk","steam_id":76561198836460767,"connected_time":141000000000,"state":"active","ping":77},{"user_id":248,"name":"k4nk3r","steam_id":76561199388713923,"connected_time":1205000000000,"state":"active","ping":71},{"user_id":246,"name":"Maze","steam_id":76561198324478233,"connected_time":1248000000000,"state":"active","ping":46},{"user_id":229,"name":"mge bro","steam_id":76561198796600155,"connected_time":3437000000000,"state":"active","ping":92},{"user_id":202,"name":"FNF","steam_id":76561199151422826,"connected_time":4743000000000,"state":"active","ping":105},{"user_id":170,"name":"Littleyoshifan","steam_id":76561198445491045,"connected_time":7074000000000,"state":"active","ping":41},{"user_id":145,"name":"static","steam_id":76561198836825741,"connected_time":9597000000000,"state":"active","ping":44},{"user_id":238,"name":"me strong","steam_id":76561199062586342,"connected_time":1826000000000,"state":"active","ping":69},{"user_id":236,"name":"Fit Crow mark","steam_id":76561198309246388,"connected_time":1908000000000,"state":"active","ping":59},{"user_id":206,"name":"Bosnian Ketamine Mafia","steam_id":76561198163571788,"connected_time":4612000000000,"state":"active","ping":94},{"user_id":251,"name":"kill john lennon","steam_id":76561198452111945,"connected_time":920000000000,"state":"active","ping":40},{"user_id":230,"name":"Rory","steam_id":76561198354037580,"connected_time":2886000000000,"state":"active","ping":34},{"user_id":254,"name":"fume.","steam_id":76561197960476801,"connected_time":549000000000,"state":"active","ping":54},{"user_id":231,"name":"subway vergil","steam_id":76561199110064166,"connected_time":2883000000000,"state":"active","ping":58},{"user_id":247,"name":"robsan","steam_id":76561198137375391,"connected_time":1236000000000,"state":"active","ping":86},{"user_id":203,"name":"_zipfile","steam_id":76561198066133808,"connected_time":4707000000000,"state":"active","ping":67},{"user_id":226,"name":"Swiss_Nostalgia","steam_id":76561199159896259,"connected_time":3635000000000,"state":"active","ping":66},{"user_id":243,"name":"Zogg","steam_id":76561198352683491,"connected_time":1569000000000,"state":"active","ping":41},{"user_id":252,"name":"e36 1.8","steam_id":76561198134203031,"connected_time":913000000000,"state":"active","ping":72},{"user_id":244,"name":"Kolanciasty ♥","steam_id":76561198020042179,"connected_time":1551000000000,"state":"active","ping":92},{"user_id":249,"name":"X-tis","steam_id":76561198043837480,"connected_time":1145000000000,"state":"active","ping":63},{"user_id":260,"name":"Nude Knight","steam_id":76561198098742938,"connected_time":53000000000,"state":"active","ping":75}]},{"server_id":22,"name":"Uncletopia | London | 6 | All Maps","name_short":"lon-6","host":"lon-1.uk.uncletopia.com","port":27065,"enabled":true,"region":"eu","cc":"gb","latitude":51.509865,"longitude":-0.118092,"reserved":0,"last_update":"0001-01-01T00:00:00Z","name_a2s":"Uncletopia | London | 6 | All Maps","protocol":17,"map":"pl_snowycoast","folder":"tf","game":"Team Fortress","app_id":440,"player_count":0,"max_players":24,"Bots":0,"server_type":"Dedicated","server_os":"Linux","password":true,"vac":true,"version":"7757534","steam_id":85568392924742830,"keywords":["nocrits","nodmgspread","payload","uncletopia"],"game_id":440,"stv_port":27066,"stv_name":"Uncletopia | London | 6 | All Maps | STV","players":null},{"server_id":40,"name":"Uncletopia | London | 7 | No Payload","name_short":"lon-7","host":"lon-1.uk.uncletopia.com","port":27075,"enabled":true,"region":"eu","cc":"gb","latitude":51.509865,"longitude":-0.118092,"reserved":0,"last_update":"0001-01-01T00:00:00Z","name_a2s":"Uncletopia | London | 7 | No Payload","protocol":17,"map":"plr_pipeline","folder":"tf","game":"Team Fortress","app_id":440,"player_count":24,"max_players":24,"Bots":0,"server_type":"Dedicated","server_os":"Linux","password":true,"vac":true,"version":"7757534","steam_id":85568392924964314,"keywords":["nocrits","nodmgspread","payload","uncletopia"],"game_id":440,"stv_port":27076,"stv_name":"Uncletopia | London | 7 | No Payload | STV","players":[{"user_id":54,"name":"Bostrash641","steam_id":76561199447225685,"connected_time":5791000000000,"state":"active","ping":70},{"user_id":110,"name":"Anzu","steam_id":76561198043953503,"connected_time":1995000000000,"state":"active","ping":75},{"user_id":92,"name":"Chucky","steam_id":76561198891579362,"connected_time":2840000000000,"state":"active","ping":58},{"user_id":144,"name":"BladedBloom4611","steam_id":76561198416655215,"connected_time":97000000000,"state":"active","ping":52},{"user_id":123,"name":"TerraformerBeing","steam_id":76561198281011934,"connected_time":1271000000000,"state":"active","ping":91},{"user_id":133,"name":"davlevan","steam_id":76561198090848620,"connected_time":621000000000,"state":"active","ping":86},{"user_id":128,"name":"Breadcrab","steam_id":76561198015924039,"connected_time":915000000000,"state":"active","ping":55},{"user_id":137,"name":"Queazied","steam_id":76561198799924414,"connected_time":482000000000,"state":"active","ping":119},{"user_id":120,"name":"Elfie","steam_id":76561198206802255,"connected_time":1462000000000,"state":"active","ping":72},{"user_id":121,"name":"jerf","steam_id":76561199213901239,"connected_time":1445000000000,"state":"active","ping":45},{"user_id":129,"name":"B-Eitros","steam_id":76561198021605503,"connected_time":886000000000,"state":"active","ping":58},{"user_id":108,"name":"MelonLikeAFelon","steam_id":76561198060170336,"connected_time":2176000000000,"state":"active","ping":153},{"user_id":109,"name":"IndigoJones","steam_id":76561198050284262,"connected_time":2153000000000,"state":"active","ping":48},{"user_id":138,"name":"Peroxot","steam_id":76561198387927289,"connected_time":457000000000,"state":"active","ping":76},{"user_id":131,"name":"Banal Destroyer","steam_id":76561198299570372,"connected_time":738000000000,"state":"active","ping":70},{"user_id":95,"name":"aliquam.games","steam_id":76561198834270944,"connected_time":2635000000000,"state":"active","ping":98},{"user_id":89,"name":"lazoboy","steam_id":76561199074095198,"connected_time":3264000000000,"state":"active","ping":120},{"user_id":111,"name":"Boyarishnik","steam_id":76561198986324207,"connected_time":1957000000000,"state":"active","ping":98},{"user_id":143,"name":"somedud","steam_id":76561198037911271,"connected_time":324000000000,"state":"active","ping":81},{"user_id":135,"name":"Rayoo 420 BLAZE IT 🐟","steam_id":76561198215225492,"connected_time":559000000000,"state":"active","ping":69},{"user_id":142,"name":"Pls.do.it!","steam_id":76561198211638119,"connected_time":395000000000,"state":"active","ping":69},{"user_id":117,"name":"Xoukz","steam_id":76561198356014540,"connected_time":1764000000000,"state":"active","ping":121},{"user_id":125,"name":"FUKAYU","steam_id":76561198380484033,"connected_time":1102000000000,"state":"active","ping":55},{"user_id":105,"name":"Tortoise Guy","steam_id":76561199047825610,"connected_time":2493000000000,"state":"active","ping":85}]},{"server_id":41,"name":"Uncletopia | London | 8 | Community","name_short":"lon-8","host":"lon-1.uk.uncletopia.com","port":27085,"enabled":true,"region":"eu","cc":"gb","latitude":51.509865,"longitude":-0.118092,"reserved":0,"last_update":"0001-01-01T00:00:00Z","name_a2s":"Uncletopia | London | 8 | Community","protocol":17,"map":"workshop/pl_cactuscanyon_redux_rc4b.ugc2579644293","folder":"tf","game":"Team Fortress","app_id":440,"player_count":0,"max_players":24,"Bots":0,"server_type":"Dedicated","server_os":"Linux","password":true,"vac":true,"version":"7757534","steam_id":85568392924964315,"keywords":["nocrits","nodmgspread","payload","uncletopia"],"game_id":440,"stv_port":27086,"stv_name":"Uncletopia | London | 8 | Community | STV","players":null},{"server_id":300,"name":"Uncletopia | Montréal | 1 | All Maps","name_short":"mtl-1","host":"mtl-1.ca.uncletopia.com","port":27015,"enabled":true,"region":"us-east","cc":"ca","latitude":45.50889,"longitude":-73.56167,"reserved":0,"last_update":"0001-01-01T00:00:00Z","name_a2s":"Uncletopia | Montréal | 1 | All Maps","protocol":17,"map":"koth_cascade","folder":"tf","game":"Team Fortress","app_id":440,"player_count":0,"max_players":24,"Bots":0,"server_type":"Dedicated","server_os":"Linux","password":true,"vac":true,"version":"7757534","steam_id":85568392924500087,"keywords":["cp","nocrits","nodmgspread","uncletopia"],"game_id":440,"stv_port":27016,"stv_name":"Uncletopia | Montréal | 1 | All Maps | STV","players":null},{"server_id":301,"name":"Uncletopia | Montréal | 2 | All Maps","name_short":"mtl-2","host":"mtl-1.ca.uncletopia.com","port":27025,"enabled":true,"region":"us-east","cc":"ca","latitude":45.50889,"longitude":-73.56167,"reserved":0,"last_update":"0001-01-01T00:00:00Z","name_a2s":"Uncletopia | Montréal | 2 | All Maps","protocol":17,"map":"pl_borneo","folder":"tf","game":"Team Fortress","app_id":440,"player_count":0,"max_players":24,"Bots":0,"server_type":"Dedicated","server_os":"Linux","password":true,"vac":true,"version":"7757534","steam_id":85568392924500088,"keywords":["nocrits","nodmgspread","payload","uncletopia"],"game_id":440,"stv_port":27026,"stv_name":"Uncletopia | Montréal | 2 | All Maps | STV","players":null},{"server_id":302,"name":"Uncletopia | Montréal | 3 | All Maps","name_short":"mtl-3","host":"mtl-1.ca.uncletopia.com","port":27035,"enabled":true,"region":"us-east","cc":"ca","latitude":45.50889,"longitude":-73.56167,"reserved":0,"last_update":"0001-01-01T00:00:00Z","name_a2s":"Uncletopia | Montréal | 3 | All Maps","protocol":17,"map":"cp_sunshine","folder":"tf","game":"Team Fortress","app_id":440,"player_count":0,"max_players":24,"Bots":0,"server_type":"Dedicated","server_os":"Linux","password":true,"vac":true,"version":"7757534","steam_id":85568392924500089,"keywords":["cp","nocrits","nodmgspread","uncletopia"],"game_id":440,"stv_port":27036,"stv_name":"Uncletopia | Montréal | 3 | All Maps | STV","players":null},{"server_id":303,"name":"Uncletopia | Montréal | 4 | No Payload","name_short":"mtl-4","host":"mtl-1.ca.uncletopia.com","port":27045,"enabled":true,"region":"us-east","cc":"ca","latitude":45.50889,"longitude":-73.56167,"reserved":0,"last_update":"0001-01-01T00:00:00Z","name_a2s":"Uncletopia | Montréal | 4 | No Payload","protocol":17,"map":"koth_lakeside_final","folder":"tf","game":"Team Fortress","app_id":440,"player_count":0,"max_players":24,"Bots":0,"server_type":"Dedicated","server_os":"Linux","password":true,"vac":true,"version":"7757534","steam_id":85568392924500090,"keywords":["cp","nocrits","nodmgspread","uncletopia"],"game_id":440,"stv_port":27046,"stv_name":"Uncletopia | Montréal | 4 | No Payload | STV","players":null},{"server_id":13,"name":"Uncletopia | New York City | 1 | All Maps","name_short":"nyc-1","host":"nyc-1.us.uncletopia.com","port":27015,"enabled":true,"region":"us-east","cc":"us","latitude":40.73061,"longitude":-73.93524,"reserved":0,"last_update":"0001-01-01T00:00:00Z","name_a2s":"Uncletopia | New York City | 1 | All Maps","protocol":17,"map":"pl_borneo","folder":"tf","game":"Team Fortress","app_id":440,"player_count":0,"max_players":24,"Bots":0,"server_type":"Dedicated","server_os":"Linux","password":true,"vac":true,"version":"7757534","steam_id":85568392924469993,"keywords":["nocrits","nodmgspread","payload","uncletopia"],"game_id":440,"stv_port":27016,"stv_name":"Uncletopia | New York City | 1 | All Maps | STV","players":null},{"server_id":14,"name":"Uncletopia | New York City | 2 | All Maps","name_short":"nyc-2","host":"nyc-1.us.uncletopia.com","port":27025,"enabled":true,"region":"us-east","cc":"us","latitude":40.73061,"longitude":-73.93524,"reserved":0,"last_update":"0001-01-01T00:00:00Z","name_a2s":"Uncletopia | New York City | 2 | All Maps","protocol":17,"map":"pl_snowycoast","folder":"tf","game":"Team Fortress","app_id":440,"player_count":0,"max_players":24,"Bots":0,"server_type":"Dedicated","server_os":"Linux","password":true,"vac":true,"version":"7757534","steam_id":85568392924469994,"keywords":["nocrits","nodmgspread","payload","uncletopia"],"game_id":440,"stv_port":27026,"stv_name":"Uncletopia | New York City | 2 | All Maps | STV","players":null},{"server_id":15,"name":"Uncletopia | New York City | 3 | Stopwatch Beta","name_short":"nyc-3","host":"nyc-1.us.uncletopia.com","port":27035,"enabled":true,"region":"us-east","cc":"us","latitude":40.73061,"longitude":-73.93524,"reserved":0,"last_update":"0001-01-01T00:00:00Z","name_a2s":"Uncletopia | New York City | 3 | Stopwatch Beta","protocol":17,"map":"koth_lakeside_final","folder":"tf","game":"Team Fortress","app_id":440,"player_count":0,"max_players":24,"Bots":0,"server_type":"Dedicated","server_os":"Linux","password":true,"vac":true,"version":"7757534","steam_id":85568392924742820,"keywords":["cp","nocrits","nodmgspread","uncletopia"],"game_id":440,"stv_port":27036,"stv_name":"Uncletopia | New York City | 3 | Stopwatch Beta | STV","players":null},{"server_id":16,"name":"Uncletopia | New York City | 4 | Community","name_short":"nyc-4","host":"nyc-1.us.uncletopia.com","port":27045,"enabled":true,"region":"us-east","cc":"us","latitude":40.73061,"longitude":-73.93524,"reserved":0,"last_update":"0001-01-01T00:00:00Z","name_a2s":"Uncletopia | New York City | 4 | Community","protocol":17,"map":"workshop/koth_bagel_rc5.ugc2514036946","folder":"tf","game":"Team Fortress","app_id":440,"player_count":0,"max_players":24,"Bots":0,"server_type":"Dedicated","server_os":"Linux","password":true,"vac":true,"version":"7757534","steam_id":85568392924742821,"keywords":["cp","nocrits","nodmgspread","uncletopia"],"game_id":440,"stv_port":27046,"stv_name":"Uncletopia | New York City | 4 | Community | STV","players":null},{"server_id":142,"name":"Uncletopia | São Paulo | 1 | All Maps","name_short":"sao-1","host":"sao-1.br.uncletopia.com","port":27015,"enabled":true,"region":"sa","cc":"br","latitude":-23.533773,"longitude":-46.62529,"reserved":0,"last_update":"0001-01-01T00:00:00Z","name_a2s":"Uncletopia | São Paulo | 1 | All Maps","protocol":17,"map":"pl_snowycoast","folder":"tf","game":"Team Fortress","app_id":440,"player_count":0,"max_players":24,"Bots":0,"server_type":"Dedicated","server_os":"Linux","password":true,"vac":true,"version":"7757534","steam_id":85568392924469996,"keywords":["nocrits","nodmgspread","payload","uncletopia"],"game_id":440,"stv_port":27016,"stv_name":"Uncletopia | São Paulo | 1 | All Maps | STV","players":null},{"server_id":143,"name":"Uncletopia | São Paulo | 2 | All Maps","name_short":"sao-2","host":"sao-2.br.uncletopia.com","port":27015,"enabled":true,"region":"sa","cc":"br","latitude":-23.533773,"longitude":-46.62529,"reserved":0,"last_update":"0001-01-01T00:00:00Z","name_a2s":"Uncletopia | São Paulo | 2 | All Maps","protocol":17,"map":"pl_barnblitz","folder":"tf","game":"Team Fortress","app_id":440,"player_count":0,"max_players":24,"Bots":0,"server_type":"Dedicated","server_os":"Linux","password":true,"vac":true,"version":"7757534","steam_id":85568392924485349,"keywords":["nocrits","nodmgspread","payload","uncletopia"],"game_id":440,"stv_port":27016,"stv_name":"Uncletopia | São Paulo | 2 | All Maps | STV","players":null},{"server_id":7,"name":"Uncletopia | Seattle | 1 | All Maps","name_short":"sea-1","host":"sea-1.us.uncletopia.com","port":27015,"enabled":true,"region":"us-west","cc":"us","latitude":47.608013,"longitude":-122.33517,"reserved":0,"last_update":"0001-01-01T00:00:00Z","name_a2s":"Uncletopia | Seattle | 1 | All Maps","protocol":17,"map":"pl_upward","folder":"tf","game":"Team Fortress","app_id":440,"player_count":0,"max_players":24,"Bots":0,"server_type":"Dedicated","server_os":"Linux","password":true,"vac":true,"version":"7757534","steam_id":85568392924469997,"keywords":["nocrits","nodmgspread","payload","uncletopia"],"game_id":440,"stv_port":27016,"stv_name":"Uncletopia | Seattle | 1 | All Maps | STV","players":null},{"server_id":119,"name":"Uncletopia | Seattle | 2 | All Maps","name_short":"sea-2","host":"sea-1.us.uncletopia.com","port":27025,"enabled":true,"region":"us-west","cc":"us","latitude":47.608013,"longitude":-122.33517,"reserved":0,"last_update":"0001-01-01T00:00:00Z","name_a2s":"Uncletopia | Seattle | 2 | All Maps","protocol":17,"map":"pl_swiftwater_final1","folder":"tf","game":"Team Fortress","app_id":440,"player_count":0,"max_players":24,"Bots":0,"server_type":"Dedicated","server_os":"Linux","password":true,"vac":true,"version":"7757534","steam_id":85568392924469998,"keywords":["nocrits","nodmgspread","payload","uncletopia"],"game_id":440,"stv_port":27026,"stv_name":"Uncletopia | Seattle | 2 | All Maps | STV","players":null},{"server_id":406,"name":"Uncletopia | Seattle | 3 | Stopwatch Beta","name_short":"sea-3","host":"sea-1.us.uncletopia.com","port":27035,"enabled":true,"region":"us-west","cc":"us","latitude":47.608013,"longitude":-122.33517,"reserved":0,"last_update":"0001-01-01T00:00:00Z","name_a2s":"Uncletopia | Seattle | 3 | Stopwatch Beta","protocol":17,"map":"workshop/koth_bagel_rc5.ugc2514036946","folder":"tf","game":"Team Fortress","app_id":440,"player_count":0,"max_players":24,"Bots":0,"server_type":"Dedicated","server_os":"Linux","password":true,"vac":true,"version":"7757534","steam_id":85568392924515217,"keywords":["cp","nocrits","nodmgspread","uncletopia"],"game_id":440,"stv_port":27036,"stv_name":"Uncletopia | Seattle | 3 | Stopwatch Beta | STV","players":null},{"server_id":17,"name":"Uncletopia | San Francisco | 1 | All Maps","name_short":"sfo-1","host":"sfo-1.us.uncletopia.com","port":27015,"enabled":true,"region":"us-west","cc":"us","latitude":37.77397,"longitude":-122.4313,"reserved":0,"last_update":"0001-01-01T00:00:00Z","name_a2s":"Uncletopia | San Francisco | 1 | All Maps","protocol":17,"map":"pl_snowycoast","folder":"tf","game":"Team Fortress","app_id":440,"player_count":0,"max_players":24,"Bots":0,"server_type":"Dedicated","server_os":"Linux","password":true,"vac":true,"version":"7757534","steam_id":85568392924469999,"keywords":["nocrits","nodmgspread","payload","uncletopia"],"game_id":440,"stv_port":27016,"stv_name":"Uncletopia | San Francisco | 1 | All Maps | STV","players":null},{"server_id":18,"name":"Uncletopia | San Francisco | 2 | All Maps","name_short":"sfo-2","host":"sfo-1.us.uncletopia.com","port":27025,"enabled":true,"region":"us-west","cc":"us","latitude":37.77397,"longitude":-122.4313,"reserved":0,"last_update":"0001-01-01T00:00:00Z","name_a2s":"Uncletopia | San Francisco | 2 | All Maps","protocol":17,"map":"cp_snakewater_final1","folder":"tf","game":"Team Fortress","app_id":440,"player_count":0,"max_players":24,"Bots":0,"server_type":"Dedicated","server_os":"Linux","password":true,"vac":true,"version":"7757534","steam_id":85568392924470000,"keywords":["cp","nocrits","nodmgspread","uncletopia"],"game_id":440,"stv_port":27026,"stv_name":"Uncletopia | San Francisco | 2 | All Maps | STV","players":null},{"server_id":19,"name":"Uncletopia | San Francisco | 3 | Stopwatch Beta","name_short":"sfo-3","host":"sfo-1.us.uncletopia.com","port":27035,"enabled":true,"region":"us-west","cc":"us","latitude":37.77397,"longitude":-122.4313,"reserved":0,"last_update":"0001-01-01T00:00:00Z","name_a2s":"Uncletopia | San Francisco | 3 | Stopwatch Beta","protocol":17,"map":"workshop/koth_clearcut_b15.ugc2107050255","folder":"tf","game":"Team Fortress","app_id":440,"player_count":0,"max_players":24,"Bots":0,"server_type":"Dedicated","server_os":"Linux","password":true,"vac":true,"version":"7757534","steam_id":85568392924742824,"keywords":["cp","nocrits","nodmgspread","uncletopia"],"game_id":440,"stv_port":27036,"stv_name":"Uncletopia | San Francisco | 3 | Stopwatch Beta | STV","players":null},{"server_id":20,"name":"Uncletopia | San Francisco | 4 | Community","name_short":"sfo-4","host":"sfo-1.us.uncletopia.com","port":27045,"enabled":true,"region":"us-west","cc":"us","latitude":37.77397,"longitude":-122.4313,"reserved":0,"last_update":"0001-01-01T00:00:00Z","name_a2s":"Uncletopia | San Francisco | 4 | Community","protocol":17,"map":"workshop/pl_barnblitz_pro7.ugc582280235","folder":"tf","game":"Team Fortress","app_id":440,"player_count":24,"max_players":24,"Bots":0,"server_type":"Dedicated","server_os":"Linux","password":true,"vac":true,"version":"7757534","steam_id":85568392924742826,"keywords":["nocrits","nodmgspread","payload","uncletopia"],"game_id":440,"stv_port":27046,"stv_name":"Uncletopia | San Francisco | 4 | Community | STV","players":[{"user_id":827,"name":"the meat man","steam_id":76561198037921140,"connected_time":972000000000,"state":"active","ping":46},{"user_id":808,"name":"MicrowavableKoolAid","steam_id":76561199097169265,"connected_time":2168000000000,"state":"active","ping":129},{"user_id":814,"name":"Kaluka","steam_id":76561198036861445,"connected_time":1824000000000,"state":"active","ping":111},{"user_id":820,"name":"Grapefruit","steam_id":76561198269253587,"connected_time":1504000000000,"state":"active","ping":43},{"user_id":840,"name":"Mercy","steam_id":76561198152643740,"connected_time":353000000000,"state":"active","ping":55},{"user_id":664,"name":"daemon","steam_id":76561198001541433,"connected_time":16509000000000,"state":"active","ping":105},{"user_id":829,"name":"SuaveFrenchman","steam_id":76561198043762683,"connected_time":885000000000,"state":"active","ping":45},{"user_id":813,"name":"Stranger Danger","steam_id":76561198115242460,"connected_time":1934000000000,"state":"active","ping":73},{"user_id":799,"name":"chicken wit dah eggrow","steam_id":76561198115458307,"connected_time":2835000000000,"state":"active","ping":47},{"user_id":848,"name":"Spoofle","steam_id":76561199003655066,"connected_time":23000000000,"state":"active","ping":54},{"user_id":794,"name":"Disc0","steam_id":76561198067337267,"connected_time":3289000000000,"state":"active","ping":66},{"user_id":846,"name":"Laszlo","steam_id":76561198141198352,"connected_time":162000000000,"state":"active","ping":92},{"user_id":838,"name":"Fishtacollahma","steam_id":76561198060115913,"connected_time":477000000000,"state":"active","ping":62},{"user_id":831,"name":"SetAnExample","steam_id":76561198881077447,"connected_time":829000000000,"state":"active","ping":69},{"user_id":811,"name":"Foop","steam_id":76561198042554605,"connected_time":2153000000000,"state":"active","ping":66},{"user_id":839,"name":"Aruʒi","steam_id":76561198088574914,"connected_time":461000000000,"state":"active","ping":76},{"user_id":832,"name":"ckris","steam_id":76561198061167278,"connected_time":798000000000,"state":"active","ping":60},{"user_id":800,"name":"Saggle","steam_id":76561198056075147,"connected_time":2798000000000,"state":"active","ping":176},{"user_id":815,"name":"carmillalover1334","steam_id":76561198325306660,"connected_time":1794000000000,"state":"active","ping":68},{"user_id":833,"name":"StemSalty","steam_id":76561198282161538,"connected_time":784000000000,"state":"active","ping":117},{"user_id":821,"name":"Lefty","steam_id":76561198397061063,"connected_time":1470000000000,"state":"active","ping":133},{"user_id":843,"name":"Jon Snuh","steam_id":76561198075298635,"connected_time":239000000000,"state":"active","ping":113},{"user_id":823,"name":"Justiceinacan","steam_id":76561198067238033,"connected_time":1446000000000,"state":"active","ping":130},{"user_id":826,"name":"OH JIMMY I'M HOME #SaveTf2","steam_id":76561198396658806,"connected_time":1126000000000,"state":"active","ping":60}]},{"server_id":141,"name":"Uncletopia | Sydney | 1 | All Maps","name_short":"syd-1","host":"syd-1.au.uncletopia.com","port":27015,"enabled":true,"region":"au","cc":"au","latitude":-33.865143,"longitude":151.2099,"reserved":0,"last_update":"0001-01-01T00:00:00Z","name_a2s":"Uncletopia | Sydney | 1 | All Maps","protocol":17,"map":"pl_upward","folder":"tf","game":"Team Fortress","app_id":440,"player_count":24,"max_players":24,"Bots":0,"server_type":"Dedicated","server_os":"Linux","password":true,"vac":true,"version":"7757534","steam_id":85568392924470001,"keywords":["nocrits","nodmgspread","payload","uncletopia"],"game_id":440,"stv_port":27016,"stv_name":"Uncletopia | Sydney | 1 | All Maps | STV","players":[{"user_id":631,"name":"Mouse Balls","steam_id":76561199037470627,"connected_time":708000000000,"state":"active","ping":120},{"user_id":632,"name":"freek","steam_id":76561198406237673,"connected_time":706000000000,"state":"active","ping":55},{"user_id":614,"name":"Oysenberry","steam_id":76561198125443335,"connected_time":2006000000000,"state":"active","ping":37},{"user_id":588,"name":"Drakeo","steam_id":76561198268859184,"connected_time":3193000000000,"state":"active","ping":91},{"user_id":620,"name":"Consolidated Fart","steam_id":76561198924101909,"connected_time":1772000000000,"state":"active","ping":67},{"user_id":645,"name":"wirthy","steam_id":76561198061532381,"connected_time":203000000000,"state":"active","ping":59},{"user_id":630,"name":"Cedric Mord","steam_id":76561197997820614,"connected_time":721000000000,"state":"active","ping":64},{"user_id":634,"name":"Saker","steam_id":76561198044795783,"connected_time":552000000000,"state":"active","ping":49},{"user_id":633,"name":"Bigrichard","steam_id":76561198032092945,"connected_time":653000000000,"state":"active","ping":71},{"user_id":626,"name":"DQ","steam_id":76561197965566926,"connected_time":1417000000000,"state":"active","ping":33},{"user_id":641,"name":"duff","steam_id":76561198252163844,"connected_time":442000000000,"state":"active","ping":70},{"user_id":628,"name":"Shocklebuck","steam_id":76561197997863934,"connected_time":1346000000000,"state":"active","ping":70},{"user_id":625,"name":"KiLLeD899","steam_id":76561198014784053,"connected_time":1438000000000,"state":"active","ping":62},{"user_id":615,"name":"Whyyan","steam_id":76561198123825900,"connected_time":2003000000000,"state":"active","ping":60},{"user_id":609,"name":"Taskmaster","steam_id":76561198402045918,"connected_time":2094000000000,"state":"active","ping":56},{"user_id":636,"name":"Nanda","steam_id":76561198328483364,"connected_time":538000000000,"state":"active","ping":145},{"user_id":646,"name":"Hardcase","steam_id":76561198124442611,"connected_time":186000000000,"state":"active","ping":86},{"user_id":621,"name":"Raven","steam_id":76561198428025966,"connected_time":1770000000000,"state":"active","ping":66},{"user_id":612,"name":"Bobby Bigman","steam_id":76561198044679656,"connected_time":2055000000000,"state":"active","ping":60},{"user_id":642,"name":"BackyardBonanza19943214","steam_id":76561198383642609,"connected_time":361000000000,"state":"active","ping":73},{"user_id":647,"name":"terrablade_master","steam_id":76561198997249192,"connected_time":15000000000,"state":"spawning","ping":156},{"user_id":644,"name":"Y0shua3","steam_id":76561199381627916,"connected_time":243000000000,"state":"active","ping":254},{"user_id":623,"name":"Mr.Deathclaw","steam_id":76561198025419320,"connected_time":1669000000000,"state":"active","ping":45},{"user_id":640,"name":"l333am","steam_id":76561198363218204,"connected_time":468000000000,"state":"active","ping":69}]},{"server_id":123,"name":"Uncletopia | Sydney | 2 | All Maps","name_short":"syd-2","host":"syd-1.au.uncletopia.com","port":27025,"enabled":true,"region":"au","cc":"au","latitude":-33.865143,"longitude":151.2099,"reserved":0,"last_update":"0001-01-01T00:00:00Z","name_a2s":"Uncletopia | Sydney | 2 | All Maps","protocol":17,"map":"koth_viaduct","folder":"tf","game":"Team Fortress","app_id":440,"player_count":8,"max_players":24,"Bots":0,"server_type":"Dedicated","server_os":"Linux","password":true,"vac":true,"version":"7757534","steam_id":85568392924470002,"keywords":["cp","nocrits","nodmgspread","uncletopia"],"game_id":440,"stv_port":27026,"stv_name":"Uncletopia | Sydney | 2 | All Maps | STV","players":[{"user_id":436,"name":"dumbvent","steam_id":76561198190062810,"connected_time":546000000000,"state":"active","ping":59},{"user_id":413,"name":"The Bisoneer TF2","steam_id":76561199446773766,"connected_time":2028000000000,"state":"active","ping":85},{"user_id":438,"name":"Crunchy bug","steam_id":76561199083645515,"connected_time":98000000000,"state":"active","ping":70},{"user_id":432,"name":"dbx","steam_id":76561198034306834,"connected_time":705000000000,"state":"active","ping":36},{"user_id":425,"name":"Anti-Bison Police","steam_id":76561199262196710,"connected_time":1113000000000,"state":"active","ping":38},{"user_id":427,"name":"Cafe","steam_id":76561198061587693,"connected_time":1081000000000,"state":"active","ping":96},{"user_id":435,"name":"Starspark20","steam_id":76561198102054059,"connected_time":552000000000,"state":"active","ping":122},{"user_id":430,"name":"MikkyD","steam_id":76561198043452962,"connected_time":938000000000,"state":"active","ping":63}]},{"server_id":395,"name":"Uncletopia | Sydney | 3 | All Maps","name_short":"syd-3","host":"syd-1.au.uncletopia.com","port":27035,"enabled":true,"region":"au","cc":"au","latitude":-33.865143,"longitude":151.2099,"reserved":0,"last_update":"0001-01-01T00:00:00Z","name_a2s":"Uncletopia | Sydney | 3 | All Maps","protocol":17,"map":"koth_viaduct","folder":"tf","game":"Team Fortress","app_id":440,"player_count":0,"max_players":24,"Bots":0,"server_type":"Dedicated","server_os":"Linux","password":true,"vac":true,"version":"7757534","steam_id":85568392925194467,"keywords":["cp","nocrits","nodmgspread","uncletopia"],"game_id":440,"stv_port":27036,"stv_name":"Uncletopia | Sydney | 3 | All Maps | STV","players":null},{"server_id":396,"name":"Uncletopia | Sydney | 4 | All Maps","name_short":"syd-4","host":"syd-1.au.uncletopia.com","port":27045,"enabled":true,"region":"au","cc":"au","latitude":-33.865143,"longitude":151.2099,"reserved":0,"last_update":"0001-01-01T00:00:00Z","name_a2s":"Uncletopia | Sydney | 4 | All Maps","protocol":17,"map":"koth_highpass","folder":"tf","game":"Team Fortress","app_id":440,"player_count":0,"max_players":24,"Bots":0,"server_type":"Dedicated","server_os":"Linux","password":true,"vac":true,"version":"7757534","steam_id":85568392925397958,"keywords":["cp","nocrits","nodmgspread","uncletopia"],"game_id":440,"stv_port":27046,"stv_name":"Uncletopia | Sydney | 4 | All Maps | STV","players":null},{"server_id":58,"name":"Uncletopia | Sydney | 5 | Stopwatch Beta","name_short":"syd-5","host":"syd-1.au.uncletopia.com","port":27055,"enabled":true,"region":"au","cc":"au","latitude":-33.865143,"longitude":151.2099,"reserved":0,"last_update":"0001-01-01T00:00:00Z","name_a2s":"Uncletopia | Sydney | 5 | Stopwatch Beta","protocol":17,"map":"workshop/koth_ashville_final.ugc2130459942","folder":"tf","game":"Team Fortress","app_id":440,"player_count":0,"max_players":24,"Bots":0,"server_type":"Dedicated","server_os":"Linux","password":true,"vac":true,"version":"7757534","steam_id":85568392925397959,"keywords":["cp","nocrits","nodmgspread","uncletopia"],"game_id":440,"stv_port":27056,"stv_name":"Uncletopia | Sydney | 5 | Stopwatch Beta | STV","players":null},{"server_id":59,"name":"Uncletopia | Sydney | 6 | Community","name_short":"syd-6","host":"syd-1.au.uncletopia.com","port":27065,"enabled":true,"region":"au","cc":"au","latitude":-33.865143,"longitude":151.2099,"reserved":0,"last_update":"0001-01-01T00:00:00Z","name_a2s":"Uncletopia | Sydney | 6 | Community","protocol":17,"map":"workshop/koth_ashville_final.ugc2130459942","folder":"tf","game":"Team Fortress","app_id":440,"player_count":0,"max_players":24,"Bots":0,"server_type":"Dedicated","server_os":"Linux","password":true,"vac":true,"version":"7757534","steam_id":85568392925397960,"keywords":["cp","nocrits","nodmgspread","uncletopia"],"game_id":440,"stv_port":27066,"stv_name":"Uncletopia | Sydney | 6 | Community | STV","players":null},{"server_id":49,"name":"Uncletopia | Warsaw | 1 | All Maps","name_short":"waw-1","host":"waw-1.pl.uncletopia.com","port":27015,"enabled":true,"region":"eu","cc":"pl","latitude":52.2297,"longitude":21.017532,"reserved":0,"last_update":"0001-01-01T00:00:00Z","name_a2s":"","protocol":0,"map":"","folder":"","game":"","app_id":0,"player_count":0,"max_players":0,"Bots":0,"server_type":"","server_os":"","password":false,"vac":false,"version":"","steam_id":0,"keywords":null,"game_id":0,"stv_port":0,"stv_name":"","players":null},{"server_id":50,"name":"Uncletopia | Warsaw | 2 | All Maps","name_short":"waw-2","host":"waw-1.pl.uncletopia.com","port":27025,"enabled":true,"region":"eu","cc":"pl","latitude":52.2297,"longitude":21.017532,"reserved":0,"last_update":"0001-01-01T00:00:00Z","name_a2s":"Uncletopia | Warsaw | 2 | All Maps","protocol":17,"map":"cp_snakewater_final1","folder":"tf","game":"Team Fortress","app_id":440,"player_count":0,"max_players":24,"Bots":0,"server_type":"Dedicated","server_os":"Linux","password":true,"vac":true,"version":"7757534","steam_id":85568392925397851,"keywords":["cp","nocrits","nodmgspread","uncletopia"],"game_id":440,"stv_port":27026,"stv_name":"Uncletopia | Warsaw | 2 | All Maps | STV","players":null},{"server_id":51,"name":"Uncletopia | Warsaw | 3 | All Maps","name_short":"waw-3","host":"waw-1.pl.uncletopia.com","port":27035,"enabled":true,"region":"eu","cc":"pl","latitude":52.2297,"longitude":21.017532,"reserved":0,"last_update":"0001-01-01T00:00:00Z","name_a2s":"Uncletopia | Warsaw | 3 | All Maps","protocol":17,"map":"pl_barnblitz","folder":"tf","game":"Team Fortress","app_id":440,"player_count":0,"max_players":24,"Bots":0,"server_type":"Dedicated","server_os":"Linux","password":true,"vac":true,"version":"7757534","steam_id":85568392925397852,"keywords":["nocrits","nodmgspread","payload","uncletopia"],"game_id":440,"stv_port":27036,"stv_name":"Uncletopia | Warsaw | 3 | All Maps | STV","players":null},{"server_id":52,"name":"Uncletopia | Warsaw | 4 | All Maps","name_short":"waw-4","host":"waw-1.pl.uncletopia.com","port":27045,"enabled":true,"region":"eu","cc":"pl","latitude":52.2297,"longitude":21.017532,"reserved":0,"last_update":"0001-01-01T00:00:00Z","name_a2s":"Uncletopia | Warsaw | 4 | All Maps","protocol":17,"map":"pl_borneo","folder":"tf","game":"Team Fortress","app_id":440,"player_count":0,"max_players":24,"Bots":0,"server_type":"Dedicated","server_os":"Linux","password":true,"vac":true,"version":"7757534","steam_id":85568392925397853,"keywords":["nocrits","nodmgspread","payload","uncletopia"],"game_id":440,"stv_port":27046,"stv_name":"Uncletopia | Warsaw | 4 | All Maps | STV","players":null},{"server_id":53,"name":"Uncletopia | Warsaw | 5 | Stopwatch Beta","name_short":"waw-5","host":"waw-1.pl.uncletopia.com","port":27055,"enabled":true,"region":"eu","cc":"pl","latitude":52.2297,"longitude":21.017532,"reserved":0,"last_update":"0001-01-01T00:00:00Z","name_a2s":"Uncletopia | Warsaw | 5 | Stopwatch Beta","protocol":17,"map":"pl_upward","folder":"tf","game":"Team Fortress","app_id":440,"player_count":0,"max_players":24,"Bots":0,"server_type":"Dedicated","server_os":"Linux","password":true,"vac":true,"version":"7757534","steam_id":85568392925397854,"keywords":["nocrits","nodmgspread","payload","uncletopia"],"game_id":440,"stv_port":27056,"stv_name":"Uncletopia | Warsaw | 5 | Stopwatch Beta | STV","players":null},{"server_id":54,"name":"Uncletopia | Warsaw | 6 | Community","name_short":"waw-6","host":"waw-1.pl.uncletopia.com","port":27065,"enabled":true,"region":"eu","cc":"pl","latitude":52.2297,"longitude":21.017532,"reserved":0,"last_update":"0001-01-01T00:00:00Z","name_a2s":"Uncletopia | Warsaw | 6 | Community","protocol":17,"map":"workshop/koth_bagel_rc5.ugc2514036946","folder":"tf","game":"Team Fortress","app_id":440,"player_count":0,"max_players":24,"Bots":0,"server_type":"Dedicated","server_os":"Linux","password":true,"vac":true,"version":"7757534","steam_id":85568392925397856,"keywords":["cp","nocrits","nodmgspread","uncletopia"],"game_id":440,"stv_port":27066,"stv_name":"Uncletopia | Warsaw | 6 | Community | STV","players":null}]}