{"status":true,"message":"","result":[{"server_id":9,"name":"Uncletopia | Atlanta | 1 | All Maps","name_short":"atl-1","host":"atl-1.us.uncletopia.com","port":27015,"enabled":true,"region":"us-east","cc":"us","latitude":33.753746,"longitude":-84.38633,"reserved":0,"last_update":"0001-01-01T00:00:00Z","name_a2s":"Uncletopia | Atlanta | 1 | All Maps","protocol":17,"map":"pl_barnblitz","folder":"tf","game":"Team Fortress","app_id":440,"player_count":0,"max_players":24,"Bots":0,"server_type":"Dedicated","server_os":"Linux","password":true,"vac":true,"version":"7961495","steam_id":85568392924469982,"keywords":["nocrits","nodmgspread","payload","uncletopia"],"game_id":440,"stv_port":27016,"stv_name":"Uncletopia | Atlanta | 1 | All Maps | STV","players":null},{"server_id":104,"name":"Uncletopia | Atlanta | 2 | All Maps","name_short":"atl-2","host":"atl-1.us.uncletopia.com","port":27025,"enabled":true,"region":"us-east","cc":"us","latitude":33.753746,"longitude":-84.38633,"reserved":0,"last_update":"0001-01-01T00:00:00Z","name_a2s":"Uncletopia | Atlanta | 2 | All Maps","protocol":17,"map":"cp_process_final","folder":"tf","game":"Team Fortress","app_id":440,"player_count":0,"max_players":24,"Bots":0,"server_type":"Dedicated","server_os":"Linux","password":true,"vac":true,"version":"7961495","steam_id":85568392924469983,"keywords":["cp","nocrits","nodmgspread","uncletopia"],"game_id":440,"stv_port":27026,"stv_name":"Uncletopia | Atlanta | 2 | All Maps | STV","players":null},{"server_id":400,"name":"Uncletopia | Atlanta | 3 | Stopwatch","name_short":"atl-3","host":"atl-1.us.uncletopia.com","port":27035,"enabled":true,"region":"us-east","cc":"us","latitude":33.753746,"longitude":-84.38633,"reserved":0,"last_update":"0001-01-01T00:00:00Z","name_a2s":"Uncletopia | Atlanta | 3 | Stopwatch","protocol":17,"map":"koth_lakeside_final","folder":"tf","game":"Team Fortress","app_id":440,"player_count":0,"max_players":24,"Bots":0,"server_type":"Dedicated","server_os":"Linux","password":true,"vac":true,"version":"7961495","steam_id":85568392924515187,"keywords":["cp","nocrits","nodmgspread","uncletopia"],"game_id":440,"stv_port":27036,"stv_name":"Uncletopia | Atlanta | 3 | Stopwatch | STV","players":null},{"server_id":401,"name":"Uncletopia | Atlanta | 4 | Community","name_short":"atl-4","host":"atl-1.us.uncletopia.com","port":27045,"enabled":true,"region":"us-east","cc":"us","latitude":33.753746,"longitude":-84.38633,"reserved":0,"last_update":"0001-01-01T00:00:00Z","name_a2s":"Uncletopia | Atlanta | 4 | Community","protocol":17,"map":"workshop/koth_slaughter_rc1.ugc1712845210","folder":"tf","game":"Team Fortress","app_id":440,"player_count":0,"max_players":24,"Bots":0,"server_type":"Dedicated","server_os":"Linux","password":true,"vac":true,"version":"7961495","steam_id":85568392924515188,"keywords":["cp","nocrits","nodmgspread","uncletopia"],"game_id":440,"stv_port":27046,"stv_name":"Uncletopia | Atlanta | 4 | Community | STV","players":null},{"server_id":2,"name":"Uncletopia | Chicago | 1 | All Maps","name_short":"chi-1","host":"chi-1.us.uncletopia.com","port":27015,"enabled":true,"region":"us-central","cc":"us","latitude":41.881832,"longitude":-87.62318,"reserved":0,"last_update":"0001-01-01T00:00:00Z","name_a2s":"Uncletopia | Chicago | 1 | All Maps","protocol":17,"map":"cp_mountainlab","folder":"tf","game":"Team Fortress","app_id":440,"player_count":0,"max_players":24,"Bots":0,"server_type":"Dedicated","server_os":"Linux","password":true,"vac":true,"version":"7961495","steam_id":85568392924469984,"keywords":["cp","nocrits","nodmgspread","uncletopia"],"game_id":440,"stv_port":27016,"stv_name":"Uncletopia | Chicago | 1 | All Maps | STV","players":null},{"server_id":106,"name":"Uncletopia | Chicago | 2 | All Maps","name_short":"chi-2","host":"chi-1.us.uncletopia.com","port":27025,"enabled":true,"region":"us-central","cc":"us","latitude":41.881832,"longitude":-87.62318,"reserved":0,"last_update":"0001-01-01T00:00:00Z","name_a2s":"Uncletopia | Chicago | 2 | All Maps","protocol":17,"map":"koth_cascade","folder":"tf","game":"Team Fortress","app_id":440,"player_count":0,"max_players":24,"Bots":0,"server_type":"Dedicated","server_os":"Linux","password":true,"vac":true,"version":"7961495","steam_id":85568392924469985,"keywords":["cp","nocrits","nodmgspread","uncletopia"],"game_id":440,"stv_port":27026,"stv_name":"Uncletopia | Chicago | 2 | All Maps | STV","players":null},{"server_id":402,"name":"Uncletopia | Chicago | 3 | All Maps","name_short":"chi-3","host":"chi-1.us.uncletopia.com","port":27035,"enabled":true,"region":"us-central","cc":"us","latitude":41.881832,"longitude":-87.62318,"reserved":0,"last_update":"0001-01-01T00:00:00Z","name_a2s":"Uncletopia | Chicago | 3 | All Maps","protocol":17,"map":"pl_badwater","folder":"tf","game":"Team Fortress","app_id":440,"player_count":22,"max_players":24,"Bots":0,"server_type":"Dedicated","server_os":"Linux","password":true,"vac":true,"version":"7961495","steam_id":85568392924515191,"keywords":["nocrits","nodmgspread","payload","uncletopia"],"game_id":440,"stv_port":27036,"stv_name":"Uncletopia | Chicago | 3 | All Maps | STV","players":[{"user_id":844,"name":"Mufalito","steam_id":76561198951889482,"connected_time":3628000000000,"state":"active","ping":132},{"user_id":874,"name":"Shikolaahg ‚å°","steam_id":76561198138742166,"connected_time":1357000000000,"state":"active","ping":89},{"user_id":729,"name":"zpalmtree","steam_id":76561198134307620,"connected_time":13635000000000,"state":"active","ping":59},{"user_id":881,"name":" ï„Å£‚Ä¢·¥•‚Ä¢ î„Å£","steam_id":76561198010392559,"connected_time":6000000000,"state":"active","ping":246},{"user_id":855,"name":"bottle o scrumpi","steam_id":76561198353456379,"connected_time":2936000000000,"state":"active","ping":70},{"user_id":879,"name":"WestHarlow","steam_id":76561198251977820,"connected_time":142000000000,"state":"active","ping":99},{"user_id":875,"name":"Yummy Kabobz","steam_id":76561198067661705,"connected_time":1272000000000,"state":"active","ping":68},{"user_id":880,"name":"CKblue","steam_id":76561198124054545,"connected_time":132000000000,"state":"active","ping":83},{"user_id":882,"name":"Arnas445","steam_id":76561198148377210,"connected_time":5000000000,"state":"spawning","ping":164},{"user_id":849,"name":"Minismog","steam_id":76561198823757240,"connected_time":3191000000000,"state":"active","ping":146},{"user_id":870,"name":"Ludcmorais","steam_id":76561198359217809,"connected_time":2173000000000,"state":"active","ping":185},{"user_id":865,"name":"XoaT_.","steam_id":76561198095119371,"connected_time":2331000000000,"state":"active","ping":52},{"user_id":878,"name":"The Caretaker","steam_id":76561198125241411,"connected_time":167000000000,"state":"active","ping":98},{"user_id":860,"name":"he suckin on my rick til i mort","steam_id":76561198310711692,"connected_time":2426000000000,"state":"active","ping":174},{"user_id":876,"name":"ChimpusGaming","steam_id":76561198060954715,"connected_time":1221000000000,"state":"active","ping":71},{"user_id":868,"name":"Grandpa Baozhai","steam_id":76561198086667725,"connected_time":2219000000000,"state":"active","ping":100},{"user_id":877,"name":"bathing in the sun","steam_id":76561198904898274,"connected_time":411000000000,"state":"active","ping":86},{"user_id":824,"name":"4 life","steam_id":76561198175961598,"connected_time":5881000000000,"state":"active","ping":104},{"user_id":854,"name":"MooseStrength","steam_id":76561199154486242,"connected_time":2965000000000,"state":"active","ping":73},{"user_id":859,"name":"oppenheimer style","steam_id":76561198026664629,"connected_time":2687000000000,"state":"active","ping":58},{"user_id":869,"name":"Voracious Puma","steam_id":76561197963621649,"connected_time":2199000000000,"state":"active","ping":84},{"user_id":811,"name":"ZachTheBuddy","steam_id":76561198099997292,"connected_time":7975000000000,"state":"active","ping":83}]},{"server_id":403,"name":"Uncletopia | Chicago | 4 | All Maps","name_short":"chi-4","host":"chi-1.us.uncletopia.com","port":27045,"enabled":true,"region":"us-central","cc":"us","latitude":41.881832,"longitude":-87.62318,"reserved":0,"last_update":"0001-01-01T00:00:00Z","name_a2s":"Uncletopia | Chicago | 4 | All Maps","protocol":17,"map":"cp_steel","folder":"tf","game":"Team Fortress","app_id":440,"player_count":16,"max_players":24,"Bots":0,"server_type":"Dedicated","server_os":"Linux","password":true,"vac":true,"version":"7961495","steam_id":85568392924515193,"keywords":["cp","nocrits","nodmgspread","uncletopia"],"game_id":440,"stv_port":27046,"stv_name":"Uncletopia | Chicago | 4 | All Maps | STV","players":[{"user_id":724,"name":"Linksaver1","steam_id":76561198096312838,"connected_time":1022000000000,"state":"active","ping":95},{"user_id":732,"name":"PGLeafy","steam_id":76561198061516523,"connected_time":148000000000,"state":"active","ping":61},{"user_id":727,"name":"Obama gaming","steam_id":76561198801008490,"connected_time":440000000000,"state":"active","ping":147},{"user_id":642,"name":"Nessie is my Waifu","steam_id":76561198076021620,"connected_time":6678000000000,"state":"active","ping":70},{"user_id":717,"name":"Sly_1087.TTV","steam_id":76561198188900013,"connected_time":1664000000000,"state":"active","ping":67},{"user_id":695,"name":"bitches dont know bout my pinga","steam_id":76561198069814977,"connected_time":3782000000000,"state":"active","ping":72},{"user_id":730,"name":":(){ :|:\u0026 };:","steam_id":76561198115242460,"connected_time":278000000000,"state":"active","ping":91},{"user_id":733,"name":"Hey You Mewtwo","steam_id":76561198862404673,"connected_time":109000000000,"state":"active","ping":91},{"user_id":639,"name":"Lost","steam_id":76561198025933206,"connected_time":7464000000000,"state":"active","ping":59},{"user_id":731,"name":"Intresless","steam_id":76561198251246442,"connected_time":270000000000,"state":"active","ping":209},{"user_id":734,"name":"·òõ‚ÅêÃ§·ïê·ê∑","steam_id":76561198092781027,"connected_time":72000000000,"state":"active","ping":51},{"user_id":735,"name":"Captian Wobbs","steam_id":76561198142884936,"connected_time":14000000000,"state":"active","ping":76},{"user_id":708,"name":"Rusted Cake","steam_id":76561198209755931,"connected_time":2654000000000,"state":"active","ping":107},{"user_id":688,"name":"Captain anus fiddle","steam_id":76561198100777371,"connected_time":4534000000000,"state":"active","ping":67},{"user_id":700,"name":"The Announcer's Feet","steam_id":76561199501227879,"connected_time":3490000000000,"state":"active","ping":86},{"user_id":723,"name":"Skipikip","steam_id":76561198125019458,"connected_time":1120000000000,"state":"active","ping":60}]},{"server_id":36,"name":"Uncletopia | Chicago | 5 | All Maps","name_short":"chi-5","host":"chi-2.us.uncletopia.com","port":27015,"enabled":true,"region":"us-central","cc":"us","latitude":41.881832,"longitude":-87.62318,"reserved":0,"last_update":"0001-01-01T00:00:00Z","name_a2s":"Uncletopia | Chicago | 5 | All Maps","protocol":17,"map":"cp_altitude","folder":"tf","game":"Team Fortress","app_id":440,"player_count":0,"max_players":24,"Bots":0,"server_type":"Dedicated","server_os":"Linux","password":true,"vac":true,"version":"7961495","steam_id":85568392924866362,"keywords":["cp","nocrits","nodmgspread","uncletopia"],"game_id":440,"stv_port":27016,"stv_name":"Uncletopia | Chicago | 5 | All Maps | STV","players":null},{"server_id":37,"name":"Uncletopia | Chicago | 6 | All Maps","name_short":"chi-6","host":"chi-2.us.uncletopia.com","port":27025,"enabled":true,"region":"us-central","cc":"us","latitude":41.881832,"longitude":-87.62318,"reserved":0,"last_update":"0001-01-01T00:00:00Z","name_a2s":"Uncletopia | Chicago | 6 | All Maps","protocol":17,"map":"pl_badwater","folder":"tf","game":"Team Fortress","app_id":440,"player_count":24,"max_players":24,"Bots":0,"server_type":"Dedicated","server_os":"Linux","password":true,"vac":true,"version":"7961495","steam_id":85568392924866363,"keywords":["nocrits","nodmgspread","payload","uncletopia"],"game_id":440,"stv_port":27026,"stv_name":"Uncletopia | Chicago | 6 | All Maps | STV","players":[{"user_id":545,"name":"albert581_gaming","steam_id":76561198219209367,"connected_time":228000000000,"state":"active","ping":69},{"user_id":549,"name":"fluR","steam_id":76561198058193083,"connected_time":88000000000,"state":"active","ping":105},{"user_id":550,"name":"shockwave","steam_id":76561198977598725,"connected_time":46000000000,"state":"active","ping":160},{"user_id":515,"name":"Human Topicality Violation","steam_id":76561197991710942,"connected_time":2425000000000,"state":"active","ping":84},{"user_id":546,"name":"Wilma","steam_id":76561198138420251,"connected_time":203000000000,"state":"active","ping":60},{"user_id":516,"name":"njokuani","steam_id":76561199061380038,"connected_time":2408000000000,"state":"active","ping":75},{"user_id":544,"name":"COngnitto","steam_id":76561198820068107,"connected_time":293000000000,"state":"active","ping":71},{"user_id":526,"name":"Female Gamer","steam_id":76561199366482682,"connected_time":1567000000000,"state":"active","ping":106},{"user_id":456,"name":"Catzs","steam_id":76561197996013572,"connected_time":7220000000000,"state":"active","ping":90},{"user_id":527,"name":"Mozz","steam_id":76561198132892873,"connected_time":1555000000000,"state":"active","ping":99},{"user_id":547,"name":"0_0","steam_id":76561198091875604,"connected_time":149000000000,"state":"active","ping":90},{"user_id":531,"name":"Rare Endangered Hiveneer","steam_id":76561198449700246,"connected_time":1300000000000,"state":"active","ping":78},{"user_id":510,"name":"kritik","steam_id":76561198075216115,"connected_time":2723000000000,"state":"active","ping":155},{"user_id":528,"name":"Let Œµ \u003e 0","steam_id":76561198111790388,"connected_time":1502000000000,"state":"active","ping":85},{"user_id":512,"name":"weeb","steam_id":76561198106945226,"connected_time":2674000000000,"state":"active","ping":73},{"user_id":480,"name":"‚òÜShinyMew112","steam_id":76561198042820161,"connected_time":5999000000000,"state":"active","ping":55},{"user_id":517,"name":"Stick","steam_id":76561198001509374,"connected_time":2398000000000,"state":"active","ping":66},{"user_id":514,"name":"BL√òRG","steam_id":76561198036126673,"connected_time":2562000000000,"state":"active","ping":84},{"user_id":538,"name":"shadow wizard money gang","steam_id":76561198181153199,"connected_time":679000000000,"state":"active","ping":88},{"user_id":529,"name":"Scoops M'Gooch","steam_id":76561198048423812,"connected_time":1479000000000,"state":"active","ping":117},{"user_id":539,"name":"Clubby McWank Fist","steam_id":76561198043085901,"connected_time":593000000000,"state":"active","ping":109},{"user_id":542,"name":"IosephVII","steam_id":76561198101116197,"connected_time":362000000000,"state":"active","ping":100},{"user_id":548,"name":"GamingJuice42","steam_id":76561198110469437,"connected_time":147000000000,"state":"active","ping":67},{"user_id":537,"name":"cobalt","steam_id":76561198126982318,"connected_time":1008000000000,"state":"active","ping":62}]},{"server_id":38,"name":"Uncletopia | Chicago | 7 | Stopwatch","name_short":"chi-7","host":"chi-2.us.uncletopia.com","port":27035,"enabled":true,"region":"us-central","cc":"us","latitude":41.881832,"longitude":-87.62318,"reserved":0,"last_update":"0001-01-01T00:00:00Z","name_a2s":"Uncletopia | Chicago | 7 | Stopwatch","protocol":17,"map":"koth_lakeside_final","folder":"tf","game":"Team Fortress","app_id":440,"player_count":0,"max_players":24,"Bots":0,"server_type":"Dedicated","server_os":"Linux","password":true,"vac":true,"version":"7961495","steam_id":85568392924866364,"keywords":["cp","nocrits","nodmgspread","uncletopia"],"game_id":440,"stv_port":27036,"stv_name":"Uncletopia | Chicago | 7 | Stopwatch | STV","players":null},{"server_id":39,"name":"Uncletopia | Chicago | 8 | Community","name_short":"chi-8","host":"chi-2.us.uncletopia.com","port":27045,"enabled":true,"region":"us-central","cc":"us","latitude":41.881832,"longitude":-87.62318,"reserved":0,"last_update":"0001-01-01T00:00:00Z","name_a2s":"Uncletopia | Chicago | 8 | Community","protocol":17,"map":"workshop/cp_overgrown_rc8.ugc503939302","folder":"tf","game":"Team Fortress","app_id":440,"player_count":0,"max_players":24,"Bots":0,"server_type":"Dedicated","server_os":"Linux","password":true,"vac":true,"version":"7961495","steam_id":85568392924866365,"keywords":["cp","nocrits","nodmgspread","uncletopia"],"game_id":440,"stv_port":27046,"stv_name":"Uncletopia | Chicago | 8 | Community | STV","players":null},{"server_id":8,"name":"Uncletopia | Dallas | 1 | All Maps","name_short":"dal-1","host":"dal-1.us.uncletopia.com","port":27015,"enabled":true,"region":"us-central","cc":"us","latitude":32.779167,"longitude":-96.80889,"reserved":0,"last_update":"0001-01-01T00:00:00Z","name_a2s":"Uncletopia | Dallas | 1 | All Maps","protocol":17,"map":"pl_pier","folder":"tf","game":"Team Fortress","app_id":440,"player_count":24,"max_players":24,"Bots":0,"server_type":"Dedicated","server_os":"Linux","password":true,"vac":true,"version":"7961495","steam_id":85568392924469986,"keywords":["nocrits","nodmgspread","payload","uncletopia"],"game_id":440,"stv_port":27016,"stv_name":"Uncletopia | Dallas | 1 | All Maps | STV","players":[{"user_id":670,"name":"Cancerous Pineapple","steam_id":76561198097307656,"connected_time":1471000000000,"state":"active","ping":96},{"user_id":672,"name":"_DrunkenGibberish_","steam_id":76561199123070071,"connected_time":1279000000000,"state":"active","ping":113},{"user_id":674,"name":"Irony is pretty cringy","steam_id":76561198120391460,"connected_time":1047000000000,"state":"active","ping":75},{"user_id":653,"name":"Cat on the Moon","steam_id":76561198272661627,"connected_time":2613000000000,"state":"active","ping":76},{"user_id":641,"name":"^-^","steam_id":76561198831996918,"connected_time":3534000000000,"state":"active","ping":75},{"user_id":691,"name":"fathead","steam_id":76561198150155615,"connected_time":71000000000,"state":"active","ping":104},{"user_id":655,"name":"MadnessTA","steam_id":76561198044650912,"connected_time":2281000000000,"state":"active","ping":76},{"user_id":676,"name":"shannongram influencer","steam_id":76561198143132686,"connected_time":1022000000000,"state":"active","ping":76},{"user_id":649,"name":"Smitty The Lord Of Ducks","steam_id":76561198024934561,"connected_time":2757000000000,"state":"active","ping":93},{"user_id":669,"name":"‚õßAlkahestry","steam_id":76561198109641497,"connected_time":1572000000000,"state":"active","ping":76},{"user_id":660,"name":"lker","steam_id":76561197976975075,"connected_time":1743000000000,"state":"active","ping":60},{"user_id":686,"name":"Haven","steam_id":76561198087584756,"connected_time":298000000000,"state":"active","ping":89},{"user_id":683,"name":"Slug Warrior","steam_id":76561197996052704,"connected_time":607000000000,"state":"active","ping":90},{"user_id":662,"name":"Not Giga Chad","steam_id":76561198059785363,"connected_time":1723000000000,"state":"active","ping":68},{"user_id":677,"name":"Mk","steam_id":76561198139790822,"connected_time":1021000000000,"state":"active","ping":140},{"user_id":608,"name":"Burpingtaco","steam_id":76561198081207098,"connected_time":5834000000000,"state":"active","ping":84},{"user_id":692,"name":"owl","steam_id":76561198088403016,"connected_time":66000000000,"state":"active","ping":180},{"user_id":663,"name":"Future Tusk","steam_id":76561198199635217,"connected_time":1720000000000,"state":"active","ping":94},{"user_id":664,"name":"Leroy","steam_id":76561199013064727,"connected_time":1712000000000,"state":"active","ping":105},{"user_id":678,"name":"Pickle","steam_id":76561198096221632,"connected_time":1019000000000,"state":"active","ping":71},{"user_id":693,"name":"moomin","steam_id":76561198336244269,"connected_time":17000000000,"state":"spawning","ping":95},{"user_id":680,"name":"Shadow Steak Ramen","steam_id":76561198077838946,"connected_time":988000000000,"state":"active","ping":94},{"user_id":689,"name":"ReDiculous22","steam_id":76561198038391383,"connected_time":182000000000,"state":"active","ping":43},{"user_id":681,"name":"Quack","steam_id":76561199086339263,"connected_time":834000000000,"state":"active","ping":70}]},{"server_id":108,"name":"Uncletopia | Dallas | 2 | All Maps","name_short":"dal-2","host":"dal-1.us.uncletopia.com","port":27025,"enabled":true,"region":"us-central","cc":"us","latitude":32.779167,"longitude":-96.80889,"reserved":0,"last_update":"0001-01-01T00:00:00Z","name_a2s":"Uncletopia | Dallas | 2 | All Maps","protocol":17,"map":"pl_snowycoast","folder":"tf","game":"Team Fortress","app_id":440,"player_count":0,"max_players":24,"Bots":0,"server_type":"Dedicated","server_os":"Linux","password":true,"vac":true,"version":"7961495","steam_id":85568392924469988,"keywords":["nocrits","nodmgspread","payload","uncletopia"],"game_id":440,"stv_port":27026,"stv_name":"Uncletopia | Dallas | 2 | All Maps | STV","players":null},{"server_id":404,"name":"Uncletopia | Dallas | 3 | All Maps","name_short":"dal-3","host":"dal-1.us.uncletopia.com","port":27035,"enabled":true,"region":"us-central","cc":"us","latitude":32.779167,"longitude":-96.80889,"reserved":0,"last_update":"0001-01-01T00:00:00Z","name_a2s":"Uncletopia | Dallas | 3 | All Maps","protocol":17,"map":"cp_altitude","folder":"tf","game":"Team Fortress","app_id":440,"player_count":0,"max_players":24,"Bots":0,"server_type":"Dedicated","server_os":"Linux","password":true,"vac":true,"version":"7961495","steam_id":85568392924515219,"keywords":["cp","nocrits","nodmgspread","uncletopia"],"game_id":440,"stv_port":27036,"stv_name":"Uncletopia | Dallas | 3 | All Maps | STV","players":null},{"server_id":405,"name":"Uncletopia | Dallas | 4 | Community","name_short":"dal-4","host":"dal-1.us.uncletopia.com","port":27045,"enabled":true,"region":"us-central","cc":"us","latitude":32.779167,"longitude":-96.80889,"reserved":0,"last_update":"0001-01-01T00:00:00Z","name_a2s":"Uncletopia | Dallas | 4 | Community","protocol":17,"map":"workshop/pl_corrode_rc2.ugc546577989","folder":"tf","game":"Team Fortress","app_id":440,"player_count":0,"max_players":24,"Bots":0,"server_type":"Dedicated","server_os":"Linux","password":true,"vac":true,"version":"7961495","steam_id":85568392924515220,"keywords":["nocrits","nodmgspread","payload","uncletopia"],"game_id":440,"stv_port":27046,"stv_name":"Uncletopia | Dallas | 4 | Community | STV","players":null},{"server_id":5,"name":"Uncletopia | Frankfurt | 1 | All Maps","name_short":"frk-1","host":"frk-1.de.uncletopia.com","port":27015,"enabled":true,"region":"eu","cc":"de","latitude":50.110924,"longitude":8.682127,"reserved":0,"last_update":"0001-01-01T00:00:00Z","name_a2s":"Uncletopia | Frankfurt | 1 | All Maps","protocol":17,"map":"koth_highpass","folder":"tf","game":"Team Fortress","app_id":440,"player_count":0,"max_players":24,"Bots":0,"server_type":"Dedicated","server_os":"Linux","password":true,"vac":true,"version":"7961495","steam_id":85568392924469989,"keywords":["cp","nocrits","nodmgspread","uncletopia"],"game_id":440,"stv_port":27016,"stv_name":"Uncletopia | Frankfurt | 1 | All Maps | STV","players":null},{"server_id":110,"name":"Uncletopia | Frankfurt | 2 | All Maps","name_short":"frk-2","host":"frk-1.de.uncletopia.com","port":27025,"enabled":true,"region":"eu","cc":"de","latitude":50.110924,"longitude":8.682127,"reserved":0,"last_update":"0001-01-01T00:00:00Z","name_a2s":"Uncletopia | Frankfurt | 2 | All Maps","protocol":17,"map":"cp_dustbowl","folder":"tf","game":"Team Fortress","app_id":440,"player_count":0,"max_players":24,"Bots":0,"server_type":"Dedicated","server_os":"Linux","password":true,"vac":true,"version":"7961495","steam_id":85568392924469990,"keywords":["cp","nocrits","nodmgspread","uncletopia"],"game_id":440,"stv_port":27026,"stv_name":"Uncletopia | Frankfurt | 2 | All Maps | STV","players":null},{"server_id":308,"name":"Uncletopia | Frankfurt | 3 | All Maps","name_short":"frk-3","host":"frk-1.de.uncletopia.com","port":27035,"enabled":true,"region":"eu","cc":"de","latitude":50.110924,"longitude":8.682127,"reserved":0,"last_update":"0001-01-01T00:00:00Z","name_a2s":"Uncletopia | Frankfurt | 3 | All Maps","protocol":17,"map":"pl_barnblitz","folder":"tf","game":"Team Fortress","app_id":440,"player_count":0,"max_players":24,"Bots":0,"server_type":"Dedicated","server_os":"Linux","password":true,"vac":true,"version":"7961495","steam_id":85568392924504274,"keywords":["nocrits","nodmgspread","payload","uncletopia"],"game_id":440,"stv_port":27036,"stv_name":"Uncletopia | Frankfurt | 3 | All Maps | STV","players":null},{"server_id":309,"name":"Uncletopia | Frankfurt | 4 | All Maps","name_short":"frk-4","host":"frk-1.de.uncletopia.com","port":27045,"enabled":true,"region":"eu","cc":"de","latitude":50.110924,"longitude":8.682127,"reserved":0,"last_update":"0001-01-01T00:00:00Z","name_a2s":"Uncletopia | Frankfurt | 4 | All Maps","protocol":17,"map":"koth_highpass","folder":"tf","game":"Team Fortress","app_id":440,"player_count":0,"max_players":24,"Bots":0,"server_type":"Dedicated","server_os":"Linux","password":true,"vac":true,"version":"7961495","steam_id":85568392924504275,"keywords":["cp","nocrits","nodmgspread","uncletopia"],"game_id":440,"stv_port":27046,"stv_name":"Uncletopia | Frankfurt | 4 | All Maps | STV","players":null},{"server_id":310,"name":"Uncletopia | Frankfurt | 5 | All Maps","name_short":"frk-5","host":"frk-1.de.uncletopia.com","port":27055,"enabled":true,"region":"eu","cc":"de","latitude":50.110924,"longitude":8.682127,"reserved":0,"last_update":"0001-01-01T00:00:00Z","name_a2s":"Uncletopia | Frankfurt | 5 | All Maps","protocol":17,"map":"pl_badwater","folder":"tf","game":"Team Fortress","app_id":440,"player_count":0,"max_players":24,"Bots":0,"server_type":"Dedicated","server_os":"Linux","password":true,"vac":true,"version":"7961495","steam_id":85568392924504277,"keywords":["nocrits","nodmgspread","payload","uncletopia"],"game_id":440,"stv_port":27056,"stv_name":"Uncletopia | Frankfurt | 5 | All Maps | STV","players":null},{"server_id":311,"name":"Uncletopia | Frankfurt | 6 | All Maps","name_short":"frk-6","host":"frk-1.de.uncletopia.com","port":27065,"enabled":true,"region":"eu","cc":"de","latitude":50.110924,"longitude":8.682127,"reserved":0,"last_update":"0001-01-01T00:00:00Z","name_a2s":"Uncletopia | Frankfurt | 6 | All Maps","protocol":17,"map":"pl_snowycoast","folder":"tf","game":"Team Fortress","app_id":440,"player_count":24,"max_players":24,"Bots":0,"server_type":"Dedicated","server_os":"Linux","password":true,"vac":true,"version":"7961495","steam_id":85568392924504278,"keywords":["nocrits","nodmgspread","payload","uncletopia"],"game_id":440,"stv_port":27066,"stv_name":"Uncletopia | Frankfurt | 6 | All Maps | STV","players":[{"user_id":56,"name":"Accident","steam_id":76561198115160396,"connected_time":68000000000,"state":"active","ping":67},{"user_id":25,"name":"content maker","steam_id":76561198351077564,"connected_time":1603000000000,"state":"active","ping":97},{"user_id":15,"name":"Micha≈Ç","steam_id":76561198320346362,"connected_time":3002000000000,"state":"active","ping":60},{"user_id":16,"name":"Largo","steam_id":76561198844368927,"connected_time":2840000000000,"state":"active","ping":68},{"user_id":50,"name":"ramedlaV^^","steam_id":76561198074352339,"connected_time":686000000000,"state":"active","ping":60},{"user_id":55,"name":"Pudlich","steam_id":76561198300089671,"connected_time":83000000000,"state":"active","ping":68},{"user_id":24,"name":"Ghost11","steam_id":76561198068892992,"connected_time":1607000000000,"state":"active","ping":108},{"user_id":33,"name":"TikTok Mental Hospital","steam_id":76561197988085026,"connected_time":1340000000000,"state":"active","ping":61},{"user_id":30,"name":"zeppa114","steam_id":76561198065192734,"connected_time":1428000000000,"state":"active","ping":65},{"user_id":51,"name":"kbbq","steam_id":76561198346638308,"connected_time":659000000000,"state":"active","ping":60},{"user_id":47,"name":"b4bib","steam_id":76561198389400021,"connected_time":968000000000,"state":"active","ping":45},{"user_id":32,"name":"Neimon","steam_id":76561198343485710,"connected_time":1349000000000,"state":"active","ping":113},{"user_id":49,"name":"Zeta","steam_id":76561198101917105,"connected_time":744000000000,"state":"active","ping":131},{"user_id":35,"name":"wheelie bin","steam_id":76561198040040328,"connected_time":1275000000000,"state":"active","ping":59},{"user_id":52,"name":"sparkyzZ \u003c3","steam_id":76561198120107112,"connected_time":658000000000,"state":"active","ping":63},{"user_id":37,"name":"Gkost","steam_id":76561198045553992,"connected_time":1243000000000,"state":"active","ping":71},{"user_id":38,"name":"4","steam_id":76561197964945192,"connected_time":1228000000000,"state":"active","ping":52},{"user_id":39,"name":"Laki","steam_id":76561198126078953,"connected_time":1228000000000,"state":"active","ping":93},{"user_id":40,"name":"froglids","steam_id":76561198045466919,"connected_time":1227000000000,"state":"active","ping":61},{"user_id":41,"name":"I919I","steam_id":76561198141049923,"connected_time":1221000000000,"state":"active","ping":76},{"user_id":42,"name":"Janfors","steam_id":76561198874152503,"connected_time":1180000000000,"state":"active","ping":78},{"user_id":43,"name":"henrik2357","steam_id":76561199499721991,"connected_time":1170000000000,"state":"active","ping":88},{"user_id":44,"name":"peter turbo","steam_id":76561198165531798,"connected_time":1155000000000,"state":"active","ping":91},{"user_id":54,"name":"ChrisBast","steam_id":76561198257444693,"connected_time":192000000000,"state":"active","ping":58}]},{"server_id":23,"name":"Uncletopia | Frankfurt | 7 | Stopwatch","name_short":"frk-7","host":"frk-1.de.uncletopia.com","port":27075,"enabled":true,"region":"eu","cc":"de","latitude":50.110924,"longitude":8.682127,"reserved":0,"last_update":"0001-01-01T00:00:00Z","name_a2s":"Uncletopia | Frankfurt | 7 | Stopwatch","protocol":17,"map":"pl_upward","folder":"tf","game":"Team Fortress","app_id":440,"player_count":9,"max_players":24,"Bots":0,"server_type":"Dedicated","server_os":"Linux","password":true,"vac":true,"version":"7961495","steam_id":85568392924742827,"keywords":["nocrits","nodmgspread","payload","uncletopia"],"game_id":440,"stv_port":27076,"stv_name":"Uncletopia | Frankfurt | 7 | Stopwatch | STV","players":[{"user_id":71,"name":"Truegr","steam_id":76561198811912339,"connected_time":707000000000,"state":"active","ping":80},{"user_id":87,"name":"Tobleroney","steam_id":76561198154402655,"connected_time":35000000000,"state":"active","ping":54},{"user_id":70,"name":"Apollo17","steam_id":76561198886930836,"connected_time":809000000000,"state":"active","ping":84},{"user_id":74,"name":"Bahador","steam_id":76561198897378461,"connected_time":658000000000,"state":"active","ping":72},{"user_id":78,"name":"Random Weeb [YUE]","steam_id":76561198839212897,"connected_time":322000000000,"state":"active","ping":123},{"user_id":88,"name":"blazeeight","steam_id":76561198159456502,"connected_time":29000000000,"state":"active","ping":57},{"user_id":81,"name":"QtazeQ","steam_id":76561198183634667,"connected_time":170000000000,"state":"active","ping":79},{"user_id":86,"name":"OmeZ","steam_id":76561198335701744,"connected_time":63000000000,"state":"active","ping":48},{"user_id":84,"name":"luckyminer98","steam_id":76561198177095691,"connected_time":130000000000,"state":"active","ping":61}]},{"server_id":24,"name":"Uncletopia | Frankfurt | 8 | Community","name_short":"frk-8","host":"frk-1.de.uncletopia.com","port":27085,"enabled":true,"region":"eu","cc":"de","latitude":50.110924,"longitude":8.682127,"reserved":0,"last_update":"0001-01-01T00:00:00Z","name_a2s":"Uncletopia | Frankfurt | 8 | Community","protocol":17,"map":"workshop/rd_asteroid_redux_b1.ugc2154902912","folder":"tf","game":"Team Fortress","app_id":440,"player_count":0,"max_players":24,"Bots":0,"server_type":"Dedicated","server_os":"Linux","password":true,"vac":true,"version":"7961495","steam_id":85568392924742828,"keywords":["beta","nocrits","nodmgspread","rd","uncletopia"],"game_id":440,"stv_port":27086,"stv_name":"Uncletopia | Frankfurt | 8 | Community | STV","players":null},{"server_id":202,"name":"Uncletopia | Hong Kong | 1 | All Maps","name_short":"hgk-1","host":"hgk-1.hk.uncletopia.com","port":27015,"enabled":true,"region":"asia","cc":"hk","latitude":22.302711,"longitude":114.177216,"reserved":0,"last_update":"0001-01-01T00:00:00Z","name_a2s":"Uncletopia | Hong Kong | 1 | All Maps","protocol":17,"map":"koth_highpass","folder":"tf","game":"Team Fortress","app_id":440,"player_count":24,"max_players":24,"Bots":0,"server_type":"Dedicated","server_os":"Linux","password":true,"vac":true,"version":"7961495","steam_id":85568392924494504,"keywords":["cp","nocrits","nodmgspread","uncletopia"],"game_id":440,"stv_port":27016,"stv_name":"Uncletopia | Hong Kong | 1 | All Maps | STV","players":[{"user_id":256,"name":"dread","steam_id":76561198130933659,"connected_time":2469000000000,"state":"active","ping":49},{"user_id":122,"name":"2746","steam_id":76561199390507975,"connected_time":8446000000000,"state":"active","ping":54},{"user_id":116,"name":"water tastes good","steam_id":76561199375947670,"connected_time":9331000000000,"state":"active","ping":60},{"user_id":117,"name":"Jun-char","steam_id":76561198126774704,"connected_time":8868000000000,"state":"active","ping":88},{"user_id":273,"name":"Tofie","steam_id":76561198154310138,"connected_time":627000000000,"state":"active","ping":59},{"user_id":278,"name":"Mystery cheese üßÄ","steam_id":76561198304002409,"connected_time":346000000000,"state":"active","ping":78},{"user_id":261,"name":"CaptainBozo","steam_id":76561199151959977,"connected_time":2049000000000,"state":"active","ping":57},{"user_id":126,"name":"piston","steam_id":76561198992723983,"connected_time":7701000000000,"state":"active","ping":98},{"user_id":276,"name":"TomProPlayer","steam_id":76561199223292521,"connected_time":468000000000,"state":"active","ping":72},{"user_id":277,"name":"True Wish","steam_id":76561198206718084,"connected_time":431000000000,"state":"active","ping":80},{"user_id":225,"name":"marisaloses","steam_id":76561199033032870,"connected_time":5207000000000,"state":"active","ping":108},{"user_id":262,"name":"C-Kitt","steam_id":76561199048854572,"connected_time":1985000000000,"state":"active","ping":135},{"user_id":263,"name":"Sarc","steam_id":76561198137454070,"connected_time":1974000000000,"state":"active","ping":101},{"user_id":233,"name":"MS PowerPoint","steam_id":76561198369523192,"connected_time":4132000000000,"state":"active","ping":64},{"user_id":274,"name":"Mexomenti","steam_id":76561199095596042,"connected_time":584000000000,"state":"active","ping":126},{"user_id":264,"name":"HF","steam_id":76561198873180855,"connected_time":1954000000000,"state":"active","ping":118},{"user_id":265,"name":"LEGS","steam_id":76561199111623890,"connected_time":1935000000000,"state":"active","ping":65},{"user_id":255,"name":"lshleo","steam_id":76561198366975960,"connected_time":2674000000000,"state":"active","ping":75},{"user_id":199,"name":"small beaver the 2nd","steam_id":76561199219484527,"connected_time":5996000000000,"state":"active","ping":154},{"user_id":221,"name":"[Sicky] I twin-charged your kid","steam_id":76561198228084940,"connected_time":5370000000000,"state":"active","ping":44},{"user_id":240,"name":"pyroman51","steam_id":76561198074339034,"connected_time":3870000000000,"state":"active","ping":75},{"user_id":249,"name":"la storia di un soldato","steam_id":76561199474092971,"connected_time":3150000000000,"state":"active","ping":99},{"user_id":175,"name":"ArcticDolphin","steam_id":76561198203626319,"connected_time":6379000000000,"state":"active","ping":130}]},{"server_id":1,"name":"Uncletopia | Los Angeles | 1 | All Maps","name_short":"lax-1","host":"lax-1.us.uncletopia.com","port":27015,"enabled":true,"region":"us-west","cc":"us","latitude":33.94279,"longitude":-118.41004,"reserved":0,"last_update":"0001-01-01T00:00:00Z","name_a2s":"Uncletopia | Los Angeles | 1 | All Maps","protocol":17,"map":"cp_altitude","folder":"tf","game":"Team Fortress","app_id":440,"player_count":0,"max_players":24,"Bots":0,"server_type":"Dedicated","server_os":"Linux","password":true,"vac":true,"version":"7961495","steam_id":85568392924469991,"keywords":["cp","nocrits","nodmgspread","uncletopia"],"game_id":440,"stv_port":27016,"stv_name":"Uncletopia | Los Angeles | 1 | All Maps | STV","players":null},{"server_id":112,"name":"Uncletopia | Los Angeles | 2 | All Maps","name_short":"lax-2","host":"lax-1.us.uncletopia.com","port":27025,"enabled":true,"region":"us-west","cc":"us","latitude":33.94279,"longitude":-118.41004,"reserved":0,"last_update":"0001-01-01T00:00:00Z","name_a2s":"Uncletopia | Los Angeles | 2 | All Maps","protocol":17,"map":"pl_barnblitz","folder":"tf","game":"Team Fortress","app_id":440,"player_count":14,"max_players":24,"Bots":0,"server_type":"Dedicated","server_os":"Linux","password":true,"vac":true,"version":"7961495","steam_id":85568392924469992,"keywords":["nocrits","nodmgspread","payload","uncletopia"],"game_id":440,"stv_port":27026,"stv_name":"Uncletopia | Los Angeles | 2 | All Maps | STV","players":[{"user_id":484,"name":"Creature","steam_id":76561198194585781,"connected_time":303000000000,"state":"active","ping":45},{"user_id":485,"name":"reiidaya","steam_id":76561198325306660,"connected_time":206000000000,"state":"active","ping":63},{"user_id":466,"name":"A B1 Battle Droid","steam_id":76561198050678984,"connected_time":1595000000000,"state":"active","ping":84},{"user_id":467,"name":"ShadowBolt","steam_id":76561198061610985,"connected_time":1567000000000,"state":"active","ping":147},{"user_id":468,"name":"sola venereum","steam_id":76561198368179166,"connected_time":1551000000000,"state":"active","ping":35},{"user_id":479,"name":"dAiLyGrInD","steam_id":76561198163531915,"connected_time":580000000000,"state":"active","ping":95},{"user_id":475,"name":"Space360","steam_id":76561198106743284,"connected_time":782000000000,"state":"active","ping":84},{"user_id":471,"name":"A Parliament of Owls","steam_id":76561197996200417,"connected_time":1369000000000,"state":"active","ping":57},{"user_id":472,"name":"Hektur Salmondchonka","steam_id":76561198136982572,"connected_time":1176000000000,"state":"active","ping":60},{"user_id":474,"name":"roach","steam_id":76561198354811369,"connected_time":947000000000,"state":"active","ping":62},{"user_id":476,"name":"simcye","steam_id":76561198010991761,"connected_time":767000000000,"state":"active","ping":69},{"user_id":486,"name":"Subtle_Calamity","steam_id":76561198170023315,"connected_time":65000000000,"state":"active","ping":91},{"user_id":480,"name":"porksoda","steam_id":76561198021451377,"connected_time":565000000000,"state":"active","ping":75},{"user_id":481,"name":"011sra","steam_id":76561199489542125,"connected_time":495000000000,"state":"active","ping":62}]},{"server_id":324,"name":"Uncletopia | Los Angeles | 3 | All Maps","name_short":"lax-3","host":"lax-1.us.uncletopia.com","port":27035,"enabled":true,"region":"us-west","cc":"us","latitude":33.94279,"longitude":-118.41004,"reserved":0,"last_update":"0001-01-01T00:00:00Z","name_a2s":"Uncletopia | Los Angeles | 3 | All Maps","protocol":17,"map":"koth_cascade","folder":"tf","game":"Team Fortress","app_id":440,"player_count":0,"max_players":24,"Bots":0,"server_type":"Dedicated","server_os":"Linux","password":true,"vac":true,"version":"7961495","steam_id":85568392924510198,"keywords":["cp","nocrits","nodmgspread","uncletopia"],"game_id":440,"stv_port":27036,"stv_name":"Uncletopia | Los Angeles | 3 | All Maps | STV","players":null},{"server_id":25,"name":"Uncletopia | Los Angeles | 4 | Stopwatch","name_short":"lax-4","host":"lax-1.us.uncletopia.com","port":27045,"enabled":true,"region":"us-west","cc":"us","latitude":33.94279,"longitude":-118.41004,"reserved":0,"last_update":"0001-01-01T00:00:00Z","name_a2s":"Uncletopia | Los Angeles | 4 | Stopwatch","protocol":17,"map":"cp_gullywash_final1","folder":"tf","game":"Team Fortress","app_id":440,"player_count":0,"max_players":24,"Bots":0,"server_type":"Dedicated","server_os":"Linux","password":true,"vac":true,"version":"7961495","steam_id":85568392924510199,"keywords":["cp","nocrits","nodmgspread","uncletopia"],"game_id":440,"stv_port":27046,"stv_name":"Uncletopia | Los Angeles | 4 | Stopwatch | STV","players":null},{"server_id":11,"name":"Uncletopia | London | 1 | All Maps","name_short":"lon-1","host":"lon-1.uk.uncletopia.com","port":27015,"enabled":true,"region":"eu","cc":"gb","latitude":51.509865,"longitude":-0.118092,"reserved":0,"last_update":"0001-01-01T00:00:00Z","name_a2s":"Uncletopia | London | 1 | All Maps","protocol":17,"map":"koth_highpass","folder":"tf","game":"Team Fortress","app_id":440,"player_count":0,"max_players":24,"Bots":0,"server_type":"Dedicated","server_os":"Linux","password":true,"vac":true,"version":"7961495","steam_id":85568392924367362,"keywords":["cp","nocrits","nodmgspread","uncletopia"],"game_id":440,"stv_port":27016,"stv_name":"Uncletopia | London | 1 | All Maps | STV","players":null},{"server_id":114,"name":"Uncletopia | London | 2 | All Maps","name_short":"lon-2","host":"lon-1.uk.uncletopia.com","port":27025,"enabled":true,"region":"eu","cc":"gb","latitude":51.509865,"longitude":-0.118092,"reserved":0,"last_update":"0001-01-01T00:00:00Z","name_a2s":"Uncletopia | London | 2 | All Maps","protocol":17,"map":"koth_lakeside_final","folder":"tf","game":"Team Fortress","app_id":440,"player_count":0,"max_players":24,"Bots":0,"server_type":"Dedicated","server_os":"Linux","password":true,"vac":true,"version":"7961495","steam_id":85568392924470941,"keywords":["cp","nocrits","nodmgspread","uncletopia"],"game_id":440,"stv_port":27026,"stv_name":"Uncletopia | London | 2 | All Maps | STV","players":null},{"server_id":320,"name":"Uncletopia | London | 3 | All Maps","name_short":"lon-3","host":"lon-1.uk.uncletopia.com","port":27035,"enabled":true,"region":"eu","cc":"gb","latitude":51.509865,"longitude":-0.118092,"reserved":0,"last_update":"0001-01-01T00:00:00Z","name_a2s":"Uncletopia | London | 3 | All Maps","protocol":17,"map":"cp_process_final","folder":"tf","game":"Team Fortress","app_id":440,"player_count":0,"max_players":24,"Bots":0,"server_type":"Dedicated","server_os":"Linux","password":true,"vac":true,"version":"7961495","steam_id":85568392924510192,"keywords":["cp","nocrits","nodmgspread","uncletopia"],"game_id":440,"stv_port":27036,"stv_name":"Uncletopia | London | 3 | All Maps | STV","players":null},{"server_id":321,"name":"Uncletopia | London | 4 | All Maps","name_short":"lon-4","host":"lon-1.uk.uncletopia.com","port":27045,"enabled":true,"region":"eu","cc":"gb","latitude":51.509865,"longitude":-0.118092,"reserved":0,"last_update":"0001-01-01T00:00:00Z","name_a2s":"Uncletopia | London | 4 | All Maps","protocol":17,"map":"koth_cascade","folder":"tf","game":"Team Fortress","app_id":440,"player_count":0,"max_players":24,"Bots":0,"server_type":"Dedicated","server_os":"Linux","password":true,"vac":true,"version":"7961495","steam_id":85568392924510193,"keywords":["cp","nocrits","nodmgspread","uncletopia"],"game_id":440,"stv_port":27046,"stv_name":"Uncletopia | London | 4 | All Maps | STV","players":null},{"server_id":21,"name":"Uncletopia | London | 5 | All Maps","name_short":"lon-5","host":"lon-1.uk.uncletopia.com","port":27055,"enabled":true,"region":"eu","cc":"gb","latitude":51.509865,"longitude":-0.118092,"reserved":0,"last_update":"0001-01-01T00:00:00Z","name_a2s":"Uncletopia | London | 5 | All Maps","protocol":17,"map":"koth_lakeside_final","folder":"tf","game":"Team Fortress","app_id":440,"player_count":0,"max_players":24,"Bots":0,"server_type":"Dedicated","server_os":"Linux","password":true,"vac":true,"version":"7961495","steam_id":85568392924742829,"keywords":["cp","nocrits","nodmgspread","uncletopia"],"game_id":440,"stv_port":27056,"stv_name":"Uncletopia | London | 5 | All Maps | STV","players":null},{"server_id":22,"name":"Uncletopia | London | 6 | All Maps","name_short":"lon-6","host":"lon-1.uk.uncletopia.com","port":27065,"enabled":true,"region":"eu","cc":"gb","latitude":51.509865,"longitude":-0.118092,"reserved":0,"last_update":"0001-01-01T00:00:00Z","name_a2s":"Uncletopia | London | 6 | All Maps","protocol":17,"map":"cp_dustbowl","folder":"tf","game":"Team Fortress","app_id":440,"player_count":0,"max_players":24,"Bots":0,"server_type":"Dedicated","server_os":"Linux","password":true,"vac":true,"version":"7961495","steam_id":85568392924742830,"keywords":["cp","nocrits","nodmgspread","uncletopia"],"game_id":440,"stv_port":27066,"stv_name":"Uncletopia | London | 6 | All Maps | STV","players":null},{"server_id":40,"name":"Uncletopia | London | 7 | Stopwatch","name_short":"lon-7","host":"lon-1.uk.uncletopia.com","port":27075,"enabled":true,"region":"eu","cc":"gb","latitude":51.509865,"longitude":-0.118092,"reserved":0,"last_update":"0001-01-01T00:00:00Z","name_a2s":"Uncletopia | London | 7 | Stopwatch","protocol":17,"map":"koth_lakeside_final","folder":"tf","game":"Team Fortress","app_id":440,"player_count":0,"max_players":24,"Bots":0,"server_type":"Dedicated","server_os":"Linux","password":true,"vac":true,"version":"7961495","steam_id":85568392924964314,"keywords":["cp","nocrits","nodmgspread","uncletopia"],"game_id":440,"stv_port":27076,"stv_name":"Uncletopia | London | 7 | Stopwatch | STV","players":null},{"server_id":41,"name":"Uncletopia | London | 8 | Community","name_short":"lon-8","host":"lon-1.uk.uncletopia.com","port":27085,"enabled":true,"region":"eu","cc":"gb","latitude":51.509865,"longitude":-0.118092,"reserved":0,"last_update":"0001-01-01T00:00:00Z","name_a2s":"Uncletopia | London | 8 | Community","protocol":17,"map":"cp_snakewater_final1","folder":"tf","game":"Team Fortress","app_id":440,"player_count":0,"max_players":24,"Bots":0,"server_type":"Dedicated","server_os":"Linux","password":true,"vac":true,"version":"7961495","steam_id":85568392924964315,"keywords":["cp","nocrits","nodmgspread","uncletopia"],"game_id":440,"stv_port":27086,"stv_name":"Uncletopia | London | 8 | Community | STV","players":null},{"server_id":300,"name":"Uncletopia | Montr√©al | 1 | One Thousand Uncles","name_short":"mtl-1","host":"mtl-1.ca.uncletopia.com","port":27015,"enabled":true,"region":"us-east","cc":"ca","latitude":45.50889,"longitude":-73.56167,"reserved":0,"last_update":"0001-01-01T00:00:00Z","name_a2s":"","protocol":0,"map":"","folder":"","game":"","app_id":0,"player_count":0,"max_players":0,"Bots":0,"server_type":"","server_os":"","password":false,"vac":false,"version":"","steam_id":0,"keywords":null,"game_id":0,"stv_port":0,"stv_name":"","players":null},{"server_id":301,"name":"Uncletopia | Montr√©al | 2 | One Thousand Uncles","name_short":"mtl-2","host":"mtl-1.ca.uncletopia.com","port":27025,"enabled":true,"region":"us-east","cc":"ca","latitude":45.50889,"longitude":-73.56167,"reserved":0,"last_update":"0001-01-01T00:00:00Z","name_a2s":"","protocol":0,"map":"","folder":"","game":"","app_id":0,"player_count":3,"max_players":0,"Bots":0,"server_type":"","server_os":"","password":false,"vac":false,"version":"","steam_id":0,"keywords":null,"game_id":0,"stv_port":0,"stv_name":"","players":[{"user_id":328,"name":"Sonet","steam_id":76561198061070718,"connected_time":1549000000000,"state":"active","ping":67},{"user_id":325,"name":"kreazone","steam_id":76561197971344477,"connected_time":3058000000000,"state":"active","ping":155},{"user_id":326,"name":"RacoonGamer","steam_id":76561198100907657,"connected_time":2934000000000,"state":"active","ping":45}]},{"server_id":302,"name":"Uncletopia | Montr√©al | 3 | One Thousand Uncles","name_short":"mtl-3","host":"mtl-1.ca.uncletopia.com","port":27035,"enabled":true,"region":"us-east","cc":"ca","latitude":45.50889,"longitude":-73.56167,"reserved":0,"last_update":"0001-01-01T00:00:00Z","name_a2s":"","protocol":0,"map":"","folder":"","game":"","app_id":0,"player_count":0,"max_players":0,"Bots":0,"server_type":"","server_os":"","password":false,"vac":false,"version":"","steam_id":0,"keywords":null,"game_id":0,"stv_port":0,"stv_name":"","players":null},{"server_id":13,"name":"Uncletopia | New York City | 1 | All Maps","name_short":"nyc-1","host":"nyc-1.us.uncletopia.com","port":27015,"enabled":true,"region":"us-east","cc":"us","latitude":40.73061,"longitude":-73.93524,"reserved":0,"last_update":"0001-01-01T00:00:00Z","name_a2s":"Uncletopia | New York City | 1 | All Maps","protocol":17,"map":"cp_mountainlab","folder":"tf","game":"Team Fortress","app_id":440,"player_count":0,"max_players":24,"Bots":0,"server_type":"Dedicated","server_os":"Linux","password":true,"vac":true,"version":"7961495","steam_id":85568392924469993,"keywords":["cp","nocrits","nodmgspread","uncletopia"],"game_id":440,"stv_port":27016,"stv_name":"Uncletopia | New York City | 1 | All Maps | STV","players":null},{"server_id":14,"name":"Uncletopia | New York City | 2 | All Maps","name_short":"nyc-2","host":"nyc-1.us.uncletopia.com","port":27025,"enabled":true,"region":"us-east","cc":"us","latitude":40.73061,"longitude":-73.93524,"reserved":0,"last_update":"0001-01-01T00:00:00Z","name_a2s":"Uncletopia | New York City | 2 | All Maps","protocol":17,"map":"pl_borneo","folder":"tf","game":"Team Fortress","app_id":440,"player_count":0,"max_players":24,"Bots":0,"server_type":"Dedicated","server_os":"Linux","password":true,"vac":true,"version":"7961495","steam_id":85568392924469994,"keywords":["nocrits","nodmgspread","payload","uncletopia"],"game_id":440,"stv_port":27026,"stv_name":"Uncletopia | New York City | 2 | All Maps | STV","players":null},{"server_id":15,"name":"Uncletopia | New York City | 3 | Stopwatch","name_short":"nyc-3","host":"nyc-1.us.uncletopia.com","port":27035,"enabled":true,"region":"us-east","cc":"us","latitude":40.73061,"longitude":-73.93524,"reserved":0,"last_update":"0001-01-01T00:00:00Z","name_a2s":"Uncletopia | New York City | 3 | Stopwatch","protocol":17,"map":"pl_borneo","folder":"tf","game":"Team Fortress","app_id":440,"player_count":0,"max_players":24,"Bots":0,"server_type":"Dedicated","server_os":"Linux","password":true,"vac":true,"version":"7961495","steam_id":85568392924742820,"keywords":["nocrits","nodmgspread","payload","uncletopia"],"game_id":440,"stv_port":27036,"stv_name":"Uncletopia | New York City | 3 | Stopwatch | STV","players":null},{"server_id":16,"name":"Uncletopia | New York City | 4 | Community","name_short":"nyc-4","host":"nyc-1.us.uncletopia.com","port":27045,"enabled":true,"region":"us-east","cc":"us","latitude":40.73061,"longitude":-73.93524,"reserved":0,"last_update":"0001-01-01T00:00:00Z","name_a2s":"Uncletopia | New York City | 4 | Community","protocol":17,"map":"workshop/koth_ramjam_rc1.ugc459778887","folder":"tf","game":"Team Fortress","app_id":440,"player_count":0,"max_players":24,"Bots":0,"server_type":"Dedicated","server_os":"Linux","password":true,"vac":true,"version":"7961495","steam_id":85568392924742821,"keywords":["cp","nocrits","nodmgspread","uncletopia"],"game_id":440,"stv_port":27046,"stv_name":"Uncletopia | New York City | 4 | Community | STV","players":null},{"server_id":142,"name":"Uncletopia | S√£o Paulo | 1 | All Maps","name_short":"sao-1","host":"sao-1.br.uncletopia.com","port":27015,"enabled":true,"region":"sa","cc":"br","latitude":-23.533773,"longitude":-46.62529,"reserved":0,"last_update":"0001-01-01T00:00:00Z","name_a2s":"Uncletopia | S√£o Paulo | 1 | All Maps","protocol":17,"map":"pl_swiftwater_final1","folder":"tf","game":"Team Fortress","app_id":440,"player_count":0,"max_players":24,"Bots":0,"server_type":"Dedicated","server_os":"Linux","password":true,"vac":true,"version":"7961495","steam_id":85568392924469996,"keywords":["nocrits","nodmgspread","payload","uncletopia"],"game_id":440,"stv_port":27016,"stv_name":"Uncletopia | S√£o Paulo | 1 | All Maps | STV","players":null},{"server_id":143,"name":"Uncletopia | S√£o Paulo | 2 | Community","name_short":"sao-2","host":"sao-2.br.uncletopia.com","port":27015,"enabled":true,"region":"sa","cc":"br","latitude":-23.533773,"longitude":-46.62529,"reserved":0,"last_update":"0001-01-01T00:00:00Z","name_a2s":"Uncletopia | S√£o Paulo | 2 | Community","protocol":17,"map":"workshop/koth_product_final.ugc454272353","folder":"tf","game":"Team Fortress","app_id":440,"player_count":0,"max_players":24,"Bots":0,"server_type":"Dedicated","server_os":"Linux","password":true,"vac":true,"version":"7961495","steam_id":85568392924485349,"keywords":["cp","nocrits","nodmgspread","uncletopia"],"game_id":440,"stv_port":27016,"stv_name":"Uncletopia | S√£o Paulo | 2 | Community | STV","players":null},{"server_id":7,"name":"Uncletopia | Seattle | 1 | All Maps","name_short":"sea-1","host":"sea-1.us.uncletopia.com","port":27015,"enabled":true,"region":"us-west","cc":"us","latitude":47.608013,"longitude":-122.33517,"reserved":0,"last_update":"0001-01-01T00:00:00Z","name_a2s":"Uncletopia | Seattle | 1 | All Maps","protocol":17,"map":"pl_snowycoast","folder":"tf","game":"Team Fortress","app_id":440,"player_count":0,"max_players":24,"Bots":0,"server_type":"Dedicated","server_os":"Linux","password":true,"vac":true,"version":"7961495","steam_id":85568392924469997,"keywords":["nocrits","nodmgspread","payload","uncletopia"],"game_id":440,"stv_port":27016,"stv_name":"Uncletopia | Seattle | 1 | All Maps | STV","players":null},{"server_id":119,"name":"Uncletopia | Seattle | 2 | All Maps","name_short":"sea-2","host":"sea-1.us.uncletopia.com","port":27025,"enabled":true,"region":"us-west","cc":"us","latitude":47.608013,"longitude":-122.33517,"reserved":0,"last_update":"0001-01-01T00:00:00Z","name_a2s":"Uncletopia | Seattle | 2 | All Maps","protocol":17,"map":"cp_mountainlab","folder":"tf","game":"Team Fortress","app_id":440,"player_count":0,"max_players":24,"Bots":0,"server_type":"Dedicated","server_os":"Linux","password":true,"vac":true,"version":"7961495","steam_id":85568392924469998,"keywords":["cp","nocrits","nodmgspread","uncletopia"],"game_id":440,"stv_port":27026,"stv_name":"Uncletopia | Seattle | 2 | All Maps | STV","players":null},{"server_id":406,"name":"Uncletopia | Seattle | 3 | Stopwatch","name_short":"sea-3","host":"sea-1.us.uncletopia.com","port":27035,"enabled":true,"region":"us-west","cc":"us","latitude":47.608013,"longitude":-122.33517,"reserved":0,"last_update":"0001-01-01T00:00:00Z","name_a2s":"Uncletopia | Seattle | 3 | Stopwatch","protocol":17,"map":"workshop/koth_ashville_final.ugc2130459942","folder":"tf","game":"Team Fortress","app_id":440,"player_count":0,"max_players":24,"Bots":0,"server_type":"Dedicated","server_os":"Linux","password":true,"vac":true,"version":"7961495","steam_id":85568392924515217,"keywords":["cp","nocrits","nodmgspread","uncletopia"],"game_id":440,"stv_port":27036,"stv_name":"Uncletopia | Seattle | 3 | Stopwatch | STV","players":null},{"server_id":17,"name":"Uncletopia | San Francisco | 1 | All Maps","name_short":"sfo-1","host":"sfo-1.us.uncletopia.com","port":27015,"enabled":true,"region":"us-west","cc":"us","latitude":37.77397,"longitude":-122.4313,"reserved":0,"last_update":"0001-01-01T00:00:00Z","name_a2s":"Uncletopia | San Francisco | 1 | All Maps","protocol":17,"map":"pl_barnblitz","folder":"tf","game":"Team Fortress","app_id":440,"player_count":0,"max_players":24,"Bots":0,"server_type":"Dedicated","server_os":"Linux","password":true,"vac":true,"version":"7961495","steam_id":85568392924469999,"keywords":["nocrits","nodmgspread","payload","uncletopia"],"game_id":440,"stv_port":27016,"stv_name":"Uncletopia | San Francisco | 1 | All Maps | STV","players":null},{"server_id":18,"name":"Uncletopia | San Francisco | 2 | All Maps","name_short":"sfo-2","host":"sfo-1.us.uncletopia.com","port":27025,"enabled":true,"region":"us-west","cc":"us","latitude":37.77397,"longitude":-122.4313,"reserved":0,"last_update":"0001-01-01T00:00:00Z","name_a2s":"Uncletopia | San Francisco | 2 | All Maps","protocol":17,"map":"pl_badwater","folder":"tf","game":"Team Fortress","app_id":440,"player_count":0,"max_players":24,"Bots":0,"server_type":"Dedicated","server_os":"Linux","password":true,"vac":true,"version":"7961495","steam_id":85568392924470000,"keywords":["nocrits","nodmgspread","payload","uncletopia"],"game_id":440,"stv_port":27026,"stv_name":"Uncletopia | San Francisco | 2 | All Maps | STV","players":null},{"server_id":19,"name":"Uncletopia | San Francisco | 3 | Stopwatch","name_short":"sfo-3","host":"sfo-1.us.uncletopia.com","port":27035,"enabled":true,"region":"us-west","cc":"us","latitude":37.77397,"longitude":-122.4313,"reserved":0,"last_update":"0001-01-01T00:00:00Z","name_a2s":"Uncletopia | San Francisco | 3 | Stopwatch","protocol":17,"map":"workshop/pl_barnblitz_pro7.ugc582280235","folder":"tf","game":"Team Fortress","app_id":440,"player_count":0,"max_players":24,"Bots":0,"server_type":"Dedicated","server_os":"Linux","password":true,"vac":true,"version":"7961495","steam_id":85568392924742824,"keywords":["nocrits","nodmgspread","payload","uncletopia"],"game_id":440,"stv_port":27036,"stv_name":"Uncletopia | San Francisco | 3 | Stopwatch | STV","players":null},{"server_id":20,"name":"Uncletopia | San Francisco | 4 | Community","name_short":"sfo-4","host":"sfo-1.us.uncletopia.com","port":27045,"enabled":true,"region":"us-west","cc":"us","latitude":37.77397,"longitude":-122.4313,"reserved":0,"last_update":"0001-01-01T00:00:00Z","name_a2s":"Uncletopia | San Francisco | 4 | Community","protocol":17,"map":"workshop/koth_bagel_rc6.ugc2514036946","folder":"tf","game":"Team Fortress","app_id":440,"player_count":0,"max_players":24,"Bots":0,"server_type":"Dedicated","server_os":"Linux","password":true,"vac":true,"version":"7961495","steam_id":85568392924742826,"keywords":["cp","nocrits","nodmgspread","uncletopia"],"game_id":440,"stv_port":27046,"stv_name":"Uncletopia | San Francisco | 4 | Community | STV","players":null},{"server_id":141,"name":"Uncletopia | Sydney | 1 | All Maps","name_short":"syd-1","host":"syd-1.au.uncletopia.com","port":27015,"enabled":true,"region":"au","cc":"au","latitude":-33.865143,"longitude":151.2099,"reserved":0,"last_update":"0001-01-01T00:00:00Z","name_a2s":"Uncletopia | Sydney | 1 | All Maps","protocol":17,"map":"pl_swiftwater_final1","folder":"tf","game":"Team Fortress","app_id":440,"player_count":4,"max_players":24,"Bots":0,"server_type":"Dedicated","server_os":"Linux","password":true,"vac":true,"version":"7961495","steam_id":85568392924470001,"keywords":["nocrits","nodmgspread","payload","uncletopia"],"game_id":440,"stv_port":27016,"stv_name":"Uncletopia | Sydney | 1 | All Maps | STV","players":[{"user_id":26,"name":"JGuy_850","steam_id":76561199157185906,"connected_time":754000000000,"state":"active","ping":179},{"user_id":25,"name":"i got 5 kills once","steam_id":76561198383320315,"connected_time":840000000000,"state":"active","ping":57},{"user_id":28,"name":"Mikey","steam_id":76561198438203131,"connected_time":400000000000,"state":"active","ping":59},{"user_id":29,"name":"Dan","steam_id":76561198005739224,"connected_time":304000000000,"state":"active","ping":63}]},{"server_id":123,"name":"Uncletopia | Sydney | 2 | All Maps","name_short":"syd-2","host":"syd-1.au.uncletopia.com","port":27025,"enabled":true,"region":"au","cc":"au","latitude":-33.865143,"longitude":151.2099,"reserved":0,"last_update":"0001-01-01T00:00:00Z","name_a2s":"Uncletopia | Sydney | 2 | All Maps","protocol":17,"map":"pl_upward","folder":"tf","game":"Team Fortress","app_id":440,"player_count":24,"max_players":24,"Bots":0,"server_type":"Dedicated","server_os":"Linux","password":true,"vac":true,"version":"7961495","steam_id":85568392924470002,"keywords":["nocrits","nodmgspread","payload","uncletopia"],"game_id":440,"stv_port":27026,"stv_name":"Uncletopia | Sydney | 2 | All Maps | STV","players":[{"user_id":61,"name":"james16","steam_id":76561198362678073,"connected_time":1074000000000,"state":"active","ping":35},{"user_id":45,"name":"Consolidated Fart","steam_id":76561198924101909,"connected_time":2379000000000,"state":"active","ping":62},{"user_id":46,"name":"no teles 4 u","steam_id":76561198018478297,"connected_time":2372000000000,"state":"active","ping":69},{"user_id":28,"name":"optive","steam_id":76561198131756192,"connected_time":3087000000000,"state":"active","ping":89},{"user_id":76,"name":"TurboVEVO","steam_id":76561198163694415,"connected_time":179000000000,"state":"active","ping":72},{"user_id":21,"name":"wwwww","steam_id":76561198074409027,"connected_time":3314000000000,"state":"active","ping":55},{"user_id":49,"name":"Bobby Bigman","steam_id":76561198044679656,"connected_time":2152000000000,"state":"active","ping":60},{"user_id":22,"name":"toblue","steam_id":76561198189137465,"connected_time":3310000000000,"state":"active","ping":82},{"user_id":16,"name":"SIRROM12 (SIRR)","steam_id":76561198116738329,"connected_time":3388000000000,"state":"active","ping":70},{"user_id":23,"name":"SLOW_","steam_id":76561198170693338,"connected_time":3262000000000,"state":"active","ping":74},{"user_id":77,"name":"Overlold","steam_id":76561197978635495,"connected_time":121000000000,"state":"active","ping":84},{"user_id":30,"name":"Malphas","steam_id":76561198011425371,"connected_time":3066000000000,"state":"active","ping":58},{"user_id":59,"name":"ANML","steam_id":76561198260039591,"connected_time":1395000000000,"state":"active","ping":56},{"user_id":72,"name":"Asl:3x","steam_id":76561198972095766,"connected_time":294000000000,"state":"active","ping":44},{"user_id":51,"name":"aido","steam_id":76561198072397557,"connected_time":1940000000000,"state":"active","ping":67},{"user_id":57,"name":"horrid webbon ·òõ‚ÅêÃ§·ïê·ê∑","steam_id":76561198061998379,"connected_time":1460000000000,"state":"active","ping":47},{"user_id":75,"name":"Tantei Rotana","steam_id":76561198041204323,"connected_time":193000000000,"state":"active","ping":62},{"user_id":70,"name":"Mango","steam_id":76561198799842401,"connected_time":402000000000,"state":"active","ping":104},{"user_id":60,"name":"hazz_mcpie -BvM-","steam_id":76561198092450084,"connected_time":1121000000000,"state":"active","ping":90},{"user_id":55,"name":"BOEDP","steam_id":76561199001145026,"connected_time":1736000000000,"state":"active","ping":48},{"user_id":41,"name":"Hamood","steam_id":76561198048311062,"connected_time":2802000000000,"state":"active","ping":49},{"user_id":65,"name":"strogan my beef til im off","steam_id":76561198127848228,"connected_time":528000000000,"state":"active","ping":64},{"user_id":63,"name":"Zoey","steam_id":76561198126153554,"connected_time":600000000000,"state":"active","ping":76},{"user_id":73,"name":"Marmalade Cat","steam_id":76561198086309767,"connected_time":293000000000,"state":"active","ping":63}]},{"server_id":395,"name":"Uncletopia | Sydney | 3 | All Maps","name_short":"syd-3","host":"syd-1.au.uncletopia.com","port":27035,"enabled":true,"region":"au","cc":"au","latitude":-33.865143,"longitude":151.2099,"reserved":0,"last_update":"0001-01-01T00:00:00Z","name_a2s":"Uncletopia | Sydney | 3 | All Maps","protocol":17,"map":"cp_sunshine","folder":"tf","game":"Team Fortress","app_id":440,"player_count":0,"max_players":24,"Bots":0,"server_type":"Dedicated","server_os":"Linux","password":true,"vac":true,"version":"7961495","steam_id":85568392925194467,"keywords":["cp","nocrits","nodmgspread","uncletopia"],"game_id":440,"stv_port":27036,"stv_name":"Uncletopia | Sydney | 3 | All Maps | STV","players":null},{"server_id":396,"name":"Uncletopia | Sydney | 4 | All Maps","name_short":"syd-4","host":"syd-1.au.uncletopia.com","port":27045,"enabled":true,"region":"au","cc":"au","latitude":-33.865143,"longitude":151.2099,"reserved":0,"last_update":"0001-01-01T00:00:00Z","name_a2s":"Uncletopia | Sydney | 4 | All Maps","protocol":17,"map":"koth_highpass","folder":"tf","game":"Team Fortress","app_id":440,"player_count":0,"max_players":24,"Bots":0,"server_type":"Dedicated","server_os":"Linux","password":true,"vac":true,"version":"7961495","steam_id":85568392925397958,"keywords":["cp","nocrits","nodmgspread","uncletopia"],"game_id":440,"stv_port":27046,"stv_name":"Uncletopia | Sydney | 4 | All Maps | STV","players":null},{"server_id":58,"name":"Uncletopia | Sydney | 5 | Stopwatch","name_short":"syd-5","host":"syd-1.au.uncletopia.com","port":27055,"enabled":true,"region":"au","cc":"au","latitude":-33.865143,"longitude":151.2099,"reserved":0,"last_update":"0001-01-01T00:00:00Z","name_a2s":"Uncletopia | Sydney | 5 | Stopwatch","protocol":17,"map":"pl_frontier_final","folder":"tf","game":"Team Fortress","app_id":440,"player_count":0,"max_players":24,"Bots":0,"server_type":"Dedicated","server_os":"Linux","password":true,"vac":true,"version":"7961495","steam_id":85568392925397959,"keywords":["nocrits","nodmgspread","payload","uncletopia"],"game_id":440,"stv_port":27056,"stv_name":"Uncletopia | Sydney | 5 | Stopwatch | STV","players":null},{"server_id":59,"name":"Uncletopia | Sydney | 6 | Community","name_short":"syd-6","host":"syd-1.au.uncletopia.com","port":27065,"enabled":true,"region":"au","cc":"au","latitude":-33.865143,"longitude":151.2099,"reserved":0,"last_update":"0001-01-01T00:00:00Z","name_a2s":"Uncletopia | Sydney | 6 | Community","protocol":17,"map":"cp_sunshine","folder":"tf","game":"Team Fortress","app_id":440,"player_count":0,"max_players":24,"Bots":0,"server_type":"Dedicated","server_os":"Linux","password":true,"vac":true,"version":"7961495","steam_id":85568392925397960,"keywords":["cp","nocrits","nodmgspread","uncletopia"],"game_id":440,"stv_port":27066,"stv_name":"Uncletopia | Sydney | 6 | Community | STV","players":null},{"server_id":49,"name":"Uncletopia | Warsaw | 1 | One Thousand Uncles","name_short":"waw-1","host":"waw-1.pl.uncletopia.com","port":27015,"enabled":true,"region":"eu","cc":"pl","latitude":52.2297,"longitude":21.017532,"reserved":0,"last_update":"0001-01-01T00:00:00Z","name_a2s":"Uncletopia | Warsaw | 1 | One Thousand Uncles","protocol":17,"map":"koth_highpass","folder":"tf","game":"Team Fortress","app_id":440,"player_count":0,"max_players":32,"Bots":0,"server_type":"Dedicated","server_os":"Linux","password":true,"vac":true,"version":"7961495","steam_id":85568392925397850,"keywords":["alltalk","cp","danepve","increased_maxplayers","nocrits","norespawntime","uncletopia"],"game_id":440,"stv_port":0,"stv_name":"","players":null},{"server_id":50,"name":"Uncletopia | Warsaw | 2 | One Thousand Uncles","name_short":"waw-2","host":"waw-1.pl.uncletopia.com","port":27025,"enabled":true,"region":"eu","cc":"pl","latitude":52.2297,"longitude":21.017532,"reserved":0,"last_update":"0001-01-01T00:00:00Z","name_a2s":"Uncletopia | Warsaw | 2 | One Thousand Uncles","protocol":17,"map":"pl_goldrush","folder":"tf","game":"Team Fortress","app_id":440,"player_count":0,"max_players":32,"Bots":0,"server_type":"Dedicated","server_os":"Linux","password":true,"vac":true,"version":"7961495","steam_id":85568392925397851,"keywords":["alltalk","danepve","increased_maxplayers","nocrits","norespawntime","payload","uncletopia"],"game_id":440,"stv_port":0,"stv_name":"","players":null},{"server_id":51,"name":"Uncletopia | Warsaw | 3 | All Maps","name_short":"waw-3","host":"waw-1.pl.uncletopia.com","port":27035,"enabled":true,"region":"eu","cc":"pl","latitude":52.2297,"longitude":21.017532,"reserved":0,"last_update":"0001-01-01T00:00:00Z","name_a2s":"Uncletopia | Warsaw | 3 | All Maps","protocol":17,"map":"plr_pipeline","folder":"tf","game":"Team Fortress","app_id":440,"player_count":0,"max_players":24,"Bots":0,"server_type":"Dedicated","server_os":"Linux","password":true,"vac":true,"version":"7961495","steam_id":85568392925397852,"keywords":["nocrits","nodmgspread","payload","uncletopia"],"game_id":440,"stv_port":27036,"stv_name":"Uncletopia | Warsaw | 3 | All Maps | STV","players":null},{"server_id":52,"name":"Uncletopia | Warsaw | 4 | All Maps","name_short":"waw-4","host":"waw-1.pl.uncletopia.com","port":27045,"enabled":true,"region":"eu","cc":"pl","latitude":52.2297,"longitude":21.017532,"reserved":0,"last_update":"0001-01-01T00:00:00Z","name_a2s":"Uncletopia | Warsaw | 4 | All Maps","protocol":17,"map":"cp_coldfront","folder":"tf","game":"Team Fortress","app_id":440,"player_count":0,"max_players":24,"Bots":0,"server_type":"Dedicated","server_os":"Linux","password":true,"vac":true,"version":"7961495","steam_id":85568392925397853,"keywords":["cp","nocrits","nodmgspread","uncletopia"],"game_id":440,"stv_port":27046,"stv_name":"Uncletopia | Warsaw | 4 | All Maps | STV","players":null},{"server_id":53,"name":"Uncletopia | Warsaw | 5 | Stopwatch","name_short":"waw-5","host":"waw-1.pl.uncletopia.com","port":27055,"enabled":true,"region":"eu","cc":"pl","latitude":52.2297,"longitude":21.017532,"reserved":0,"last_update":"0001-01-01T00:00:00Z","name_a2s":"Uncletopia | Warsaw | 5 | Stopwatch","protocol":17,"map":"workshop/koth_bagel_rc6.ugc2514036946","folder":"tf","game":"Team Fortress","app_id":440,"player_count":0,"max_players":24,"Bots":0,"server_type":"Dedicated","server_os":"Linux","password":true,"vac":true,"version":"7961495","steam_id":85568392925397854,"keywords":["cp","nocrits","nodmgspread","uncletopia"],"game_id":440,"stv_port":27056,"stv_name":"Uncletopia | Warsaw | 5 | Stopwatch | STV","players":null},{"server_id":54,"name":"Uncletopia | Warsaw | 6 | Community","name_short":"waw-6","host":"waw-1.pl.uncletopia.com","port":27065,"enabled":true,"region":"eu","cc":"pl","latitude":52.2297,"longitude":21.017532,"reserved":0,"last_update":"0001-01-01T00:00:00Z","name_a2s":"Uncletopia | Warsaw | 6 | Community","protocol":17,"map":"workshop/pl_badwater_pro_v12.ugc2142942074","folder":"tf","game":"Team Fortress","app_id":440,"player_count":0,"max_players":24,"Bots":0,"server_type":"Dedicated","server_os":"Linux","password":true,"vac":true,"version":"7961495","steam_id":85568392925397856,"keywords":["nocrits","nodmgspread","payload","uncletopia"],"game_id":440,"stv_port":27066,"stv_name":"Uncletopia | Warsaw | 6 | Community | STV","players":null}]}