{"status":true,"message":"","result":[{"server_id":9,"name":"Uncletopia | Atlanta | 1 | All Maps","name_short":"atl-1","host":"atl-1.us.uncletopia.com","port":27015,"enabled":true,"region":"us-east","cc":"us","latitude":33.753746,"longitude":-84.38633,"reserved":0,"last_update":"0001-01-01T00:00:00Z","name_a2s":"Uncletopia | Atlanta | 1 | All Maps","protocol":17,"map":"pl_frontier_final","folder":"tf","game":"Team Fortress","app_id":440,"player_count":24,"max_players":24,"Bots":0,"server_type":"Dedicated","server_os":"Linux","password":true,"vac":true,"version":"7757534","steam_id":85568392924469982,"keywords":["nocrits","nodmgspread","payload","uncletopia"],"game_id":440,"stv_port":27016,"stv_name":"Uncletopia | Atlanta | 1 | All Maps | STV","players":[{"user_id":430,"name":"Satan-2","steam_id":76561199231742764,"connected_time":2934000000000,"state":"active","ping":86},{"user_id":460,"name":"Dad","steam_id":76561199091290729,"connected_time":610000000000,"state":"active","ping":83},{"user_id":455,"name":"The Horselords and Animal Gods","steam_id":76561197975094050,"connected_time":1045000000000,"state":"active","ping":104},{"user_id":454,"name":"Aeront","steam_id":76561198072032723,"connected_time":1076000000000,"state":"active","ping":80},{"user_id":442,"name":"ThinkingMonk112","steam_id":76561198432516310,"connected_time":2277000000000,"state":"active","ping":55},{"user_id":461,"name":"Colin102004","steam_id":76561198202384334,"connected_time":603000000000,"state":"active","ping":56},{"user_id":453,"name":"urban legend","steam_id":76561198069188276,"connected_time":1080000000000,"state":"active","ping":90},{"user_id":468,"name":"Jeremy","steam_id":76561198352333793,"connected_time":61000000000,"state":"active","ping":73},{"user_id":449,"name":"why","steam_id":76561199059732212,"connected_time":1570000000000,"state":"active","ping":49},{"user_id":364,"name":"lker","steam_id":76561197976975075,"connected_time":7069000000000,"state":"active","ping":45},{"user_id":465,"name":"Sol","steam_id":76561199008085020,"connected_time":281000000000,"state":"active","ping":53},{"user_id":444,"name":"HALO 3","steam_id":76561198020825795,"connected_time":2232000000000,"state":"active","ping":59},{"user_id":439,"name":"RectalExam","steam_id":76561197970502312,"connected_time":2401000000000,"state":"active","ping":102},{"user_id":467,"name":"Nicolas Cage Kisses Mace Windu","steam_id":76561198046127710,"connected_time":84000000000,"state":"active","ping":77},{"user_id":458,"name":"Elvis Depressedly","steam_id":76561198943694656,"connected_time":930000000000,"state":"active","ping":89},{"user_id":463,"name":"boo_thefeared","steam_id":76561198127967685,"connected_time":581000000000,"state":"active","ping":140},{"user_id":450,"name":"Autogyro","steam_id":76561198047943679,"connected_time":1547000000000,"state":"active","ping":110},{"user_id":427,"name":"Decolour","steam_id":76561199045608372,"connected_time":3029000000000,"state":"active","ping":80},{"user_id":457,"name":"vypon","steam_id":76561198388233907,"connected_time":1016000000000,"state":"active","ping":69},{"user_id":390,"name":"lil hog","steam_id":76561199230929836,"connected_time":5312000000000,"state":"active","ping":81},{"user_id":315,"name":"ATL 1 | Save your wifi","steam_id":76561198286147372,"connected_time":11013000000000,"state":"active","ping":60},{"user_id":436,"name":"harry gooch","steam_id":76561198024817457,"connected_time":2812000000000,"state":"active","ping":72},{"user_id":464,"name":"Squid","steam_id":76561198197045587,"connected_time":565000000000,"state":"active","ping":111},{"user_id":448,"name":"ATL1 | Pango","steam_id":76561198069811545,"connected_time":1976000000000,"state":"active","ping":51}]},{"server_id":400,"name":"Uncletopia | Atlanta | 3 | Community","name_short":"atl-3","host":"atl-1.us.uncletopia.com","port":27035,"enabled":true,"region":"us-east","cc":"us","latitude":33.753746,"longitude":-84.38633,"reserved":0,"last_update":"0001-01-01T00:00:00Z","name_a2s":"Uncletopia | Atlanta | 3 | Community","protocol":17,"map":"workshop/koth_trenchfoot_b1a.ugc731436616","folder":"tf","game":"Team Fortress","app_id":440,"player_count":0,"max_players":32,"Bots":0,"server_type":"Dedicated","server_os":"Linux","password":true,"vac":true,"version":"7757534","steam_id":85568392924515187,"keywords":["cp","increased_maxplayers","nocrits","nodmgspread","uncletopia"],"game_id":440,"stv_port":27036,"stv_name":"Uncletopia | Atlanta | 3 | Community | STV","players":null},{"server_id":401,"name":"Uncletopia | Atlanta | 4 | No Payload","name_short":"atl-4","host":"atl-1.us.uncletopia.com","port":27045,"enabled":true,"region":"us-east","cc":"us","latitude":33.753746,"longitude":-84.38633,"reserved":0,"last_update":"0001-01-01T00:00:00Z","name_a2s":"","protocol":0,"map":"","folder":"","game":"","app_id":0,"player_count":0,"max_players":0,"Bots":0,"server_type":"","server_os":"","password":false,"vac":false,"version":"","steam_id":0,"keywords":null,"game_id":0,"stv_port":0,"stv_name":"","players":null},{"server_id":2,"name":"Uncletopia | Chicago | 1 | All Maps","name_short":"chi-1","host":"chi-1.us.uncletopia.com","port":27015,"enabled":true,"region":"us-central","cc":"us","latitude":41.881832,"longitude":-87.62318,"reserved":0,"last_update":"0001-01-01T00:00:00Z","name_a2s":"Uncletopia | Chicago | 1 | All Maps","protocol":17,"map":"koth_lakeside_final","folder":"tf","game":"Team Fortress","app_id":440,"player_count":24,"max_players":24,"Bots":0,"server_type":"Dedicated","server_os":"Linux","password":true,"vac":true,"version":"7757534","steam_id":85568392924469984,"keywords":["cp","nocrits","nodmgspread","uncletopia"],"game_id":440,"stv_port":27016,"stv_name":"Uncletopia | Chicago | 1 | All Maps | STV","players":[{"user_id":598,"name":"Oh, it's Zach","steam_id":76561198103309672,"connected_time":3038000000000,"state":"active","ping":45},{"user_id":608,"name":"Ye ( I Love Caulk ) West","steam_id":76561198068830312,"connected_time":1417000000000,"state":"active","ping":46},{"user_id":591,"name":"Captain S. Forrest","steam_id":76561198062463029,"connected_time":3422000000000,"state":"active","ping":65},{"user_id":619,"name":"gabagool","steam_id":76561198012131766,"connected_time":975000000000,"state":"active","ping":46},{"user_id":584,"name":"debin","steam_id":76561198070711217,"connected_time":4270000000000,"state":"active","ping":57},{"user_id":626,"name":"theghazinator","steam_id":76561198188027695,"connected_time":89000000000,"state":"active","ping":84},{"user_id":610,"name":"CoconutRice","steam_id":76561198114909164,"connected_time":1189000000000,"state":"active","ping":51},{"user_id":615,"name":"smelly boy james(he stinkin)","steam_id":76561197997006216,"connected_time":1088000000000,"state":"active","ping":54},{"user_id":621,"name":"Banter","steam_id":76561198085438013,"connected_time":591000000000,"state":"active","ping":76},{"user_id":604,"name":"Wang of Wall St","steam_id":76561198047460598,"connected_time":2589000000000,"state":"active","ping":80},{"user_id":599,"name":"[UHS] K24A4 2.4","steam_id":76561199072970627,"connected_time":2992000000000,"state":"active","ping":48},{"user_id":620,"name":"eryn üó∫","steam_id":76561198004433070,"connected_time":741000000000,"state":"active","ping":73},{"user_id":548,"name":"blob","steam_id":76561198122375328,"connected_time":7347000000000,"state":"active","ping":66},{"user_id":618,"name":"Zelumie","steam_id":76561198147335801,"connected_time":1041000000000,"state":"active","ping":82},{"user_id":624,"name":"sopmod","steam_id":76561198453203619,"connected_time":204000000000,"state":"active","ping":103},{"user_id":605,"name":"squish","steam_id":76561198097657352,"connected_time":2581000000000,"state":"active","ping":115},{"user_id":616,"name":"DrD","steam_id":76561198067266383,"connected_time":1073000000000,"state":"active","ping":78},{"user_id":601,"name":"KKRDD","steam_id":76561198291976960,"connected_time":2824000000000,"state":"active","ping":102},{"user_id":578,"name":"Killguy69","steam_id":76561198196017215,"connected_time":4989000000000,"state":"active","ping":55},{"user_id":622,"name":"DolphiN | RGL.gg","steam_id":76561198048614515,"connected_time":377000000000,"state":"active","ping":59},{"user_id":625,"name":"FALRayne","steam_id":76561198113348816,"connected_time":163000000000,"state":"active","ping":54},{"user_id":553,"name":"SuperFresh","steam_id":76561198200723198,"connected_time":7216000000000,"state":"active","ping":45},{"user_id":611,"name":"{FITH}‚Ñ¢ Halcyon","steam_id":76561198049132808,"connected_time":1186000000000,"state":"active","ping":87},{"user_id":581,"name":"Rex","steam_id":76561198138365053,"connected_time":4612000000000,"state":"active","ping":122}]},{"server_id":106,"name":"Uncletopia | Chicago | 2 | All Maps","name_short":"chi-2","host":"chi-1.us.uncletopia.com","port":27025,"enabled":true,"region":"us-central","cc":"us","latitude":41.881832,"longitude":-87.62318,"reserved":0,"last_update":"0001-01-01T00:00:00Z","name_a2s":"Uncletopia | Chicago | 2 | All Maps","protocol":17,"map":"pl_snowycoast","folder":"tf","game":"Team Fortress","app_id":440,"player_count":24,"max_players":24,"Bots":0,"server_type":"Dedicated","server_os":"Linux","password":true,"vac":true,"version":"7757534","steam_id":85568392924469985,"keywords":["nocrits","nodmgspread","payload","uncletopia"],"game_id":440,"stv_port":27026,"stv_name":"Uncletopia | Chicago | 2 | All Maps | STV","players":[{"user_id":351,"name":"Fiendish Frog","steam_id":76561198029478821,"connected_time":1540000000000,"state":"active","ping":66},{"user_id":339,"name":"Slashes","steam_id":76561197968573499,"connected_time":2393000000000,"state":"active","ping":55},{"user_id":333,"name":"Mush","steam_id":76561198393461065,"connected_time":2593000000000,"state":"active","ping":75},{"user_id":373,"name":"flawless like me","steam_id":76561197962607364,"connected_time":282000000000,"state":"active","ping":70},{"user_id":349,"name":"Glad","steam_id":76561199388372220,"connected_time":1671000000000,"state":"active","ping":71},{"user_id":353,"name":"Quillz","steam_id":76561197996567754,"connected_time":1526000000000,"state":"active","ping":60},{"user_id":376,"name":"The cringefest","steam_id":76561198840872782,"connected_time":37000000000,"state":"spawning","ping":66},{"user_id":355,"name":"elite enemy gamer","steam_id":76561198395437335,"connected_time":1505000000000,"state":"active","ping":123},{"user_id":375,"name":"[SK] Punish ‚ô• ÁâßÊøëÁ∫¢ËéâÊ†ñ","steam_id":76561198207987376,"connected_time":232000000000,"state":"active","ping":64},{"user_id":374,"name":"......","steam_id":76561198067612741,"connected_time":254000000000,"state":"active","ping":96},{"user_id":330,"name":"Anderred","steam_id":76561198149983847,"connected_time":2806000000000,"state":"active","ping":84},{"user_id":368,"name":"123","steam_id":76561198040375911,"connected_time":1280000000000,"state":"active","ping":66},{"user_id":358,"name":"Heisenberg Gaming","steam_id":76561199102371298,"connected_time":1460000000000,"state":"active","ping":89},{"user_id":273,"name":"Boogie","steam_id":76561198043626626,"connected_time":7395000000000,"state":"active","ping":59},{"user_id":369,"name":"yayte","steam_id":76561198311004039,"connected_time":987000000000,"state":"active","ping":90},{"user_id":322,"name":"Fudge_Cake","steam_id":76561198059218167,"connected_time":3184000000000,"state":"active","ping":84},{"user_id":362,"name":"_KingKiwi_","steam_id":76561198079949632,"connected_time":1377000000000,"state":"active","ping":93},{"user_id":363,"name":"MHzSr","steam_id":76561198240890158,"connected_time":1369000000000,"state":"active","ping":71},{"user_id":343,"name":"SpinetinglingToast","steam_id":76561198099470670,"connected_time":2056000000000,"state":"active","ping":73},{"user_id":371,"name":"the meat man","steam_id":76561198037921140,"connected_time":894000000000,"state":"active","ping":95},{"user_id":331,"name":"Ozzy","steam_id":76561198076098366,"connected_time":2743000000000,"state":"active","ping":76},{"user_id":364,"name":"hemethe1st","steam_id":76561199142532480,"connected_time":1369000000000,"state":"active","ping":147},{"user_id":366,"name":"Distou","steam_id":76561198397886545,"connected_time":1306000000000,"state":"active","ping":110},{"user_id":372,"name":"FUARK","steam_id":76561198805618057,"connected_time":874000000000,"state":"active","ping":60}]},{"server_id":402,"name":"Uncletopia | Chicago | 3 | All Maps","name_short":"chi-3","host":"chi-1.us.uncletopia.com","port":27035,"enabled":true,"region":"us-central","cc":"us","latitude":41.881832,"longitude":-87.62318,"reserved":0,"last_update":"0001-01-01T00:00:00Z","name_a2s":"Uncletopia | Chicago | 3 | All Maps","protocol":17,"map":"pl_borneo","folder":"tf","game":"Team Fortress","app_id":440,"player_count":24,"max_players":24,"Bots":0,"server_type":"Dedicated","server_os":"Linux","password":true,"vac":true,"version":"7757534","steam_id":85568392924515191,"keywords":["nocrits","nodmgspread","payload","uncletopia"],"game_id":440,"stv_port":27036,"stv_name":"Uncletopia | Chicago | 3 | All Maps | STV","players":[{"user_id":611,"name":"[DEEP] Danmar33","steam_id":76561198056453091,"connected_time":1820000000000,"state":"active","ping":51},{"user_id":627,"name":"TheFallenFox","steam_id":76561199074190919,"connected_time":1460000000000,"state":"active","ping":142},{"user_id":616,"name":"Uncle Majic the Hip Hop Magicia","steam_id":76561198107924303,"connected_time":1676000000000,"state":"active","ping":58},{"user_id":575,"name":"Dr. Dick","steam_id":76561198138011922,"connected_time":2880000000000,"state":"active","ping":80},{"user_id":531,"name":"Nilantive","steam_id":76561198177565082,"connected_time":5233000000000,"state":"active","ping":56},{"user_id":631,"name":"RadioIris","steam_id":76561199119284107,"connected_time":1171000000000,"state":"active","ping":121},{"user_id":613,"name":"AFK BRB","steam_id":76561198104939612,"connected_time":1806000000000,"state":"active","ping":56},{"user_id":515,"name":"mischievous imp","steam_id":76561199074875663,"connected_time":6609000000000,"state":"active","ping":76},{"user_id":629,"name":"SadVeggie","steam_id":76561198163430099,"connected_time":1404000000000,"state":"active","ping":105},{"user_id":615,"name":"Mewysty","steam_id":76561199200480562,"connected_time":1786000000000,"state":"active","ping":115},{"user_id":617,"name":"BookBurner23","steam_id":76561198034771185,"connected_time":1669000000000,"state":"active","ping":75},{"user_id":634,"name":"Whorse","steam_id":76561198114141445,"connected_time":205000000000,"state":"active","ping":78},{"user_id":619,"name":"Take a Sip of Dilk","steam_id":76561198083738022,"connected_time":1655000000000,"state":"active","ping":108},{"user_id":621,"name":"DAG","steam_id":76561198219508244,"connected_time":1614000000000,"state":"active","ping":70},{"user_id":622,"name":"Dosario","steam_id":76561198298095535,"connected_time":1609000000000,"state":"active","ping":112},{"user_id":623,"name":"The Drunk Clown","steam_id":76561197986850426,"connected_time":1511000000000,"state":"active","ping":77},{"user_id":624,"name":"Randy \"the Man\" Johnson","steam_id":76561198039124445,"connected_time":1508000000000,"state":"active","ping":92},{"user_id":581,"name":"a table","steam_id":76561198158461279,"connected_time":2604000000000,"state":"active","ping":62},{"user_id":535,"name":"THGAwesome","steam_id":76561198162847218,"connected_time":5222000000000,"state":"active","ping":80},{"user_id":625,"name":"Ciaphas Cain","steam_id":76561198185598330,"connected_time":1502000000000,"state":"active","ping":70},{"user_id":633,"name":"Sudo","steam_id":76561198123714026,"connected_time":1094000000000,"state":"active","ping":113},{"user_id":583,"name":"Raizen","steam_id":76561199092445367,"connected_time":2550000000000,"state":"active","ping":55},{"user_id":630,"name":"kitchen crusader","steam_id":76561199217620385,"connected_time":1341000000000,"state":"active","ping":71},{"user_id":586,"name":"vira","steam_id":76561198161412482,"connected_time":2478000000000,"state":"active","ping":87}]},{"server_id":403,"name":"Uncletopia | Chicago | 4 | All Maps","name_short":"chi-4","host":"chi-1.us.uncletopia.com","port":27045,"enabled":true,"region":"us-central","cc":"us","latitude":41.881832,"longitude":-87.62318,"reserved":0,"last_update":"0001-01-01T00:00:00Z","name_a2s":"Uncletopia | Chicago | 4 | All Maps","protocol":17,"map":"pl_upward","folder":"tf","game":"Team Fortress","app_id":440,"player_count":24,"max_players":24,"Bots":0,"server_type":"Dedicated","server_os":"Linux","password":true,"vac":true,"version":"7757534","steam_id":85568392924515193,"keywords":["nocrits","nodmgspread","payload","uncletopia"],"game_id":440,"stv_port":27046,"stv_name":"Uncletopia | Chicago | 4 | All Maps | STV","players":[{"user_id":772,"name":"GreekGoat_Coffee","steam_id":76561198129331088,"connected_time":932000000000,"state":"active","ping":44},{"user_id":786,"name":"DO NOT call me BART SIMPSON!!","steam_id":76561198069113375,"connected_time":299000000000,"state":"active","ping":69},{"user_id":744,"name":"Combustionaut","steam_id":76561198164877813,"connected_time":2164000000000,"state":"active","ping":99},{"user_id":779,"name":"Iwantexpresso","steam_id":76561198975831340,"connected_time":506000000000,"state":"active","ping":107},{"user_id":768,"name":"ItsTanleyCrunch","steam_id":76561198037915942,"connected_time":1060000000000,"state":"active","ping":85},{"user_id":784,"name":"OrphanObliterator","steam_id":76561199185087795,"connected_time":423000000000,"state":"active","ping":117},{"user_id":771,"name":"PENIS_DIFFED3180","steam_id":76561198041017977,"connected_time":1018000000000,"state":"active","ping":72},{"user_id":780,"name":"The Muffin Man","steam_id":76561199088286427,"connected_time":504000000000,"state":"active","ping":112},{"user_id":743,"name":"Thequirka","steam_id":76561198968058652,"connected_time":2186000000000,"state":"active","ping":98},{"user_id":785,"name":"Nodin","steam_id":76561198135757376,"connected_time":321000000000,"state":"active","ping":56},{"user_id":753,"name":"O(log 2 n)","steam_id":76561198149666258,"connected_time":1921000000000,"state":"active","ping":54},{"user_id":735,"name":"brian enotown massacre","steam_id":76561198109901138,"connected_time":2691000000000,"state":"active","ping":76},{"user_id":688,"name":"Bullwinkle J. Moose","steam_id":76561198075977196,"connected_time":5837000000000,"state":"active","ping":77},{"user_id":754,"name":"Super crak 202 9","steam_id":76561199176207530,"connected_time":1915000000000,"state":"active","ping":124},{"user_id":727,"name":"Lore","steam_id":76561198098407538,"connected_time":3143000000000,"state":"active","ping":46},{"user_id":759,"name":"FROYO yumyum","steam_id":76561198150567198,"connected_time":1794000000000,"state":"active","ping":60},{"user_id":782,"name":"fat","steam_id":76561198101352327,"connected_time":480000000000,"state":"active","ping":59},{"user_id":626,"name":"dbelow_","steam_id":76561198056148853,"connected_time":9249000000000,"state":"active","ping":65},{"user_id":749,"name":"BLACK MAN FROM JOJO","steam_id":76561198272948471,"connected_time":1964000000000,"state":"active","ping":58},{"user_id":774,"name":"Fengo","steam_id":76561198139917991,"connected_time":821000000000,"state":"active","ping":111},{"user_id":789,"name":"Dispenser (Twan)","steam_id":76561197991064908,"connected_time":113000000000,"state":"active","ping":60},{"user_id":750,"name":"Bad Hombre","steam_id":76561198046559176,"connected_time":1964000000000,"state":"active","ping":53},{"user_id":770,"name":"threethree","steam_id":76561198177354155,"connected_time":1042000000000,"state":"active","ping":74},{"user_id":788,"name":"Grimm","steam_id":76561199094048718,"connected_time":275000000000,"state":"active","ping":108}]},{"server_id":36,"name":"Uncletopia | Chicago | 5 | All Maps","name_short":"chi-5","host":"chi-2.us.uncletopia.com","port":27015,"enabled":true,"region":"us-central","cc":"us","latitude":41.881832,"longitude":-87.62318,"reserved":0,"last_update":"0001-01-01T00:00:00Z","name_a2s":"Uncletopia | Chicago | 5 | All Maps","protocol":17,"map":"pl_upward","folder":"tf","game":"Team Fortress","app_id":440,"player_count":24,"max_players":24,"Bots":0,"server_type":"Dedicated","server_os":"Linux","password":true,"vac":true,"version":"7757534","steam_id":85568392924866362,"keywords":["nocrits","nodmgspread","payload","uncletopia"],"game_id":440,"stv_port":27016,"stv_name":"Uncletopia | Chicago | 5 | All Maps | STV","players":[{"user_id":287,"name":"Deep Peepus","steam_id":76561198205395757,"connected_time":1833000000000,"state":"active","ping":92},{"user_id":309,"name":"[DATS‚û°] Sugar Meowth","steam_id":76561197995251793,"connected_time":263000000000,"state":"active","ping":92},{"user_id":269,"name":"Max","steam_id":76561198029782094,"connected_time":3930000000000,"state":"active","ping":70},{"user_id":307,"name":"fish","steam_id":76561198059510391,"connected_time":1145000000000,"state":"active","ping":95},{"user_id":310,"name":"Geight","steam_id":76561197991645292,"connected_time":227000000000,"state":"active","ping":110},{"user_id":245,"name":"Whapper","steam_id":76561198044029606,"connected_time":5418000000000,"state":"active","ping":104},{"user_id":311,"name":"Cliff Uppercut","steam_id":76561197999439391,"connected_time":225000000000,"state":"active","ping":75},{"user_id":312,"name":"kametro4","steam_id":76561198835430429,"connected_time":173000000000,"state":"active","ping":76},{"user_id":292,"name":"Bocchi the Rock","steam_id":76561198025668771,"connected_time":1777000000000,"state":"active","ping":179},{"user_id":315,"name":"boneyard","steam_id":76561199080454140,"connected_time":115000000000,"state":"active","ping":64},{"user_id":313,"name":"Arrythmia","steam_id":76561198093748123,"connected_time":164000000000,"state":"active","ping":91},{"user_id":294,"name":"doo doo","steam_id":76561198049784197,"connected_time":1730000000000,"state":"active","ping":91},{"user_id":314,"name":"blonde","steam_id":76561198335823677,"connected_time":163000000000,"state":"active","ping":86},{"user_id":316,"name":"[S]Mr. X [No Monitor]","steam_id":76561197963746035,"connected_time":88000000000,"state":"active","ping":110},{"user_id":298,"name":"shart","steam_id":76561198039002838,"connected_time":1637000000000,"state":"active","ping":99},{"user_id":285,"name":"gib b","steam_id":76561198048425690,"connected_time":2839000000000,"state":"active","ping":48},{"user_id":281,"name":"puke","steam_id":76561197999279693,"connected_time":3373000000000,"state":"active","ping":81},{"user_id":299,"name":"4oh4","steam_id":76561198388047861,"connected_time":1620000000000,"state":"active","ping":91},{"user_id":317,"name":"Droz misses shots","steam_id":76561198072555204,"connected_time":79000000000,"state":"active","ping":53},{"user_id":318,"name":"potateking","steam_id":76561198066579830,"connected_time":77000000000,"state":"active","ping":172},{"user_id":319,"name":"Six","steam_id":76561198052472822,"connected_time":75000000000,"state":"active","ping":72},{"user_id":320,"name":"Resident Dumbfox","steam_id":76561198049019822,"connected_time":68000000000,"state":"active","ping":73},{"user_id":306,"name":"Chumber","steam_id":76561198098433947,"connected_time":1348000000000,"state":"active","ping":113},{"user_id":303,"name":"toastman","steam_id":76561198207073088,"connected_time":1563000000000,"state":"active","ping":74}]},{"server_id":37,"name":"Uncletopia | Chicago | 6 | All Maps","name_short":"chi-6","host":"chi-2.us.uncletopia.com","port":27025,"enabled":true,"region":"us-central","cc":"us","latitude":41.881832,"longitude":-87.62318,"reserved":0,"last_update":"0001-01-01T00:00:00Z","name_a2s":"Uncletopia | Chicago | 6 | All Maps","protocol":17,"map":"pl_snowycoast","folder":"tf","game":"Team Fortress","app_id":440,"player_count":24,"max_players":24,"Bots":0,"server_type":"Dedicated","server_os":"Linux","password":true,"vac":true,"version":"7757534","steam_id":85568392924866363,"keywords":["nocrits","nodmgspread","payload","uncletopia"],"game_id":440,"stv_port":27026,"stv_name":"Uncletopia | Chicago | 6 | All Maps | STV","players":[{"user_id":221,"name":"Tuchpi","steam_id":76561197967581205,"connected_time":870000000000,"state":"active","ping":60},{"user_id":233,"name":"shanghai","steam_id":76561197997961542,"connected_time":324000000000,"state":"active","ping":72},{"user_id":222,"name":"Dot.","steam_id":76561198149463984,"connected_time":865000000000,"state":"active","ping":52},{"user_id":98,"name":"nah","steam_id":76561198130671890,"connected_time":8291000000000,"state":"active","ping":50},{"user_id":220,"name":"Reed.Dook","steam_id":76561198046625664,"connected_time":1018000000000,"state":"active","ping":66},{"user_id":235,"name":"Maj","steam_id":76561198128811267,"connected_time":190000000000,"state":"active","ping":81},{"user_id":234,"name":"godtierJack.jpeg","steam_id":76561198089827454,"connected_time":301000000000,"state":"active","ping":55},{"user_id":207,"name":"Piyono","steam_id":76561197962188504,"connected_time":2144000000000,"state":"active","ping":67},{"user_id":204,"name":"moist","steam_id":76561198301176077,"connected_time":2284000000000,"state":"active","ping":70},{"user_id":185,"name":"cixcin","steam_id":76561199215821942,"connected_time":3458000000000,"state":"active","ping":74},{"user_id":236,"name":"Wool","steam_id":76561198332704108,"connected_time":185000000000,"state":"active","ping":55},{"user_id":229,"name":"chulps","steam_id":76561198217058421,"connected_time":628000000000,"state":"active","ping":59},{"user_id":230,"name":"Luffa Rigno","steam_id":76561197998700507,"connected_time":598000000000,"state":"active","ping":121},{"user_id":226,"name":"MC-ReN‚Ñ¢","steam_id":76561197974243668,"connected_time":774000000000,"state":"active","ping":62},{"user_id":240,"name":"ArmoredSpaceOwl","steam_id":76561198009895343,"connected_time":36000000000,"state":"active","ping":115},{"user_id":187,"name":"yanweh","steam_id":76561198038291026,"connected_time":3447000000000,"state":"active","ping":60},{"user_id":237,"name":"‚Ö£ Rebel","steam_id":76561198056377621,"connected_time":151000000000,"state":"active","ping":69},{"user_id":97,"name":"parsuh","steam_id":76561198057197772,"connected_time":8326000000000,"state":"active","ping":97},{"user_id":238,"name":"bl8demast3r","steam_id":76561198006308462,"connected_time":150000000000,"state":"active","ping":76},{"user_id":231,"name":"The local hobo","steam_id":76561198289650060,"connected_time":513000000000,"state":"active","ping":94},{"user_id":239,"name":"xthyl","steam_id":76561199361299006,"connected_time":135000000000,"state":"active","ping":84},{"user_id":225,"name":"Sushi Cookies","steam_id":76561199008634102,"connected_time":802000000000,"state":"active","ping":75},{"user_id":241,"name":"Ëß£ÊîæÈ¶ôÊ∏ØÊó∂‰ª£ÁöÑÈù©ÂëΩ","steam_id":76561198003230524,"connected_time":4000000000,"state":"spawning","ping":51},{"user_id":191,"name":"mcdoubble","steam_id":76561198089126832,"connected_time":3008000000000,"state":"active","ping":82}]},{"server_id":38,"name":"Uncletopia | Chicago | 7 | Stopwatch Beta","name_short":"chi-7","host":"chi-2.us.uncletopia.com","port":27035,"enabled":true,"region":"us-central","cc":"us","latitude":41.881832,"longitude":-87.62318,"reserved":0,"last_update":"0001-01-01T00:00:00Z","name_a2s":"Uncletopia | Chicago | 7 | Stopwatch Beta","protocol":17,"map":"workshop/koth_ramjam_rc1.ugc459778887","folder":"tf","game":"Team Fortress","app_id":440,"player_count":0,"max_players":24,"Bots":0,"server_type":"Dedicated","server_os":"Linux","password":true,"vac":true,"version":"7757534","steam_id":85568392924866364,"keywords":["cp","nocrits","nodmgspread","uncletopia"],"game_id":440,"stv_port":27036,"stv_name":"Uncletopia | Chicago | 7 | Stopwatch Beta | STV","players":null},{"server_id":39,"name":"Uncletopia | Chicago | 8 | Community","name_short":"chi-8","host":"chi-2.us.uncletopia.com","port":27045,"enabled":true,"region":"us-central","cc":"us","latitude":41.881832,"longitude":-87.62318,"reserved":0,"last_update":"0001-01-01T00:00:00Z","name_a2s":"Uncletopia | Chicago | 8 | Community","protocol":17,"map":"workshop/pl_boundary_final1.ugc456799153","folder":"tf","game":"Team Fortress","app_id":440,"player_count":0,"max_players":24,"Bots":0,"server_type":"Dedicated","server_os":"Linux","password":true,"vac":true,"version":"7757534","steam_id":85568392924866365,"keywords":["nocrits","nodmgspread","payload","uncletopia"],"game_id":440,"stv_port":27046,"stv_name":"Uncletopia | Chicago | 8 | Community | STV","players":null},{"server_id":8,"name":"Uncletopia | Dallas | 1 | All Maps","name_short":"dal-1","host":"dal-1.us.uncletopia.com","port":27015,"enabled":true,"region":"us-central","cc":"us","latitude":32.779167,"longitude":-96.80889,"reserved":0,"last_update":"0001-01-01T00:00:00Z","name_a2s":"Uncletopia | Dallas | 1 | All Maps","protocol":17,"map":"pl_barnblitz","folder":"tf","game":"Team Fortress","app_id":440,"player_count":23,"max_players":24,"Bots":0,"server_type":"Dedicated","server_os":"Linux","password":true,"vac":true,"version":"7757534","steam_id":85568392924469986,"keywords":["nocrits","nodmgspread","payload","uncletopia"],"game_id":440,"stv_port":27016,"stv_name":"Uncletopia | Dallas | 1 | All Maps | STV","players":[{"user_id":533,"name":"Sunny","steam_id":76561198261667312,"connected_time":1100000000000,"state":"active","ping":100},{"user_id":285,"name":"Brass beast heavy","steam_id":76561198274197623,"connected_time":19031000000000,"state":"active","ping":156},{"user_id":474,"name":"Mitty","steam_id":76561198014177684,"connected_time":7097000000000,"state":"active","ping":86},{"user_id":523,"name":"scarecrow (evil)","steam_id":76561198082979347,"connected_time":1279000000000,"state":"active","ping":73},{"user_id":493,"name":"‚ú©BONGO‚ú©","steam_id":76561198018040930,"connected_time":4881000000000,"state":"active","ping":42},{"user_id":536,"name":"Quietsharp","steam_id":76561198277968438,"connected_time":505000000000,"state":"active","ping":84},{"user_id":538,"name":"SuaveFrenchman","steam_id":76561198043762683,"connected_time":328000000000,"state":"active","ping":88},{"user_id":515,"name":"Toasty","steam_id":76561198001136776,"connected_time":2460000000000,"state":"active","ping":61},{"user_id":506,"name":"IxMic88","steam_id":76561198018552479,"connected_time":3179000000000,"state":"active","ping":60},{"user_id":540,"name":"Pneumo.","steam_id":76561197987911883,"connected_time":213000000000,"state":"active","ping":125},{"user_id":521,"name":"Slime Burgerüß™üçî","steam_id":76561198046162123,"connected_time":2157000000000,"state":"active","ping":85},{"user_id":463,"name":"Grinski","steam_id":76561198054787727,"connected_time":7862000000000,"state":"active","ping":102},{"user_id":531,"name":"Kritz enjoyer","steam_id":76561197979056451,"connected_time":1154000000000,"state":"active","ping":94},{"user_id":496,"name":"Saulen","steam_id":76561198150726407,"connected_time":4872000000000,"state":"active","ping":62},{"user_id":519,"name":"Psych03","steam_id":76561198061753667,"connected_time":2318000000000,"state":"active","ping":76},{"user_id":526,"name":"victordead121","steam_id":76561199180843121,"connected_time":1221000000000,"state":"active","ping":97},{"user_id":472,"name":"The Robot Menace","steam_id":76561198043390413,"connected_time":7105000000000,"state":"active","ping":53},{"user_id":525,"name":"iluvtoust","steam_id":76561198869269207,"connected_time":1236000000000,"state":"active","ping":54},{"user_id":499,"name":"Dictator Noodle","steam_id":76561198277243768,"connected_time":3850000000000,"state":"active","ping":84},{"user_id":529,"name":"NBA Youngboy","steam_id":76561199118797200,"connected_time":1204000000000,"state":"active","ping":55},{"user_id":535,"name":"Dop_Pop_Bop","steam_id":76561198803110941,"connected_time":759000000000,"state":"active","ping":98},{"user_id":539,"name":"bballbhuddababyboy","steam_id":76561198079516052,"connected_time":256000000000,"state":"active","ping":84},{"user_id":467,"name":"„ÄåJimbo Reference„Äç","steam_id":76561198016078541,"connected_time":7646000000000,"state":"active","ping":88}]},{"server_id":108,"name":"Uncletopia | Dallas | 2 | All Maps","name_short":"dal-2","host":"dal-1.us.uncletopia.com","port":27025,"enabled":true,"region":"us-central","cc":"us","latitude":32.779167,"longitude":-96.80889,"reserved":0,"last_update":"0001-01-01T00:00:00Z","name_a2s":"Uncletopia | Dallas | 2 | All Maps","protocol":17,"map":"pl_swiftwater_final1","folder":"tf","game":"Team Fortress","app_id":440,"player_count":24,"max_players":24,"Bots":0,"server_type":"Dedicated","server_os":"Linux","password":true,"vac":true,"version":"7757534","steam_id":85568392924469988,"keywords":["nocrits","nodmgspread","payload","uncletopia"],"game_id":440,"stv_port":27026,"stv_name":"Uncletopia | Dallas | 2 | All Maps | STV","players":[{"user_id":236,"name":"poggerchamp","steam_id":76561199145124973,"connected_time":4218000000000,"state":"active","ping":67},{"user_id":287,"name":"tls123","steam_id":76561198093357928,"connected_time":621000000000,"state":"active","ping":80},{"user_id":217,"name":"Pontifex","steam_id":76561198013016489,"connected_time":4955000000000,"state":"active","ping":55},{"user_id":290,"name":"Black Mesa","steam_id":76561198262864682,"connected_time":162000000000,"state":"active","ping":113},{"user_id":242,"name":"Hax Stalin=Jesus","steam_id":76561198080040241,"connected_time":3786000000000,"state":"active","ping":71},{"user_id":291,"name":"boobies arc","steam_id":76561198316753540,"connected_time":142000000000,"state":"active","ping":30},{"user_id":244,"name":"Kaya #SaveTF2","steam_id":76561198053907503,"connected_time":3754000000000,"state":"active","ping":91},{"user_id":278,"name":"PaintMyMeow","steam_id":76561198056860387,"connected_time":1051000000000,"state":"active","ping":74},{"user_id":292,"name":"blademiss","steam_id":76561198062083019,"connected_time":128000000000,"state":"active","ping":79},{"user_id":269,"name":"Pak Industrial","steam_id":76561198057900166,"connected_time":2310000000000,"state":"active","ping":56},{"user_id":293,"name":"hoOmIN","steam_id":76561198334947079,"connected_time":121000000000,"state":"active","ping":69},{"user_id":267,"name":"Dooger","steam_id":76561198109708376,"connected_time":2334000000000,"state":"active","ping":102},{"user_id":255,"name":"what the goose?","steam_id":76561198103496593,"connected_time":2895000000000,"state":"active","ping":69},{"user_id":268,"name":"Weebsbros","steam_id":76561198056750224,"connected_time":2319000000000,"state":"active","ping":82},{"user_id":276,"name":"bolainassr0","steam_id":76561199079078845,"connected_time":1593000000000,"state":"active","ping":102},{"user_id":289,"name":"It's Filthy in There!","steam_id":76561198030171717,"connected_time":399000000000,"state":"active","ping":91},{"user_id":220,"name":"pie","steam_id":76561198210234779,"connected_time":4949000000000,"state":"active","ping":74},{"user_id":286,"name":"Dragus","steam_id":76561198032967285,"connected_time":778000000000,"state":"active","ping":73},{"user_id":283,"name":"Galactamarx","steam_id":76561198028065755,"connected_time":959000000000,"state":"active","ping":88},{"user_id":240,"name":"Dolph","steam_id":76561198098812509,"connected_time":3831000000000,"state":"active","ping":108},{"user_id":243,"name":"Sugz","steam_id":76561198058755861,"connected_time":3770000000000,"state":"active","ping":86},{"user_id":296,"name":"Shichinitzi","steam_id":76561198003833732,"connected_time":4000000000,"state":"spawning","ping":60},{"user_id":295,"name":"merge without looking","steam_id":76561198056702628,"connected_time":82000000000,"state":"active","ping":38},{"user_id":221,"name":"Toadisveryscary","steam_id":76561198208432761,"connected_time":4947000000000,"state":"active","ping":65}]},{"server_id":5,"name":"Uncletopia | Frankfurt | 1 | All Maps","name_short":"frk-1","host":"frk-1.de.uncletopia.com","port":27015,"enabled":true,"region":"eu","cc":"de","latitude":50.110924,"longitude":8.682127,"reserved":0,"last_update":"0001-01-01T00:00:00Z","name_a2s":"Uncletopia | Frankfurt | 1 | All Maps","protocol":17,"map":"koth_highpass","folder":"tf","game":"Team Fortress","app_id":440,"player_count":0,"max_players":24,"Bots":0,"server_type":"Dedicated","server_os":"Linux","password":true,"vac":true,"version":"7757534","steam_id":85568392924469989,"keywords":["cp","nocrits","nodmgspread","uncletopia"],"game_id":440,"stv_port":27016,"stv_name":"Uncletopia | Frankfurt | 1 | All Maps | STV","players":null},{"server_id":110,"name":"Uncletopia | Frankfurt | 2 | All Maps","name_short":"frk-2","host":"frk-1.de.uncletopia.com","port":27025,"enabled":true,"region":"eu","cc":"de","latitude":50.110924,"longitude":8.682127,"reserved":0,"last_update":"0001-01-01T00:00:00Z","name_a2s":"Uncletopia | Frankfurt | 2 | All Maps","protocol":17,"map":"cp_altitude","folder":"tf","game":"Team Fortress","app_id":440,"player_count":0,"max_players":24,"Bots":0,"server_type":"Dedicated","server_os":"Linux","password":true,"vac":true,"version":"7757534","steam_id":85568392924469990,"keywords":["cp","nocrits","nodmgspread","uncletopia"],"game_id":440,"stv_port":27026,"stv_name":"Uncletopia | Frankfurt | 2 | All Maps | STV","players":null},{"server_id":308,"name":"Uncletopia | Frankfurt | 3 | All Maps","name_short":"frk-3","host":"frk-1.de.uncletopia.com","port":27035,"enabled":true,"region":"eu","cc":"de","latitude":50.110924,"longitude":8.682127,"reserved":0,"last_update":"0001-01-01T00:00:00Z","name_a2s":"Uncletopia | Frankfurt | 3 | All Maps","protocol":17,"map":"koth_viaduct","folder":"tf","game":"Team Fortress","app_id":440,"player_count":0,"max_players":24,"Bots":0,"server_type":"Dedicated","server_os":"Linux","password":true,"vac":true,"version":"7757534","steam_id":85568392924504274,"keywords":["cp","nocrits","nodmgspread","uncletopia"],"game_id":440,"stv_port":27036,"stv_name":"Uncletopia | Frankfurt | 3 | All Maps | STV","players":null},{"server_id":309,"name":"Uncletopia | Frankfurt | 4 | All Maps","name_short":"frk-4","host":"frk-1.de.uncletopia.com","port":27045,"enabled":true,"region":"eu","cc":"de","latitude":50.110924,"longitude":8.682127,"reserved":0,"last_update":"0001-01-01T00:00:00Z","name_a2s":"Uncletopia | Frankfurt | 4 | All Maps","protocol":17,"map":"cp_dustbowl","folder":"tf","game":"Team Fortress","app_id":440,"player_count":0,"max_players":24,"Bots":0,"server_type":"Dedicated","server_os":"Linux","password":true,"vac":true,"version":"7757534","steam_id":85568392924504275,"keywords":["cp","nocrits","nodmgspread","uncletopia"],"game_id":440,"stv_port":27046,"stv_name":"Uncletopia | Frankfurt | 4 | All Maps | STV","players":null},{"server_id":310,"name":"Uncletopia | Frankfurt | 5 | All Maps","name_short":"frk-5","host":"frk-1.de.uncletopia.com","port":27055,"enabled":true,"region":"eu","cc":"de","latitude":50.110924,"longitude":8.682127,"reserved":0,"last_update":"0001-01-01T00:00:00Z","name_a2s":"Uncletopia | Frankfurt | 5 | All Maps","protocol":17,"map":"koth_cascade","folder":"tf","game":"Team Fortress","app_id":440,"player_count":0,"max_players":24,"Bots":0,"server_type":"Dedicated","server_os":"Linux","password":true,"vac":true,"version":"7757534","steam_id":85568392924504277,"keywords":["cp","nocrits","nodmgspread","uncletopia"],"game_id":440,"stv_port":27056,"stv_name":"Uncletopia | Frankfurt | 5 | All Maps | STV","players":null},{"server_id":311,"name":"Uncletopia | Frankfurt | 6 | All Maps","name_short":"frk-6","host":"frk-1.de.uncletopia.com","port":27065,"enabled":true,"region":"eu","cc":"de","latitude":50.110924,"longitude":8.682127,"reserved":0,"last_update":"0001-01-01T00:00:00Z","name_a2s":"Uncletopia | Frankfurt | 6 | All Maps","protocol":17,"map":"koth_viaduct","folder":"tf","game":"Team Fortress","app_id":440,"player_count":0,"max_players":24,"Bots":0,"server_type":"Dedicated","server_os":"Linux","password":true,"vac":true,"version":"7757534","steam_id":85568392924504278,"keywords":["cp","nocrits","nodmgspread","uncletopia"],"game_id":440,"stv_port":27066,"stv_name":"Uncletopia | Frankfurt | 6 | All Maps | STV","players":null},{"server_id":23,"name":"Uncletopia | Frankfurt | 7 | Stopwatch Beta","name_short":"frk-7","host":"frk-1.de.uncletopia.com","port":27075,"enabled":true,"region":"eu","cc":"de","latitude":50.110924,"longitude":8.682127,"reserved":0,"last_update":"0001-01-01T00:00:00Z","name_a2s":"Uncletopia | Frankfurt | 7 | Stopwatch Beta","protocol":17,"map":"pl_frontier_final","folder":"tf","game":"Team Fortress","app_id":440,"player_count":0,"max_players":24,"Bots":0,"server_type":"Dedicated","server_os":"Linux","password":true,"vac":true,"version":"7757534","steam_id":85568392924742827,"keywords":["nocrits","nodmgspread","payload","uncletopia"],"game_id":440,"stv_port":27076,"stv_name":"Uncletopia | Frankfurt | 7 | Stopwatch Beta | STV","players":null},{"server_id":24,"name":"Uncletopia | Frankfurt | 8 | Community","name_short":"frk-8","host":"frk-1.de.uncletopia.com","port":27085,"enabled":true,"region":"eu","cc":"de","latitude":50.110924,"longitude":8.682127,"reserved":0,"last_update":"0001-01-01T00:00:00Z","name_a2s":"Uncletopia | Frankfurt | 8 | Community","protocol":17,"map":"workshop/cp_logjam_rc12.ugc454812035","folder":"tf","game":"Team Fortress","app_id":440,"player_count":0,"max_players":24,"Bots":0,"server_type":"Dedicated","server_os":"Linux","password":true,"vac":true,"version":"7757534","steam_id":85568392924742828,"keywords":["cp","nocrits","nodmgspread","uncletopia"],"game_id":440,"stv_port":27086,"stv_name":"Uncletopia | Frankfurt | 8 | Community | STV","players":null},{"server_id":202,"name":"Uncletopia | Hong Kong | 1 | All Maps","name_short":"hgk-1","host":"hgk-1.hk.uncletopia.com","port":27015,"enabled":true,"region":"asia","cc":"hk","latitude":22.302711,"longitude":114.177216,"reserved":0,"last_update":"0001-01-01T00:00:00Z","name_a2s":"Uncletopia | Hong Kong | 1 | All Maps","protocol":17,"map":"pl_barnblitz","folder":"tf","game":"Team Fortress","app_id":440,"player_count":0,"max_players":24,"Bots":0,"server_type":"Dedicated","server_os":"Linux","password":true,"vac":true,"version":"7757534","steam_id":85568392924494504,"keywords":["nocrits","nodmgspread","payload","uncletopia"],"game_id":440,"stv_port":27016,"stv_name":"Uncletopia | Hong Kong | 1 | All Maps | STV","players":null},{"server_id":1,"name":"Uncletopia | Los Angeles | 1 | All Maps","name_short":"lax-1","host":"lax-1.us.uncletopia.com","port":27015,"enabled":true,"region":"us-west","cc":"us","latitude":33.94279,"longitude":-118.41004,"reserved":0,"last_update":"0001-01-01T00:00:00Z","name_a2s":"Uncletopia | Los Angeles | 1 | All Maps","protocol":17,"map":"pl_borneo","folder":"tf","game":"Team Fortress","app_id":440,"player_count":21,"max_players":24,"Bots":0,"server_type":"Dedicated","server_os":"Linux","password":true,"vac":true,"version":"7757534","steam_id":85568392924469991,"keywords":["nocrits","nodmgspread","payload","uncletopia"],"game_id":440,"stv_port":27016,"stv_name":"Uncletopia | Los Angeles | 1 | All Maps | STV","players":[{"user_id":244,"name":"walrooos","steam_id":76561198024521839,"connected_time":3179000000000,"state":"active","ping":39},{"user_id":243,"name":"≈ölimak","steam_id":76561198296476784,"connected_time":3190000000000,"state":"active","ping":111},{"user_id":286,"name":"uncledanetoucheskids","steam_id":76561198177874665,"connected_time":176000000000,"state":"active","ping":51},{"user_id":275,"name":"Uprightmoss7528","steam_id":76561199200138486,"connected_time":1602000000000,"state":"active","ping":55},{"user_id":287,"name":"Maid 'n' China","steam_id":76561198423392976,"connected_time":152000000000,"state":"active","ping":54},{"user_id":177,"name":"matto1120","steam_id":76561198201321499,"connected_time":9780000000000,"state":"active","ping":58},{"user_id":280,"name":"Reem0h","steam_id":76561198169848690,"connected_time":1215000000000,"state":"active","ping":159},{"user_id":197,"name":"times table","steam_id":76561198341452558,"connected_time":8491000000000,"state":"active","ping":95},{"user_id":288,"name":"An00bis","steam_id":76561198044084508,"connected_time":139000000000,"state":"active","ping":45},{"user_id":201,"name":"hoopswoop9","steam_id":76561199203050556,"connected_time":8031000000000,"state":"active","ping":61},{"user_id":289,"name":"my apple pencil has spyware","steam_id":76561198992431850,"connected_time":27000000000,"state":"spawning","ping":74},{"user_id":257,"name":"Shamrock Shake Oct.10.2020 @8pm","steam_id":76561198833313201,"connected_time":2771000000000,"state":"active","ping":56},{"user_id":285,"name":"goldhed","steam_id":76561198051751133,"connected_time":363000000000,"state":"active","ping":76},{"user_id":251,"name":"The Horny","steam_id":76561198863639459,"connected_time":2923000000000,"state":"active","ping":92},{"user_id":267,"name":"r u guys going trick or treatin","steam_id":76561199074585110,"connected_time":1821000000000,"state":"active","ping":44},{"user_id":233,"name":"Frazzer","steam_id":76561198088679707,"connected_time":4484000000000,"state":"active","ping":50},{"user_id":253,"name":"Incredible Donk","steam_id":76561198427360423,"connected_time":2852000000000,"state":"active","ping":66},{"user_id":264,"name":"compulsive","steam_id":76561198212421513,"connected_time":2246000000000,"state":"active","ping":53},{"user_id":282,"name":"pooblygonzooly2012","steam_id":76561198982054880,"connected_time":1192000000000,"state":"active","ping":55},{"user_id":242,"name":"Krazy","steam_id":76561198835502709,"connected_time":3210000000000,"state":"active","ping":45},{"user_id":262,"name":"Oops","steam_id":76561198015032646,"connected_time":2544000000000,"state":"active","ping":68}]},{"server_id":112,"name":"Uncletopia | Los Angeles | 2 | All Maps","name_short":"lax-2","host":"lax-1.us.uncletopia.com","port":27025,"enabled":true,"region":"us-west","cc":"us","latitude":33.94279,"longitude":-118.41004,"reserved":0,"last_update":"0001-01-01T00:00:00Z","name_a2s":"Uncletopia | Los Angeles | 2 | All Maps","protocol":17,"map":"pl_frontier_final","folder":"tf","game":"Team Fortress","app_id":440,"player_count":0,"max_players":24,"Bots":0,"server_type":"Dedicated","server_os":"Linux","password":true,"vac":true,"version":"7757534","steam_id":85568392924469992,"keywords":["nocrits","nodmgspread","payload","uncletopia"],"game_id":440,"stv_port":27026,"stv_name":"Uncletopia | Los Angeles | 2 | All Maps | STV","players":null},{"server_id":324,"name":"Uncletopia | Los Angeles | 3 | All Maps","name_short":"lax-3","host":"lax-1.us.uncletopia.com","port":27035,"enabled":true,"region":"us-west","cc":"us","latitude":33.94279,"longitude":-118.41004,"reserved":0,"last_update":"0001-01-01T00:00:00Z","name_a2s":"Uncletopia | Los Angeles | 3 | All Maps","protocol":17,"map":"cp_dustbowl","folder":"tf","game":"Team Fortress","app_id":440,"player_count":24,"max_players":24,"Bots":0,"server_type":"Dedicated","server_os":"Linux","password":true,"vac":true,"version":"7757534","steam_id":85568392924510198,"keywords":["cp","nocrits","nodmgspread","uncletopia"],"game_id":440,"stv_port":27036,"stv_name":"Uncletopia | Los Angeles | 3 | All Maps | STV","players":[{"user_id":89,"name":"Kyna._","steam_id":76561198142758338,"connected_time":1088000000000,"state":"active","ping":56},{"user_id":68,"name":"ZAZA Enjoyer","steam_id":76561198094426099,"connected_time":2790000000000,"state":"active","ping":71},{"user_id":60,"name":"AverageCEO","steam_id":76561198341738788,"connected_time":3447000000000,"state":"active","ping":95},{"user_id":91,"name":"„Ç∂„Éª„Éé„Ç§„Ç∫„Éû„É≥","steam_id":76561198058706902,"connected_time":1052000000000,"state":"active","ping":98},{"user_id":99,"name":"online","steam_id":76561198192531745,"connected_time":249000000000,"state":"active","ping":53},{"user_id":95,"name":"oil","steam_id":76561198099980149,"connected_time":924000000000,"state":"active","ping":50},{"user_id":37,"name":"jimbo","steam_id":76561198821535846,"connected_time":4558000000000,"state":"active","ping":98},{"user_id":38,"name":"your mom calls me princess too","steam_id":76561198020400899,"connected_time":4546000000000,"state":"active","ping":74},{"user_id":39,"name":"Poopie Babie","steam_id":76561198047500494,"connected_time":4540000000000,"state":"active","ping":74},{"user_id":41,"name":"sergeant Adderall","steam_id":76561199010296481,"connected_time":4314000000000,"state":"active","ping":134},{"user_id":75,"name":"Dentivent","steam_id":76561197971953043,"connected_time":2095000000000,"state":"active","ping":56},{"user_id":84,"name":"banan team fortes","steam_id":76561199073621650,"connected_time":1539000000000,"state":"active","ping":49},{"user_id":90,"name":"Roon","steam_id":76561198381478636,"connected_time":1068000000000,"state":"active","ping":59},{"user_id":101,"name":"Antzen","steam_id":76561198041343470,"connected_time":185000000000,"state":"active","ping":59},{"user_id":97,"name":"Fractured_Mango","steam_id":76561199013113268,"connected_time":509000000000,"state":"active","ping":87},{"user_id":94,"name":"cyborgor","steam_id":76561198040782513,"connected_time":953000000000,"state":"active","ping":57},{"user_id":86,"name":"Skarp129","steam_id":76561198108679057,"connected_time":1330000000000,"state":"active","ping":45},{"user_id":82,"name":"Heavy","steam_id":76561198437794740,"connected_time":1641000000000,"state":"active","ping":80},{"user_id":80,"name":"Famicon","steam_id":76561198933762147,"connected_time":1749000000000,"state":"active","ping":59},{"user_id":59,"name":"megaroboleg","steam_id":76561198844644993,"connected_time":4062000000000,"state":"active","ping":59},{"user_id":102,"name":"shy guy","steam_id":76561198151246059,"connected_time":138000000000,"state":"active","ping":47},{"user_id":88,"name":"ya doin good lad","steam_id":76561198319442494,"connected_time":1095000000000,"state":"active","ping":58},{"user_id":56,"name":"‚ô•love my medic gf‚ô•","steam_id":76561198052177917,"connected_time":4177000000000,"state":"active","ping":83},{"user_id":62,"name":"TOTO By Africa","steam_id":76561198089385204,"connected_time":3378000000000,"state":"active","ping":80}]},{"server_id":25,"name":"Uncletopia | Los Angeles | 4 | Stopwatch Beta","name_short":"lax-4","host":"lax-1.us.uncletopia.com","port":27045,"enabled":true,"region":"us-west","cc":"us","latitude":33.94279,"longitude":-118.41004,"reserved":0,"last_update":"0001-01-01T00:00:00Z","name_a2s":"Uncletopia | Los Angeles | 4 | Stopwatch Beta","protocol":17,"map":"pl_frontier_final","folder":"tf","game":"Team Fortress","app_id":440,"player_count":0,"max_players":24,"Bots":0,"server_type":"Dedicated","server_os":"Linux","password":true,"vac":true,"version":"7757534","steam_id":85568392924510199,"keywords":["nocrits","nodmgspread","payload","uncletopia"],"game_id":440,"stv_port":27046,"stv_name":"Uncletopia | Los Angeles | 4 | Stopwatch Beta | STV","players":null},{"server_id":11,"name":"Uncletopia | London | 1 | All Maps","name_short":"lon-1","host":"lon-1.uk.uncletopia.com","port":27015,"enabled":true,"region":"eu","cc":"gb","latitude":51.509865,"longitude":-0.118092,"reserved":0,"last_update":"0001-01-01T00:00:00Z","name_a2s":"Uncletopia | London | 1 | All Maps","protocol":17,"map":"koth_viaduct","folder":"tf","game":"Team Fortress","app_id":440,"player_count":0,"max_players":24,"Bots":0,"server_type":"Dedicated","server_os":"Linux","password":true,"vac":true,"version":"7757534","steam_id":85568392924367362,"keywords":["cp","nocrits","nodmgspread","uncletopia"],"game_id":440,"stv_port":27016,"stv_name":"Uncletopia | London | 1 | All Maps | STV","players":null},{"server_id":114,"name":"Uncletopia | London | 2 | All Maps","name_short":"lon-2","host":"lon-1.uk.uncletopia.com","port":27025,"enabled":true,"region":"eu","cc":"gb","latitude":51.509865,"longitude":-0.118092,"reserved":0,"last_update":"0001-01-01T00:00:00Z","name_a2s":"Uncletopia | London | 2 | All Maps","protocol":17,"map":"cp_process_final","folder":"tf","game":"Team Fortress","app_id":440,"player_count":0,"max_players":24,"Bots":0,"server_type":"Dedicated","server_os":"Linux","password":true,"vac":true,"version":"7757534","steam_id":85568392924470941,"keywords":["cp","nocrits","nodmgspread","uncletopia"],"game_id":440,"stv_port":27026,"stv_name":"Uncletopia | London | 2 | All Maps | STV","players":null},{"server_id":320,"name":"Uncletopia | London | 3 | All Maps","name_short":"lon-3","host":"lon-1.uk.uncletopia.com","port":27035,"enabled":true,"region":"eu","cc":"gb","latitude":51.509865,"longitude":-0.118092,"reserved":0,"last_update":"0001-01-01T00:00:00Z","name_a2s":"Uncletopia | London | 3 | All Maps","protocol":17,"map":"koth_viaduct","folder":"tf","game":"Team Fortress","app_id":440,"player_count":0,"max_players":24,"Bots":0,"server_type":"Dedicated","server_os":"Linux","password":true,"vac":true,"version":"7757534","steam_id":85568392924510192,"keywords":["cp","nocrits","nodmgspread","uncletopia"],"game_id":440,"stv_port":27036,"stv_name":"Uncletopia | London | 3 | All Maps | STV","players":null},{"server_id":321,"name":"Uncletopia | London | 4 | All Maps","name_short":"lon-4","host":"lon-1.uk.uncletopia.com","port":27045,"enabled":true,"region":"eu","cc":"gb","latitude":51.509865,"longitude":-0.118092,"reserved":0,"last_update":"0001-01-01T00:00:00Z","name_a2s":"Uncletopia | London | 4 | All Maps","protocol":17,"map":"koth_viaduct","folder":"tf","game":"Team Fortress","app_id":440,"player_count":0,"max_players":24,"Bots":0,"server_type":"Dedicated","server_os":"Linux","password":true,"vac":true,"version":"7757534","steam_id":85568392924510193,"keywords":["cp","nocrits","nodmgspread","uncletopia"],"game_id":440,"stv_port":27046,"stv_name":"Uncletopia | London | 4 | All Maps | STV","players":null},{"server_id":21,"name":"Uncletopia | London | 5 | All Maps","name_short":"lon-5","host":"lon-1.uk.uncletopia.com","port":27055,"enabled":true,"region":"eu","cc":"gb","latitude":51.509865,"longitude":-0.118092,"reserved":0,"last_update":"0001-01-01T00:00:00Z","name_a2s":"Uncletopia | London | 5 | All Maps","protocol":17,"map":"cp_mountainlab","folder":"tf","game":"Team Fortress","app_id":440,"player_count":2,"max_players":24,"Bots":0,"server_type":"Dedicated","server_os":"Linux","password":true,"vac":true,"version":"7757534","steam_id":85568392924742829,"keywords":["cp","nocrits","nodmgspread","uncletopia"],"game_id":440,"stv_port":27056,"stv_name":"Uncletopia | London | 5 | All Maps | STV","players":[{"user_id":800,"name":"mi7","steam_id":76561199099039770,"connected_time":1497000000000,"state":"active","ping":159},{"user_id":801,"name":"Svekla","steam_id":76561198001964994,"connected_time":1479000000000,"state":"active","ping":136}]},{"server_id":22,"name":"Uncletopia | London | 6 | All Maps","name_short":"lon-6","host":"lon-1.uk.uncletopia.com","port":27065,"enabled":true,"region":"eu","cc":"gb","latitude":51.509865,"longitude":-0.118092,"reserved":0,"last_update":"0001-01-01T00:00:00Z","name_a2s":"Uncletopia | London | 6 | All Maps","protocol":17,"map":"koth_cascade","folder":"tf","game":"Team Fortress","app_id":440,"player_count":0,"max_players":24,"Bots":0,"server_type":"Dedicated","server_os":"Linux","password":true,"vac":true,"version":"7757534","steam_id":85568392924742830,"keywords":["cp","nocrits","nodmgspread","uncletopia"],"game_id":440,"stv_port":27066,"stv_name":"Uncletopia | London | 6 | All Maps | STV","players":null},{"server_id":40,"name":"Uncletopia | London | 7 | No Payload","name_short":"lon-7","host":"lon-1.uk.uncletopia.com","port":27075,"enabled":true,"region":"eu","cc":"gb","latitude":51.509865,"longitude":-0.118092,"reserved":0,"last_update":"0001-01-01T00:00:00Z","name_a2s":"Uncletopia | London | 7 | No Payload","protocol":17,"map":"cp_sunshine","folder":"tf","game":"Team Fortress","app_id":440,"player_count":0,"max_players":24,"Bots":0,"server_type":"Dedicated","server_os":"Linux","password":true,"vac":true,"version":"7757534","steam_id":85568392924964314,"keywords":["cp","nocrits","nodmgspread","uncletopia"],"game_id":440,"stv_port":27076,"stv_name":"Uncletopia | London | 7 | No Payload | STV","players":null},{"server_id":41,"name":"Uncletopia | London | 8 | Community","name_short":"lon-8","host":"lon-1.uk.uncletopia.com","port":27085,"enabled":true,"region":"eu","cc":"gb","latitude":51.509865,"longitude":-0.118092,"reserved":0,"last_update":"0001-01-01T00:00:00Z","name_a2s":"Uncletopia | London | 8 | Community","protocol":17,"map":"workshop/koth_ashville_final.ugc2130459942","folder":"tf","game":"Team Fortress","app_id":440,"player_count":0,"max_players":24,"Bots":0,"server_type":"Dedicated","server_os":"Linux","password":true,"vac":true,"version":"7757534","steam_id":85568392924964315,"keywords":["cp","nocrits","nodmgspread","uncletopia"],"game_id":440,"stv_port":27086,"stv_name":"Uncletopia | London | 8 | Community | STV","players":null},{"server_id":300,"name":"Uncletopia | Montr√©al | 1 | All Maps","name_short":"mtl-1","host":"mtl-1.ca.uncletopia.com","port":27015,"enabled":true,"region":"us-east","cc":"ca","latitude":45.50889,"longitude":-73.56167,"reserved":0,"last_update":"0001-01-01T00:00:00Z","name_a2s":"Uncletopia | Montr√©al | 1 | All Maps","protocol":17,"map":"pl_swiftwater_final1","folder":"tf","game":"Team Fortress","app_id":440,"player_count":0,"max_players":24,"Bots":0,"server_type":"Dedicated","server_os":"Linux","password":true,"vac":true,"version":"7757534","steam_id":85568392924500087,"keywords":["nocrits","nodmgspread","payload","uncletopia"],"game_id":440,"stv_port":27016,"stv_name":"Uncletopia | Montr√©al | 1 | All Maps | STV","players":null},{"server_id":301,"name":"Uncletopia | Montr√©al | 2 | All Maps","name_short":"mtl-2","host":"mtl-1.ca.uncletopia.com","port":27025,"enabled":true,"region":"us-east","cc":"ca","latitude":45.50889,"longitude":-73.56167,"reserved":0,"last_update":"0001-01-01T00:00:00Z","name_a2s":"Uncletopia | Montr√©al | 2 | All Maps","protocol":17,"map":"koth_viaduct","folder":"tf","game":"Team Fortress","app_id":440,"player_count":0,"max_players":24,"Bots":0,"server_type":"Dedicated","server_os":"Linux","password":true,"vac":true,"version":"7757534","steam_id":85568392924500088,"keywords":["cp","nocrits","nodmgspread","uncletopia"],"game_id":440,"stv_port":27026,"stv_name":"Uncletopia | Montr√©al | 2 | All Maps | STV","players":null},{"server_id":302,"name":"Uncletopia | Montr√©al | 3 | All Maps","name_short":"mtl-3","host":"mtl-1.ca.uncletopia.com","port":27035,"enabled":true,"region":"us-east","cc":"ca","latitude":45.50889,"longitude":-73.56167,"reserved":0,"last_update":"0001-01-01T00:00:00Z","name_a2s":"Uncletopia | Montr√©al | 3 | All Maps","protocol":17,"map":"pl_swiftwater_final1","folder":"tf","game":"Team Fortress","app_id":440,"player_count":0,"max_players":24,"Bots":0,"server_type":"Dedicated","server_os":"Linux","password":true,"vac":true,"version":"7757534","steam_id":85568392924500089,"keywords":["nocrits","nodmgspread","payload","uncletopia"],"game_id":440,"stv_port":27036,"stv_name":"Uncletopia | Montr√©al | 3 | All Maps | STV","players":null},{"server_id":303,"name":"Uncletopia | Montr√©al | 4 | No Payload","name_short":"mtl-4","host":"mtl-1.ca.uncletopia.com","port":27045,"enabled":true,"region":"us-east","cc":"ca","latitude":45.50889,"longitude":-73.56167,"reserved":0,"last_update":"0001-01-01T00:00:00Z","name_a2s":"Uncletopia | Montr√©al | 4 | No Payload","protocol":17,"map":"ctf_doublecross","folder":"tf","game":"Team Fortress","app_id":440,"player_count":0,"max_players":24,"Bots":0,"server_type":"Dedicated","server_os":"Linux","password":true,"vac":true,"version":"7757534","steam_id":85568392924500090,"keywords":["ctf","nocrits","nodmgspread","uncletopia"],"game_id":440,"stv_port":27046,"stv_name":"Uncletopia | Montr√©al | 4 | No Payload | STV","players":null},{"server_id":13,"name":"Uncletopia | New York City | 1 | All Maps","name_short":"nyc-1","host":"nyc-1.us.uncletopia.com","port":27015,"enabled":true,"region":"us-east","cc":"us","latitude":40.73061,"longitude":-73.93524,"reserved":0,"last_update":"0001-01-01T00:00:00Z","name_a2s":"Uncletopia | New York City | 1 | All Maps","protocol":17,"map":"pl_frontier_final","folder":"tf","game":"Team Fortress","app_id":440,"player_count":0,"max_players":24,"Bots":0,"server_type":"Dedicated","server_os":"Linux","password":true,"vac":true,"version":"7757534","steam_id":85568392924469993,"keywords":["nocrits","nodmgspread","payload","uncletopia"],"game_id":440,"stv_port":27016,"stv_name":"Uncletopia | New York City | 1 | All Maps | STV","players":null},{"server_id":14,"name":"Uncletopia | New York City | 2 | All Maps","name_short":"nyc-2","host":"nyc-1.us.uncletopia.com","port":27025,"enabled":true,"region":"us-east","cc":"us","latitude":40.73061,"longitude":-73.93524,"reserved":0,"last_update":"0001-01-01T00:00:00Z","name_a2s":"Uncletopia | New York City | 2 | All Maps","protocol":17,"map":"pl_borneo","folder":"tf","game":"Team Fortress","app_id":440,"player_count":24,"max_players":24,"Bots":0,"server_type":"Dedicated","server_os":"Linux","password":true,"vac":true,"version":"7757534","steam_id":85568392924469994,"keywords":["nocrits","nodmgspread","payload","uncletopia"],"game_id":440,"stv_port":27026,"stv_name":"Uncletopia | New York City | 2 | All Maps | STV","players":[{"user_id":525,"name":"Ziath","steam_id":76561198094009164,"connected_time":2443000000000,"state":"active","ping":45},{"user_id":549,"name":"snow","steam_id":76561198018184698,"connected_time":573000000000,"state":"active","ping":58},{"user_id":523,"name":"TRANS RIGHTS ‚ô•","steam_id":76561198066258544,"connected_time":2550000000000,"state":"active","ping":135},{"user_id":524,"name":"ClericsRose","steam_id":76561198011013806,"connected_time":2462000000000,"state":"active","ping":64},{"user_id":550,"name":"primordialheath","steam_id":76561199386942638,"connected_time":571000000000,"state":"active","ping":81},{"user_id":543,"name":"The Lonely Croc","steam_id":76561198123241396,"connected_time":1643000000000,"state":"active","ping":98},{"user_id":548,"name":"fork found in kitchen","steam_id":76561198047689205,"connected_time":595000000000,"state":"active","ping":50},{"user_id":551,"name":"cilo","steam_id":76561198046163502,"connected_time":552000000000,"state":"active","ping":89},{"user_id":535,"name":"Luis wid a mic","steam_id":76561198349570006,"connected_time":2183000000000,"state":"active","ping":32},{"user_id":552,"name":"Horrizan","steam_id":76561197965028480,"connected_time":516000000000,"state":"active","ping":89},{"user_id":544,"name":"lemN","steam_id":76561198079251036,"connected_time":1597000000000,"state":"active","ping":61},{"user_id":560,"name":"Wique","steam_id":76561198071217597,"connected_time":46000000000,"state":"spawning","ping":51},{"user_id":554,"name":"lamadre07","steam_id":76561198067337453,"connected_time":430000000000,"state":"active","ping":115},{"user_id":557,"name":"Darghul the Skeleton Lord","steam_id":76561198004140161,"connected_time":204000000000,"state":"active","ping":60},{"user_id":538,"name":"kornelius korn","steam_id":76561199228839582,"connected_time":2068000000000,"state":"active","ping":137},{"user_id":547,"name":"Zacdatmat","steam_id":76561198369172364,"connected_time":1095000000000,"state":"active","ping":56},{"user_id":517,"name":"Jake","steam_id":76561198018166984,"connected_time":3057000000000,"state":"active","ping":45},{"user_id":556,"name":"Dumb shark enjoyer","steam_id":76561198025646032,"connected_time":313000000000,"state":"active","ping":62},{"user_id":520,"name":"Phil Collins","steam_id":76561198068868644,"connected_time":3027000000000,"state":"active","ping":119},{"user_id":545,"name":"munki„ÉÑ","steam_id":76561198841270249,"connected_time":1560000000000,"state":"active","ping":38},{"user_id":559,"name":"Wumps","steam_id":76561198207226825,"connected_time":172000000000,"state":"active","ping":60},{"user_id":540,"name":"Vivi","steam_id":76561198132698345,"connected_time":2055000000000,"state":"active","ping":30},{"user_id":519,"name":"deadpixel","steam_id":76561198150249843,"connected_time":3052000000000,"state":"active","ping":75},{"user_id":522,"name":"vvichael","steam_id":76561198238148528,"connected_time":2817000000000,"state":"active","ping":56}]},{"server_id":15,"name":"Uncletopia | New York City | 3 | Stopwatch Beta","name_short":"nyc-3","host":"nyc-1.us.uncletopia.com","port":27035,"enabled":true,"region":"us-east","cc":"us","latitude":40.73061,"longitude":-73.93524,"reserved":0,"last_update":"0001-01-01T00:00:00Z","name_a2s":"Uncletopia | New York City | 3 | Stopwatch Beta","protocol":17,"map":"koth_highpass","folder":"tf","game":"Team Fortress","app_id":440,"player_count":0,"max_players":24,"Bots":0,"server_type":"Dedicated","server_os":"Linux","password":true,"vac":true,"version":"7757534","steam_id":85568392924742820,"keywords":["cp","nocrits","nodmgspread","uncletopia"],"game_id":440,"stv_port":27036,"stv_name":"Uncletopia | New York City | 3 | Stopwatch Beta | STV","players":null},{"server_id":16,"name":"Uncletopia | New York City | 4 | Community","name_short":"nyc-4","host":"nyc-1.us.uncletopia.com","port":27045,"enabled":true,"region":"us-east","cc":"us","latitude":40.73061,"longitude":-73.93524,"reserved":0,"last_update":"0001-01-01T00:00:00Z","name_a2s":"Uncletopia | New York City | 4 | Community","protocol":17,"map":"workshop/koth_ashville_final.ugc2130459942","folder":"tf","game":"Team Fortress","app_id":440,"player_count":1,"max_players":24,"Bots":0,"server_type":"Dedicated","server_os":"Linux","password":true,"vac":true,"version":"7757534","steam_id":85568392924742821,"keywords":["cp","nocrits","nodmgspread","uncletopia"],"game_id":440,"stv_port":27046,"stv_name":"Uncletopia | New York City | 4 | Community | STV","players":[{"user_id":24,"name":"orby the orb","steam_id":76561198994634058,"connected_time":631000000000,"state":"active","ping":53}]},{"server_id":142,"name":"Uncletopia | S√£o Paulo | 1 | All Maps","name_short":"sao-1","host":"sao-1.br.uncletopia.com","port":27015,"enabled":true,"region":"sa","cc":"br","latitude":-23.533773,"longitude":-46.62529,"reserved":0,"last_update":"0001-01-01T00:00:00Z","name_a2s":"Uncletopia | S√£o Paulo | 1 | All Maps","protocol":17,"map":"koth_cascade","folder":"tf","game":"Team Fortress","app_id":440,"player_count":0,"max_players":24,"Bots":0,"server_type":"Dedicated","server_os":"Linux","password":true,"vac":true,"version":"7757534","steam_id":85568392924469996,"keywords":["cp","nocrits","nodmgspread","uncletopia"],"game_id":440,"stv_port":27016,"stv_name":"Uncletopia | S√£o Paulo | 1 | All Maps | STV","players":null},{"server_id":143,"name":"Uncletopia | S√£o Paulo | 2 | All Maps","name_short":"sao-2","host":"sao-2.br.uncletopia.com","port":27015,"enabled":true,"region":"sa","cc":"br","latitude":-23.533773,"longitude":-46.62529,"reserved":0,"last_update":"0001-01-01T00:00:00Z","name_a2s":"Uncletopia | S√£o Paulo | 2 | All Maps","protocol":17,"map":"koth_highpass","folder":"tf","game":"Team Fortress","app_id":440,"player_count":0,"max_players":24,"Bots":0,"server_type":"Dedicated","server_os":"Linux","password":true,"vac":true,"version":"7757534","steam_id":85568392924485349,"keywords":["cp","nocrits","nodmgspread","uncletopia"],"game_id":440,"stv_port":27016,"stv_name":"Uncletopia | S√£o Paulo | 2 | All Maps | STV","players":null},{"server_id":7,"name":"Uncletopia | Seattle | 1 | All Maps","name_short":"sea-1","host":"sea-1.us.uncletopia.com","port":27015,"enabled":true,"region":"us-west","cc":"us","latitude":47.608013,"longitude":-122.33517,"reserved":0,"last_update":"0001-01-01T00:00:00Z","name_a2s":"Uncletopia | Seattle | 1 | All Maps","protocol":17,"map":"pl_upward","folder":"tf","game":"Team Fortress","app_id":440,"player_count":24,"max_players":24,"Bots":0,"server_type":"Dedicated","server_os":"Linux","password":true,"vac":true,"version":"7757534","steam_id":85568392924469997,"keywords":["nocrits","nodmgspread","payload","uncletopia"],"game_id":440,"stv_port":27016,"stv_name":"Uncletopia | Seattle | 1 | All Maps | STV","players":[{"user_id":659,"name":"doopsies","steam_id":76561198083000867,"connected_time":1236000000000,"state":"active","ping":51},{"user_id":660,"name":"Indefiable","steam_id":76561198219238953,"connected_time":1203000000000,"state":"active","ping":45},{"user_id":632,"name":"JanPinyon610","steam_id":76561199238454799,"connected_time":2604000000000,"state":"active","ping":50},{"user_id":573,"name":"rat gets the cheese","steam_id":76561198031234032,"connected_time":7325000000000,"state":"active","ping":96},{"user_id":654,"name":"THAT CAT","steam_id":76561198010828625,"connected_time":1319000000000,"state":"active","ping":40},{"user_id":667,"name":"Defeat","steam_id":76561198065203818,"connected_time":621000000000,"state":"active","ping":43},{"user_id":672,"name":"Engynier Gaimeang (F2P)","steam_id":76561199013888779,"connected_time":303000000000,"state":"active","ping":81},{"user_id":669,"name":"Crake","steam_id":76561198001959071,"connected_time":546000000000,"state":"active","ping":58},{"user_id":653,"name":"Frogzilla","steam_id":76561198077657538,"connected_time":1326000000000,"state":"active","ping":68},{"user_id":639,"name":"grugposter","steam_id":76561198035805348,"connected_time":2359000000000,"state":"active","ping":34},{"user_id":626,"name":"S Q U I S H E  T H A T  C A T","steam_id":76561198293865429,"connected_time":2862000000000,"state":"active","ping":45},{"user_id":607,"name":"Mr.Thirteen","steam_id":76561198047468836,"connected_time":3633000000000,"state":"active","ping":69},{"user_id":678,"name":"h","steam_id":76561198092186935,"connected_time":10000000000,"state":"spawning","ping":180},{"user_id":666,"name":"Res Ipsa","steam_id":76561198041349210,"connected_time":667000000000,"state":"active","ping":72},{"user_id":648,"name":"gorlab","steam_id":76561198025089694,"connected_time":1971000000000,"state":"active","ping":73},{"user_id":656,"name":"BionicApe","steam_id":76561198154637711,"connected_time":1297000000000,"state":"active","ping":47},{"user_id":670,"name":"Flexicus","steam_id":76561198041863013,"connected_time":475000000000,"state":"active","ping":53},{"user_id":673,"name":"zinnk","steam_id":76561198092081825,"connected_time":275000000000,"state":"active","ping":64},{"user_id":671,"name":"MatchMatch","steam_id":76561198048925904,"connected_time":464000000000,"state":"active","ping":93},{"user_id":619,"name":"The Professor","steam_id":76561198113760863,"connected_time":3146000000000,"state":"active","ping":121},{"user_id":675,"name":"resting neutral face","steam_id":76561197999259502,"connected_time":145000000000,"state":"active","ping":60},{"user_id":617,"name":"reiidaya","steam_id":76561198325306660,"connected_time":3230000000000,"state":"active","ping":61},{"user_id":676,"name":"Sleuth","steam_id":76561198418288939,"connected_time":144000000000,"state":"active","ping":74},{"user_id":634,"name":"Squid121","steam_id":76561198038832034,"connected_time":2549000000000,"state":"active","ping":59}]},{"server_id":119,"name":"Uncletopia | Seattle | 2 | All Maps","name_short":"sea-2","host":"sea-1.us.uncletopia.com","port":27025,"enabled":true,"region":"us-west","cc":"us","latitude":47.608013,"longitude":-122.33517,"reserved":0,"last_update":"0001-01-01T00:00:00Z","name_a2s":"Uncletopia | Seattle | 2 | All Maps","protocol":17,"map":"cp_mountainlab","folder":"tf","game":"Team Fortress","app_id":440,"player_count":23,"max_players":24,"Bots":0,"server_type":"Dedicated","server_os":"Linux","password":true,"vac":true,"version":"7757534","steam_id":85568392924469998,"keywords":["cp","nocrits","nodmgspread","uncletopia"],"game_id":440,"stv_port":27026,"stv_name":"Uncletopia | Seattle | 2 | All Maps | STV","players":[{"user_id":471,"name":"Gr8butnotreally","steam_id":76561198133924450,"connected_time":803000000000,"state":"active","ping":92},{"user_id":464,"name":"Disc0","steam_id":76561198067337267,"connected_time":1072000000000,"state":"active","ping":45},{"user_id":466,"name":"Starbound","steam_id":76561198417285529,"connected_time":1003000000000,"state":"active","ping":105},{"user_id":461,"name":"Dunkle","steam_id":76561198041903573,"connected_time":1792000000000,"state":"active","ping":49},{"user_id":472,"name":"gun spy gaming","steam_id":76561198880739963,"connected_time":760000000000,"state":"active","ping":57},{"user_id":455,"name":"John Calibur","steam_id":76561197999986606,"connected_time":2025000000000,"state":"active","ping":72},{"user_id":470,"name":"Kal3b","steam_id":76561198236708484,"connected_time":935000000000,"state":"active","ping":57},{"user_id":473,"name":"xHamster ‚úÖ","steam_id":76561198090017412,"connected_time":1000000000,"state":"spawning","ping":71},{"user_id":456,"name":"Dilo","steam_id":76561198799078414,"connected_time":2015000000000,"state":"active","ping":85},{"user_id":453,"name":"John Johnson","steam_id":76561198347510093,"connected_time":2048000000000,"state":"active","ping":63},{"user_id":467,"name":"General Fisticuffs","steam_id":76561198255721392,"connected_time":990000000000,"state":"active","ping":115},{"user_id":447,"name":"exephur","steam_id":76561198135763234,"connected_time":2937000000000,"state":"active","ping":102},{"user_id":429,"name":"Morse","steam_id":76561198039944542,"connected_time":4010000000000,"state":"active","ping":46},{"user_id":446,"name":"oo","steam_id":76561198119626492,"connected_time":2955000000000,"state":"active","ping":159},{"user_id":394,"name":"xd","steam_id":76561197995927883,"connected_time":7106000000000,"state":"active","ping":53},{"user_id":423,"name":"2 Point Tom","steam_id":76561198087617008,"connected_time":4544000000000,"state":"active","ping":58},{"user_id":458,"name":"cool #1 weezer fan","steam_id":76561199172518546,"connected_time":1976000000000,"state":"active","ping":103},{"user_id":468,"name":"Piddlybonking the Cheese Man","steam_id":76561197970791798,"connected_time":956000000000,"state":"active","ping":38},{"user_id":469,"name":"WalkinMan","steam_id":76561198047941142,"connected_time":943000000000,"state":"active","ping":58},{"user_id":460,"name":"Nekomata","steam_id":76561198191536489,"connected_time":1963000000000,"state":"active","ping":96},{"user_id":438,"name":"Court Wizard, Sir Dr. Clydesdal","steam_id":76561198149267697,"connected_time":3555000000000,"state":"active","ping":67},{"user_id":463,"name":"bruxing and boggling","steam_id":76561198204169516,"connected_time":1763000000000,"state":"active","ping":58},{"user_id":416,"name":"DaBigA","steam_id":76561198326492538,"connected_time":4937000000000,"state":"active","ping":53}]},{"server_id":406,"name":"Uncletopia | Seattle | 3 | Stopwatch Beta","name_short":"sea-3","host":"sea-1.us.uncletopia.com","port":27035,"enabled":true,"region":"us-west","cc":"us","latitude":47.608013,"longitude":-122.33517,"reserved":0,"last_update":"0001-01-01T00:00:00Z","name_a2s":"Uncletopia | Seattle | 3 | Stopwatch Beta","protocol":17,"map":"workshop/cp_reckoner_rc6.ugc674719999","folder":"tf","game":"Team Fortress","app_id":440,"player_count":0,"max_players":24,"Bots":0,"server_type":"Dedicated","server_os":"Linux","password":true,"vac":true,"version":"7757534","steam_id":85568392924515217,"keywords":["cp","nocrits","nodmgspread","uncletopia"],"game_id":440,"stv_port":27036,"stv_name":"Uncletopia | Seattle | 3 | Stopwatch Beta | STV","players":null},{"server_id":17,"name":"Uncletopia | San Francisco | 1 | All Maps","name_short":"sfo-1","host":"sfo-1.us.uncletopia.com","port":27015,"enabled":true,"region":"us-west","cc":"us","latitude":37.77397,"longitude":-122.4313,"reserved":0,"last_update":"0001-01-01T00:00:00Z","name_a2s":"Uncletopia | San Francisco | 1 | All Maps","protocol":17,"map":"cp_dustbowl","folder":"tf","game":"Team Fortress","app_id":440,"player_count":23,"max_players":24,"Bots":0,"server_type":"Dedicated","server_os":"Linux","password":true,"vac":true,"version":"7757534","steam_id":85568392924469999,"keywords":["cp","nocrits","nodmgspread","uncletopia"],"game_id":440,"stv_port":27016,"stv_name":"Uncletopia | San Francisco | 1 | All Maps | STV","players":null},{"server_id":18,"name":"Uncletopia | San Francisco | 2 | All Maps","name_short":"sfo-2","host":"sfo-1.us.uncletopia.com","port":27025,"enabled":true,"region":"us-west","cc":"us","latitude":37.77397,"longitude":-122.4313,"reserved":0,"last_update":"0001-01-01T00:00:00Z","name_a2s":"Uncletopia | San Francisco | 2 | All Maps","protocol":17,"map":"pl_frontier_final","folder":"tf","game":"Team Fortress","app_id":440,"player_count":24,"max_players":24,"Bots":0,"server_type":"Dedicated","server_os":"Linux","password":true,"vac":true,"version":"7757534","steam_id":85568392924470000,"keywords":["nocrits","nodmgspread","payload","uncletopia"],"game_id":440,"stv_port":27026,"stv_name":"Uncletopia | San Francisco | 2 | All Maps | STV","players":null},{"server_id":19,"name":"Uncletopia | San Francisco | 3 | Stopwatch Beta","name_short":"sfo-3","host":"sfo-1.us.uncletopia.com","port":27035,"enabled":true,"region":"us-west","cc":"us","latitude":37.77397,"longitude":-122.4313,"reserved":0,"last_update":"0001-01-01T00:00:00Z","name_a2s":"Uncletopia | San Francisco | 3 | Stopwatch Beta","protocol":17,"map":"pl_borneo","folder":"tf","game":"Team Fortress","app_id":440,"player_count":0,"max_players":24,"Bots":0,"server_type":"Dedicated","server_os":"Linux","password":true,"vac":true,"version":"7757534","steam_id":85568392924742824,"keywords":["nocrits","nodmgspread","payload","uncletopia"],"game_id":440,"stv_port":27036,"stv_name":"Uncletopia | San Francisco | 3 | Stopwatch Beta | STV","players":null},{"server_id":20,"name":"Uncletopia | San Francisco | 4 | Community","name_short":"sfo-4","host":"sfo-1.us.uncletopia.com","port":27045,"enabled":true,"region":"us-west","cc":"us","latitude":37.77397,"longitude":-122.4313,"reserved":0,"last_update":"0001-01-01T00:00:00Z","name_a2s":"Uncletopia | San Francisco | 4 | Community","protocol":17,"map":"workshop/cp_hazyfort_rc6.ugc1365963729","folder":"tf","game":"Team Fortress","app_id":440,"player_count":0,"max_players":24,"Bots":0,"server_type":"Dedicated","server_os":"Linux","password":true,"vac":true,"version":"7757534","steam_id":85568392924742826,"keywords":["cp","nocrits","nodmgspread","uncletopia"],"game_id":440,"stv_port":27046,"stv_name":"Uncletopia | San Francisco | 4 | Community | STV","players":null},{"server_id":141,"name":"Uncletopia | Sydney | 1 | All Maps","name_short":"syd-1","host":"syd-1.au.uncletopia.com","port":27015,"enabled":true,"region":"au","cc":"au","latitude":-33.865143,"longitude":151.2099,"reserved":0,"last_update":"0001-01-01T00:00:00Z","name_a2s":"Uncletopia | Sydney | 1 | All Maps","protocol":17,"map":"pl_borneo","folder":"tf","game":"Team Fortress","app_id":440,"player_count":23,"max_players":24,"Bots":0,"server_type":"Dedicated","server_os":"Linux","password":true,"vac":true,"version":"7757534","steam_id":85568392924470001,"keywords":["nocrits","nodmgspread","payload","uncletopia"],"game_id":440,"stv_port":27016,"stv_name":"Uncletopia | Sydney | 1 | All Maps | STV","players":[{"user_id":254,"name":"Bamooxa","steam_id":76561198067160709,"connected_time":2003000000000,"state":"active","ping":90},{"user_id":280,"name":"the rot doesn't consume","steam_id":76561198866538028,"connected_time":667000000000,"state":"active","ping":88},{"user_id":239,"name":"tank","steam_id":76561199047909641,"connected_time":3896000000000,"state":"active","ping":149},{"user_id":290,"name":"Sinister80s","steam_id":76561198343540472,"connected_time":99000000000,"state":"active","ping":63},{"user_id":269,"name":"DIY Miracle","steam_id":76561198046228152,"connected_time":1172000000000,"state":"active","ping":55},{"user_id":270,"name":"Raw Dog God","steam_id":76561198833290341,"connected_time":1169000000000,"state":"active","ping":103},{"user_id":289,"name":"Dragondude_FX","steam_id":76561198993814246,"connected_time":136000000000,"state":"active","ping":95},{"user_id":291,"name":"AJD","steam_id":76561198093462874,"connected_time":98000000000,"state":"active","ping":63},{"user_id":208,"name":"Blazey ‰ºäÈÅî ÊîøÂÆó","steam_id":76561197971082275,"connected_time":5135000000000,"state":"active","ping":104},{"user_id":288,"name":"camille","steam_id":76561198831462927,"connected_time":215000000000,"state":"active","ping":59},{"user_id":265,"name":"SideBurn Guru","steam_id":76561198108541931,"connected_time":1430000000000,"state":"active","ping":57},{"user_id":293,"name":"Betty","steam_id":76561197970512181,"connected_time":29000000000,"state":"active","ping":79},{"user_id":267,"name":"Branko","steam_id":76561199262196710,"connected_time":1347000000000,"state":"active","ping":41},{"user_id":294,"name":"Genuline","steam_id":76561198126426787,"connected_time":28000000000,"state":"active","ping":33},{"user_id":253,"name":"whiteshaq","steam_id":76561198131988811,"connected_time":2378000000000,"state":"active","ping":76},{"user_id":203,"name":"Gasoline","steam_id":76561198879023728,"connected_time":5622000000000,"state":"active","ping":81},{"user_id":255,"name":"Spring Yawd Zown","steam_id":76561198340730741,"connected_time":1997000000000,"state":"active","ping":58},{"user_id":285,"name":"grumbleau","steam_id":76561199062322060,"connected_time":405000000000,"state":"active","ping":63},{"user_id":275,"name":"luxi","steam_id":76561198045695969,"connected_time":949000000000,"state":"active","ping":65},{"user_id":277,"name":"Jagonite","steam_id":76561198089124961,"connected_time":779000000000,"state":"active","ping":107},{"user_id":281,"name":"Hippity_Hoppity","steam_id":76561198861050395,"connected_time":645000000000,"state":"active","ping":65},{"user_id":279,"name":"briggobaggins","steam_id":76561199260286406,"connected_time":724000000000,"state":"active","ping":95},{"user_id":284,"name":"Zeron","steam_id":76561198125778202,"connected_time":595000000000,"state":"active","ping":59}]},{"server_id":123,"name":"Uncletopia | Sydney | 2 | All Maps","name_short":"syd-2","host":"syd-1.au.uncletopia.com","port":27025,"enabled":true,"region":"au","cc":"au","latitude":-33.865143,"longitude":151.2099,"reserved":0,"last_update":"0001-01-01T00:00:00Z","name_a2s":"Uncletopia | Sydney | 2 | All Maps","protocol":17,"map":"koth_lakeside_final","folder":"tf","game":"Team Fortress","app_id":440,"player_count":0,"max_players":24,"Bots":0,"server_type":"Dedicated","server_os":"Linux","password":true,"vac":true,"version":"7757534","steam_id":85568392924470002,"keywords":["cp","nocrits","nodmgspread","uncletopia"],"game_id":440,"stv_port":27026,"stv_name":"Uncletopia | Sydney | 2 | All Maps | STV","players":null},{"server_id":395,"name":"Uncletopia | Sydney | 3 | All Maps","name_short":"syd-3","host":"syd-1.au.uncletopia.com","port":27035,"enabled":true,"region":"au","cc":"au","latitude":-33.865143,"longitude":151.2099,"reserved":0,"last_update":"0001-01-01T00:00:00Z","name_a2s":"Uncletopia | Sydney | 3 | All Maps","protocol":17,"map":"pl_badwater","folder":"tf","game":"Team Fortress","app_id":440,"player_count":0,"max_players":24,"Bots":0,"server_type":"Dedicated","server_os":"Linux","password":true,"vac":true,"version":"7757534","steam_id":85568392925194467,"keywords":["nocrits","nodmgspread","payload","uncletopia"],"game_id":440,"stv_port":27036,"stv_name":"Uncletopia | Sydney | 3 | All Maps | STV","players":null},{"server_id":396,"name":"Uncletopia | Sydney | 4 | All Maps","name_short":"syd-4","host":"syd-1.au.uncletopia.com","port":27045,"enabled":true,"region":"au","cc":"au","latitude":-33.865143,"longitude":151.2099,"reserved":0,"last_update":"0001-01-01T00:00:00Z","name_a2s":"Uncletopia | Sydney | 4 | All Maps","protocol":17,"map":"koth_cascade","folder":"tf","game":"Team Fortress","app_id":440,"player_count":0,"max_players":24,"Bots":0,"server_type":"Dedicated","server_os":"Linux","password":true,"vac":true,"version":"7757534","steam_id":85568392925397958,"keywords":["cp","nocrits","nodmgspread","uncletopia"],"game_id":440,"stv_port":27046,"stv_name":"Uncletopia | Sydney | 4 | All Maps | STV","players":null},{"server_id":58,"name":"Uncletopia | Sydney | 5 | Stopwatch Beta","name_short":"syd-5","host":"syd-1.au.uncletopia.com","port":27055,"enabled":true,"region":"au","cc":"au","latitude":-33.865143,"longitude":151.2099,"reserved":0,"last_update":"0001-01-01T00:00:00Z","name_a2s":"Uncletopia | Sydney | 5 | Stopwatch Beta","protocol":17,"map":"koth_highpass","folder":"tf","game":"Team Fortress","app_id":440,"player_count":0,"max_players":24,"Bots":0,"server_type":"Dedicated","server_os":"Linux","password":true,"vac":true,"version":"7757534","steam_id":85568392925397959,"keywords":["cp","nocrits","nodmgspread","uncletopia"],"game_id":440,"stv_port":27056,"stv_name":"Uncletopia | Sydney | 5 | Stopwatch Beta | STV","players":null},{"server_id":59,"name":"Uncletopia | Sydney | 6 | Community","name_short":"syd-6","host":"syd-1.au.uncletopia.com","port":27065,"enabled":true,"region":"au","cc":"au","latitude":-33.865143,"longitude":151.2099,"reserved":0,"last_update":"0001-01-01T00:00:00Z","name_a2s":"Uncletopia | Sydney | 6 | Community","protocol":17,"map":"workshop/koth_slaughter_rc1.ugc1712845210","folder":"tf","game":"Team Fortress","app_id":440,"player_count":0,"max_players":24,"Bots":0,"server_type":"Dedicated","server_os":"Linux","password":true,"vac":true,"version":"7757534","steam_id":85568392925397960,"keywords":["cp","nocrits","nodmgspread","uncletopia"],"game_id":440,"stv_port":27066,"stv_name":"Uncletopia | Sydney | 6 | Community | STV","players":null},{"server_id":49,"name":"Uncletopia | Warsaw | 1 | All Maps","name_short":"waw-1","host":"waw-1.pl.uncletopia.com","port":27015,"enabled":true,"region":"eu","cc":"pl","latitude":52.2297,"longitude":21.017532,"reserved":0,"last_update":"0001-01-01T00:00:00Z","name_a2s":"","protocol":0,"map":"","folder":"","game":"","app_id":0,"player_count":0,"max_players":0,"Bots":0,"server_type":"","server_os":"","password":false,"vac":false,"version":"","steam_id":0,"keywords":null,"game_id":0,"stv_port":0,"stv_name":"","players":null},{"server_id":50,"name":"Uncletopia | Warsaw | 2 | All Maps","name_short":"waw-2","host":"waw-1.pl.uncletopia.com","port":27025,"enabled":true,"region":"eu","cc":"pl","latitude":52.2297,"longitude":21.017532,"reserved":0,"last_update":"0001-01-01T00:00:00Z","name_a2s":"Uncletopia | Warsaw | 2 | All Maps","protocol":17,"map":"koth_highpass","folder":"tf","game":"Team Fortress","app_id":440,"player_count":0,"max_players":24,"Bots":0,"server_type":"Dedicated","server_os":"Linux","password":true,"vac":true,"version":"7757534","steam_id":85568392925397851,"keywords":["cp","nocrits","nodmgspread","uncletopia"],"game_id":440,"stv_port":27026,"stv_name":"Uncletopia | Warsaw | 2 | All Maps | STV","players":null},{"server_id":51,"name":"Uncletopia | Warsaw | 3 | All Maps","name_short":"waw-3","host":"waw-1.pl.uncletopia.com","port":27035,"enabled":true,"region":"eu","cc":"pl","latitude":52.2297,"longitude":21.017532,"reserved":0,"last_update":"0001-01-01T00:00:00Z","name_a2s":"Uncletopia | Warsaw | 3 | All Maps","protocol":17,"map":"koth_cascade","folder":"tf","game":"Team Fortress","app_id":440,"player_count":0,"max_players":24,"Bots":0,"server_type":"Dedicated","server_os":"Linux","password":true,"vac":true,"version":"7757534","steam_id":85568392925397852,"keywords":["cp","nocrits","nodmgspread","uncletopia"],"game_id":440,"stv_port":27036,"stv_name":"Uncletopia | Warsaw | 3 | All Maps | STV","players":null},{"server_id":52,"name":"Uncletopia | Warsaw | 4 | All Maps","name_short":"waw-4","host":"waw-1.pl.uncletopia.com","port":27045,"enabled":true,"region":"eu","cc":"pl","latitude":52.2297,"longitude":21.017532,"reserved":0,"last_update":"0001-01-01T00:00:00Z","name_a2s":"Uncletopia | Warsaw | 4 | All Maps","protocol":17,"map":"koth_lakeside_final","folder":"tf","game":"Team Fortress","app_id":440,"player_count":0,"max_players":24,"Bots":0,"server_type":"Dedicated","server_os":"Linux","password":true,"vac":true,"version":"7757534","steam_id":85568392925397853,"keywords":["cp","nocrits","nodmgspread","uncletopia"],"game_id":440,"stv_port":27046,"stv_name":"Uncletopia | Warsaw | 4 | All Maps | STV","players":null},{"server_id":53,"name":"Uncletopia | Warsaw | 5 | Stopwatch Beta","name_short":"waw-5","host":"waw-1.pl.uncletopia.com","port":27055,"enabled":true,"region":"eu","cc":"pl","latitude":52.2297,"longitude":21.017532,"reserved":0,"last_update":"0001-01-01T00:00:00Z","name_a2s":"Uncletopia | Warsaw | 5 | Stopwatch Beta","protocol":17,"map":"pl_barnblitz","folder":"tf","game":"Team Fortress","app_id":440,"player_count":0,"max_players":24,"Bots":0,"server_type":"Dedicated","server_os":"Linux","password":true,"vac":true,"version":"7757534","steam_id":85568392925397854,"keywords":["nocrits","nodmgspread","payload","uncletopia"],"game_id":440,"stv_port":27056,"stv_name":"Uncletopia | Warsaw | 5 | Stopwatch Beta | STV","players":null},{"server_id":54,"name":"Uncletopia | Warsaw | 6 | Community","name_short":"waw-6","host":"waw-1.pl.uncletopia.com","port":27065,"enabled":true,"region":"eu","cc":"pl","latitude":52.2297,"longitude":21.017532,"reserved":0,"last_update":"0001-01-01T00:00:00Z","name_a2s":"Uncletopia | Warsaw | 6 | Community","protocol":17,"map":"workshop/rd_asteroid_redux_b1.ugc2154902912","folder":"tf","game":"Team Fortress","app_id":440,"player_count":0,"max_players":24,"Bots":0,"server_type":"Dedicated","server_os":"Linux","password":true,"vac":true,"version":"7757534","steam_id":85568392925397856,"keywords":["beta","nocrits","nodmgspread","rd","uncletopia"],"game_id":440,"stv_port":27066,"stv_name":"Uncletopia | Warsaw | 6 | Community | STV","players":null}]}