{"status":true,"message":"","result":[{"server_id":9,"name":"Uncletopia | Atlanta | 1 | All Maps","name_short":"atl-1","host":"atl-1.us.uncletopia.com","port":27015,"enabled":true,"region":"us-east","cc":"us","latitude":33.753746,"longitude":-84.38633,"reserved":0,"last_update":"0001-01-01T00:00:00Z","name_a2s":"Uncletopia | Atlanta | 1 | All Maps","protocol":17,"map":"ctf_turbine","folder":"tf","game":"Team Fortress","app_id":440,"player_count":24,"max_players":24,"Bots":0,"server_type":"Dedicated","server_os":"Linux","password":true,"vac":true,"version":"7961495","steam_id":85568392924469982,"keywords":["ctf","nocrits","nodmgspread","uncletopia"],"game_id":440,"stv_port":27016,"stv_name":"Uncletopia | Atlanta | 1 | All Maps | STV","players":[{"user_id":660,"name":"FireQuiz","steam_id":76561198107357249,"connected_time":149000000000,"state":"active","ping":118},{"user_id":648,"name":"Zanartan","steam_id":76561198050528902,"connected_time":1223000000000,"state":"active","ping":172},{"user_id":630,"name":".Rakitsune","steam_id":76561199014286847,"connected_time":2602000000000,"state":"active","ping":77},{"user_id":649,"name":"Average JoJo Fan","steam_id":76561198863432523,"connected_time":1134000000000,"state":"active","ping":104},{"user_id":585,"name":"Squanchy","steam_id":76561198036319676,"connected_time":6285000000000,"state":"active","ping":55},{"user_id":599,"name":"AKK0","steam_id":76561199063194145,"connected_time":5610000000000,"state":"active","ping":91},{"user_id":644,"name":"substance","steam_id":76561198050103868,"connected_time":1614000000000,"state":"active","ping":99},{"user_id":657,"name":"FRANKY!!!","steam_id":76561199211305343,"connected_time":496000000000,"state":"active","ping":115},{"user_id":655,"name":"Jin","steam_id":76561198119873148,"connected_time":867000000000,"state":"active","ping":61},{"user_id":658,"name":"PK","steam_id":76561198368722500,"connected_time":457000000000,"state":"active","ping":80},{"user_id":661,"name":"why","steam_id":76561199059732212,"connected_time":138000000000,"state":"active","ping":53},{"user_id":653,"name":"Platypuspenguin","steam_id":76561198212228081,"connected_time":1074000000000,"state":"active","ping":69},{"user_id":632,"name":"menonamed","steam_id":76561198199564382,"connected_time":2591000000000,"state":"active","ping":69},{"user_id":654,"name":"Lex","steam_id":76561198069948353,"connected_time":1024000000000,"state":"active","ping":81},{"user_id":662,"name":"shaderoses","steam_id":76561198070800500,"connected_time":128000000000,"state":"active","ping":77},{"user_id":593,"name":"HAT-WEARING‚Ñ¢ Maggot Gamer Cat","steam_id":76561197973992705,"connected_time":6007000000000,"state":"active","ping":113},{"user_id":601,"name":"Spiceitwithred","steam_id":76561198313150295,"connected_time":5390000000000,"state":"active","ping":114},{"user_id":625,"name":"The Lunar Barista","steam_id":76561198180602091,"connected_time":2816000000000,"state":"active","ping":45},{"user_id":633,"name":"BL√òRG","steam_id":76561198036126673,"connected_time":2541000000000,"state":"active","ping":90},{"user_id":628,"name":"Clownfucker","steam_id":76561198091713728,"connected_time":2734000000000,"state":"active","ping":116},{"user_id":634,"name":"ChillinSquare","steam_id":76561198023745593,"connected_time":2533000000000,"state":"active","ping":104},{"user_id":613,"name":"Coffee Instant Type 2","steam_id":76561198307845869,"connected_time":3923000000000,"state":"active","ping":79},{"user_id":576,"name":"LaChancla","steam_id":76561198971528917,"connected_time":7369000000000,"state":"active","ping":74},{"user_id":645,"name":"tubby","steam_id":76561198174982661,"connected_time":1559000000000,"state":"active","ping":68}]},{"server_id":104,"name":"Uncletopia | Atlanta | 2 | All Maps","name_short":"atl-2","host":"atl-1.us.uncletopia.com","port":27025,"enabled":true,"region":"us-east","cc":"us","latitude":33.753746,"longitude":-84.38633,"reserved":0,"last_update":"0001-01-01T00:00:00Z","name_a2s":"Uncletopia | Atlanta | 2 | All Maps","protocol":17,"map":"pl_goldrush","folder":"tf","game":"Team Fortress","app_id":440,"player_count":24,"max_players":24,"Bots":0,"server_type":"Dedicated","server_os":"Linux","password":true,"vac":true,"version":"7961495","steam_id":85568392924469983,"keywords":["nocrits","nodmgspread","payload","uncletopia"],"game_id":440,"stv_port":27026,"stv_name":"Uncletopia | Atlanta | 2 | All Maps | STV","players":[{"user_id":507,"name":"Orn Free taa","steam_id":76561198128077944,"connected_time":1117000000000,"state":"active","ping":67},{"user_id":487,"name":"jinkies","steam_id":76561198199950729,"connected_time":2518000000000,"state":"active","ping":114},{"user_id":506,"name":"Katto","steam_id":76561197976002174,"connected_time":1126000000000,"state":"active","ping":59},{"user_id":488,"name":"Klip","steam_id":76561198316254429,"connected_time":2490000000000,"state":"active","ping":75},{"user_id":489,"name":"Mercy!Avatar","steam_id":76561199113870006,"connected_time":2485000000000,"state":"active","ping":60},{"user_id":400,"name":"G4Vi","steam_id":76561197998117895,"connected_time":10039000000000,"state":"active","ping":75},{"user_id":504,"name":"[weedgang]XX GODSLAYER XX","steam_id":76561198008332777,"connected_time":1279000000000,"state":"active","ping":76},{"user_id":478,"name":"El Gato Paranoico","steam_id":76561198116567116,"connected_time":3267000000000,"state":"active","ping":82},{"user_id":497,"name":"Chilledr","steam_id":76561198799250315,"connected_time":2083000000000,"state":"active","ping":67},{"user_id":502,"name":"onion","steam_id":76561198242311084,"connected_time":1697000000000,"state":"active","ping":56},{"user_id":498,"name":"Final_MarioXD","steam_id":76561199184862419,"connected_time":2047000000000,"state":"active","ping":103},{"user_id":472,"name":"ƒê√Ø…ê»ê…π…¶…Üa","steam_id":76561198981411945,"connected_time":3899000000000,"state":"active","ping":89},{"user_id":499,"name":"playguy carter","steam_id":76561198080679337,"connected_time":2012000000000,"state":"active","ping":66},{"user_id":513,"name":"JtsRes","steam_id":76561197994809241,"connected_time":380000000000,"state":"active","ping":76},{"user_id":482,"name":"RoyalKaiser RBMK -Mex-","steam_id":76561198886933897,"connected_time":3024000000000,"state":"active","ping":127},{"user_id":500,"name":"k8o","steam_id":76561198042481882,"connected_time":2009000000000,"state":"active","ping":63},{"user_id":439,"name":"Fred Ott","steam_id":76561198099088693,"connected_time":5982000000000,"state":"active","ping":74},{"user_id":512,"name":"DethSQRL","steam_id":76561199149628610,"connected_time":699000000000,"state":"active","ping":71},{"user_id":491,"name":"gusjacobi","steam_id":76561198233500588,"connected_time":2446000000000,"state":"active","ping":96},{"user_id":501,"name":"Madrox Who?","steam_id":76561197988859134,"connected_time":1991000000000,"state":"active","ping":90},{"user_id":514,"name":"Kdash","steam_id":76561198043829155,"connected_time":333000000000,"state":"active","ping":79},{"user_id":509,"name":"123","steam_id":76561198040375911,"connected_time":1096000000000,"state":"active","ping":67},{"user_id":515,"name":"nyan cat (official)","steam_id":76561198869675719,"connected_time":141000000000,"state":"active","ping":62},{"user_id":492,"name":"Deimos","steam_id":76561198254665780,"connected_time":2445000000000,"state":"active","ping":89}]},{"server_id":400,"name":"Uncletopia | Atlanta | 3 | Stopwatch","name_short":"atl-3","host":"atl-1.us.uncletopia.com","port":27035,"enabled":true,"region":"us-east","cc":"us","latitude":33.753746,"longitude":-84.38633,"reserved":0,"last_update":"0001-01-01T00:00:00Z","name_a2s":"Uncletopia | Atlanta | 3 | Stopwatch","protocol":17,"map":"workshop/koth_ramjam_rc1.ugc459778887","folder":"tf","game":"Team Fortress","app_id":440,"player_count":0,"max_players":24,"Bots":0,"server_type":"Dedicated","server_os":"Linux","password":true,"vac":true,"version":"7961495","steam_id":85568392924515187,"keywords":["cp","nocrits","nodmgspread","uncletopia"],"game_id":440,"stv_port":27036,"stv_name":"Uncletopia | Atlanta | 3 | Stopwatch | STV","players":null},{"server_id":401,"name":"Uncletopia | Atlanta | 4 | Community","name_short":"atl-4","host":"atl-1.us.uncletopia.com","port":27045,"enabled":true,"region":"us-east","cc":"us","latitude":33.753746,"longitude":-84.38633,"reserved":0,"last_update":"0001-01-01T00:00:00Z","name_a2s":"Uncletopia | Atlanta | 4 | Community","protocol":17,"map":"workshop/koth_product_final.ugc454272353","folder":"tf","game":"Team Fortress","app_id":440,"player_count":6,"max_players":24,"Bots":0,"server_type":"Dedicated","server_os":"Linux","password":true,"vac":true,"version":"7961495","steam_id":85568392924515188,"keywords":["cp","nocrits","nodmgspread","uncletopia"],"game_id":440,"stv_port":27046,"stv_name":"Uncletopia | Atlanta | 4 | Community | STV","players":[{"user_id":135,"name":"Orchid","steam_id":76561198990643973,"connected_time":1422000000000,"state":"active","ping":45},{"user_id":136,"name":"cajun thotsauce","steam_id":76561198101636066,"connected_time":1353000000000,"state":"active","ping":98},{"user_id":133,"name":"Zul1t","steam_id":76561199085942424,"connected_time":4112000000000,"state":"active","ping":87},{"user_id":124,"name":"eloressa","steam_id":76561198120330867,"connected_time":6548000000000,"state":"active","ping":82},{"user_id":125,"name":"H4N-TYUM1","steam_id":76561198069387999,"connected_time":6546000000000,"state":"active","ping":85},{"user_id":127,"name":"Phenix","steam_id":76561198362616975,"connected_time":6525000000000,"state":"active","ping":66}]},{"server_id":2,"name":"Uncletopia | Chicago | 1 | All Maps","name_short":"chi-1","host":"chi-1.us.uncletopia.com","port":27015,"enabled":true,"region":"us-central","cc":"us","latitude":41.881832,"longitude":-87.62318,"reserved":0,"last_update":"0001-01-01T00:00:00Z","name_a2s":"Uncletopia | Chicago | 1 | All Maps","protocol":17,"map":"koth_cascade","folder":"tf","game":"Team Fortress","app_id":440,"player_count":0,"max_players":24,"Bots":0,"server_type":"Dedicated","server_os":"Linux","password":true,"vac":true,"version":"7961495","steam_id":85568392924469984,"keywords":["cp","nocrits","nodmgspread","uncletopia"],"game_id":440,"stv_port":27016,"stv_name":"Uncletopia | Chicago | 1 | All Maps | STV","players":null},{"server_id":106,"name":"Uncletopia | Chicago | 2 | All Maps","name_short":"chi-2","host":"chi-1.us.uncletopia.com","port":27025,"enabled":true,"region":"us-central","cc":"us","latitude":41.881832,"longitude":-87.62318,"reserved":0,"last_update":"0001-01-01T00:00:00Z","name_a2s":"Uncletopia | Chicago | 2 | All Maps","protocol":17,"map":"koth_cascade","folder":"tf","game":"Team Fortress","app_id":440,"player_count":24,"max_players":24,"Bots":0,"server_type":"Dedicated","server_os":"Linux","password":true,"vac":true,"version":"7961495","steam_id":85568392924469985,"keywords":["cp","nocrits","nodmgspread","uncletopia"],"game_id":440,"stv_port":27026,"stv_name":"Uncletopia | Chicago | 2 | All Maps | STV","players":[{"user_id":906,"name":"bird enthusiast","steam_id":76561198087661713,"connected_time":1667000000000,"state":"active","ping":61},{"user_id":889,"name":"Zeebop","steam_id":76561198148332988,"connected_time":2954000000000,"state":"active","ping":55},{"user_id":932,"name":"WhoAteMyDonut1","steam_id":76561198353757530,"connected_time":468000000000,"state":"active","ping":84},{"user_id":931,"name":"Klitz Penischmidt","steam_id":76561198050582941,"connected_time":486000000000,"state":"active","ping":60},{"user_id":905,"name":"totoro","steam_id":76561198210420871,"connected_time":1827000000000,"state":"active","ping":46},{"user_id":918,"name":"Ghost \"With the Most\" Toastee","steam_id":76561198085410969,"connected_time":855000000000,"state":"active","ping":52},{"user_id":929,"name":"MINI CRIT!999","steam_id":76561198027649268,"connected_time":535000000000,"state":"active","ping":85},{"user_id":930,"name":"Seija NUTS","steam_id":76561198357437908,"connected_time":532000000000,"state":"active","ping":71},{"user_id":908,"name":"Microsoft Excel","steam_id":76561199216713634,"connected_time":1595000000000,"state":"active","ping":62},{"user_id":909,"name":"CynForSin","steam_id":76561198094739849,"connected_time":1591000000000,"state":"active","ping":60},{"user_id":923,"name":"redredgreengreen","steam_id":76561198035660801,"connected_time":718000000000,"state":"active","ping":117},{"user_id":891,"name":"Carpet enthusiast","steam_id":76561198024040142,"connected_time":2876000000000,"state":"active","ping":95},{"user_id":910,"name":"aofi the flat tgirl","steam_id":76561199172110503,"connected_time":1589000000000,"state":"active","ping":63},{"user_id":911,"name":"bilbobaggins7","steam_id":76561198343650653,"connected_time":1586000000000,"state":"active","ping":64},{"user_id":922,"name":"Shrebbie","steam_id":76561198875230824,"connected_time":764000000000,"state":"active","ping":59},{"user_id":892,"name":"Jose Papacito Piernas Largas Ma","steam_id":76561198040299217,"connected_time":2864000000000,"state":"active","ping":105},{"user_id":924,"name":"JC The Dumb","steam_id":76561199186185567,"connected_time":705000000000,"state":"active","ping":113},{"user_id":925,"name":"Kronk","steam_id":76561198063092125,"connected_time":695000000000,"state":"active","ping":74},{"user_id":912,"name":"apeman","steam_id":76561198040737975,"connected_time":1484000000000,"state":"active","ping":53},{"user_id":933,"name":"AveMoSwag","steam_id":76561198261701911,"connected_time":366000000000,"state":"active","ping":59},{"user_id":902,"name":"Fresnel","steam_id":76561198266960876,"connected_time":2102000000000,"state":"active","ping":87},{"user_id":935,"name":"The Assistant Regional Manager","steam_id":76561199221484936,"connected_time":3000000000,"state":"spawning","ping":100},{"user_id":928,"name":"yayo","steam_id":76561199086478294,"connected_time":613000000000,"state":"active","ping":105},{"user_id":920,"name":"Drachma","steam_id":76561198007310514,"connected_time":812000000000,"state":"active","ping":56}]},{"server_id":402,"name":"Uncletopia | Chicago | 3 | All Maps","name_short":"chi-3","host":"chi-1.us.uncletopia.com","port":27035,"enabled":true,"region":"us-central","cc":"us","latitude":41.881832,"longitude":-87.62318,"reserved":0,"last_update":"0001-01-01T00:00:00Z","name_a2s":"Uncletopia | Chicago | 3 | All Maps","protocol":17,"map":"pl_upward","folder":"tf","game":"Team Fortress","app_id":440,"player_count":24,"max_players":24,"Bots":0,"server_type":"Dedicated","server_os":"Linux","password":true,"vac":true,"version":"7961495","steam_id":85568392924515191,"keywords":["nocrits","nodmgspread","payload","uncletopia"],"game_id":440,"stv_port":27036,"stv_name":"Uncletopia | Chicago | 3 | All Maps | STV","players":[{"user_id":667,"name":"subdromeda","steam_id":76561198884351860,"connected_time":452000000000,"state":"active","ping":60},{"user_id":668,"name":"Gardangle","steam_id":76561198394173831,"connected_time":407000000000,"state":"active","ping":98},{"user_id":669,"name":"Groovy","steam_id":76561198008354778,"connected_time":372000000000,"state":"active","ping":130},{"user_id":666,"name":"Yongle","steam_id":76561198068591156,"connected_time":458000000000,"state":"active","ping":57},{"user_id":670,"name":"bloop","steam_id":76561199206873162,"connected_time":362000000000,"state":"active","ping":110},{"user_id":644,"name":"Jpxfred","steam_id":76561199414783749,"connected_time":2033000000000,"state":"active","ping":97},{"user_id":628,"name":"Garbo","steam_id":76561198192120869,"connected_time":2894000000000,"state":"active","ping":57},{"user_id":677,"name":"Colossal Falafel","steam_id":76561198108086245,"connected_time":101000000000,"state":"active","ping":45},{"user_id":648,"name":"BARON VON FLUFF AND STUFF","steam_id":76561198036325020,"connected_time":1760000000000,"state":"active","ping":92},{"user_id":649,"name":"V_","steam_id":76561198147577835,"connected_time":1686000000000,"state":"active","ping":84},{"user_id":671,"name":"shreklover69","steam_id":76561198054070811,"connected_time":327000000000,"state":"active","ping":110},{"user_id":661,"name":"Meerkat","steam_id":76561199245435539,"connected_time":1091000000000,"state":"active","ping":90},{"user_id":672,"name":"Strange Festive Femboy","steam_id":76561198050385093,"connected_time":326000000000,"state":"active","ping":72},{"user_id":662,"name":"gerg","steam_id":76561197997127387,"connected_time":1089000000000,"state":"active","ping":101},{"user_id":678,"name":"lytewerk","steam_id":76561198002819791,"connected_time":46000000000,"state":"active","ping":76},{"user_id":674,"name":"MoriMorzilla","steam_id":76561198272609196,"connected_time":288000000000,"state":"active","ping":56},{"user_id":658,"name":"Magma","steam_id":76561198108261173,"connected_time":1237000000000,"state":"active","ping":50},{"user_id":623,"name":"Remixer","steam_id":76561198014220611,"connected_time":3635000000000,"state":"active","ping":82},{"user_id":659,"name":"SoldMyKidneyForCollege","steam_id":76561198096329559,"connected_time":1197000000000,"state":"active","ping":93},{"user_id":665,"name":"gwen","steam_id":76561198046815360,"connected_time":734000000000,"state":"active","ping":90},{"user_id":639,"name":"Under an Unquiet Skull","steam_id":76561198164782653,"connected_time":2373000000000,"state":"active","ping":67},{"user_id":640,"name":"social distance warrior","steam_id":76561198128992994,"connected_time":2369000000000,"state":"active","ping":89},{"user_id":675,"name":"uufyfuu","steam_id":76561198142787212,"connected_time":270000000000,"state":"active","ping":75},{"user_id":676,"name":"GoldtoothFour","steam_id":76561198055529332,"connected_time":245000000000,"state":"active","ping":55}]},{"server_id":403,"name":"Uncletopia | Chicago | 4 | All Maps","name_short":"chi-4","host":"chi-1.us.uncletopia.com","port":27045,"enabled":true,"region":"us-central","cc":"us","latitude":41.881832,"longitude":-87.62318,"reserved":0,"last_update":"0001-01-01T00:00:00Z","name_a2s":"Uncletopia | Chicago | 4 | All Maps","protocol":17,"map":"koth_cascade","folder":"tf","game":"Team Fortress","app_id":440,"player_count":0,"max_players":24,"Bots":0,"server_type":"Dedicated","server_os":"Linux","password":true,"vac":true,"version":"7961495","steam_id":85568392924515193,"keywords":["cp","nocrits","nodmgspread","uncletopia"],"game_id":440,"stv_port":27046,"stv_name":"Uncletopia | Chicago | 4 | All Maps | STV","players":null},{"server_id":36,"name":"Uncletopia | Chicago | 5 | All Maps","name_short":"chi-5","host":"chi-2.us.uncletopia.com","port":27015,"enabled":true,"region":"us-central","cc":"us","latitude":41.881832,"longitude":-87.62318,"reserved":0,"last_update":"0001-01-01T00:00:00Z","name_a2s":"Uncletopia | Chicago | 5 | All Maps","protocol":17,"map":"cp_process_final","folder":"tf","game":"Team Fortress","app_id":440,"player_count":2,"max_players":24,"Bots":0,"server_type":"Dedicated","server_os":"Linux","password":true,"vac":true,"version":"7961495","steam_id":85568392924866362,"keywords":["cp","nocrits","nodmgspread","uncletopia"],"game_id":440,"stv_port":27016,"stv_name":"Uncletopia | Chicago | 5 | All Maps | STV","players":[{"user_id":418,"name":"deljoe13","steam_id":76561198091686996,"connected_time":9923000000000,"state":"active","ping":79},{"user_id":417,"name":"Brawns","steam_id":76561198045190199,"connected_time":9957000000000,"state":"active","ping":75}]},{"server_id":37,"name":"Uncletopia | Chicago | 6 | All Maps","name_short":"chi-6","host":"chi-2.us.uncletopia.com","port":27025,"enabled":true,"region":"us-central","cc":"us","latitude":41.881832,"longitude":-87.62318,"reserved":0,"last_update":"0001-01-01T00:00:00Z","name_a2s":"Uncletopia | Chicago | 6 | All Maps","protocol":17,"map":"pl_pier","folder":"tf","game":"Team Fortress","app_id":440,"player_count":24,"max_players":24,"Bots":0,"server_type":"Dedicated","server_os":"Linux","password":true,"vac":true,"version":"7961495","steam_id":85568392924866363,"keywords":["nocrits","nodmgspread","payload","uncletopia"],"game_id":440,"stv_port":27026,"stv_name":"Uncletopia | Chicago | 6 | All Maps | STV","players":[{"user_id":398,"name":"Toaster","steam_id":76561198290922494,"connected_time":2105000000000,"state":"active","ping":80},{"user_id":382,"name":"Azure","steam_id":76561198260328183,"connected_time":2861000000000,"state":"active","ping":62},{"user_id":429,"name":"Ting","steam_id":76561198111669760,"connected_time":717000000000,"state":"active","ping":60},{"user_id":430,"name":"Weebmcgee","steam_id":76561198081231557,"connected_time":538000000000,"state":"active","ping":61},{"user_id":409,"name":"badboy6996 #TRUMP2024","steam_id":76561197969386201,"connected_time":1721000000000,"state":"active","ping":47},{"user_id":389,"name":"HooHay","steam_id":76561199350870177,"connected_time":2648000000000,"state":"active","ping":59},{"user_id":432,"name":"MR. BEEEEEEEEEEEEEAAAAAAAAAAST","steam_id":76561198205346760,"connected_time":325000000000,"state":"active","ping":44},{"user_id":421,"name":"Nittugai","steam_id":76561198067366462,"connected_time":1247000000000,"state":"active","ping":159},{"user_id":422,"name":"Dalsteeeeen","steam_id":76561198079701053,"connected_time":1197000000000,"state":"active","ping":83},{"user_id":423,"name":"American Dad","steam_id":76561198059711448,"connected_time":1197000000000,"state":"active","ping":73},{"user_id":390,"name":"Cowboyfos","steam_id":76561199055740230,"connected_time":2573000000000,"state":"active","ping":103},{"user_id":424,"name":"Gason Homoa","steam_id":76561199000180522,"connected_time":1172000000000,"state":"active","ping":78},{"user_id":431,"name":"Sailor Galaxy Planet Man","steam_id":76561198039569373,"connected_time":412000000000,"state":"active","ping":57},{"user_id":427,"name":"Rudy","steam_id":76561198013456828,"connected_time":1058000000000,"state":"active","ping":60},{"user_id":416,"name":"IncapableAssasin","steam_id":76561198350964363,"connected_time":1335000000000,"state":"active","ping":78},{"user_id":425,"name":"We3b","steam_id":76561199236562224,"connected_time":1126000000000,"state":"active","ping":53},{"user_id":426,"name":"David Hasseloof","steam_id":76561198070864553,"connected_time":1121000000000,"state":"active","ping":77},{"user_id":433,"name":"Mole","steam_id":76561198069909083,"connected_time":191000000000,"state":"active","ping":87},{"user_id":428,"name":"Lord_Manship","steam_id":76561198045168765,"connected_time":1029000000000,"state":"active","ping":83},{"user_id":434,"name":"stone fox with glocks","steam_id":76561198014326643,"connected_time":171000000000,"state":"active","ping":70},{"user_id":401,"name":"Kragg Main","steam_id":76561198035512373,"connected_time":2044000000000,"state":"active","ping":84},{"user_id":435,"name":"yo-yo_guy","steam_id":76561198041977825,"connected_time":120000000000,"state":"active","ping":94},{"user_id":404,"name":"BeG04TÁæä","steam_id":76561198303969515,"connected_time":1938000000000,"state":"active","ping":58},{"user_id":407,"name":"LVL","steam_id":76561198334403617,"connected_time":1759000000000,"state":"active","ping":59}]},{"server_id":38,"name":"Uncletopia | Chicago | 7 | Stopwatch","name_short":"chi-7","host":"chi-2.us.uncletopia.com","port":27035,"enabled":true,"region":"us-central","cc":"us","latitude":41.881832,"longitude":-87.62318,"reserved":0,"last_update":"0001-01-01T00:00:00Z","name_a2s":"Uncletopia | Chicago | 7 | Stopwatch","protocol":17,"map":"workshop/koth_clearcut_b15.ugc2107050255","folder":"tf","game":"Team Fortress","app_id":440,"player_count":0,"max_players":24,"Bots":0,"server_type":"Dedicated","server_os":"Linux","password":true,"vac":true,"version":"7961495","steam_id":85568392924866364,"keywords":["cp","nocrits","nodmgspread","uncletopia"],"game_id":440,"stv_port":27036,"stv_name":"Uncletopia | Chicago | 7 | Stopwatch | STV","players":null},{"server_id":39,"name":"Uncletopia | Chicago | 8 | Community","name_short":"chi-8","host":"chi-2.us.uncletopia.com","port":27045,"enabled":true,"region":"us-central","cc":"us","latitude":41.881832,"longitude":-87.62318,"reserved":0,"last_update":"0001-01-01T00:00:00Z","name_a2s":"Uncletopia | Chicago | 8 | Community","protocol":17,"map":"workshop/pl_vigil_rc10.ugc1266210012","folder":"tf","game":"Team Fortress","app_id":440,"player_count":0,"max_players":24,"Bots":0,"server_type":"Dedicated","server_os":"Linux","password":true,"vac":true,"version":"7961495","steam_id":85568392924866365,"keywords":["nocrits","nodmgspread","payload","uncletopia"],"game_id":440,"stv_port":27046,"stv_name":"Uncletopia | Chicago | 8 | Community | STV","players":null},{"server_id":8,"name":"Uncletopia | Dallas | 1 | All Maps","name_short":"dal-1","host":"dal-1.us.uncletopia.com","port":27015,"enabled":true,"region":"us-central","cc":"us","latitude":32.779167,"longitude":-96.80889,"reserved":0,"last_update":"0001-01-01T00:00:00Z","name_a2s":"Uncletopia | Dallas | 1 | All Maps","protocol":17,"map":"pl_badwater","folder":"tf","game":"Team Fortress","app_id":440,"player_count":24,"max_players":24,"Bots":0,"server_type":"Dedicated","server_os":"Linux","password":true,"vac":true,"version":"7961495","steam_id":85568392924469986,"keywords":["nocrits","nodmgspread","payload","uncletopia"],"game_id":440,"stv_port":27016,"stv_name":"Uncletopia | Dallas | 1 | All Maps | STV","players":[{"user_id":461,"name":"e doctor","steam_id":76561198081851446,"connected_time":904000000000,"state":"active","ping":74},{"user_id":466,"name":"Timur","steam_id":76561197989552257,"connected_time":523000000000,"state":"active","ping":70},{"user_id":446,"name":"MajorPlatinum","steam_id":76561198204291936,"connected_time":1967000000000,"state":"active","ping":44},{"user_id":449,"name":"meow","steam_id":76561198046948758,"connected_time":1892000000000,"state":"active","ping":64},{"user_id":474,"name":"oinkpig234","steam_id":76561198883733811,"connected_time":353000000000,"state":"active","ping":55},{"user_id":475,"name":"Giorno Giovanna","steam_id":76561198044106874,"connected_time":300000000000,"state":"active","ping":73},{"user_id":469,"name":"GoblinActual","steam_id":76561198330743199,"connected_time":462000000000,"state":"active","ping":104},{"user_id":462,"name":"–ü–≤—Ç –î–∏–Ω–≥–æ","steam_id":76561198119683217,"connected_time":764000000000,"state":"active","ping":99},{"user_id":463,"name":"Elzic Fuil","steam_id":76561198084192198,"connected_time":740000000000,"state":"active","ping":112},{"user_id":402,"name":"Woody","steam_id":76561198020308956,"connected_time":8047000000000,"state":"active","ping":64},{"user_id":440,"name":"[BALLS] r30848","steam_id":76561199123984543,"connected_time":2462000000000,"state":"active","ping":51},{"user_id":413,"name":"CeLeb144","steam_id":76561199089907740,"connected_time":6936000000000,"state":"active","ping":62},{"user_id":470,"name":"KrustiBread","steam_id":76561198143712124,"connected_time":460000000000,"state":"active","ping":77},{"user_id":458,"name":"don't be a hero","steam_id":76561199061380038,"connected_time":1561000000000,"state":"active","ping":63},{"user_id":459,"name":"Father","steam_id":76561198055542054,"connected_time":944000000000,"state":"active","ping":104},{"user_id":444,"name":"[BALLS] Izzy","steam_id":76561199042250833,"connected_time":2082000000000,"state":"active","ping":45},{"user_id":471,"name":"sloppenheimer","steam_id":76561198074678273,"connected_time":455000000000,"state":"active","ping":75},{"user_id":465,"name":"james_bondage","steam_id":76561199476062624,"connected_time":664000000000,"state":"active","ping":116},{"user_id":436,"name":"rexelfhcir","steam_id":76561199018207049,"connected_time":2631000000000,"state":"active","ping":72},{"user_id":457,"name":"GangstaPuddin","steam_id":76561198045414782,"connected_time":1693000000000,"state":"active","ping":82},{"user_id":460,"name":"Tommy Provolone","steam_id":76561198170062377,"connected_time":941000000000,"state":"active","ping":70},{"user_id":472,"name":"below average pistol engi","steam_id":76561199144126219,"connected_time":441000000000,"state":"active","ping":61},{"user_id":473,"name":"Aglovail","steam_id":76561198276988844,"connected_time":432000000000,"state":"active","ping":87},{"user_id":433,"name":"moe","steam_id":76561198929586245,"connected_time":3950000000000,"state":"active","ping":73}]},{"server_id":108,"name":"Uncletopia | Dallas | 2 | All Maps","name_short":"dal-2","host":"dal-1.us.uncletopia.com","port":27025,"enabled":true,"region":"us-central","cc":"us","latitude":32.779167,"longitude":-96.80889,"reserved":0,"last_update":"0001-01-01T00:00:00Z","name_a2s":"Uncletopia | Dallas | 2 | All Maps","protocol":17,"map":"cp_sunshine","folder":"tf","game":"Team Fortress","app_id":440,"player_count":24,"max_players":24,"Bots":0,"server_type":"Dedicated","server_os":"Linux","password":true,"vac":true,"version":"7961495","steam_id":85568392924469988,"keywords":["cp","nocrits","nodmgspread","uncletopia"],"game_id":440,"stv_port":27026,"stv_name":"Uncletopia | Dallas | 2 | All Maps | STV","players":[{"user_id":418,"name":"Mithrildo","steam_id":76561198000564263,"connected_time":2065000000000,"state":"active","ping":65},{"user_id":395,"name":"TrashPanda (she/her)","steam_id":76561198447864095,"connected_time":3670000000000,"state":"active","ping":64},{"user_id":385,"name":"munching charcoal","steam_id":76561198150803812,"connected_time":4446000000000,"state":"active","ping":86},{"user_id":426,"name":"basil","steam_id":76561198075758026,"connected_time":1281000000000,"state":"active","ping":87},{"user_id":365,"name":"Transgender Guy Fieri","steam_id":76561198801467075,"connected_time":6637000000000,"state":"active","ping":58},{"user_id":424,"name":"krebex","steam_id":76561198004660630,"connected_time":1550000000000,"state":"active","ping":54},{"user_id":428,"name":"silvr :3","steam_id":76561198069368377,"connected_time":495000000000,"state":"active","ping":91},{"user_id":432,"name":"caca sniffer","steam_id":76561199099914725,"connected_time":73000000000,"state":"active","ping":103},{"user_id":429,"name":"0_0","steam_id":76561198091875604,"connected_time":479000000000,"state":"active","ping":80},{"user_id":427,"name":"don","steam_id":76561198204410892,"connected_time":1200000000000,"state":"active","ping":69},{"user_id":420,"name":"lanoc","steam_id":76561198055415367,"connected_time":2058000000000,"state":"active","ping":60},{"user_id":421,"name":"java","steam_id":76561198030276792,"connected_time":2056000000000,"state":"active","ping":75},{"user_id":402,"name":"Squiliam","steam_id":76561198025278006,"connected_time":3224000000000,"state":"active","ping":52},{"user_id":367,"name":"Tang","steam_id":76561198121340574,"connected_time":6618000000000,"state":"active","ping":81},{"user_id":403,"name":"potato pat üü†„ÉÑ","steam_id":76561198025489194,"connected_time":3194000000000,"state":"active","ping":59},{"user_id":341,"name":"stuffedidiot","steam_id":76561199181513019,"connected_time":10287000000000,"state":"active","ping":118},{"user_id":342,"name":"Rat Smacker","steam_id":76561198043629646,"connected_time":10283000000000,"state":"active","ping":54},{"user_id":354,"name":"anonEDM","steam_id":76561197976560316,"connected_time":8283000000000,"state":"active","ping":93},{"user_id":430,"name":"Female Gamer","steam_id":76561199366482682,"connected_time":434000000000,"state":"active","ping":114},{"user_id":407,"name":"poggerchamp","steam_id":76561199145124973,"connected_time":3017000000000,"state":"active","ping":50},{"user_id":431,"name":"unfortunatexd","steam_id":76561199500710251,"connected_time":419000000000,"state":"active","ping":93},{"user_id":416,"name":"frank","steam_id":76561198137777483,"connected_time":2297000000000,"state":"active","ping":87},{"user_id":411,"name":"hi","steam_id":76561198809577048,"connected_time":2974000000000,"state":"active","ping":98},{"user_id":348,"name":"Gelisor","steam_id":76561198001581101,"connected_time":10168000000000,"state":"active","ping":114}]},{"server_id":404,"name":"Uncletopia | Dallas | 3 | All Maps","name_short":"dal-3","host":"dal-1.us.uncletopia.com","port":27035,"enabled":true,"region":"us-central","cc":"us","latitude":32.779167,"longitude":-96.80889,"reserved":0,"last_update":"0001-01-01T00:00:00Z","name_a2s":"Uncletopia | Dallas | 3 | All Maps","protocol":17,"map":"cp_mercenarypark","folder":"tf","game":"Team Fortress","app_id":440,"player_count":24,"max_players":24,"Bots":0,"server_type":"Dedicated","server_os":"Linux","password":true,"vac":true,"version":"7961495","steam_id":85568392924515219,"keywords":["cp","nocrits","nodmgspread","uncletopia"],"game_id":440,"stv_port":27036,"stv_name":"Uncletopia | Dallas | 3 | All Maps | STV","players":[{"user_id":339,"name":"Kenny Gaming","steam_id":76561199382783363,"connected_time":92000000000,"state":"active","ping":135},{"user_id":334,"name":"Yeti","steam_id":76561199226373771,"connected_time":278000000000,"state":"active","ping":45},{"user_id":332,"name":"fathead","steam_id":76561198150155615,"connected_time":883000000000,"state":"active","ping":99},{"user_id":333,"name":"Erodplayer","steam_id":76561198183840185,"connected_time":558000000000,"state":"active","ping":53},{"user_id":323,"name":"Bimbes McFly","steam_id":76561197993331182,"connected_time":1547000000000,"state":"active","ping":51},{"user_id":335,"name":"Lois I'm hardstuck iron","steam_id":76561198113364714,"connected_time":222000000000,"state":"active","ping":74},{"user_id":308,"name":"THE man is EPIC","steam_id":76561198085410777,"connected_time":2445000000000,"state":"active","ping":102},{"user_id":309,"name":"LJRicochet","steam_id":76561198109125997,"connected_time":2430000000000,"state":"active","ping":121},{"user_id":310,"name":"Fireheart888","steam_id":76561198044555953,"connected_time":2414000000000,"state":"active","ping":95},{"user_id":324,"name":"Karen Araragi","steam_id":76561198001369054,"connected_time":1542000000000,"state":"active","ping":51},{"user_id":336,"name":"76561198213435803","steam_id":76561198213435803,"connected_time":215000000000,"state":"active","ping":80},{"user_id":292,"name":"zpalmtree","steam_id":76561198134307620,"connected_time":3493000000000,"state":"active","ping":77},{"user_id":326,"name":"Satori Komeiji","steam_id":76561198158211423,"connected_time":1489000000000,"state":"active","ping":81},{"user_id":317,"name":"killstreak451","steam_id":76561198189671403,"connected_time":2233000000000,"state":"active","ping":69},{"user_id":313,"name":"big fish","steam_id":76561198186479818,"connected_time":2334000000000,"state":"active","ping":93},{"user_id":293,"name":"Lane","steam_id":76561197965828506,"connected_time":3458000000000,"state":"active","ping":57},{"user_id":329,"name":"Scorp Saltman","steam_id":76561198011052028,"connected_time":1105000000000,"state":"active","ping":77},{"user_id":283,"name":"bashdzy","steam_id":76561199006087600,"connected_time":4344000000000,"state":"active","ping":66},{"user_id":327,"name":"An Alternate","steam_id":76561198041773387,"connected_time":1462000000000,"state":"active","ping":65},{"user_id":315,"name":"Meathouse","steam_id":76561198169966346,"connected_time":2284000000000,"state":"active","ping":109},{"user_id":337,"name":"Hey Lois I'm Malding","steam_id":76561198043256782,"connected_time":199000000000,"state":"active","ping":85},{"user_id":295,"name":"Mufalito","steam_id":76561198951889482,"connected_time":2863000000000,"state":"active","ping":136},{"user_id":338,"name":"Orange Mann Bad","steam_id":76561198021126964,"connected_time":191000000000,"state":"active","ping":91},{"user_id":340,"name":"Snoopist","steam_id":76561198144023761,"connected_time":84000000000,"state":"active","ping":59}]},{"server_id":405,"name":"Uncletopia | Dallas | 4 | Community","name_short":"dal-4","host":"dal-1.us.uncletopia.com","port":27045,"enabled":true,"region":"us-central","cc":"us","latitude":32.779167,"longitude":-96.80889,"reserved":0,"last_update":"0001-01-01T00:00:00Z","name_a2s":"Uncletopia | Dallas | 4 | Community","protocol":17,"map":"workshop/pl_highwood_b13.ugc1769496557","folder":"tf","game":"Team Fortress","app_id":440,"player_count":0,"max_players":24,"Bots":0,"server_type":"Dedicated","server_os":"Linux","password":true,"vac":true,"version":"7961495","steam_id":85568392924515220,"keywords":["nocrits","nodmgspread","payload","uncletopia"],"game_id":440,"stv_port":27046,"stv_name":"Uncletopia | Dallas | 4 | Community | STV","players":null},{"server_id":5,"name":"Uncletopia | Frankfurt | 1 | All Maps","name_short":"frk-1","host":"frk-1.de.uncletopia.com","port":27015,"enabled":true,"region":"eu","cc":"de","latitude":50.110924,"longitude":8.682127,"reserved":0,"last_update":"0001-01-01T00:00:00Z","name_a2s":"Uncletopia | Frankfurt | 1 | All Maps","protocol":17,"map":"koth_highpass","folder":"tf","game":"Team Fortress","app_id":440,"player_count":0,"max_players":24,"Bots":0,"server_type":"Dedicated","server_os":"Linux","password":true,"vac":true,"version":"7961495","steam_id":85568392924469989,"keywords":["cp","nocrits","nodmgspread","uncletopia"],"game_id":440,"stv_port":27016,"stv_name":"Uncletopia | Frankfurt | 1 | All Maps | STV","players":null},{"server_id":110,"name":"Uncletopia | Frankfurt | 2 | All Maps","name_short":"frk-2","host":"frk-1.de.uncletopia.com","port":27025,"enabled":true,"region":"eu","cc":"de","latitude":50.110924,"longitude":8.682127,"reserved":0,"last_update":"0001-01-01T00:00:00Z","name_a2s":"Uncletopia | Frankfurt | 2 | All Maps","protocol":17,"map":"cp_dustbowl","folder":"tf","game":"Team Fortress","app_id":440,"player_count":0,"max_players":24,"Bots":0,"server_type":"Dedicated","server_os":"Linux","password":true,"vac":true,"version":"7961495","steam_id":85568392924469990,"keywords":["cp","nocrits","nodmgspread","uncletopia"],"game_id":440,"stv_port":27026,"stv_name":"Uncletopia | Frankfurt | 2 | All Maps | STV","players":null},{"server_id":308,"name":"Uncletopia | Frankfurt | 3 | All Maps","name_short":"frk-3","host":"frk-1.de.uncletopia.com","port":27035,"enabled":true,"region":"eu","cc":"de","latitude":50.110924,"longitude":8.682127,"reserved":0,"last_update":"0001-01-01T00:00:00Z","name_a2s":"Uncletopia | Frankfurt | 3 | All Maps","protocol":17,"map":"pl_borneo","folder":"tf","game":"Team Fortress","app_id":440,"player_count":0,"max_players":24,"Bots":0,"server_type":"Dedicated","server_os":"Linux","password":true,"vac":true,"version":"7961495","steam_id":85568392924504274,"keywords":["nocrits","nodmgspread","payload","uncletopia"],"game_id":440,"stv_port":27036,"stv_name":"Uncletopia | Frankfurt | 3 | All Maps | STV","players":null},{"server_id":309,"name":"Uncletopia | Frankfurt | 4 | All Maps","name_short":"frk-4","host":"frk-1.de.uncletopia.com","port":27045,"enabled":true,"region":"eu","cc":"de","latitude":50.110924,"longitude":8.682127,"reserved":0,"last_update":"0001-01-01T00:00:00Z","name_a2s":"Uncletopia | Frankfurt | 4 | All Maps","protocol":17,"map":"koth_highpass","folder":"tf","game":"Team Fortress","app_id":440,"player_count":0,"max_players":24,"Bots":0,"server_type":"Dedicated","server_os":"Linux","password":true,"vac":true,"version":"7961495","steam_id":85568392924504275,"keywords":["cp","nocrits","nodmgspread","uncletopia"],"game_id":440,"stv_port":27046,"stv_name":"Uncletopia | Frankfurt | 4 | All Maps | STV","players":null},{"server_id":310,"name":"Uncletopia | Frankfurt | 5 | All Maps","name_short":"frk-5","host":"frk-1.de.uncletopia.com","port":27055,"enabled":true,"region":"eu","cc":"de","latitude":50.110924,"longitude":8.682127,"reserved":0,"last_update":"0001-01-01T00:00:00Z","name_a2s":"Uncletopia | Frankfurt | 5 | All Maps","protocol":17,"map":"pl_badwater","folder":"tf","game":"Team Fortress","app_id":440,"player_count":0,"max_players":24,"Bots":0,"server_type":"Dedicated","server_os":"Linux","password":true,"vac":true,"version":"7961495","steam_id":85568392924504277,"keywords":["nocrits","nodmgspread","payload","uncletopia"],"game_id":440,"stv_port":27056,"stv_name":"Uncletopia | Frankfurt | 5 | All Maps | STV","players":null},{"server_id":311,"name":"Uncletopia | Frankfurt | 6 | All Maps","name_short":"frk-6","host":"frk-1.de.uncletopia.com","port":27065,"enabled":true,"region":"eu","cc":"de","latitude":50.110924,"longitude":8.682127,"reserved":0,"last_update":"0001-01-01T00:00:00Z","name_a2s":"Uncletopia | Frankfurt | 6 | All Maps","protocol":17,"map":"cp_altitude","folder":"tf","game":"Team Fortress","app_id":440,"player_count":0,"max_players":24,"Bots":0,"server_type":"Dedicated","server_os":"Linux","password":true,"vac":true,"version":"7961495","steam_id":85568392924504278,"keywords":["cp","nocrits","nodmgspread","uncletopia"],"game_id":440,"stv_port":27066,"stv_name":"Uncletopia | Frankfurt | 6 | All Maps | STV","players":null},{"server_id":23,"name":"Uncletopia | Frankfurt | 7 | Stopwatch","name_short":"frk-7","host":"frk-1.de.uncletopia.com","port":27075,"enabled":true,"region":"eu","cc":"de","latitude":50.110924,"longitude":8.682127,"reserved":0,"last_update":"0001-01-01T00:00:00Z","name_a2s":"Uncletopia | Frankfurt | 7 | Stopwatch","protocol":17,"map":"pl_frontier_final","folder":"tf","game":"Team Fortress","app_id":440,"player_count":0,"max_players":24,"Bots":0,"server_type":"Dedicated","server_os":"Linux","password":true,"vac":true,"version":"7961495","steam_id":85568392924742827,"keywords":["nocrits","nodmgspread","payload","uncletopia"],"game_id":440,"stv_port":27076,"stv_name":"Uncletopia | Frankfurt | 7 | Stopwatch | STV","players":null},{"server_id":24,"name":"Uncletopia | Frankfurt | 8 | Community","name_short":"frk-8","host":"frk-1.de.uncletopia.com","port":27085,"enabled":true,"region":"eu","cc":"de","latitude":50.110924,"longitude":8.682127,"reserved":0,"last_update":"0001-01-01T00:00:00Z","name_a2s":"Uncletopia | Frankfurt | 8 | Community","protocol":17,"map":"cp_mountainlab","folder":"tf","game":"Team Fortress","app_id":440,"player_count":0,"max_players":24,"Bots":0,"server_type":"Dedicated","server_os":"Linux","password":true,"vac":true,"version":"7961495","steam_id":85568392924742828,"keywords":["cp","nocrits","nodmgspread","uncletopia"],"game_id":440,"stv_port":27086,"stv_name":"Uncletopia | Frankfurt | 8 | Community | STV","players":null},{"server_id":202,"name":"Uncletopia | Hong Kong | 1 | All Maps","name_short":"hgk-1","host":"hgk-1.hk.uncletopia.com","port":27015,"enabled":true,"region":"asia","cc":"hk","latitude":22.302711,"longitude":114.177216,"reserved":0,"last_update":"0001-01-01T00:00:00Z","name_a2s":"Uncletopia | Hong Kong | 1 | All Maps","protocol":17,"map":"pl_swiftwater_final1","folder":"tf","game":"Team Fortress","app_id":440,"player_count":24,"max_players":24,"Bots":0,"server_type":"Dedicated","server_os":"Linux","password":true,"vac":true,"version":"7961495","steam_id":85568392924494504,"keywords":["nocrits","nodmgspread","payload","uncletopia"],"game_id":440,"stv_port":27016,"stv_name":"Uncletopia | Hong Kong | 1 | All Maps | STV","players":[{"user_id":23,"name":"MS PowerPoint","steam_id":76561198369523192,"connected_time":8869000000000,"state":"active","ping":66},{"user_id":116,"name":"2746","steam_id":76561199390507975,"connected_time":523000000000,"state":"active","ping":53},{"user_id":98,"name":"JDSFE","steam_id":76561198975490851,"connected_time":2918000000000,"state":"active","ping":147},{"user_id":80,"name":"BAzooKA","steam_id":76561198061628689,"connected_time":5011000000000,"state":"active","ping":54},{"user_id":119,"name":"Milk‚ù§","steam_id":76561198163911560,"connected_time":489000000000,"state":"active","ping":124},{"user_id":47,"name":"ihavenomouthandimustscream","steam_id":76561198172874097,"connected_time":7378000000000,"state":"active","ping":75},{"user_id":117,"name":"Vesha","steam_id":76561199208233146,"connected_time":516000000000,"state":"active","ping":77},{"user_id":96,"name":"Alice (artificial)","steam_id":76561198052410860,"connected_time":3859000000000,"state":"active","ping":114},{"user_id":122,"name":"Life Insurance","steam_id":76561198196435029,"connected_time":45000000000,"state":"active","ping":83},{"user_id":109,"name":"killman47","steam_id":76561198348487408,"connected_time":1167000000000,"state":"active","ping":37},{"user_id":42,"name":"Hay","steam_id":76561199438952901,"connected_time":7800000000000,"state":"active","ping":52},{"user_id":67,"name":"Lu","steam_id":76561198320532821,"connected_time":5821000000000,"state":"active","ping":69},{"user_id":104,"name":"Jun-char","steam_id":76561198126774704,"connected_time":2010000000000,"state":"active","ping":85},{"user_id":73,"name":"Saffron","steam_id":76561199025320247,"connected_time":5446000000000,"state":"active","ping":76},{"user_id":115,"name":"Telekhine","steam_id":76561198387120618,"connected_time":540000000000,"state":"active","ping":59},{"user_id":121,"name":"14","steam_id":76561198113401862,"connected_time":210000000000,"state":"active","ping":88},{"user_id":111,"name":"marisaloses","steam_id":76561199033032870,"connected_time":1145000000000,"state":"active","ping":120},{"user_id":65,"name":"the NYN mass producer","steam_id":76561198214192048,"connected_time":6213000000000,"state":"active","ping":91},{"user_id":81,"name":"sugma","steam_id":76561199009556495,"connected_time":4856000000000,"state":"active","ping":105},{"user_id":108,"name":"heliX","steam_id":76561198828478057,"connected_time":1381000000000,"state":"active","ping":82},{"user_id":77,"name":"vintage","steam_id":76561198230213828,"connected_time":5069000000000,"state":"active","ping":61},{"user_id":59,"name":"rotundotund","steam_id":76561198057691986,"connected_time":6786000000000,"state":"active","ping":76},{"user_id":90,"name":"spinach (old mouse)","steam_id":76561198042539541,"connected_time":4417000000000,"state":"active","ping":83},{"user_id":101,"name":"[Sicky] I twin-charged your kid","steam_id":76561198228084940,"connected_time":2497000000000,"state":"active","ping":35}]},{"server_id":1,"name":"Uncletopia | Los Angeles | 1 | All Maps","name_short":"lax-1","host":"lax-1.us.uncletopia.com","port":27015,"enabled":true,"region":"us-west","cc":"us","latitude":33.94279,"longitude":-118.41004,"reserved":0,"last_update":"0001-01-01T00:00:00Z","name_a2s":"Uncletopia | Los Angeles | 1 | All Maps","protocol":17,"map":"pl_barnblitz","folder":"tf","game":"Team Fortress","app_id":440,"player_count":24,"max_players":24,"Bots":0,"server_type":"Dedicated","server_os":"Linux","password":true,"vac":true,"version":"7961495","steam_id":85568392924469991,"keywords":["nocrits","nodmgspread","payload","uncletopia"],"game_id":440,"stv_port":27016,"stv_name":"Uncletopia | Los Angeles | 1 | All Maps | STV","players":[{"user_id":505,"name":"-The_Under_Miner-","steam_id":76561199195735972,"connected_time":1549000000000,"state":"active","ping":53},{"user_id":508,"name":"PREMIUM BART","steam_id":76561198173255559,"connected_time":1335000000000,"state":"active","ping":54},{"user_id":492,"name":"lol","steam_id":76561198026491738,"connected_time":3680000000000,"state":"active","ping":65},{"user_id":500,"name":"beezer","steam_id":76561199049160726,"connected_time":2403000000000,"state":"active","ping":56},{"user_id":497,"name":"A class hero","steam_id":76561198066091050,"connected_time":3308000000000,"state":"active","ping":75},{"user_id":493,"name":"T√ºCold","steam_id":76561198111278197,"connected_time":3671000000000,"state":"active","ping":63},{"user_id":515,"name":"An00bis","steam_id":76561198044084508,"connected_time":621000000000,"state":"active","ping":58},{"user_id":446,"name":"filtered by cp_steel","steam_id":76561198031409921,"connected_time":8022000000000,"state":"active","ping":53},{"user_id":503,"name":"Syrup","steam_id":76561198055850531,"connected_time":1863000000000,"state":"active","ping":51},{"user_id":494,"name":"meph","steam_id":76561198149683030,"connected_time":3648000000000,"state":"active","ping":75},{"user_id":514,"name":"Frank Ugly","steam_id":76561198247002810,"connected_time":828000000000,"state":"active","ping":65},{"user_id":516,"name":"LordDinkus","steam_id":76561199229746441,"connected_time":610000000000,"state":"active","ping":59},{"user_id":485,"name":"Bodhisattva","steam_id":76561198085228896,"connected_time":4164000000000,"state":"active","ping":50},{"user_id":520,"name":"The Geezer Bandit","steam_id":76561199059733640,"connected_time":166000000000,"state":"active","ping":51},{"user_id":517,"name":"Zenire","steam_id":76561199087298510,"connected_time":604000000000,"state":"active","ping":82},{"user_id":427,"name":"Keth","steam_id":76561198155903648,"connected_time":9557000000000,"state":"active","ping":79},{"user_id":478,"name":"duncaidan","steam_id":76561199013510313,"connected_time":5166000000000,"state":"active","ping":51},{"user_id":496,"name":"gagobears","steam_id":76561198086008437,"connected_time":3498000000000,"state":"active","ping":78},{"user_id":519,"name":"Funky Kong Jr.","steam_id":76561199351137762,"connected_time":546000000000,"state":"active","ping":75},{"user_id":426,"name":"Robotguy9","steam_id":76561198147429617,"connected_time":9611000000000,"state":"active","ping":102},{"user_id":521,"name":"reem","steam_id":76561198050767193,"connected_time":47000000000,"state":"active","ping":46},{"user_id":507,"name":"Ocean","steam_id":76561198860325411,"connected_time":1375000000000,"state":"active","ping":98},{"user_id":513,"name":"Maid 'n' China","steam_id":76561198423392976,"connected_time":1071000000000,"state":"active","ping":57},{"user_id":473,"name":"Mr. Noodle","steam_id":76561198025280658,"connected_time":5376000000000,"state":"active","ping":53}]},{"server_id":112,"name":"Uncletopia | Los Angeles | 2 | All Maps","name_short":"lax-2","host":"lax-1.us.uncletopia.com","port":27025,"enabled":true,"region":"us-west","cc":"us","latitude":33.94279,"longitude":-118.41004,"reserved":0,"last_update":"0001-01-01T00:00:00Z","name_a2s":"Uncletopia | Los Angeles | 2 | All Maps","protocol":17,"map":"pl_frontier_final","folder":"tf","game":"Team Fortress","app_id":440,"player_count":24,"max_players":24,"Bots":0,"server_type":"Dedicated","server_os":"Linux","password":true,"vac":true,"version":"7961495","steam_id":85568392924469992,"keywords":["nocrits","nodmgspread","payload","uncletopia"],"game_id":440,"stv_port":27026,"stv_name":"Uncletopia | Los Angeles | 2 | All Maps | STV","players":[{"user_id":231,"name":"LARRY SICK","steam_id":76561198049783083,"connected_time":1240000000000,"state":"active","ping":69},{"user_id":174,"name":"Alejandro","steam_id":76561197970051493,"connected_time":5545000000000,"state":"active","ping":155},{"user_id":241,"name":"yeetloaf","steam_id":76561197963197113,"connected_time":257000000000,"state":"active","ping":58},{"user_id":244,"name":"Stealthguy724","steam_id":76561198195961430,"connected_time":183000000000,"state":"active","ping":120},{"user_id":242,"name":"DOPEam1ne","steam_id":76561198112204774,"connected_time":251000000000,"state":"active","ping":57},{"user_id":160,"name":"Talented","steam_id":76561198800259660,"connected_time":9001000000000,"state":"active","ping":100},{"user_id":245,"name":"ninety9dragonfly","steam_id":76561198363406983,"connected_time":176000000000,"state":"active","ping":81},{"user_id":256,"name":"SearingGustav #tG","steam_id":76561198040560786,"connected_time":40000000000,"state":"active","ping":90},{"user_id":247,"name":"Alyso","steam_id":76561198151598894,"connected_time":131000000000,"state":"active","ping":54},{"user_id":248,"name":"Amazing476","steam_id":76561198103937489,"connected_time":127000000000,"state":"active","ping":98},{"user_id":249,"name":"fluttersly","steam_id":76561198043924691,"connected_time":118000000000,"state":"active","ping":87},{"user_id":240,"name":"HOG RIDER","steam_id":76561198298589502,"connected_time":279000000000,"state":"active","ping":46},{"user_id":250,"name":"Charles","steam_id":76561198155322277,"connected_time":102000000000,"state":"active","ping":80},{"user_id":216,"name":"waggyaggy","steam_id":76561197998241407,"connected_time":2041000000000,"state":"active","ping":47},{"user_id":221,"name":"es","steam_id":76561198006892337,"connected_time":1938000000000,"state":"active","ping":108},{"user_id":251,"name":"goopgrabber","steam_id":76561199029951083,"connected_time":85000000000,"state":"active","ping":48},{"user_id":252,"name":"BitPieStudios","steam_id":76561198059216393,"connected_time":80000000000,"state":"active","ping":50},{"user_id":236,"name":"Pels","steam_id":76561198039580161,"connected_time":1036000000000,"state":"active","ping":90},{"user_id":234,"name":"0","steam_id":76561199213011924,"connected_time":1180000000000,"state":"active","ping":72},{"user_id":253,"name":"Spy has a gun","steam_id":76561198061610985,"connected_time":72000000000,"state":"active","ping":134},{"user_id":254,"name":"epic","steam_id":76561198097321881,"connected_time":61000000000,"state":"active","ping":188},{"user_id":255,"name":"Throws Before BrosÛ†Ä°","steam_id":76561197992905530,"connected_time":53000000000,"state":"active","ping":60},{"user_id":257,"name":"Ethanol Buttchugger","steam_id":76561199127590316,"connected_time":28000000000,"state":"active","ping":60},{"user_id":226,"name":"endwalker simp","steam_id":76561198066177299,"connected_time":1712000000000,"state":"active","ping":114}]},{"server_id":324,"name":"Uncletopia | Los Angeles | 3 | All Maps","name_short":"lax-3","host":"lax-1.us.uncletopia.com","port":27035,"enabled":true,"region":"us-west","cc":"us","latitude":33.94279,"longitude":-118.41004,"reserved":0,"last_update":"0001-01-01T00:00:00Z","name_a2s":"Uncletopia | Los Angeles | 3 | All Maps","protocol":17,"map":"pl_badwater","folder":"tf","game":"Team Fortress","app_id":440,"player_count":24,"max_players":24,"Bots":0,"server_type":"Dedicated","server_os":"Linux","password":true,"vac":true,"version":"7961495","steam_id":85568392924510198,"keywords":["nocrits","nodmgspread","payload","uncletopia"],"game_id":440,"stv_port":27036,"stv_name":"Uncletopia | Los Angeles | 3 | All Maps | STV","players":[{"user_id":138,"name":"Naughty Nurses 2","steam_id":76561198083032219,"connected_time":566000000000,"state":"active","ping":69},{"user_id":129,"name":"bcizzo","steam_id":76561197994399953,"connected_time":1111000000000,"state":"active","ping":64},{"user_id":110,"name":"Smoothpolishness","steam_id":76561198029084002,"connected_time":2899000000000,"state":"active","ping":67},{"user_id":130,"name":"Mr.Pecklectric","steam_id":76561198115931854,"connected_time":1110000000000,"state":"active","ping":69},{"user_id":120,"name":"Sgt. Eclair","steam_id":76561198156384194,"connected_time":2273000000000,"state":"active","ping":49},{"user_id":105,"name":"Mocha Josie","steam_id":76561198066452726,"connected_time":3421000000000,"state":"active","ping":86},{"user_id":131,"name":"Gut125","steam_id":76561198101787225,"connected_time":1084000000000,"state":"active","ping":45},{"user_id":33,"name":"tomandjerry085","steam_id":76561198800789071,"connected_time":7990000000000,"state":"active","ping":57},{"user_id":73,"name":"Oops","steam_id":76561198015032646,"connected_time":5632000000000,"state":"active","ping":57},{"user_id":34,"name":"Harry Rage!!","steam_id":76561198873895549,"connected_time":7984000000000,"state":"active","ping":80},{"user_id":132,"name":"Nato #ClashGG","steam_id":76561198161062837,"connected_time":1027000000000,"state":"active","ping":50},{"user_id":113,"name":"Hunter","steam_id":76561198041932384,"connected_time":2803000000000,"state":"active","ping":68},{"user_id":121,"name":"00","steam_id":76561198041700636,"connected_time":1987000000000,"state":"active","ping":53},{"user_id":133,"name":"A UsedNom","steam_id":76561198402832756,"connected_time":988000000000,"state":"active","ping":48},{"user_id":102,"name":"üëäCrockettMannüëä","steam_id":76561198286581911,"connected_time":3720000000000,"state":"active","ping":85},{"user_id":124,"name":"cjetson","steam_id":76561198074482272,"connected_time":1554000000000,"state":"active","ping":68},{"user_id":134,"name":"Cam","steam_id":76561198285054047,"connected_time":955000000000,"state":"active","ping":76},{"user_id":136,"name":"experiment 149","steam_id":76561198189540306,"connected_time":924000000000,"state":"active","ping":94},{"user_id":119,"name":"(‡∏á'ÃÄ-'ÃÅ)‡∏á","steam_id":76561198191536489,"connected_time":2652000000000,"state":"active","ping":64},{"user_id":77,"name":"Eden","steam_id":76561198081284664,"connected_time":5485000000000,"state":"active","ping":57},{"user_id":139,"name":"The Horny","steam_id":76561198863639459,"connected_time":420000000000,"state":"active","ping":127},{"user_id":137,"name":"Freyja","steam_id":76561198207412177,"connected_time":922000000000,"state":"active","ping":83},{"user_id":64,"name":"Incredible Donk","steam_id":76561198427360423,"connected_time":6308000000000,"state":"active","ping":83},{"user_id":81,"name":"MistaRattle","steam_id":76561199144406643,"connected_time":5291000000000,"state":"active","ping":69}]},{"server_id":25,"name":"Uncletopia | Los Angeles | 4 | Stopwatch","name_short":"lax-4","host":"lax-1.us.uncletopia.com","port":27045,"enabled":true,"region":"us-west","cc":"us","latitude":33.94279,"longitude":-118.41004,"reserved":0,"last_update":"0001-01-01T00:00:00Z","name_a2s":"Uncletopia | Los Angeles | 4 | Stopwatch","protocol":17,"map":"workshop/cp_process_f12.ugc2302948105","folder":"tf","game":"Team Fortress","app_id":440,"player_count":0,"max_players":24,"Bots":0,"server_type":"Dedicated","server_os":"Linux","password":true,"vac":true,"version":"7961495","steam_id":85568392924510199,"keywords":["cp","nocrits","nodmgspread","uncletopia"],"game_id":440,"stv_port":27046,"stv_name":"Uncletopia | Los Angeles | 4 | Stopwatch | STV","players":null},{"server_id":11,"name":"Uncletopia | London | 1 | All Maps","name_short":"lon-1","host":"lon-1.uk.uncletopia.com","port":27015,"enabled":true,"region":"eu","cc":"gb","latitude":51.509865,"longitude":-0.118092,"reserved":0,"last_update":"0001-01-01T00:00:00Z","name_a2s":"Uncletopia | London | 1 | All Maps","protocol":17,"map":"koth_harvest_final","folder":"tf","game":"Team Fortress","app_id":440,"player_count":0,"max_players":24,"Bots":0,"server_type":"Dedicated","server_os":"Linux","password":true,"vac":true,"version":"7961495","steam_id":85568392924367362,"keywords":["cp","nocrits","nodmgspread","uncletopia"],"game_id":440,"stv_port":27016,"stv_name":"Uncletopia | London | 1 | All Maps | STV","players":null},{"server_id":114,"name":"Uncletopia | London | 2 | All Maps","name_short":"lon-2","host":"lon-1.uk.uncletopia.com","port":27025,"enabled":true,"region":"eu","cc":"gb","latitude":51.509865,"longitude":-0.118092,"reserved":0,"last_update":"0001-01-01T00:00:00Z","name_a2s":"Uncletopia | London | 2 | All Maps","protocol":17,"map":"koth_lakeside_final","folder":"tf","game":"Team Fortress","app_id":440,"player_count":0,"max_players":24,"Bots":0,"server_type":"Dedicated","server_os":"Linux","password":true,"vac":true,"version":"7961495","steam_id":85568392924470941,"keywords":["cp","nocrits","nodmgspread","uncletopia"],"game_id":440,"stv_port":27026,"stv_name":"Uncletopia | London | 2 | All Maps | STV","players":null},{"server_id":320,"name":"Uncletopia | London | 3 | All Maps","name_short":"lon-3","host":"lon-1.uk.uncletopia.com","port":27035,"enabled":true,"region":"eu","cc":"gb","latitude":51.509865,"longitude":-0.118092,"reserved":0,"last_update":"0001-01-01T00:00:00Z","name_a2s":"Uncletopia | London | 3 | All Maps","protocol":17,"map":"cp_process_final","folder":"tf","game":"Team Fortress","app_id":440,"player_count":0,"max_players":24,"Bots":0,"server_type":"Dedicated","server_os":"Linux","password":true,"vac":true,"version":"7961495","steam_id":85568392924510192,"keywords":["cp","nocrits","nodmgspread","uncletopia"],"game_id":440,"stv_port":27036,"stv_name":"Uncletopia | London | 3 | All Maps | STV","players":null},{"server_id":321,"name":"Uncletopia | London | 4 | All Maps","name_short":"lon-4","host":"lon-1.uk.uncletopia.com","port":27045,"enabled":true,"region":"eu","cc":"gb","latitude":51.509865,"longitude":-0.118092,"reserved":0,"last_update":"0001-01-01T00:00:00Z","name_a2s":"Uncletopia | London | 4 | All Maps","protocol":17,"map":"koth_cascade","folder":"tf","game":"Team Fortress","app_id":440,"player_count":0,"max_players":24,"Bots":0,"server_type":"Dedicated","server_os":"Linux","password":true,"vac":true,"version":"7961495","steam_id":85568392924510193,"keywords":["cp","nocrits","nodmgspread","uncletopia"],"game_id":440,"stv_port":27046,"stv_name":"Uncletopia | London | 4 | All Maps | STV","players":null},{"server_id":21,"name":"Uncletopia | London | 5 | All Maps","name_short":"lon-5","host":"lon-1.uk.uncletopia.com","port":27055,"enabled":true,"region":"eu","cc":"gb","latitude":51.509865,"longitude":-0.118092,"reserved":0,"last_update":"0001-01-01T00:00:00Z","name_a2s":"Uncletopia | London | 5 | All Maps","protocol":17,"map":"koth_lakeside_final","folder":"tf","game":"Team Fortress","app_id":440,"player_count":0,"max_players":24,"Bots":0,"server_type":"Dedicated","server_os":"Linux","password":true,"vac":true,"version":"7961495","steam_id":85568392924742829,"keywords":["cp","nocrits","nodmgspread","uncletopia"],"game_id":440,"stv_port":27056,"stv_name":"Uncletopia | London | 5 | All Maps | STV","players":null},{"server_id":22,"name":"Uncletopia | London | 6 | All Maps","name_short":"lon-6","host":"lon-1.uk.uncletopia.com","port":27065,"enabled":true,"region":"eu","cc":"gb","latitude":51.509865,"longitude":-0.118092,"reserved":0,"last_update":"0001-01-01T00:00:00Z","name_a2s":"Uncletopia | London | 6 | All Maps","protocol":17,"map":"cp_dustbowl","folder":"tf","game":"Team Fortress","app_id":440,"player_count":0,"max_players":24,"Bots":0,"server_type":"Dedicated","server_os":"Linux","password":true,"vac":true,"version":"7961495","steam_id":85568392924742830,"keywords":["cp","nocrits","nodmgspread","uncletopia"],"game_id":440,"stv_port":27066,"stv_name":"Uncletopia | London | 6 | All Maps | STV","players":null},{"server_id":40,"name":"Uncletopia | London | 7 | Stopwatch","name_short":"lon-7","host":"lon-1.uk.uncletopia.com","port":27075,"enabled":true,"region":"eu","cc":"gb","latitude":51.509865,"longitude":-0.118092,"reserved":0,"last_update":"0001-01-01T00:00:00Z","name_a2s":"Uncletopia | London | 7 | Stopwatch","protocol":17,"map":"koth_lakeside_final","folder":"tf","game":"Team Fortress","app_id":440,"player_count":0,"max_players":24,"Bots":0,"server_type":"Dedicated","server_os":"Linux","password":true,"vac":true,"version":"7961495","steam_id":85568392924964314,"keywords":["cp","nocrits","nodmgspread","uncletopia"],"game_id":440,"stv_port":27076,"stv_name":"Uncletopia | London | 7 | Stopwatch | STV","players":null},{"server_id":41,"name":"Uncletopia | London | 8 | Community","name_short":"lon-8","host":"lon-1.uk.uncletopia.com","port":27085,"enabled":true,"region":"eu","cc":"gb","latitude":51.509865,"longitude":-0.118092,"reserved":0,"last_update":"0001-01-01T00:00:00Z","name_a2s":"Uncletopia | London | 8 | Community","protocol":17,"map":"cp_snakewater_final1","folder":"tf","game":"Team Fortress","app_id":440,"player_count":0,"max_players":24,"Bots":0,"server_type":"Dedicated","server_os":"Linux","password":true,"vac":true,"version":"7961495","steam_id":85568392924964315,"keywords":["cp","nocrits","nodmgspread","uncletopia"],"game_id":440,"stv_port":27086,"stv_name":"Uncletopia | London | 8 | Community | STV","players":null},{"server_id":300,"name":"Uncletopia | Montr√©al | 1 | One Thousand Uncles","name_short":"mtl-1","host":"mtl-1.ca.uncletopia.com","port":27015,"enabled":true,"region":"us-east","cc":"ca","latitude":45.50889,"longitude":-73.56167,"reserved":0,"last_update":"0001-01-01T00:00:00Z","name_a2s":"","protocol":0,"map":"","folder":"","game":"","app_id":0,"player_count":0,"max_players":0,"Bots":0,"server_type":"","server_os":"","password":false,"vac":false,"version":"","steam_id":0,"keywords":null,"game_id":0,"stv_port":0,"stv_name":"","players":null},{"server_id":301,"name":"Uncletopia | Montr√©al | 2 | One Thousand Uncles","name_short":"mtl-2","host":"mtl-1.ca.uncletopia.com","port":27025,"enabled":true,"region":"us-east","cc":"ca","latitude":45.50889,"longitude":-73.56167,"reserved":0,"last_update":"0001-01-01T00:00:00Z","name_a2s":"","protocol":0,"map":"","folder":"","game":"","app_id":0,"player_count":1,"max_players":0,"Bots":0,"server_type":"","server_os":"","password":false,"vac":false,"version":"","steam_id":0,"keywords":null,"game_id":0,"stv_port":0,"stv_name":"","players":[{"user_id":272,"name":"Feet Bandit","steam_id":76561199152252878,"connected_time":27000000000,"state":"active","ping":62}]},{"server_id":302,"name":"Uncletopia | Montr√©al | 3 | One Thousand Uncles","name_short":"mtl-3","host":"mtl-1.ca.uncletopia.com","port":27035,"enabled":true,"region":"us-east","cc":"ca","latitude":45.50889,"longitude":-73.56167,"reserved":0,"last_update":"0001-01-01T00:00:00Z","name_a2s":"","protocol":0,"map":"","folder":"","game":"","app_id":0,"player_count":0,"max_players":0,"Bots":0,"server_type":"","server_os":"","password":false,"vac":false,"version":"","steam_id":0,"keywords":null,"game_id":0,"stv_port":0,"stv_name":"","players":null},{"server_id":13,"name":"Uncletopia | New York City | 1 | All Maps","name_short":"nyc-1","host":"nyc-1.us.uncletopia.com","port":27015,"enabled":true,"region":"us-east","cc":"us","latitude":40.73061,"longitude":-73.93524,"reserved":0,"last_update":"0001-01-01T00:00:00Z","name_a2s":"Uncletopia | New York City | 1 | All Maps","protocol":17,"map":"cp_granary","folder":"tf","game":"Team Fortress","app_id":440,"player_count":24,"max_players":24,"Bots":0,"server_type":"Dedicated","server_os":"Linux","password":true,"vac":true,"version":"7961495","steam_id":85568392924469993,"keywords":["cp","nocrits","nodmgspread","uncletopia"],"game_id":440,"stv_port":27016,"stv_name":"Uncletopia | New York City | 1 | All Maps | STV","players":[{"user_id":810,"name":"FAKE TAXI PRANKS","steam_id":76561198136746987,"connected_time":980000000000,"state":"active","ping":83},{"user_id":793,"name":"Bean","steam_id":76561198171857433,"connected_time":1938000000000,"state":"active","ping":42},{"user_id":791,"name":"CRAZY engineer","steam_id":76561198887937902,"connected_time":2569000000000,"state":"active","ping":54},{"user_id":809,"name":"Trxpz","steam_id":76561198277127160,"connected_time":1014000000000,"state":"active","ping":186},{"user_id":811,"name":"ark","steam_id":76561198041066271,"connected_time":938000000000,"state":"active","ping":95},{"user_id":795,"name":"joyeuxnoelle","steam_id":76561198062423120,"connected_time":1830000000000,"state":"active","ping":66},{"user_id":771,"name":"Chicken Burger","steam_id":76561198358529311,"connected_time":3484000000000,"state":"active","ping":89},{"user_id":825,"name":"GMFD! Juustin","steam_id":76561198121922413,"connected_time":9000000000,"state":"active","ping":129},{"user_id":776,"name":"Mrbobz :^)","steam_id":76561198038681120,"connected_time":3349000000000,"state":"active","ping":148},{"user_id":764,"name":"rattlin' bog","steam_id":76561198224551028,"connected_time":4392000000000,"state":"active","ping":57},{"user_id":823,"name":"staks","steam_id":76561198059570070,"connected_time":278000000000,"state":"active","ping":66},{"user_id":778,"name":"Deedestroyer","steam_id":76561197996072506,"connected_time":3337000000000,"state":"active","ping":138},{"user_id":798,"name":"isaacn311","steam_id":76561198854372577,"connected_time":1617000000000,"state":"active","ping":56},{"user_id":817,"name":"pxe","steam_id":76561198194307054,"connected_time":788000000000,"state":"active","ping":140},{"user_id":818,"name":"Doggo","steam_id":76561198051514850,"connected_time":765000000000,"state":"active","ping":103},{"user_id":821,"name":"real vampire","steam_id":76561198251350102,"connected_time":446000000000,"state":"active","ping":76},{"user_id":812,"name":"TF2C | fac -AA-","steam_id":76561198009818412,"connected_time":929000000000,"state":"active","ping":84},{"user_id":804,"name":"Jo","steam_id":76561198060447015,"connected_time":1153000000000,"state":"active","ping":73},{"user_id":734,"name":"quack","steam_id":76561198138783216,"connected_time":6788000000000,"state":"active","ping":43},{"user_id":766,"name":"tacofever","steam_id":76561198010966507,"connected_time":4240000000000,"state":"active","ping":218},{"user_id":739,"name":"Filthy Hobo","steam_id":76561198174373015,"connected_time":6706000000000,"state":"active","ping":131},{"user_id":803,"name":"superx","steam_id":76561198044976613,"connected_time":1301000000000,"state":"active","ping":64},{"user_id":815,"name":"Person","steam_id":76561198093244204,"connected_time":865000000000,"state":"active","ping":70},{"user_id":820,"name":"microplastic","steam_id":76561198028750428,"connected_time":679000000000,"state":"active","ping":70}]},{"server_id":14,"name":"Uncletopia | New York City | 2 | All Maps","name_short":"nyc-2","host":"nyc-1.us.uncletopia.com","port":27025,"enabled":true,"region":"us-east","cc":"us","latitude":40.73061,"longitude":-73.93524,"reserved":0,"last_update":"0001-01-01T00:00:00Z","name_a2s":"Uncletopia | New York City | 2 | All Maps","protocol":17,"map":"plr_hightower","folder":"tf","game":"Team Fortress","app_id":440,"player_count":13,"max_players":24,"Bots":0,"server_type":"Dedicated","server_os":"Linux","password":true,"vac":true,"version":"7961495","steam_id":85568392924469994,"keywords":["nocrits","nodmgspread","payload","uncletopia"],"game_id":440,"stv_port":27026,"stv_name":"Uncletopia | New York City | 2 | All Maps | STV","players":[{"user_id":610,"name":"tac","steam_id":76561198408477421,"connected_time":2491000000000,"state":"active","ping":85},{"user_id":612,"name":"SpaceSanctum","steam_id":76561198805242305,"connected_time":1089000000000,"state":"active","ping":44},{"user_id":613,"name":"googa","steam_id":76561198133130452,"connected_time":936000000000,"state":"active","ping":38},{"user_id":614,"name":"De","steam_id":76561198206728044,"connected_time":922000000000,"state":"active","ping":80},{"user_id":616,"name":"javanderford","steam_id":76561198300798685,"connected_time":898000000000,"state":"active","ping":88},{"user_id":617,"name":"PeePeeMann69","steam_id":76561198170887727,"connected_time":633000000000,"state":"active","ping":107},{"user_id":618,"name":"Hero","steam_id":76561199239997936,"connected_time":608000000000,"state":"active","ping":56},{"user_id":619,"name":"matthewgenius034","steam_id":76561199395443644,"connected_time":458000000000,"state":"active","ping":55},{"user_id":620,"name":"Yoshimelon","steam_id":76561198253054325,"connected_time":422000000000,"state":"active","ping":76},{"user_id":621,"name":"Koranae","steam_id":76561198343198306,"connected_time":304000000000,"state":"active","ping":120},{"user_id":622,"name":"Reisen","steam_id":76561199058442399,"connected_time":286000000000,"state":"active","ping":39},{"user_id":623,"name":"Tj9107","steam_id":76561199091263700,"connected_time":235000000000,"state":"active","ping":89},{"user_id":624,"name":"SK Boi","steam_id":76561199041571876,"connected_time":14000000000,"state":"spawning","ping":133}]},{"server_id":15,"name":"Uncletopia | New York City | 3 | Stopwatch","name_short":"nyc-3","host":"nyc-1.us.uncletopia.com","port":27035,"enabled":true,"region":"us-east","cc":"us","latitude":40.73061,"longitude":-73.93524,"reserved":0,"last_update":"0001-01-01T00:00:00Z","name_a2s":"Uncletopia | New York City | 3 | Stopwatch","protocol":17,"map":"workshop/koth_ashville_final.ugc2130459942","folder":"tf","game":"Team Fortress","app_id":440,"player_count":0,"max_players":24,"Bots":0,"server_type":"Dedicated","server_os":"Linux","password":true,"vac":true,"version":"7961495","steam_id":85568392924742820,"keywords":["cp","nocrits","nodmgspread","uncletopia"],"game_id":440,"stv_port":27036,"stv_name":"Uncletopia | New York City | 3 | Stopwatch | STV","players":null},{"server_id":16,"name":"Uncletopia | New York City | 4 | Community","name_short":"nyc-4","host":"nyc-1.us.uncletopia.com","port":27045,"enabled":true,"region":"us-east","cc":"us","latitude":40.73061,"longitude":-73.93524,"reserved":0,"last_update":"0001-01-01T00:00:00Z","name_a2s":"Uncletopia | New York City | 4 | Community","protocol":17,"map":"workshop/cp_coilblaze_rc7.ugc1272700588","folder":"tf","game":"Team Fortress","app_id":440,"player_count":0,"max_players":24,"Bots":0,"server_type":"Dedicated","server_os":"Linux","password":true,"vac":true,"version":"7961495","steam_id":85568392924742821,"keywords":["cp","nocrits","nodmgspread","uncletopia"],"game_id":440,"stv_port":27046,"stv_name":"Uncletopia | New York City | 4 | Community | STV","players":null},{"server_id":142,"name":"Uncletopia | S√£o Paulo | 1 | All Maps","name_short":"sao-1","host":"sao-1.br.uncletopia.com","port":27015,"enabled":true,"region":"sa","cc":"br","latitude":-23.533773,"longitude":-46.62529,"reserved":0,"last_update":"0001-01-01T00:00:00Z","name_a2s":"Uncletopia | S√£o Paulo | 1 | All Maps","protocol":17,"map":"cp_altitude","folder":"tf","game":"Team Fortress","app_id":440,"player_count":0,"max_players":24,"Bots":0,"server_type":"Dedicated","server_os":"Linux","password":true,"vac":true,"version":"7961495","steam_id":85568392924469996,"keywords":["cp","nocrits","nodmgspread","uncletopia"],"game_id":440,"stv_port":27016,"stv_name":"Uncletopia | S√£o Paulo | 1 | All Maps | STV","players":null},{"server_id":143,"name":"Uncletopia | S√£o Paulo | 2 | Community","name_short":"sao-2","host":"sao-2.br.uncletopia.com","port":27015,"enabled":true,"region":"sa","cc":"br","latitude":-23.533773,"longitude":-46.62529,"reserved":0,"last_update":"0001-01-01T00:00:00Z","name_a2s":"Uncletopia | S√£o Paulo | 2 | Community","protocol":17,"map":"workshop/cp_coilblaze_rc7.ugc1272700588","folder":"tf","game":"Team Fortress","app_id":440,"player_count":0,"max_players":24,"Bots":0,"server_type":"Dedicated","server_os":"Linux","password":true,"vac":true,"version":"7961495","steam_id":85568392924485349,"keywords":["cp","nocrits","nodmgspread","uncletopia"],"game_id":440,"stv_port":27016,"stv_name":"Uncletopia | S√£o Paulo | 2 | Community | STV","players":null},{"server_id":7,"name":"Uncletopia | Seattle | 1 | All Maps","name_short":"sea-1","host":"sea-1.us.uncletopia.com","port":27015,"enabled":true,"region":"us-west","cc":"us","latitude":47.608013,"longitude":-122.33517,"reserved":0,"last_update":"0001-01-01T00:00:00Z","name_a2s":"Uncletopia | Seattle | 1 | All Maps","protocol":17,"map":"pl_badwater","folder":"tf","game":"Team Fortress","app_id":440,"player_count":24,"max_players":24,"Bots":0,"server_type":"Dedicated","server_os":"Linux","password":true,"vac":true,"version":"7961495","steam_id":85568392924469997,"keywords":["nocrits","nodmgspread","payload","uncletopia"],"game_id":440,"stv_port":27016,"stv_name":"Uncletopia | Seattle | 1 | All Maps | STV","players":[{"user_id":693,"name":"Ayayayayayayayayayayayahuasca","steam_id":76561199002906056,"connected_time":1465000000000,"state":"active","ping":62},{"user_id":678,"name":"[TrC] Nosy","steam_id":76561197978859310,"connected_time":3217000000000,"state":"active","ping":58},{"user_id":646,"name":"NEBULA","steam_id":76561198086878595,"connected_time":8630000000000,"state":"active","ping":68},{"user_id":640,"name":"Daz","steam_id":76561198041431938,"connected_time":9329000000000,"state":"active","ping":53},{"user_id":698,"name":"ctap 2 the Jewler","steam_id":76561198169755734,"connected_time":149000000000,"state":"active","ping":64},{"user_id":663,"name":"soup","steam_id":76561198043209046,"connected_time":6709000000000,"state":"active","ping":70},{"user_id":656,"name":"evilOlive","steam_id":76561198106222025,"connected_time":7627000000000,"state":"active","ping":85},{"user_id":660,"name":"Attrition","steam_id":76561197969881916,"connected_time":6793000000000,"state":"active","ping":51},{"user_id":699,"name":"Toaster (Hamilton Beach)","steam_id":76561198039891934,"connected_time":148000000000,"state":"active","ping":62},{"user_id":688,"name":"H.A.Z.E","steam_id":76561199247095754,"connected_time":1486000000000,"state":"active","ping":60},{"user_id":695,"name":"kill me","steam_id":76561198032625036,"connected_time":973000000000,"state":"active","ping":55},{"user_id":691,"name":"pyrotechnic","steam_id":76561198043558709,"connected_time":1471000000000,"state":"active","ping":48},{"user_id":666,"name":"Sniff","steam_id":76561198010270922,"connected_time":6317000000000,"state":"active","ping":70},{"user_id":681,"name":"Nightshade","steam_id":76561199011017814,"connected_time":2499000000000,"state":"active","ping":65},{"user_id":700,"name":"jadeite","steam_id":76561198022298676,"connected_time":147000000000,"state":"active","ping":35},{"user_id":682,"name":"[TrC] Dackstrus","steam_id":76561197973518509,"connected_time":2457000000000,"state":"active","ping":57},{"user_id":697,"name":"squash","steam_id":76561198150281353,"connected_time":702000000000,"state":"active","ping":55},{"user_id":692,"name":"fwoov","steam_id":76561198129166260,"connected_time":1470000000000,"state":"active","ping":84},{"user_id":701,"name":"Apollo","steam_id":76561198162364702,"connected_time":146000000000,"state":"active","ping":47},{"user_id":597,"name":"Sweets","steam_id":76561198998446307,"connected_time":13079000000000,"state":"active","ping":67},{"user_id":588,"name":"Gm_Sweet","steam_id":76561199445091548,"connected_time":14299000000000,"state":"active","ping":60},{"user_id":685,"name":"car crash compilation #34","steam_id":76561198042773724,"connected_time":2357000000000,"state":"active","ping":95},{"user_id":638,"name":"Cheezbeargur","steam_id":76561198164702899,"connected_time":9614000000000,"state":"active","ping":69},{"user_id":670,"name":"John Calibur","steam_id":76561197999986606,"connected_time":5168000000000,"state":"active","ping":75}]},{"server_id":119,"name":"Uncletopia | Seattle | 2 | All Maps","name_short":"sea-2","host":"sea-1.us.uncletopia.com","port":27025,"enabled":true,"region":"us-west","cc":"us","latitude":47.608013,"longitude":-122.33517,"reserved":0,"last_update":"0001-01-01T00:00:00Z","name_a2s":"Uncletopia | Seattle | 2 | All Maps","protocol":17,"map":"pl_frontier_final","folder":"tf","game":"Team Fortress","app_id":440,"player_count":24,"max_players":24,"Bots":0,"server_type":"Dedicated","server_os":"Linux","password":true,"vac":true,"version":"7961495","steam_id":85568392924469998,"keywords":["nocrits","nodmgspread","payload","uncletopia"],"game_id":440,"stv_port":27026,"stv_name":"Uncletopia | Seattle | 2 | All Maps | STV","players":[{"user_id":350,"name":"DaddyGalaxy","steam_id":76561198139697796,"connected_time":1203000000000,"state":"active","ping":58},{"user_id":348,"name":"Be Gay, Do Crimes, Smoke Weed!","steam_id":76561198092419868,"connected_time":1449000000000,"state":"active","ping":83},{"user_id":359,"name":"Maniacal Rage","steam_id":76561197970758925,"connected_time":810000000000,"state":"active","ping":93},{"user_id":283,"name":"\u0026Femboy Friday (they/them)","steam_id":76561198027321950,"connected_time":6633000000000,"state":"active","ping":44},{"user_id":342,"name":"MarioLuigi0404","steam_id":76561198252513650,"connected_time":1844000000000,"state":"active","ping":74},{"user_id":357,"name":"mooney","steam_id":76561199110622484,"connected_time":945000000000,"state":"active","ping":60},{"user_id":360,"name":"Not Slavoj ≈Ωi≈æek","steam_id":76561198004619616,"connected_time":701000000000,"state":"active","ping":75},{"user_id":352,"name":"Petrivus","steam_id":76561198202152453,"connected_time":1159000000000,"state":"active","ping":44},{"user_id":343,"name":"FMT_Player","steam_id":76561198346810180,"connected_time":1756000000000,"state":"active","ping":51},{"user_id":322,"name":"‚ô•CharaÂñúÁîüÂ≠ê‚ô•","steam_id":76561198080500920,"connected_time":3078000000000,"state":"active","ping":81},{"user_id":323,"name":"Neb","steam_id":76561198883473473,"connected_time":3007000000000,"state":"active","ping":45},{"user_id":363,"name":"Swifgz","steam_id":76561198162875756,"connected_time":366000000000,"state":"active","ping":110},{"user_id":320,"name":"top 10 sidewalks","steam_id":76561198844273999,"connected_time":3226000000000,"state":"active","ping":45},{"user_id":349,"name":"090-nsalih","steam_id":76561199467467873,"connected_time":1305000000000,"state":"active","ping":152},{"user_id":364,"name":"DUNKS","steam_id":76561198130701643,"connected_time":145000000000,"state":"active","ping":50},{"user_id":362,"name":"Spam The Alien","steam_id":76561199122290968,"connected_time":446000000000,"state":"active","ping":56},{"user_id":338,"name":"JACK BRUNO","steam_id":76561198027957690,"connected_time":2225000000000,"state":"active","ping":66},{"user_id":361,"name":"arse77","steam_id":76561198169613105,"connected_time":697000000000,"state":"active","ping":120},{"user_id":354,"name":"Scampy","steam_id":76561198001506924,"connected_time":1145000000000,"state":"active","ping":46},{"user_id":321,"name":"Seriously Bruh","steam_id":76561198070408485,"connected_time":3221000000000,"state":"active","ping":54},{"user_id":325,"name":"NightmareOhm","steam_id":76561198338853664,"connected_time":2912000000000,"state":"active","ping":47},{"user_id":339,"name":"cerious","steam_id":76561197994365894,"connected_time":2211000000000,"state":"active","ping":42},{"user_id":365,"name":"Drapph","steam_id":76561199384213314,"connected_time":106000000000,"state":"active","ping":98},{"user_id":358,"name":"shellaa","steam_id":76561198044124102,"connected_time":939000000000,"state":"active","ping":99}]},{"server_id":406,"name":"Uncletopia | Seattle | 3 | Stopwatch","name_short":"sea-3","host":"sea-1.us.uncletopia.com","port":27035,"enabled":true,"region":"us-west","cc":"us","latitude":47.608013,"longitude":-122.33517,"reserved":0,"last_update":"0001-01-01T00:00:00Z","name_a2s":"Uncletopia | Seattle | 3 | Stopwatch","protocol":17,"map":"workshop/cp_reckoner_rc6.ugc674719999","folder":"tf","game":"Team Fortress","app_id":440,"player_count":0,"max_players":24,"Bots":0,"server_type":"Dedicated","server_os":"Linux","password":true,"vac":true,"version":"7961495","steam_id":85568392924515217,"keywords":["cp","nocrits","nodmgspread","uncletopia"],"game_id":440,"stv_port":27036,"stv_name":"Uncletopia | Seattle | 3 | Stopwatch | STV","players":null},{"server_id":17,"name":"Uncletopia | San Francisco | 1 | All Maps","name_short":"sfo-1","host":"sfo-1.us.uncletopia.com","port":27015,"enabled":true,"region":"us-west","cc":"us","latitude":37.77397,"longitude":-122.4313,"reserved":0,"last_update":"0001-01-01T00:00:00Z","name_a2s":"Uncletopia | San Francisco | 1 | All Maps","protocol":17,"map":"cp_steel","folder":"tf","game":"Team Fortress","app_id":440,"player_count":20,"max_players":24,"Bots":0,"server_type":"Dedicated","server_os":"Linux","password":true,"vac":true,"version":"7961495","steam_id":85568392924469999,"keywords":["cp","nocrits","nodmgspread","uncletopia"],"game_id":440,"stv_port":27016,"stv_name":"Uncletopia | San Francisco | 1 | All Maps | STV","players":[{"user_id":355,"name":"etc_gaming","steam_id":76561199105116172,"connected_time":605000000000,"state":"active","ping":106},{"user_id":359,"name":"Andy","steam_id":76561198043115724,"connected_time":72000000000,"state":"active","ping":89},{"user_id":277,"name":"remanedur","steam_id":76561198059459507,"connected_time":7255000000000,"state":"active","ping":122},{"user_id":339,"name":"Inkora","steam_id":76561198351622498,"connected_time":1587000000000,"state":"active","ping":45},{"user_id":361,"name":"Major","steam_id":76561198334210109,"connected_time":61000000000,"state":"active","ping":48},{"user_id":337,"name":"pat","steam_id":76561198040595468,"connected_time":1764000000000,"state":"active","ping":70},{"user_id":341,"name":"Dr. Bubs","steam_id":76561198011696595,"connected_time":1551000000000,"state":"active","ping":56},{"user_id":360,"name":"Frank Accardi","steam_id":76561198017275707,"connected_time":70000000000,"state":"active","ping":74},{"user_id":326,"name":"Fray","steam_id":76561198030141282,"connected_time":2864000000000,"state":"active","ping":100},{"user_id":347,"name":"Whimsy!","steam_id":76561197989578836,"connected_time":1227000000000,"state":"active","ping":50},{"user_id":342,"name":"modal","steam_id":76561198089959935,"connected_time":1466000000000,"state":"active","ping":50},{"user_id":356,"name":"Laventhey","steam_id":76561198977523626,"connected_time":547000000000,"state":"active","ping":64},{"user_id":336,"name":"Muselk","steam_id":76561199289676387,"connected_time":2132000000000,"state":"active","ping":93},{"user_id":344,"name":"Lemonade Juice","steam_id":76561198402892608,"connected_time":1428000000000,"state":"active","ping":53},{"user_id":338,"name":"Runny Eggs","steam_id":76561198006785882,"connected_time":1741000000000,"state":"active","ping":105},{"user_id":354,"name":"Amogous Supreme","steam_id":76561198025476774,"connected_time":864000000000,"state":"active","ping":55},{"user_id":333,"name":"Some Dood on the Internet","steam_id":76561198054657687,"connected_time":2586000000000,"state":"active","ping":75},{"user_id":357,"name":"purple hatsune miku","steam_id":76561198108844158,"connected_time":287000000000,"state":"active","ping":63},{"user_id":322,"name":"Buswolley","steam_id":76561197995205571,"connected_time":3353000000000,"state":"active","ping":41},{"user_id":353,"name":"lker","steam_id":76561197976975075,"connected_time":1015000000000,"state":"active","ping":93}]},{"server_id":18,"name":"Uncletopia | San Francisco | 2 | All Maps","name_short":"sfo-2","host":"sfo-1.us.uncletopia.com","port":27025,"enabled":true,"region":"us-west","cc":"us","latitude":37.77397,"longitude":-122.4313,"reserved":0,"last_update":"0001-01-01T00:00:00Z","name_a2s":"Uncletopia | San Francisco | 2 | All Maps","protocol":17,"map":"pl_swiftwater_final1","folder":"tf","game":"Team Fortress","app_id":440,"player_count":0,"max_players":24,"Bots":0,"server_type":"Dedicated","server_os":"Linux","password":true,"vac":true,"version":"7961495","steam_id":85568392924470000,"keywords":["nocrits","nodmgspread","payload","uncletopia"],"game_id":440,"stv_port":27026,"stv_name":"Uncletopia | San Francisco | 2 | All Maps | STV","players":null},{"server_id":19,"name":"Uncletopia | San Francisco | 3 | Stopwatch","name_short":"sfo-3","host":"sfo-1.us.uncletopia.com","port":27035,"enabled":true,"region":"us-west","cc":"us","latitude":37.77397,"longitude":-122.4313,"reserved":0,"last_update":"0001-01-01T00:00:00Z","name_a2s":"Uncletopia | San Francisco | 3 | Stopwatch","protocol":17,"map":"koth_highpass","folder":"tf","game":"Team Fortress","app_id":440,"player_count":0,"max_players":24,"Bots":0,"server_type":"Dedicated","server_os":"Linux","password":true,"vac":true,"version":"7961495","steam_id":85568392924742824,"keywords":["cp","nocrits","nodmgspread","uncletopia"],"game_id":440,"stv_port":27036,"stv_name":"Uncletopia | San Francisco | 3 | Stopwatch | STV","players":null},{"server_id":20,"name":"Uncletopia | San Francisco | 4 | Community","name_short":"sfo-4","host":"sfo-1.us.uncletopia.com","port":27045,"enabled":true,"region":"us-west","cc":"us","latitude":37.77397,"longitude":-122.4313,"reserved":0,"last_update":"0001-01-01T00:00:00Z","name_a2s":"Uncletopia | San Francisco | 4 | Community","protocol":17,"map":"workshop/koth_ashville_final.ugc2130459942","folder":"tf","game":"Team Fortress","app_id":440,"player_count":5,"max_players":24,"Bots":0,"server_type":"Dedicated","server_os":"Linux","password":true,"vac":true,"version":"7961495","steam_id":85568392924742826,"keywords":["cp","nocrits","nodmgspread","uncletopia"],"game_id":440,"stv_port":27046,"stv_name":"Uncletopia | San Francisco | 4 | Community | STV","players":[{"user_id":20,"name":"goth witch","steam_id":76561198069605283,"connected_time":605000000000,"state":"active","ping":59},{"user_id":21,"name":"Soggy Zogg","steam_id":76561198836316052,"connected_time":600000000000,"state":"active","ping":62},{"user_id":22,"name":"Spy Main","steam_id":76561198154715380,"connected_time":599000000000,"state":"active","ping":63},{"user_id":23,"name":"Cinnamon Crumb Donut.gaming","steam_id":76561198131011594,"connected_time":589000000000,"state":"active","ping":74},{"user_id":24,"name":"Mom","steam_id":76561198207936000,"connected_time":107000000000,"state":"active","ping":31}]},{"server_id":141,"name":"Uncletopia | Sydney | 1 | All Maps","name_short":"syd-1","host":"syd-1.au.uncletopia.com","port":27015,"enabled":true,"region":"au","cc":"au","latitude":-33.865143,"longitude":151.2099,"reserved":0,"last_update":"0001-01-01T00:00:00Z","name_a2s":"Uncletopia | Sydney | 1 | All Maps","protocol":17,"map":"pl_pier","folder":"tf","game":"Team Fortress","app_id":440,"player_count":24,"max_players":24,"Bots":0,"server_type":"Dedicated","server_os":"Linux","password":true,"vac":true,"version":"7961495","steam_id":85568392924470001,"keywords":["nocrits","nodmgspread","payload","uncletopia"],"game_id":440,"stv_port":27016,"stv_name":"Uncletopia | Sydney | 1 | All Maps | STV","players":[{"user_id":154,"name":"Glockenspe (She/Her)","steam_id":76561199184115241,"connected_time":1791000000000,"state":"active","ping":49},{"user_id":177,"name":"Crazybean","steam_id":76561198042181980,"connected_time":650000000000,"state":"active","ping":65},{"user_id":143,"name":"No Scrubs","steam_id":76561197969619053,"connected_time":3068000000000,"state":"active","ping":74},{"user_id":170,"name":"Grumbo","steam_id":76561198169116395,"connected_time":1068000000000,"state":"active","ping":66},{"user_id":169,"name":"{Azura Sarah}","steam_id":76561197989210208,"connected_time":1092000000000,"state":"active","ping":46},{"user_id":155,"name":"android","steam_id":76561198179045463,"connected_time":1619000000000,"state":"active","ping":49},{"user_id":180,"name":"GattlingGoose","steam_id":76561199021498300,"connected_time":108000000000,"state":"active","ping":65},{"user_id":23,"name":"voxii","steam_id":76561198099698281,"connected_time":15127000000000,"state":"active","ping":70},{"user_id":133,"name":"diamond","steam_id":76561198206754736,"connected_time":4724000000000,"state":"active","ping":52},{"user_id":146,"name":"Pompadouraus","steam_id":76561198327530525,"connected_time":2831000000000,"state":"active","ping":76},{"user_id":159,"name":"DIY Miracle (Fertile/Man)","steam_id":76561198046228152,"connected_time":1394000000000,"state":"active","ping":66},{"user_id":135,"name":"soupy","steam_id":76561198073734936,"connected_time":4426000000000,"state":"active","ping":91},{"user_id":125,"name":"Sentry Gun (EpicGuy4227)","steam_id":76561198094132328,"connected_time":5290000000000,"state":"active","ping":45},{"user_id":181,"name":"foodeater","steam_id":76561198110579670,"connected_time":3000000000,"state":"spawning","ping":44},{"user_id":163,"name":"there is a concrete shortage","steam_id":76561198067978287,"connected_time":1305000000000,"state":"active","ping":97},{"user_id":132,"name":"Snuky","steam_id":76561198117902338,"connected_time":5043000000000,"state":"active","ping":45},{"user_id":161,"name":"TheGoodGuy","steam_id":76561197994105505,"connected_time":1389000000000,"state":"active","ping":59},{"user_id":178,"name":"Trom-BONER","steam_id":76561199174449723,"connected_time":430000000000,"state":"active","ping":158},{"user_id":179,"name":"Cyrome","steam_id":76561198049602369,"connected_time":263000000000,"state":"active","ping":68},{"user_id":173,"name":"mountain chicken","steam_id":76561198376383989,"connected_time":955000000000,"state":"active","ping":67},{"user_id":144,"name":"no teles 4 u","steam_id":76561198018478297,"connected_time":2941000000000,"state":"active","ping":72},{"user_id":176,"name":"Ms. Wizard \u003c|:)","steam_id":76561198110462830,"connected_time":705000000000,"state":"active","ping":56},{"user_id":147,"name":"horrid webbon ·òõ‚ÅêÃ§·ïê·ê∑","steam_id":76561198061998379,"connected_time":2494000000000,"state":"active","ping":47},{"user_id":152,"name":"uso","steam_id":76561198028756598,"connected_time":2187000000000,"state":"active","ping":86}]},{"server_id":123,"name":"Uncletopia | Sydney | 2 | All Maps","name_short":"syd-2","host":"syd-1.au.uncletopia.com","port":27025,"enabled":true,"region":"au","cc":"au","latitude":-33.865143,"longitude":151.2099,"reserved":0,"last_update":"0001-01-01T00:00:00Z","name_a2s":"Uncletopia | Sydney | 2 | All Maps","protocol":17,"map":"pl_upward","folder":"tf","game":"Team Fortress","app_id":440,"player_count":24,"max_players":24,"Bots":0,"server_type":"Dedicated","server_os":"Linux","password":true,"vac":true,"version":"7961495","steam_id":85568392924470002,"keywords":["nocrits","nodmgspread","payload","uncletopia"],"game_id":440,"stv_port":27026,"stv_name":"Uncletopia | Sydney | 2 | All Maps | STV","players":[{"user_id":82,"name":"Reefo","steam_id":76561198161626796,"connected_time":2262000000000,"state":"active","ping":66},{"user_id":106,"name":"The Hall","steam_id":76561198059129270,"connected_time":453000000000,"state":"active","ping":68},{"user_id":35,"name":"Dadszoo","steam_id":76561198296611122,"connected_time":4632000000000,"state":"active","ping":70},{"user_id":72,"name":"John Pork","steam_id":76561198291410614,"connected_time":2469000000000,"state":"active","ping":107},{"user_id":59,"name":"\u003e:FrozenDragon:\u003c","steam_id":76561198227960928,"connected_time":3509000000000,"state":"active","ping":100},{"user_id":91,"name":"beans (real)","steam_id":76561198085708153,"connected_time":1367000000000,"state":"active","ping":91},{"user_id":93,"name":"LOLLYGAG","steam_id":76561199085941614,"connected_time":1330000000000,"state":"active","ping":59},{"user_id":96,"name":"...","steam_id":76561198309750355,"connected_time":1273000000000,"state":"active","ping":56},{"user_id":109,"name":"Warren","steam_id":76561198120350917,"connected_time":152000000000,"state":"active","ping":41},{"user_id":73,"name":"Dr Joe Rogan","steam_id":76561198249435392,"connected_time":2469000000000,"state":"active","ping":95},{"user_id":107,"name":"Money Man Jones","steam_id":76561199161637215,"connected_time":396000000000,"state":"active","ping":97},{"user_id":25,"name":"tf2 dung eater","steam_id":76561198274740718,"connected_time":5225000000000,"state":"active","ping":60},{"user_id":80,"name":"Brud","steam_id":76561198123542239,"connected_time":2302000000000,"state":"active","ping":49},{"user_id":94,"name":"ArcticDolphin","steam_id":76561198203626319,"connected_time":1309000000000,"state":"active","ping":176},{"user_id":22,"name":"JunkKnight","steam_id":76561198050917553,"connected_time":5391000000000,"state":"active","ping":59},{"user_id":102,"name":"gamer ;)","steam_id":76561198042826035,"connected_time":762000000000,"state":"active","ping":96},{"user_id":69,"name":"mada","steam_id":76561199436707447,"connected_time":2586000000000,"state":"active","ping":48},{"user_id":110,"name":"Mouse Balls","steam_id":76561199037470627,"connected_time":143000000000,"state":"active","ping":110},{"user_id":70,"name":"POLTERGUY","steam_id":76561199066712046,"connected_time":2572000000000,"state":"active","ping":63},{"user_id":90,"name":"Malphas","steam_id":76561198011425371,"connected_time":1415000000000,"state":"active","ping":57},{"user_id":87,"name":"Second Lieutenant Pisser","steam_id":76561198866538028,"connected_time":1784000000000,"state":"active","ping":70},{"user_id":111,"name":"Anii","steam_id":76561198257419047,"connected_time":102000000000,"state":"active","ping":68},{"user_id":83,"name":"Storms","steam_id":76561199058704739,"connected_time":2178000000000,"state":"active","ping":64},{"user_id":84,"name":"Her0bryne","steam_id":76561198440336357,"connected_time":2041000000000,"state":"active","ping":77}]},{"server_id":395,"name":"Uncletopia | Sydney | 3 | All Maps","name_short":"syd-3","host":"syd-1.au.uncletopia.com","port":27035,"enabled":true,"region":"au","cc":"au","latitude":-33.865143,"longitude":151.2099,"reserved":0,"last_update":"0001-01-01T00:00:00Z","name_a2s":"Uncletopia | Sydney | 3 | All Maps","protocol":17,"map":"pl_swiftwater_final1","folder":"tf","game":"Team Fortress","app_id":440,"player_count":4,"max_players":24,"Bots":0,"server_type":"Dedicated","server_os":"Linux","password":true,"vac":true,"version":"7961495","steam_id":85568392925194467,"keywords":["nocrits","nodmgspread","payload","uncletopia"],"game_id":440,"stv_port":27036,"stv_name":"Uncletopia | Sydney | 3 | All Maps | STV","players":[{"user_id":15,"name":"dav","steam_id":76561199109146432,"connected_time":485000000000,"state":"active","ping":64},{"user_id":16,"name":"Hadyn31w","steam_id":76561198972501886,"connected_time":330000000000,"state":"active","ping":279},{"user_id":17,"name":"Amalthia","steam_id":76561198048945880,"connected_time":256000000000,"state":"active","ping":61},{"user_id":18,"name":"3ansh0","steam_id":76561199044089411,"connected_time":166000000000,"state":"active","ping":68}]},{"server_id":396,"name":"Uncletopia | Sydney | 4 | All Maps","name_short":"syd-4","host":"syd-1.au.uncletopia.com","port":27045,"enabled":true,"region":"au","cc":"au","latitude":-33.865143,"longitude":151.2099,"reserved":0,"last_update":"0001-01-01T00:00:00Z","name_a2s":"Uncletopia | Sydney | 4 | All Maps","protocol":17,"map":"cp_process_final","folder":"tf","game":"Team Fortress","app_id":440,"player_count":0,"max_players":24,"Bots":0,"server_type":"Dedicated","server_os":"Linux","password":true,"vac":true,"version":"7961495","steam_id":85568392925397958,"keywords":["cp","nocrits","nodmgspread","uncletopia"],"game_id":440,"stv_port":27046,"stv_name":"Uncletopia | Sydney | 4 | All Maps | STV","players":null},{"server_id":58,"name":"Uncletopia | Sydney | 5 | Stopwatch","name_short":"syd-5","host":"syd-1.au.uncletopia.com","port":27055,"enabled":true,"region":"au","cc":"au","latitude":-33.865143,"longitude":151.2099,"reserved":0,"last_update":"0001-01-01T00:00:00Z","name_a2s":"Uncletopia | Sydney | 5 | Stopwatch","protocol":17,"map":"pl_frontier_final","folder":"tf","game":"Team Fortress","app_id":440,"player_count":0,"max_players":24,"Bots":0,"server_type":"Dedicated","server_os":"Linux","password":true,"vac":true,"version":"7961495","steam_id":85568392925397959,"keywords":["nocrits","nodmgspread","payload","uncletopia"],"game_id":440,"stv_port":27056,"stv_name":"Uncletopia | Sydney | 5 | Stopwatch | STV","players":null},{"server_id":59,"name":"Uncletopia | Sydney | 6 | Community","name_short":"syd-6","host":"syd-1.au.uncletopia.com","port":27065,"enabled":true,"region":"au","cc":"au","latitude":-33.865143,"longitude":151.2099,"reserved":0,"last_update":"0001-01-01T00:00:00Z","name_a2s":"Uncletopia | Sydney | 6 | Community","protocol":17,"map":"cp_sunshine","folder":"tf","game":"Team Fortress","app_id":440,"player_count":0,"max_players":24,"Bots":0,"server_type":"Dedicated","server_os":"Linux","password":true,"vac":true,"version":"7961495","steam_id":85568392925397960,"keywords":["cp","nocrits","nodmgspread","uncletopia"],"game_id":440,"stv_port":27066,"stv_name":"Uncletopia | Sydney | 6 | Community | STV","players":null},{"server_id":49,"name":"Uncletopia | Warsaw | 1 | One Thousand Uncles","name_short":"waw-1","host":"waw-1.pl.uncletopia.com","port":27015,"enabled":true,"region":"eu","cc":"pl","latitude":52.2297,"longitude":21.017532,"reserved":0,"last_update":"0001-01-01T00:00:00Z","name_a2s":"Uncletopia | Warsaw | 1 | One Thousand Uncles","protocol":17,"map":"koth_highpass","folder":"tf","game":"Team Fortress","app_id":440,"player_count":23,"max_players":32,"Bots":16,"server_type":"Dedicated","server_os":"Linux","password":true,"vac":true,"version":"7961495","steam_id":85568392925397850,"keywords":["alltalk","bots","cp","danepve","increased_maxplayers","nocrits","norespawntime","uncletopia"],"game_id":440,"stv_port":0,"stv_name":"","players":[{"user_id":2,"name":"the one","steam_id":76561198037977091,"connected_time":1706000000000,"state":"active","ping":133},{"user_id":20,"name":"Uranus","steam_id":76561198183998715,"connected_time":844000000000,"state":"active","ping":136},{"user_id":21,"name":"Doctor Sex","steam_id":76561199403229056,"connected_time":771000000000,"state":"active","ping":105},{"user_id":22,"name":"Enigmus","steam_id":76561197994063627,"connected_time":667000000000,"state":"active","ping":90},{"user_id":23,"name":"froglids","steam_id":76561198045466919,"connected_time":572000000000,"state":"active","ping":41},{"user_id":24,"name":"HarmlessCanine2","steam_id":76561198389475312,"connected_time":246000000000,"state":"active","ping":73},{"user_id":25,"name":"t_g","steam_id":76561198057028649,"connected_time":156000000000,"state":"active","ping":73}]},{"server_id":50,"name":"Uncletopia | Warsaw | 2 | One Thousand Uncles","name_short":"waw-2","host":"waw-1.pl.uncletopia.com","port":27025,"enabled":true,"region":"eu","cc":"pl","latitude":52.2297,"longitude":21.017532,"reserved":0,"last_update":"0001-01-01T00:00:00Z","name_a2s":"Uncletopia | Warsaw | 2 | One Thousand Uncles","protocol":17,"map":"pl_goldrush","folder":"tf","game":"Team Fortress","app_id":440,"player_count":0,"max_players":32,"Bots":0,"server_type":"Dedicated","server_os":"Linux","password":true,"vac":true,"version":"7961495","steam_id":85568392925397851,"keywords":["alltalk","danepve","increased_maxplayers","nocrits","norespawntime","payload","uncletopia"],"game_id":440,"stv_port":0,"stv_name":"","players":null},{"server_id":51,"name":"Uncletopia | Warsaw | 3 | All Maps","name_short":"waw-3","host":"waw-1.pl.uncletopia.com","port":27035,"enabled":true,"region":"eu","cc":"pl","latitude":52.2297,"longitude":21.017532,"reserved":0,"last_update":"0001-01-01T00:00:00Z","name_a2s":"Uncletopia | Warsaw | 3 | All Maps","protocol":17,"map":"plr_pipeline","folder":"tf","game":"Team Fortress","app_id":440,"player_count":0,"max_players":24,"Bots":0,"server_type":"Dedicated","server_os":"Linux","password":true,"vac":true,"version":"7961495","steam_id":85568392925397852,"keywords":["nocrits","nodmgspread","payload","uncletopia"],"game_id":440,"stv_port":27036,"stv_name":"Uncletopia | Warsaw | 3 | All Maps | STV","players":null},{"server_id":52,"name":"Uncletopia | Warsaw | 4 | All Maps","name_short":"waw-4","host":"waw-1.pl.uncletopia.com","port":27045,"enabled":true,"region":"eu","cc":"pl","latitude":52.2297,"longitude":21.017532,"reserved":0,"last_update":"0001-01-01T00:00:00Z","name_a2s":"Uncletopia | Warsaw | 4 | All Maps","protocol":17,"map":"cp_coldfront","folder":"tf","game":"Team Fortress","app_id":440,"player_count":0,"max_players":24,"Bots":0,"server_type":"Dedicated","server_os":"Linux","password":true,"vac":true,"version":"7961495","steam_id":85568392925397853,"keywords":["cp","nocrits","nodmgspread","uncletopia"],"game_id":440,"stv_port":27046,"stv_name":"Uncletopia | Warsaw | 4 | All Maps | STV","players":null},{"server_id":53,"name":"Uncletopia | Warsaw | 5 | Stopwatch","name_short":"waw-5","host":"waw-1.pl.uncletopia.com","port":27055,"enabled":true,"region":"eu","cc":"pl","latitude":52.2297,"longitude":21.017532,"reserved":0,"last_update":"0001-01-01T00:00:00Z","name_a2s":"Uncletopia | Warsaw | 5 | Stopwatch","protocol":17,"map":"workshop/koth_bagel_rc6.ugc2514036946","folder":"tf","game":"Team Fortress","app_id":440,"player_count":0,"max_players":24,"Bots":0,"server_type":"Dedicated","server_os":"Linux","password":true,"vac":true,"version":"7961495","steam_id":85568392925397854,"keywords":["cp","nocrits","nodmgspread","uncletopia"],"game_id":440,"stv_port":27056,"stv_name":"Uncletopia | Warsaw | 5 | Stopwatch | STV","players":null},{"server_id":54,"name":"Uncletopia | Warsaw | 6 | Community","name_short":"waw-6","host":"waw-1.pl.uncletopia.com","port":27065,"enabled":true,"region":"eu","cc":"pl","latitude":52.2297,"longitude":21.017532,"reserved":0,"last_update":"0001-01-01T00:00:00Z","name_a2s":"Uncletopia | Warsaw | 6 | Community","protocol":17,"map":"workshop/pl_badwater_pro_v12.ugc2142942074","folder":"tf","game":"Team Fortress","app_id":440,"player_count":4,"max_players":24,"Bots":0,"server_type":"Dedicated","server_os":"Linux","password":true,"vac":true,"version":"7961495","steam_id":85568392925397856,"keywords":["nocrits","nodmgspread","payload","uncletopia"],"game_id":440,"stv_port":27066,"stv_name":"Uncletopia | Warsaw | 6 | Community | STV","players":[{"user_id":5,"name":"Ilovefoxes455","steam_id":76561199352557357,"connected_time":828000000000,"state":"active","ping":68},{"user_id":7,"name":"üá™üá¨ Pharaoh","steam_id":76561198974553024,"connected_time":451000000000,"state":"active","ping":106},{"user_id":8,"name":"Balls","steam_id":76561198086400484,"connected_time":363000000000,"state":"active","ping":65},{"user_id":9,"name":"Sheerluck Holmes","steam_id":76561198051161936,"connected_time":307000000000,"state":"active","ping":60}]}]}