{"status":true,"message":"","result":[{"server_id":9,"name":"Uncletopia | Atlanta | 1 | All Maps","name_short":"atl-1","host":"atl-1.us.uncletopia.com","port":27015,"enabled":true,"region":"us-east","cc":"us","latitude":33.753746,"longitude":-84.38633,"reserved":0,"last_update":"0001-01-01T00:00:00Z","name_a2s":"Uncletopia | Atlanta | 1 | All Maps","protocol":17,"map":"pl_snowycoast","folder":"tf","game":"Team Fortress","app_id":440,"player_count":24,"max_players":24,"Bots":0,"server_type":"Dedicated","server_os":"Linux","password":true,"vac":true,"version":"7961495","steam_id":85568392924469982,"keywords":["nocrits","nodmgspread","payload","uncletopia"],"game_id":440,"stv_port":27016,"stv_name":"Uncletopia | Atlanta | 1 | All Maps | STV","players":[{"user_id":130,"name":"substance","steam_id":76561198050103868,"connected_time":313000000000,"state":"active","ping":78},{"user_id":80,"name":"t.tv/ibbKitty  ∑:3","steam_id":76561198110858518,"connected_time":5706000000000,"state":"active","ping":88},{"user_id":12,"name":"Ashes!","steam_id":76561197998475441,"connected_time":10890000000000,"state":"active","ping":63},{"user_id":87,"name":"Sunny D+","steam_id":76561197999371052,"connected_time":5410000000000,"state":"active","ping":75},{"user_id":132,"name":"TAXFARMER11","steam_id":76561198889579299,"connected_time":257000000000,"state":"active","ping":60},{"user_id":83,"name":"MaHy","steam_id":76561199228640619,"connected_time":5667000000000,"state":"active","ping":67},{"user_id":134,"name":"dantheman","steam_id":76561199486390813,"connected_time":223000000000,"state":"active","ping":59},{"user_id":68,"name":"Boxpipe","steam_id":76561197964501915,"connected_time":6967000000000,"state":"active","ping":90},{"user_id":120,"name":"Sinta","steam_id":76561198098398841,"connected_time":1327000000000,"state":"active","ping":60},{"user_id":117,"name":"FallenMeeps","steam_id":76561199170916789,"connected_time":1336000000000,"state":"active","ping":84},{"user_id":133,"name":"commander Doc","steam_id":76561199389114520,"connected_time":249000000000,"state":"active","ping":92},{"user_id":104,"name":"Λlxium","steam_id":76561198131272900,"connected_time":3275000000000,"state":"active","ping":85},{"user_id":128,"name":"Ace Attorney","steam_id":76561198133011705,"connected_time":389000000000,"state":"active","ping":59},{"user_id":131,"name":"Drinkable Milk","steam_id":76561199418706430,"connected_time":295000000000,"state":"active","ping":70},{"user_id":124,"name":"*‧˚kitsu ʚ♥ɞ","steam_id":76561198091741658,"connected_time":741000000000,"state":"active","ping":81},{"user_id":113,"name":"fishe","steam_id":76561198406114836,"connected_time":2224000000000,"state":"active","ping":60},{"user_id":111,"name":"jpuck","steam_id":76561198025018960,"connected_time":2412000000000,"state":"active","ping":45},{"user_id":125,"name":"com lag","steam_id":76561198019019392,"connected_time":741000000000,"state":"active","ping":58},{"user_id":110,"name":"KhorneBread ︻デ 一","steam_id":76561198097069958,"connected_time":2709000000000,"state":"active","ping":75},{"user_id":118,"name":"MinimanC","steam_id":76561198071475084,"connected_time":1335000000000,"state":"active","ping":75},{"user_id":102,"name":"gun slippin under","steam_id":76561198275265806,"connected_time":3342000000000,"state":"active","ping":60},{"user_id":106,"name":"Night time Dan","steam_id":76561199022178492,"connected_time":3026000000000,"state":"active","ping":49},{"user_id":135,"name":"Hamlindigo Blue™","steam_id":76561198116337540,"connected_time":210000000000,"state":"active","ping":102},{"user_id":123,"name":"Hyper","steam_id":76561199102864718,"connected_time":1096000000000,"state":"active","ping":84}]},{"server_id":104,"name":"Uncletopia | Atlanta | 2 | All Maps","name_short":"atl-2","host":"atl-1.us.uncletopia.com","port":27025,"enabled":true,"region":"us-east","cc":"us","latitude":33.753746,"longitude":-84.38633,"reserved":0,"last_update":"0001-01-01T00:00:00Z","name_a2s":"Uncletopia | Atlanta | 2 | All Maps","protocol":17,"map":"pl_upward","folder":"tf","game":"Team Fortress","app_id":440,"player_count":1,"max_players":24,"Bots":0,"server_type":"Dedicated","server_os":"Linux","password":true,"vac":true,"version":"7961495","steam_id":85568392924469983,"keywords":["nocrits","nodmgspread","payload","uncletopia"],"game_id":440,"stv_port":27026,"stv_name":"Uncletopia | Atlanta | 2 | All Maps | STV","players":[{"user_id":18,"name":"MARIOPARTYDSFAN","steam_id":76561198872122117,"connected_time":451000000000,"state":"active","ping":73}]},{"server_id":400,"name":"Uncletopia | Atlanta | 3 | Stopwatch","name_short":"atl-3","host":"atl-1.us.uncletopia.com","port":27035,"enabled":true,"region":"us-east","cc":"us","latitude":33.753746,"longitude":-84.38633,"reserved":0,"last_update":"0001-01-01T00:00:00Z","name_a2s":"Uncletopia | Atlanta | 3 | Stopwatch","protocol":17,"map":"workshop/pl_badwater_pro_v12.ugc2142942074","folder":"tf","game":"Team Fortress","app_id":440,"player_count":24,"max_players":24,"Bots":0,"server_type":"Dedicated","server_os":"Linux","password":true,"vac":true,"version":"7961495","steam_id":85568392924515187,"keywords":["nocrits","nodmgspread","payload","uncletopia"],"game_id":440,"stv_port":27036,"stv_name":"Uncletopia | Atlanta | 3 | Stopwatch | STV","players":[{"user_id":197,"name":"cuerpo destrozado en la calle","steam_id":76561198194471251,"connected_time":1950000000000,"state":"active","ping":40},{"user_id":225,"name":"the grunch","steam_id":76561199013160273,"connected_time":78000000000,"state":"active","ping":48},{"user_id":210,"name":"Sleepy","steam_id":76561198978688451,"connected_time":1067000000000,"state":"active","ping":60},{"user_id":208,"name":"ts","steam_id":76561198384120999,"connected_time":1301000000000,"state":"active","ping":73},{"user_id":196,"name":"freyja","steam_id":76561198249206656,"connected_time":1974000000000,"state":"active","ping":88},{"user_id":226,"name":"Hater","steam_id":76561198124685704,"connected_time":39000000000,"state":"active","ping":83},{"user_id":211,"name":"comet sooicidy","steam_id":76561198025173479,"connected_time":1030000000000,"state":"active","ping":87},{"user_id":206,"name":"e0e0","steam_id":76561198293839750,"connected_time":1555000000000,"state":"active","ping":60},{"user_id":160,"name":"Dick to ball ratio","steam_id":76561198072205512,"connected_time":4899000000000,"state":"active","ping":90},{"user_id":167,"name":"VampBoiClique","steam_id":76561198100942212,"connected_time":4227000000000,"state":"active","ping":60},{"user_id":216,"name":"snugglebug","steam_id":76561199489391928,"connected_time":809000000000,"state":"active","ping":63},{"user_id":218,"name":"Lost CS2 player","steam_id":76561198892387723,"connected_time":778000000000,"state":"active","ping":65},{"user_id":219,"name":"kratomSnorter.1quarter","steam_id":76561198946987511,"connected_time":741000000000,"state":"active","ping":81},{"user_id":223,"name":"Davidredface","steam_id":76561198298143294,"connected_time":388000000000,"state":"active","ping":103},{"user_id":184,"name":"nines","steam_id":76561198078992548,"connected_time":3185000000000,"state":"active","ping":59},{"user_id":175,"name":"Leeous","steam_id":76561198081083248,"connected_time":3732000000000,"state":"active","ping":63},{"user_id":220,"name":"weedexperiment","steam_id":76561198083975056,"connected_time":664000000000,"state":"active","ping":66},{"user_id":169,"name":"Grandma Fleece","steam_id":76561199013752329,"connected_time":4165000000000,"state":"active","ping":74},{"user_id":189,"name":"Heathcliff","steam_id":76561198044288534,"connected_time":2572000000000,"state":"active","ping":79},{"user_id":227,"name":"the keebler","steam_id":76561199486326945,"connected_time":21000000000,"state":"active","ping":69},{"user_id":127,"name":"SCATTER","steam_id":76561198405168492,"connected_time":7264000000000,"state":"active","ping":81},{"user_id":221,"name":"NegativeZero","steam_id":76561199166054854,"connected_time":642000000000,"state":"active","ping":93},{"user_id":200,"name":"Timmy The Tyrant","steam_id":76561199156409732,"connected_time":1943000000000,"state":"active","ping":82},{"user_id":224,"name":"pluto","steam_id":76561198354990729,"connected_time":194000000000,"state":"active","ping":88}]},{"server_id":401,"name":"Uncletopia | Atlanta | 4 | Community","name_short":"atl-4","host":"atl-1.us.uncletopia.com","port":27045,"enabled":true,"region":"us-east","cc":"us","latitude":33.753746,"longitude":-84.38633,"reserved":0,"last_update":"0001-01-01T00:00:00Z","name_a2s":"Uncletopia | Atlanta | 4 | Community","protocol":17,"map":"workshop/pl_phoenix_b4a.ugc2969509359","folder":"tf","game":"Team Fortress","app_id":440,"player_count":0,"max_players":24,"Bots":0,"server_type":"Dedicated","server_os":"Linux","password":true,"vac":true,"version":"7961495","steam_id":85568392924515188,"keywords":["nocrits","nodmgspread","payload","uncletopia"],"game_id":440,"stv_port":27046,"stv_name":"Uncletopia | Atlanta | 4 | Community | STV","players":null},{"server_id":2,"name":"Uncletopia | Chicago | 1 | All Maps","name_short":"chi-1","host":"chi-1.us.uncletopia.com","port":27015,"enabled":true,"region":"us-central","cc":"us","latitude":41.881832,"longitude":-87.62318,"reserved":0,"last_update":"0001-01-01T00:00:00Z","name_a2s":"Uncletopia | Chicago | 1 | All Maps","protocol":17,"map":"cp_gullywash_final1","folder":"tf","game":"Team Fortress","app_id":440,"player_count":24,"max_players":24,"Bots":0,"server_type":"Dedicated","server_os":"Linux","password":true,"vac":true,"version":"7961495","steam_id":85568392924469984,"keywords":["cp","nocrits","nodmgspread","uncletopia"],"game_id":440,"stv_port":27016,"stv_name":"Uncletopia | Chicago | 1 | All Maps | STV","players":[{"user_id":59,"name":"hunrah","steam_id":76561198185509070,"connected_time":131000000000,"state":"active","ping":58},{"user_id":21,"name":"Temper","steam_id":76561199042184132,"connected_time":1688000000000,"state":"active","ping":72},{"user_id":13,"name":"supbreak20","steam_id":76561199121826901,"connected_time":2211000000000,"state":"active","ping":76},{"user_id":14,"name":"Verily","steam_id":76561198200558318,"connected_time":2211000000000,"state":"active","ping":75},{"user_id":15,"name":"Dr.StrangeGlove","steam_id":76561198286114229,"connected_time":2136000000000,"state":"active","ping":85},{"user_id":49,"name":"MausWaffles","steam_id":76561198193160991,"connected_time":758000000000,"state":"active","ping":83},{"user_id":46,"name":"Gibs Degrossi","steam_id":76561198066152609,"connected_time":948000000000,"state":"active","ping":59},{"user_id":58,"name":"TerraPixel","steam_id":76561199220537574,"connected_time":143000000000,"state":"active","ping":68},{"user_id":20,"name":"Natsuki the Scunt","steam_id":76561199175922684,"connected_time":1724000000000,"state":"active","ping":105},{"user_id":24,"name":"Josh05jacob10","steam_id":76561199434688521,"connected_time":1622000000000,"state":"active","ping":68},{"user_id":25,"name":"NUt","steam_id":76561198031007966,"connected_time":1618000000000,"state":"active","ping":85},{"user_id":31,"name":"Osteo-Oligarch","steam_id":76561198164731896,"connected_time":1382000000000,"state":"active","ping":72},{"user_id":27,"name":"capybara","steam_id":76561198798828328,"connected_time":1562000000000,"state":"active","ping":54},{"user_id":28,"name":"lordstinkdemon666","steam_id":76561198073914311,"connected_time":1525000000000,"state":"active","ping":97},{"user_id":29,"name":"toucan","steam_id":76561198016562343,"connected_time":1473000000000,"state":"active","ping":61},{"user_id":30,"name":"redzach","steam_id":76561198444094359,"connected_time":1461000000000,"state":"active","ping":57},{"user_id":60,"name":"iUseDvorak","steam_id":76561198064439037,"connected_time":30000000000,"state":"active","ping":61},{"user_id":33,"name":"drift","steam_id":76561198093781093,"connected_time":1378000000000,"state":"active","ping":55},{"user_id":38,"name":"Adam9","steam_id":76561198272853331,"connected_time":1296000000000,"state":"active","ping":67},{"user_id":56,"name":"lightcatnap","steam_id":76561199385584854,"connected_time":195000000000,"state":"active","ping":45},{"user_id":54,"name":"sickomode123","steam_id":76561198975511346,"connected_time":340000000000,"state":"active","ping":91},{"user_id":47,"name":"Disqrace","steam_id":76561198147436653,"connected_time":942000000000,"state":"active","ping":150},{"user_id":42,"name":"soup","steam_id":76561198309226058,"connected_time":1211000000000,"state":"active","ping":156},{"user_id":48,"name":"dictator putski","steam_id":76561198118821862,"connected_time":942000000000,"state":"active","ping":141}]},{"server_id":106,"name":"Uncletopia | Chicago | 2 | All Maps","name_short":"chi-2","host":"chi-1.us.uncletopia.com","port":27025,"enabled":true,"region":"us-central","cc":"us","latitude":41.881832,"longitude":-87.62318,"reserved":0,"last_update":"0001-01-01T00:00:00Z","name_a2s":"Uncletopia | Chicago | 2 | All Maps","protocol":17,"map":"cp_sunshine","folder":"tf","game":"Team Fortress","app_id":440,"player_count":24,"max_players":24,"Bots":0,"server_type":"Dedicated","server_os":"Linux","password":true,"vac":true,"version":"7961495","steam_id":85568392924469985,"keywords":["cp","nocrits","nodmgspread","uncletopia"],"game_id":440,"stv_port":27026,"stv_name":"Uncletopia | Chicago | 2 | All Maps | STV","players":[{"user_id":342,"name":"Huntpk","steam_id":76561198340591674,"connected_time":804000000000,"state":"active","ping":83},{"user_id":197,"name":"ุ","steam_id":76561198118480346,"connected_time":12557000000000,"state":"active","ping":65},{"user_id":260,"name":"boykissing? YES PLEASE!","steam_id":76561198063970639,"connected_time":6590000000000,"state":"active","ping":75},{"user_id":318,"name":"Wavecheck#drownsyndrome","steam_id":76561198132068284,"connected_time":1860000000000,"state":"active","ping":75},{"user_id":344,"name":"Cavy47","steam_id":76561198894035122,"connected_time":243000000000,"state":"active","ping":56},{"user_id":311,"name":"Fake","steam_id":76561198282894422,"connected_time":3505000000000,"state":"active","ping":58},{"user_id":346,"name":"Andrew","steam_id":76561198070615190,"connected_time":164000000000,"state":"active","ping":60},{"user_id":340,"name":"Mr. Tickle","steam_id":76561198126684647,"connected_time":1347000000000,"state":"active","ping":77},{"user_id":289,"name":"Scooty.","steam_id":76561198138990283,"connected_time":5308000000000,"state":"active","ping":64},{"user_id":307,"name":"Orb","steam_id":76561198353963523,"connected_time":3756000000000,"state":"active","ping":94},{"user_id":321,"name":"Reed","steam_id":76561198102058669,"connected_time":1829000000000,"state":"active","ping":82},{"user_id":312,"name":"Whoopsy","steam_id":76561198128103529,"connected_time":3477000000000,"state":"active","ping":71},{"user_id":317,"name":"BurgerPizza","steam_id":76561198151256410,"connected_time":2418000000000,"state":"active","ping":141},{"user_id":320,"name":"ṽ⧉ cookie","steam_id":76561197998884823,"connected_time":1842000000000,"state":"active","ping":72},{"user_id":339,"name":"Aztea","steam_id":76561198982089893,"connected_time":1606000000000,"state":"active","ping":78},{"user_id":258,"name":"crab","steam_id":76561199094011002,"connected_time":6736000000000,"state":"active","ping":47},{"user_id":350,"name":"Blake Belladonna","steam_id":76561198010169911,"connected_time":27000000000,"state":"active","ping":97},{"user_id":341,"name":"The Washer of Dishes","steam_id":76561198028157625,"connected_time":1162000000000,"state":"active","ping":100},{"user_id":348,"name":"Iron Argus","steam_id":76561198181088245,"connected_time":136000000000,"state":"active","ping":64},{"user_id":310,"name":"kapooya","steam_id":76561198353456379,"connected_time":3549000000000,"state":"active","ping":64},{"user_id":294,"name":"slimeball","steam_id":76561198165332029,"connected_time":4618000000000,"state":"active","ping":45},{"user_id":287,"name":"Alshek","steam_id":76561198115594676,"connected_time":5489000000000,"state":"active","ping":60},{"user_id":277,"name":"Yeti™","steam_id":76561199151545966,"connected_time":5754000000000,"state":"active","ping":71},{"user_id":349,"name":"MackDaddy69","steam_id":76561198060121935,"connected_time":97000000000,"state":"active","ping":66}]},{"server_id":402,"name":"Uncletopia | Chicago | 3 | All Maps","name_short":"chi-3","host":"chi-1.us.uncletopia.com","port":27035,"enabled":true,"region":"us-central","cc":"us","latitude":41.881832,"longitude":-87.62318,"reserved":0,"last_update":"0001-01-01T00:00:00Z","name_a2s":"Uncletopia | Chicago | 3 | All Maps","protocol":17,"map":"cp_gorge","folder":"tf","game":"Team Fortress","app_id":440,"player_count":0,"max_players":24,"Bots":0,"server_type":"Dedicated","server_os":"Linux","password":true,"vac":true,"version":"7961495","steam_id":85568392924515191,"keywords":["cp","nocrits","nodmgspread","uncletopia"],"game_id":440,"stv_port":27036,"stv_name":"Uncletopia | Chicago | 3 | All Maps | STV","players":null},{"server_id":403,"name":"Uncletopia | Chicago | 4 | All Maps","name_short":"chi-4","host":"chi-1.us.uncletopia.com","port":27045,"enabled":true,"region":"us-central","cc":"us","latitude":41.881832,"longitude":-87.62318,"reserved":0,"last_update":"0001-01-01T00:00:00Z","name_a2s":"Uncletopia | Chicago | 4 | All Maps","protocol":17,"map":"koth_viaduct","folder":"tf","game":"Team Fortress","app_id":440,"player_count":0,"max_players":24,"Bots":0,"server_type":"Dedicated","server_os":"Linux","password":true,"vac":true,"version":"7961495","steam_id":85568392924515193,"keywords":["cp","nocrits","nodmgspread","uncletopia"],"game_id":440,"stv_port":27046,"stv_name":"Uncletopia | Chicago | 4 | All Maps | STV","players":null},{"server_id":36,"name":"Uncletopia | Chicago | 5 | All Maps","name_short":"chi-5","host":"chi-2.us.uncletopia.com","port":27015,"enabled":true,"region":"us-central","cc":"us","latitude":41.881832,"longitude":-87.62318,"reserved":0,"last_update":"0001-01-01T00:00:00Z","name_a2s":"Uncletopia | Chicago | 5 | All Maps","protocol":17,"map":"cp_mercenarypark","folder":"tf","game":"Team Fortress","app_id":440,"player_count":0,"max_players":24,"Bots":0,"server_type":"Dedicated","server_os":"Linux","password":true,"vac":true,"version":"7961495","steam_id":85568392924866362,"keywords":["cp","nocrits","nodmgspread","uncletopia"],"game_id":440,"stv_port":27016,"stv_name":"Uncletopia | Chicago | 5 | All Maps | STV","players":null},{"server_id":37,"name":"Uncletopia | Chicago | 6 | All Maps","name_short":"chi-6","host":"chi-2.us.uncletopia.com","port":27025,"enabled":true,"region":"us-central","cc":"us","latitude":41.881832,"longitude":-87.62318,"reserved":0,"last_update":"0001-01-01T00:00:00Z","name_a2s":"Uncletopia | Chicago | 6 | All Maps","protocol":17,"map":"cp_sunshine","folder":"tf","game":"Team Fortress","app_id":440,"player_count":0,"max_players":24,"Bots":0,"server_type":"Dedicated","server_os":"Linux","password":true,"vac":true,"version":"7961495","steam_id":85568392924866363,"keywords":["cp","nocrits","nodmgspread","uncletopia"],"game_id":440,"stv_port":27026,"stv_name":"Uncletopia | Chicago | 6 | All Maps | STV","players":null},{"server_id":38,"name":"Uncletopia | Chicago | 7 | Stopwatch","name_short":"chi-7","host":"chi-2.us.uncletopia.com","port":27035,"enabled":true,"region":"us-central","cc":"us","latitude":41.881832,"longitude":-87.62318,"reserved":0,"last_update":"0001-01-01T00:00:00Z","name_a2s":"Uncletopia | Chicago | 7 | Stopwatch","protocol":17,"map":"cp_granary","folder":"tf","game":"Team Fortress","app_id":440,"player_count":0,"max_players":24,"Bots":0,"server_type":"Dedicated","server_os":"Linux","password":true,"vac":true,"version":"7961495","steam_id":85568392924866364,"keywords":["cp","nocrits","nodmgspread","uncletopia"],"game_id":440,"stv_port":27036,"stv_name":"Uncletopia | Chicago | 7 | Stopwatch | STV","players":null},{"server_id":39,"name":"Uncletopia | Chicago | 8 | Community","name_short":"chi-8","host":"chi-2.us.uncletopia.com","port":27045,"enabled":true,"region":"us-central","cc":"us","latitude":41.881832,"longitude":-87.62318,"reserved":0,"last_update":"0001-01-01T00:00:00Z","name_a2s":"Uncletopia | Chicago | 8 | Community","protocol":17,"map":"workshop/cp_caldera_rc3.ugc2834196889","folder":"tf","game":"Team Fortress","app_id":440,"player_count":0,"max_players":24,"Bots":0,"server_type":"Dedicated","server_os":"Linux","password":true,"vac":true,"version":"7961495","steam_id":85568392924866365,"keywords":["cp","nocrits","nodmgspread","uncletopia"],"game_id":440,"stv_port":27046,"stv_name":"Uncletopia | Chicago | 8 | Community | STV","players":null},{"server_id":8,"name":"Uncletopia | Dallas | 1 | All Maps","name_short":"dal-1","host":"dal-1.us.uncletopia.com","port":27015,"enabled":true,"region":"us-central","cc":"us","latitude":32.779167,"longitude":-96.80889,"reserved":0,"last_update":"0001-01-01T00:00:00Z","name_a2s":"Uncletopia | Dallas | 1 | All Maps","protocol":17,"map":"koth_lakeside_final","folder":"tf","game":"Team Fortress","app_id":440,"player_count":0,"max_players":24,"Bots":0,"server_type":"Dedicated","server_os":"Linux","password":true,"vac":true,"version":"7961495","steam_id":85568392924469986,"keywords":["cp","nocrits","nodmgspread","uncletopia"],"game_id":440,"stv_port":27016,"stv_name":"Uncletopia | Dallas | 1 | All Maps | STV","players":null},{"server_id":108,"name":"Uncletopia | Dallas | 2 | All Maps","name_short":"dal-2","host":"dal-1.us.uncletopia.com","port":27025,"enabled":true,"region":"us-central","cc":"us","latitude":32.779167,"longitude":-96.80889,"reserved":0,"last_update":"0001-01-01T00:00:00Z","name_a2s":"Uncletopia | Dallas | 2 | All Maps","protocol":17,"map":"cp_sunshine","folder":"tf","game":"Team Fortress","app_id":440,"player_count":0,"max_players":24,"Bots":0,"server_type":"Dedicated","server_os":"Linux","password":true,"vac":true,"version":"7961495","steam_id":85568392924469988,"keywords":["cp","nocrits","nodmgspread","uncletopia"],"game_id":440,"stv_port":27026,"stv_name":"Uncletopia | Dallas | 2 | All Maps | STV","players":null},{"server_id":404,"name":"Uncletopia | Dallas | 3 | All Maps","name_short":"dal-3","host":"dal-1.us.uncletopia.com","port":27035,"enabled":true,"region":"us-central","cc":"us","latitude":32.779167,"longitude":-96.80889,"reserved":0,"last_update":"0001-01-01T00:00:00Z","name_a2s":"Uncletopia | Dallas | 3 | All Maps","protocol":17,"map":"cp_process_final","folder":"tf","game":"Team Fortress","app_id":440,"player_count":0,"max_players":24,"Bots":0,"server_type":"Dedicated","server_os":"Linux","password":true,"vac":true,"version":"7961495","steam_id":85568392924515219,"keywords":["cp","nocrits","nodmgspread","uncletopia"],"game_id":440,"stv_port":27036,"stv_name":"Uncletopia | Dallas | 3 | All Maps | STV","players":null},{"server_id":405,"name":"Uncletopia | Dallas | 4 | Community","name_short":"dal-4","host":"dal-1.us.uncletopia.com","port":27045,"enabled":true,"region":"us-central","cc":"us","latitude":32.779167,"longitude":-96.80889,"reserved":0,"last_update":"0001-01-01T00:00:00Z","name_a2s":"Uncletopia | Dallas | 4 | Community","protocol":17,"map":"workshop/pl_jinn_rc2.ugc2964570577","folder":"tf","game":"Team Fortress","app_id":440,"player_count":24,"max_players":24,"Bots":0,"server_type":"Dedicated","server_os":"Linux","password":true,"vac":true,"version":"7961495","steam_id":85568392924515220,"keywords":["nocrits","nodmgspread","payload","uncletopia"],"game_id":440,"stv_port":27046,"stv_name":"Uncletopia | Dallas | 4 | Community | STV","players":[{"user_id":150,"name":"AFunkyPigeon","steam_id":76561199350099870,"connected_time":2354000000000,"state":"active","ping":63},{"user_id":174,"name":"FXX K","steam_id":76561198050167392,"connected_time":732000000000,"state":"active","ping":76},{"user_id":173,"name":"rodrick rules hardback cover","steam_id":76561198823526581,"connected_time":844000000000,"state":"active","ping":96},{"user_id":127,"name":"Metbol","steam_id":76561198001362410,"connected_time":4231000000000,"state":"active","ping":68},{"user_id":181,"name":"Joey","steam_id":76561198800763351,"connected_time":460000000000,"state":"active","ping":81},{"user_id":106,"name":"Tony","steam_id":76561198169799653,"connected_time":5680000000000,"state":"active","ping":60},{"user_id":142,"name":"Grumpy Bird","steam_id":76561198819881664,"connected_time":3167000000000,"state":"active","ping":87},{"user_id":49,"name":"nefarious criminal","steam_id":76561198077506415,"connected_time":9182000000000,"state":"active","ping":78},{"user_id":152,"name":"PapaSmurf","steam_id":76561199201107408,"connected_time":2281000000000,"state":"active","ping":78},{"user_id":50,"name":"Gimme your Teeth","steam_id":76561198240523882,"connected_time":9182000000000,"state":"active","ping":76},{"user_id":117,"name":"greenpeace","steam_id":76561197983221708,"connected_time":4674000000000,"state":"active","ping":124},{"user_id":157,"name":"I LOVE GOONING","steam_id":76561199097367107,"connected_time":2016000000000,"state":"active","ping":80},{"user_id":175,"name":"swooce","steam_id":76561198156232484,"connected_time":577000000000,"state":"active","ping":93},{"user_id":186,"name":"no vc no c","steam_id":76561197989503095,"connected_time":133000000000,"state":"active","ping":177},{"user_id":185,"name":"Healing Potion","steam_id":76561198446549451,"connected_time":169000000000,"state":"active","ping":102},{"user_id":163,"name":"pathulhu","steam_id":76561198323941614,"connected_time":1547000000000,"state":"active","ping":44},{"user_id":153,"name":"Drunk Heroism","steam_id":76561198053788253,"connected_time":2257000000000,"state":"active","ping":92},{"user_id":164,"name":"Embie","steam_id":76561198358221011,"connected_time":1495000000000,"state":"active","ping":124},{"user_id":182,"name":"teatimesukka","steam_id":76561198978749594,"connected_time":324000000000,"state":"active","ping":43},{"user_id":172,"name":"bungus","steam_id":76561198119604836,"connected_time":884000000000,"state":"active","ping":98},{"user_id":166,"name":"PlatinumBass™","steam_id":76561198267504292,"connected_time":1484000000000,"state":"active","ping":103},{"user_id":118,"name":"Shadoe","steam_id":76561198218577281,"connected_time":4627000000000,"state":"active","ping":74},{"user_id":158,"name":"ThiccKomodoAss","steam_id":76561198037830114,"connected_time":2014000000000,"state":"active","ping":87},{"user_id":179,"name":"bigballerbill1137","steam_id":76561199256682338,"connected_time":543000000000,"state":"active","ping":81}]},{"server_id":5,"name":"Uncletopia | Frankfurt | 1 | All Maps","name_short":"frk-1","host":"frk-1.de.uncletopia.com","port":27015,"enabled":true,"region":"eu","cc":"de","latitude":50.110924,"longitude":8.682127,"reserved":0,"last_update":"0001-01-01T00:00:00Z","name_a2s":"Uncletopia | Frankfurt | 1 | All Maps","protocol":17,"map":"pl_swiftwater_final1","folder":"tf","game":"Team Fortress","app_id":440,"player_count":24,"max_players":24,"Bots":0,"server_type":"Dedicated","server_os":"Linux","password":true,"vac":true,"version":"7961495","steam_id":85568392924469989,"keywords":["nocrits","nodmgspread","payload","uncletopia"],"game_id":440,"stv_port":27016,"stv_name":"Uncletopia | Frankfurt | 1 | All Maps | STV","players":[{"user_id":394,"name":"eep","steam_id":76561198111134021,"connected_time":932000000000,"state":"active","ping":77},{"user_id":360,"name":"WHUSSKEY","steam_id":76561198137827441,"connected_time":2633000000000,"state":"active","ping":72},{"user_id":414,"name":"Mac Bean","steam_id":76561198133782205,"connected_time":288000000000,"state":"active","ping":120},{"user_id":393,"name":"ХАН ЗАМАЙ","steam_id":76561198992528373,"connected_time":969000000000,"state":"active","ping":67},{"user_id":332,"name":"Jeremy265","steam_id":76561199004316549,"connected_time":3750000000000,"state":"active","ping":119},{"user_id":390,"name":"ALL BALLS NO SHAFT","steam_id":76561198028701695,"connected_time":1329000000000,"state":"active","ping":65},{"user_id":382,"name":"Çanak yalayıcı","steam_id":76561198113677852,"connected_time":1784000000000,"state":"active","ping":76},{"user_id":410,"name":"timmy.27","steam_id":76561198063296613,"connected_time":479000000000,"state":"active","ping":60},{"user_id":375,"name":"Optimist 50","steam_id":76561198039631442,"connected_time":2109000000000,"state":"active","ping":84},{"user_id":369,"name":"ANGHENFILOD","steam_id":76561199492622823,"connected_time":2359000000000,"state":"active","ping":51},{"user_id":389,"name":"Veirū Viseris","steam_id":76561197989857176,"connected_time":1369000000000,"state":"active","ping":76},{"user_id":364,"name":"✦ Xayira ✦","steam_id":76561198079566786,"connected_time":2597000000000,"state":"active","ping":59},{"user_id":399,"name":"dog?","steam_id":76561199232839385,"connected_time":883000000000,"state":"active","ping":91},{"user_id":297,"name":"Uselss Joe","steam_id":76561198275853629,"connected_time":5878000000000,"state":"active","ping":54},{"user_id":381,"name":"LivEssense","steam_id":76561198052476979,"connected_time":1824000000000,"state":"active","ping":75},{"user_id":411,"name":"Asfalt","steam_id":76561198891897392,"connected_time":470000000000,"state":"active","ping":78},{"user_id":408,"name":"Hjüvid 19","steam_id":76561198400090968,"connected_time":648000000000,"state":"active","ping":92},{"user_id":396,"name":"t99","steam_id":76561198276103501,"connected_time":912000000000,"state":"active","ping":85},{"user_id":400,"name":"HANoi","steam_id":76561198144300192,"connected_time":880000000000,"state":"active","ping":73},{"user_id":413,"name":"Michael","steam_id":76561198003146906,"connected_time":339000000000,"state":"active","ping":56},{"user_id":345,"name":"Dolmio","steam_id":76561198057071489,"connected_time":3402000000000,"state":"active","ping":62},{"user_id":407,"name":"Dyon B.","steam_id":76561198285690526,"connected_time":735000000000,"state":"active","ping":61},{"user_id":409,"name":"noah","steam_id":76561198099457089,"connected_time":640000000000,"state":"active","ping":77},{"user_id":392,"name":"purpul bastard","steam_id":76561198214429607,"connected_time":994000000000,"state":"active","ping":84}]},{"server_id":110,"name":"Uncletopia | Frankfurt | 2 | All Maps","name_short":"frk-2","host":"frk-1.de.uncletopia.com","port":27025,"enabled":true,"region":"eu","cc":"de","latitude":50.110924,"longitude":8.682127,"reserved":0,"last_update":"0001-01-01T00:00:00Z","name_a2s":"Uncletopia | Frankfurt | 2 | All Maps","protocol":17,"map":"koth_lakeside_final","folder":"tf","game":"Team Fortress","app_id":440,"player_count":24,"max_players":24,"Bots":0,"server_type":"Dedicated","server_os":"Linux","password":true,"vac":true,"version":"7961495","steam_id":85568392924469990,"keywords":["cp","nocrits","nodmgspread","uncletopia"],"game_id":440,"stv_port":27026,"stv_name":"Uncletopia | Frankfurt | 2 | All Maps | STV","players":[{"user_id":227,"name":"Uncle Moomin","steam_id":76561198011628656,"connected_time":182000000000,"state":"active","ping":89},{"user_id":194,"name":"Randomly Colored Master","steam_id":76561198015126961,"connected_time":1660000000000,"state":"active","ping":102},{"user_id":222,"name":"Piss Man","steam_id":76561199079493666,"connected_time":232000000000,"state":"active","ping":76},{"user_id":234,"name":"Subterranean","steam_id":76561198106684566,"connected_time":54000000000,"state":"active","ping":75},{"user_id":189,"name":"Davido01","steam_id":76561198089406245,"connected_time":1918000000000,"state":"active","ping":57},{"user_id":195,"name":"Warrior555MainsGanon","steam_id":76561198388627786,"connected_time":1641000000000,"state":"active","ping":70},{"user_id":169,"name":"Pabs :D","steam_id":76561198000016962,"connected_time":3537000000000,"state":"active","ping":50},{"user_id":191,"name":"Egor Pomidor","steam_id":76561199175688390,"connected_time":1717000000000,"state":"active","ping":76},{"user_id":225,"name":"Jabberjay","steam_id":76561198985149569,"connected_time":219000000000,"state":"active","ping":155},{"user_id":228,"name":"404nonamefound","steam_id":76561198354682115,"connected_time":136000000000,"state":"active","ping":78},{"user_id":198,"name":"zzz","steam_id":76561199167288279,"connected_time":1620000000000,"state":"active","ping":76},{"user_id":229,"name":"Strix","steam_id":76561198015322735,"connected_time":134000000000,"state":"active","ping":62},{"user_id":223,"name":"cl_skinnyboi 1","steam_id":76561198042864708,"connected_time":224000000000,"state":"active","ping":59},{"user_id":209,"name":"dood999","steam_id":76561198111596916,"connected_time":1481000000000,"state":"active","ping":60},{"user_id":199,"name":"Lao","steam_id":76561198004528684,"connected_time":1608000000000,"state":"active","ping":76},{"user_id":224,"name":"Javier dorsaless","steam_id":76561198179324075,"connected_time":224000000000,"state":"active","ping":74},{"user_id":212,"name":"jeff","steam_id":76561198272815746,"connected_time":1298000000000,"state":"active","ping":58},{"user_id":215,"name":"Five Finger Discount","steam_id":76561197994556857,"connected_time":1116000000000,"state":"active","ping":62},{"user_id":232,"name":"mfw0071","steam_id":76561198111713446,"connected_time":82000000000,"state":"active","ping":60},{"user_id":216,"name":"tombouctou","steam_id":76561198065132197,"connected_time":742000000000,"state":"active","ping":121},{"user_id":230,"name":",","steam_id":76561198347020945,"connected_time":122000000000,"state":"active","ping":81},{"user_id":231,"name":"PeskyPlumber","steam_id":76561198241999094,"connected_time":98000000000,"state":"active","ping":54},{"user_id":233,"name":"The Empire Ant","steam_id":76561198082466790,"connected_time":79000000000,"state":"active","ping":57},{"user_id":214,"name":"DVS","steam_id":76561198062909843,"connected_time":1201000000000,"state":"active","ping":56}]},{"server_id":308,"name":"Uncletopia | Frankfurt | 3 | All Maps","name_short":"frk-3","host":"frk-1.de.uncletopia.com","port":27035,"enabled":true,"region":"eu","cc":"de","latitude":50.110924,"longitude":8.682127,"reserved":0,"last_update":"0001-01-01T00:00:00Z","name_a2s":"Uncletopia | Frankfurt | 3 | All Maps","protocol":17,"map":"pl_pier","folder":"tf","game":"Team Fortress","app_id":440,"player_count":24,"max_players":24,"Bots":0,"server_type":"Dedicated","server_os":"Linux","password":true,"vac":true,"version":"7961495","steam_id":85568392924504274,"keywords":["nocrits","nodmgspread","payload","uncletopia"],"game_id":440,"stv_port":27036,"stv_name":"Uncletopia | Frankfurt | 3 | All Maps | STV","players":[{"user_id":255,"name":"gunter_funnyman","steam_id":76561198298432099,"connected_time":232000000000,"state":"active","ping":78},{"user_id":236,"name":"Milfshake","steam_id":76561198208740557,"connected_time":1489000000000,"state":"active","ping":47},{"user_id":210,"name":"breadbear \u003c3","steam_id":76561198036895007,"connected_time":4728000000000,"state":"active","ping":81},{"user_id":223,"name":"TKN_Paps997","steam_id":76561198419868465,"connected_time":3348000000000,"state":"active","ping":83},{"user_id":234,"name":"George W Bush","steam_id":76561198846784757,"connected_time":2027000000000,"state":"active","ping":72},{"user_id":228,"name":"Eric Catman","steam_id":76561198802117294,"connected_time":3002000000000,"state":"active","ping":79},{"user_id":162,"name":"yush","steam_id":76561198121688934,"connected_time":7319000000000,"state":"active","ping":80},{"user_id":237,"name":"Prox","steam_id":76561198351490981,"connected_time":1477000000000,"state":"active","ping":45},{"user_id":235,"name":"Monkey","steam_id":76561199008411791,"connected_time":1517000000000,"state":"active","ping":62},{"user_id":253,"name":"tekszi","steam_id":76561198107220903,"connected_time":257000000000,"state":"active","ping":46},{"user_id":213,"name":"Nick","steam_id":76561198036109469,"connected_time":4652000000000,"state":"active","ping":92},{"user_id":250,"name":"tort","steam_id":76561198147246166,"connected_time":1034000000000,"state":"active","ping":75},{"user_id":185,"name":"Garolt_Knight","steam_id":76561198957445537,"connected_time":5639000000000,"state":"active","ping":92},{"user_id":208,"name":"MHE_HOPM","steam_id":76561199073846518,"connected_time":4997000000000,"state":"active","ping":60},{"user_id":256,"name":"Kahvi","steam_id":76561198723244199,"connected_time":212000000000,"state":"active","ping":89},{"user_id":254,"name":"Powki #TF2Center","steam_id":76561198974462268,"connected_time":241000000000,"state":"active","ping":86},{"user_id":224,"name":"Yonio","steam_id":76561198408428132,"connected_time":3342000000000,"state":"active","ping":67},{"user_id":257,"name":"Qdarks","steam_id":76561198013391340,"connected_time":211000000000,"state":"active","ping":150},{"user_id":241,"name":"Windows Vista Cruiser","steam_id":76561198064102233,"connected_time":1432000000000,"state":"active","ping":67},{"user_id":258,"name":"barbie rockets","steam_id":76561198815271970,"connected_time":195000000000,"state":"active","ping":61},{"user_id":245,"name":"Brown Tank","steam_id":76561198168067738,"connected_time":1386000000000,"state":"active","ping":70},{"user_id":259,"name":"Jesus","steam_id":76561199106262610,"connected_time":192000000000,"state":"active","ping":54},{"user_id":246,"name":"Dave The Sloth","steam_id":76561199135831355,"connected_time":1372000000000,"state":"active","ping":63},{"user_id":248,"name":"A wild Jackdaw has apeared!","steam_id":76561198316333587,"connected_time":1332000000000,"state":"active","ping":52}]},{"server_id":309,"name":"Uncletopia | Frankfurt | 4 | All Maps","name_short":"frk-4","host":"frk-1.de.uncletopia.com","port":27045,"enabled":true,"region":"eu","cc":"de","latitude":50.110924,"longitude":8.682127,"reserved":0,"last_update":"0001-01-01T00:00:00Z","name_a2s":"Uncletopia | Frankfurt | 4 | All Maps","protocol":17,"map":"pl_barnblitz","folder":"tf","game":"Team Fortress","app_id":440,"player_count":24,"max_players":24,"Bots":0,"server_type":"Dedicated","server_os":"Linux","password":true,"vac":true,"version":"7961495","steam_id":85568392924504275,"keywords":["nocrits","nodmgspread","payload","uncletopia"],"game_id":440,"stv_port":27046,"stv_name":"Uncletopia | Frankfurt | 4 | All Maps | STV","players":[{"user_id":29,"name":"GMsU | Smiley","steam_id":76561198121494414,"connected_time":1861000000000,"state":"active","ping":84},{"user_id":34,"name":"GMsU | DaLuigi","steam_id":76561198054486188,"connected_time":1264000000000,"state":"active","ping":45},{"user_id":49,"name":"Giblob","steam_id":76561198261277204,"connected_time":797000000000,"state":"active","ping":83},{"user_id":58,"name":"кекс","steam_id":76561199203525443,"connected_time":577000000000,"state":"active","ping":74},{"user_id":38,"name":"Zoro (Hun)","steam_id":76561199367182571,"connected_time":1072000000000,"state":"active","ping":64},{"user_id":23,"name":"GMsU | Rebikas","steam_id":76561198077053764,"connected_time":2314000000000,"state":"active","ping":44},{"user_id":39,"name":"Lukero","steam_id":76561198301594341,"connected_time":1070000000000,"state":"active","ping":59},{"user_id":53,"name":"samii","steam_id":76561198190939217,"connected_time":705000000000,"state":"active","ping":60},{"user_id":33,"name":"GMsU | Acoul","steam_id":76561198229222992,"connected_time":1456000000000,"state":"active","ping":46},{"user_id":57,"name":"Segra","steam_id":76561198441974031,"connected_time":590000000000,"state":"active","ping":74},{"user_id":41,"name":"NOne","steam_id":76561198002359947,"connected_time":1022000000000,"state":"active","ping":74},{"user_id":64,"name":"I have no enemies","steam_id":76561198983730384,"connected_time":480000000000,"state":"active","ping":111},{"user_id":45,"name":"Chip","steam_id":76561198861519418,"connected_time":872000000000,"state":"active","ping":82},{"user_id":48,"name":"matvejisakov7","steam_id":76561199493568179,"connected_time":808000000000,"state":"active","ping":117},{"user_id":47,"name":"$799 Sak of Cheese","steam_id":76561198066642220,"connected_time":814000000000,"state":"active","ping":59},{"user_id":50,"name":"Technic","steam_id":76561198128096130,"connected_time":788000000000,"state":"active","ping":53},{"user_id":51,"name":"Tomatron","steam_id":76561197981248976,"connected_time":774000000000,"state":"active","ping":77},{"user_id":61,"name":"pablo","steam_id":76561198089285014,"connected_time":528000000000,"state":"active","ping":79},{"user_id":55,"name":"Kewlan","steam_id":76561198042775020,"connected_time":679000000000,"state":"active","ping":76},{"user_id":56,"name":"Pirate duck","steam_id":76561198373484722,"connected_time":662000000000,"state":"active","ping":87},{"user_id":62,"name":"snsmac","steam_id":76561198082821185,"connected_time":515000000000,"state":"active","ping":48},{"user_id":63,"name":"Raivop","steam_id":76561197980854307,"connected_time":498000000000,"state":"active","ping":91},{"user_id":65,"name":"Denialman (Muted)","steam_id":76561198309182092,"connected_time":454000000000,"state":"active","ping":53},{"user_id":67,"name":"giclure :;","steam_id":76561197986362828,"connected_time":390000000000,"state":"active","ping":84}]},{"server_id":310,"name":"Uncletopia | Frankfurt | 5 | All Maps","name_short":"frk-5","host":"frk-1.de.uncletopia.com","port":27055,"enabled":true,"region":"eu","cc":"de","latitude":50.110924,"longitude":8.682127,"reserved":0,"last_update":"0001-01-01T00:00:00Z","name_a2s":"Uncletopia | Frankfurt | 5 | All Maps","protocol":17,"map":"cp_dustbowl","folder":"tf","game":"Team Fortress","app_id":440,"player_count":24,"max_players":24,"Bots":0,"server_type":"Dedicated","server_os":"Linux","password":true,"vac":true,"version":"7961495","steam_id":85568392924504277,"keywords":["cp","nocrits","nodmgspread","uncletopia"],"game_id":440,"stv_port":27056,"stv_name":"Uncletopia | Frankfurt | 5 | All Maps | STV","players":[{"user_id":688,"name":"❤Speedbump❤","steam_id":76561198388690313,"connected_time":1997000000000,"state":"active","ping":56},{"user_id":689,"name":"Sunduchek","steam_id":76561198067934157,"connected_time":1995000000000,"state":"active","ping":126},{"user_id":709,"name":"bigeon","steam_id":76561198078601337,"connected_time":826000000000,"state":"active","ping":81},{"user_id":716,"name":"TJ1212","steam_id":76561199013575313,"connected_time":62000000000,"state":"active","ping":62},{"user_id":690,"name":"KALACH","steam_id":76561198028664460,"connected_time":1994000000000,"state":"active","ping":73},{"user_id":662,"name":"Skaza","steam_id":76561198010292540,"connected_time":3619000000000,"state":"active","ping":83},{"user_id":628,"name":"S@wKa","steam_id":76561198200160028,"connected_time":6024000000000,"state":"active","ping":63},{"user_id":710,"name":"arturtrindade1971","steam_id":76561199229325031,"connected_time":758000000000,"state":"active","ping":101},{"user_id":620,"name":"papa Sloath","steam_id":76561198046382160,"connected_time":6335000000000,"state":"active","ping":57},{"user_id":694,"name":"Peat","steam_id":76561197992168067,"connected_time":1957000000000,"state":"active","ping":74},{"user_id":717,"name":"Whät","steam_id":76561197999285844,"connected_time":62000000000,"state":"active","ping":80},{"user_id":695,"name":"Gibbo","steam_id":76561198021814576,"connected_time":1948000000000,"state":"active","ping":81},{"user_id":674,"name":"Broken Ass","steam_id":76561198138002478,"connected_time":3346000000000,"state":"active","ping":71},{"user_id":703,"name":"Inky (she/her)","steam_id":76561198334042273,"connected_time":1281000000000,"state":"active","ping":66},{"user_id":707,"name":"disposablesuperbread","steam_id":76561199074703607,"connected_time":1176000000000,"state":"active","ping":68},{"user_id":719,"name":"WrytXander","steam_id":76561198067856323,"connected_time":30000000000,"state":"active","ping":80},{"user_id":715,"name":"=OKB= P4NTH3R","steam_id":76561197999204603,"connected_time":144000000000,"state":"active","ping":45},{"user_id":697,"name":"0","steam_id":76561199293036742,"connected_time":1923000000000,"state":"active","ping":55},{"user_id":712,"name":"México","steam_id":76561198238059280,"connected_time":589000000000,"state":"active","ping":195},{"user_id":667,"name":"Woad Raider","steam_id":76561198215485788,"connected_time":3513000000000,"state":"active","ping":75},{"user_id":720,"name":"HawkBear","steam_id":76561198046062963,"connected_time":21000000000,"state":"active","ping":149},{"user_id":702,"name":"Tort","steam_id":76561198329646769,"connected_time":1613000000000,"state":"active","ping":66},{"user_id":679,"name":"Doecheldorf","steam_id":76561198291628630,"connected_time":3191000000000,"state":"active","ping":62}]},{"server_id":311,"name":"Uncletopia | Frankfurt | 6 | All Maps","name_short":"frk-6","host":"frk-1.de.uncletopia.com","port":27065,"enabled":true,"region":"eu","cc":"de","latitude":50.110924,"longitude":8.682127,"reserved":0,"last_update":"0001-01-01T00:00:00Z","name_a2s":"Uncletopia | Frankfurt | 6 | All Maps","protocol":17,"map":"koth_highpass","folder":"tf","game":"Team Fortress","app_id":440,"player_count":8,"max_players":24,"Bots":0,"server_type":"Dedicated","server_os":"Linux","password":true,"vac":true,"version":"7961495","steam_id":85568392924504278,"keywords":["cp","nocrits","nodmgspread","uncletopia"],"game_id":440,"stv_port":27066,"stv_name":"Uncletopia | Frankfurt | 6 | All Maps | STV","players":[{"user_id":12,"name":"Graham","steam_id":76561198062668942,"connected_time":1842000000000,"state":"active","ping":51},{"user_id":14,"name":"Transgender Girl Kisser","steam_id":76561198263263692,"connected_time":1534000000000,"state":"active","ping":61},{"user_id":24,"name":"Waltism","steam_id":76561199447676489,"connected_time":439000000000,"state":"active","ping":82},{"user_id":17,"name":"burritoeater","steam_id":76561199124197813,"connected_time":1216000000000,"state":"active","ping":84},{"user_id":25,"name":"Vava","steam_id":76561199061877557,"connected_time":338000000000,"state":"active","ping":148},{"user_id":21,"name":"rabbit","steam_id":76561199466718294,"connected_time":879000000000,"state":"active","ping":70},{"user_id":26,"name":"asheton225","steam_id":76561199290497029,"connected_time":331000000000,"state":"active","ping":165},{"user_id":23,"name":"Alyx","steam_id":76561198064654326,"connected_time":838000000000,"state":"active","ping":59}]},{"server_id":23,"name":"Uncletopia | Frankfurt | 7 | Stopwatch","name_short":"frk-7","host":"frk-1.de.uncletopia.com","port":27075,"enabled":true,"region":"eu","cc":"de","latitude":50.110924,"longitude":8.682127,"reserved":0,"last_update":"0001-01-01T00:00:00Z","name_a2s":"Uncletopia | Frankfurt | 7 | Stopwatch","protocol":17,"map":"workshop/cp_process_f12.ugc2302948105","folder":"tf","game":"Team Fortress","app_id":440,"player_count":0,"max_players":24,"Bots":0,"server_type":"Dedicated","server_os":"Linux","password":true,"vac":true,"version":"7961495","steam_id":85568392924742827,"keywords":["cp","nocrits","nodmgspread","uncletopia"],"game_id":440,"stv_port":27076,"stv_name":"Uncletopia | Frankfurt | 7 | Stopwatch | STV","players":null},{"server_id":24,"name":"Uncletopia | Frankfurt | 8 | Community","name_short":"frk-8","host":"frk-1.de.uncletopia.com","port":27085,"enabled":true,"region":"eu","cc":"de","latitude":50.110924,"longitude":8.682127,"reserved":0,"last_update":"0001-01-01T00:00:00Z","name_a2s":"Uncletopia | Frankfurt | 8 | Community","protocol":17,"map":"workshop/koth_relic_rc3.ugc2965301326","folder":"tf","game":"Team Fortress","app_id":440,"player_count":0,"max_players":24,"Bots":0,"server_type":"Dedicated","server_os":"Linux","password":true,"vac":true,"version":"7961495","steam_id":85568392924742828,"keywords":["cp","nocrits","nodmgspread","uncletopia"],"game_id":440,"stv_port":27086,"stv_name":"Uncletopia | Frankfurt | 8 | Community | STV","players":null},{"server_id":202,"name":"Uncletopia | Hong Kong | 1 | All Maps","name_short":"hgk-1","host":"hgk-1.hk.uncletopia.com","port":27015,"enabled":true,"region":"asia","cc":"hk","latitude":22.302711,"longitude":114.177216,"reserved":0,"last_update":"0001-01-01T00:00:00Z","name_a2s":"Uncletopia | Hong Kong | 1 | All Maps","protocol":17,"map":"cp_snakewater_final1","folder":"tf","game":"Team Fortress","app_id":440,"player_count":5,"max_players":24,"Bots":0,"server_type":"Dedicated","server_os":"Linux","password":true,"vac":true,"version":"7961495","steam_id":85568392924494504,"keywords":["cp","nocrits","nodmgspread","uncletopia"],"game_id":440,"stv_port":27016,"stv_name":"Uncletopia | Hong Kong | 1 | All Maps | STV","players":[{"user_id":410,"name":"lawsh","steam_id":76561199077904976,"connected_time":1343000000000,"state":"active","ping":247},{"user_id":411,"name":"ywo","steam_id":76561198840274820,"connected_time":980000000000,"state":"active","ping":67},{"user_id":412,"name":"i will sex you","steam_id":76561198997267036,"connected_time":9000000000,"state":"spawning","ping":54},{"user_id":396,"name":"GAMA","steam_id":76561198049755630,"connected_time":3886000000000,"state":"active","ping":101},{"user_id":181,"name":"Impetus","steam_id":76561198213031155,"connected_time":24838000000000,"state":"active","ping":90}]},{"server_id":1,"name":"Uncletopia | Los Angeles | 1 | All Maps","name_short":"lax-1","host":"lax-1.us.uncletopia.com","port":27015,"enabled":true,"region":"us-west","cc":"us","latitude":33.94279,"longitude":-118.41004,"reserved":0,"last_update":"0001-01-01T00:00:00Z","name_a2s":"Uncletopia | Los Angeles | 1 | All Maps","protocol":17,"map":"koth_lakeside_final","folder":"tf","game":"Team Fortress","app_id":440,"player_count":0,"max_players":24,"Bots":0,"server_type":"Dedicated","server_os":"Linux","password":true,"vac":true,"version":"7961495","steam_id":85568392924469991,"keywords":["cp","nocrits","nodmgspread","uncletopia"],"game_id":440,"stv_port":27016,"stv_name":"Uncletopia | Los Angeles | 1 | All Maps | STV","players":null},{"server_id":112,"name":"Uncletopia | Los Angeles | 2 | All Maps","name_short":"lax-2","host":"lax-1.us.uncletopia.com","port":27025,"enabled":true,"region":"us-west","cc":"us","latitude":33.94279,"longitude":-118.41004,"reserved":0,"last_update":"0001-01-01T00:00:00Z","name_a2s":"Uncletopia | Los Angeles | 2 | All Maps","protocol":17,"map":"koth_lazarus","folder":"tf","game":"Team Fortress","app_id":440,"player_count":0,"max_players":24,"Bots":0,"server_type":"Dedicated","server_os":"Linux","password":true,"vac":true,"version":"7961495","steam_id":85568392924469992,"keywords":["cp","nocrits","nodmgspread","uncletopia"],"game_id":440,"stv_port":27026,"stv_name":"Uncletopia | Los Angeles | 2 | All Maps | STV","players":null},{"server_id":324,"name":"Uncletopia | Los Angeles | 3 | All Maps","name_short":"lax-3","host":"lax-1.us.uncletopia.com","port":27035,"enabled":true,"region":"us-west","cc":"us","latitude":33.94279,"longitude":-118.41004,"reserved":0,"last_update":"0001-01-01T00:00:00Z","name_a2s":"Uncletopia | Los Angeles | 3 | All Maps","protocol":17,"map":"pl_frontier_final","folder":"tf","game":"Team Fortress","app_id":440,"player_count":0,"max_players":24,"Bots":0,"server_type":"Dedicated","server_os":"Linux","password":true,"vac":true,"version":"7961495","steam_id":85568392924510198,"keywords":["nocrits","nodmgspread","payload","uncletopia"],"game_id":440,"stv_port":27036,"stv_name":"Uncletopia | Los Angeles | 3 | All Maps | STV","players":null},{"server_id":25,"name":"Uncletopia | Los Angeles | 4 | Stopwatch","name_short":"lax-4","host":"lax-1.us.uncletopia.com","port":27045,"enabled":true,"region":"us-west","cc":"us","latitude":33.94279,"longitude":-118.41004,"reserved":0,"last_update":"0001-01-01T00:00:00Z","name_a2s":"Uncletopia | Los Angeles | 4 | Stopwatch","protocol":17,"map":"pl_upward","folder":"tf","game":"Team Fortress","app_id":440,"player_count":0,"max_players":24,"Bots":0,"server_type":"Dedicated","server_os":"Linux","password":true,"vac":true,"version":"7961495","steam_id":85568392924510199,"keywords":["nocrits","nodmgspread","payload","uncletopia"],"game_id":440,"stv_port":27046,"stv_name":"Uncletopia | Los Angeles | 4 | Stopwatch | STV","players":null},{"server_id":11,"name":"Uncletopia | London | 1 | All Maps","name_short":"lon-1","host":"lon-1.uk.uncletopia.com","port":27015,"enabled":true,"region":"eu","cc":"gb","latitude":51.509865,"longitude":-0.118092,"reserved":0,"last_update":"0001-01-01T00:00:00Z","name_a2s":"Uncletopia | London | 1 | All Maps","protocol":17,"map":"koth_harvest_final","folder":"tf","game":"Team Fortress","app_id":440,"player_count":24,"max_players":24,"Bots":0,"server_type":"Dedicated","server_os":"Linux","password":true,"vac":true,"version":"7961495","steam_id":85568392924367362,"keywords":["cp","nocrits","nodmgspread","uncletopia"],"game_id":440,"stv_port":27016,"stv_name":"Uncletopia | London | 1 | All Maps | STV","players":[{"user_id":367,"name":"Laru","steam_id":76561197998838438,"connected_time":9368000000000,"state":"active","ping":81},{"user_id":480,"name":"Meowcoxi","steam_id":76561199407632710,"connected_time":1199000000000,"state":"active","ping":54},{"user_id":483,"name":"Archer","steam_id":76561197994239444,"connected_time":309000000000,"state":"active","ping":106},{"user_id":474,"name":"itransition UKRAINE","steam_id":76561198080912087,"connected_time":1702000000000,"state":"active","ping":60},{"user_id":476,"name":"Aaron","steam_id":76561197990046953,"connected_time":1525000000000,"state":"active","ping":56},{"user_id":370,"name":"Watch The Matrix 1999 HD online","steam_id":76561198168207306,"connected_time":9344000000000,"state":"active","ping":98},{"user_id":443,"name":"ʰᵘᵉ","steam_id":76561198446852844,"connected_time":2725000000000,"state":"active","ping":73},{"user_id":464,"name":"ber.","steam_id":76561197993892057,"connected_time":1950000000000,"state":"active","ping":89},{"user_id":481,"name":"The Boss","steam_id":76561198426522902,"connected_time":1173000000000,"state":"active","ping":53},{"user_id":467,"name":"Lyra","steam_id":76561198043601838,"connected_time":1917000000000,"state":"active","ping":60},{"user_id":479,"name":"wk ohw","steam_id":76561198106049954,"connected_time":1265000000000,"state":"active","ping":76},{"user_id":486,"name":"Umme","steam_id":76561198053809566,"connected_time":86000000000,"state":"active","ping":84},{"user_id":482,"name":"Minimi","steam_id":76561198873850443,"connected_time":601000000000,"state":"active","ping":48},{"user_id":475,"name":"val.","steam_id":76561198039196844,"connected_time":1701000000000,"state":"active","ping":88},{"user_id":437,"name":"amy","steam_id":76561198110757262,"connected_time":3113000000000,"state":"active","ping":57},{"user_id":262,"name":"Pride moth","steam_id":76561198799133372,"connected_time":18702000000000,"state":"active","ping":95},{"user_id":403,"name":"naah you off the Google+ perc","steam_id":76561198190583242,"connected_time":6238000000000,"state":"active","ping":85},{"user_id":427,"name":"Venwood","steam_id":76561198126973175,"connected_time":3619000000000,"state":"active","ping":51},{"user_id":478,"name":"meow meow meow","steam_id":76561199510115679,"connected_time":1439000000000,"state":"active","ping":38},{"user_id":386,"name":"whimsy.","steam_id":76561198878171763,"connected_time":7593000000000,"state":"active","ping":51},{"user_id":484,"name":"breakfast burrito","steam_id":76561198148606969,"connected_time":308000000000,"state":"active","ping":79},{"user_id":430,"name":"shloup","steam_id":76561198072892783,"connected_time":3466000000000,"state":"active","ping":69},{"user_id":462,"name":"jüri","steam_id":76561198107460765,"connected_time":2498000000000,"state":"active","ping":46},{"user_id":432,"name":"⸸aura⸸","steam_id":76561198066258544,"connected_time":3423000000000,"state":"active","ping":61}]},{"server_id":114,"name":"Uncletopia | London | 2 | All Maps","name_short":"lon-2","host":"lon-1.uk.uncletopia.com","port":27025,"enabled":true,"region":"eu","cc":"gb","latitude":51.509865,"longitude":-0.118092,"reserved":0,"last_update":"0001-01-01T00:00:00Z","name_a2s":"Uncletopia | London | 2 | All Maps","protocol":17,"map":"pl_badwater","folder":"tf","game":"Team Fortress","app_id":440,"player_count":24,"max_players":24,"Bots":0,"server_type":"Dedicated","server_os":"Linux","password":true,"vac":true,"version":"7961495","steam_id":85568392924470941,"keywords":["nocrits","nodmgspread","payload","uncletopia"],"game_id":440,"stv_port":27026,"stv_name":"Uncletopia | London | 2 | All Maps | STV","players":[{"user_id":89,"name":"H the Creator","steam_id":76561198335971475,"connected_time":609000000000,"state":"active","ping":55},{"user_id":8,"name":"Deez nuts","steam_id":76561199429562693,"connected_time":4322000000000,"state":"active","ping":68},{"user_id":90,"name":"Kenny_killer_69","steam_id":76561199465207725,"connected_time":580000000000,"state":"active","ping":70},{"user_id":97,"name":"Reimu","steam_id":76561198101532240,"connected_time":96000000000,"state":"active","ping":77},{"user_id":96,"name":"Akira","steam_id":76561198323636432,"connected_time":369000000000,"state":"active","ping":55},{"user_id":86,"name":"Hey, I´m Andy!","steam_id":76561198060337777,"connected_time":1209000000000,"state":"active","ping":78},{"user_id":55,"name":"owlsie","steam_id":76561198094883280,"connected_time":2994000000000,"state":"active","ping":63},{"user_id":84,"name":"jur","steam_id":76561198096189399,"connected_time":1318000000000,"state":"active","ping":60},{"user_id":93,"name":"I shit in vc","steam_id":76561198101292843,"connected_time":560000000000,"state":"active","ping":47},{"user_id":56,"name":"monky ♿","steam_id":76561198064440542,"connected_time":2891000000000,"state":"active","ping":45},{"user_id":25,"name":"Penguin in Poncho","steam_id":76561198307493773,"connected_time":3827000000000,"state":"active","ping":75},{"user_id":33,"name":"cister0","steam_id":76561198130195469,"connected_time":3709000000000,"state":"active","ping":74},{"user_id":27,"name":"SzczwanaKawia","steam_id":76561198151871852,"connected_time":3781000000000,"state":"active","ping":88},{"user_id":98,"name":"greg","steam_id":76561198088253779,"connected_time":34000000000,"state":"spawning","ping":77},{"user_id":28,"name":"BurningJoke","steam_id":76561199014358707,"connected_time":3770000000000,"state":"active","ping":60},{"user_id":60,"name":"[P-roc] Cmm Bert","steam_id":76561198016658674,"connected_time":2842000000000,"state":"active","ping":52},{"user_id":52,"name":"Boil em mash em","steam_id":76561198026508026,"connected_time":3065000000000,"state":"active","ping":65},{"user_id":94,"name":"Distributedcomputing","steam_id":76561198044421981,"connected_time":546000000000,"state":"active","ping":100},{"user_id":38,"name":"BOTH | Sunshine","steam_id":76561198885528098,"connected_time":3577000000000,"state":"active","ping":115},{"user_id":85,"name":"Zamorocian","steam_id":76561198076604017,"connected_time":1277000000000,"state":"active","ping":35},{"user_id":87,"name":"Burton","steam_id":76561198018848163,"connected_time":1125000000000,"state":"active","ping":62},{"user_id":81,"name":"Balling","steam_id":76561198240320806,"connected_time":1583000000000,"state":"active","ping":75},{"user_id":95,"name":"Endi","steam_id":76561198914938199,"connected_time":542000000000,"state":"active","ping":94},{"user_id":76,"name":"Usagi Aloahaoe","steam_id":76561198981191925,"connected_time":2234000000000,"state":"active","ping":44}]},{"server_id":320,"name":"Uncletopia | London | 3 | All Maps","name_short":"lon-3","host":"lon-1.uk.uncletopia.com","port":27035,"enabled":true,"region":"eu","cc":"gb","latitude":51.509865,"longitude":-0.118092,"reserved":0,"last_update":"0001-01-01T00:00:00Z","name_a2s":"Uncletopia | London | 3 | All Maps","protocol":17,"map":"cp_metalworks","folder":"tf","game":"Team Fortress","app_id":440,"player_count":17,"max_players":24,"Bots":0,"server_type":"Dedicated","server_os":"Linux","password":true,"vac":true,"version":"7961495","steam_id":85568392924510192,"keywords":["cp","nocrits","nodmgspread","uncletopia"],"game_id":440,"stv_port":27036,"stv_name":"Uncletopia | London | 3 | All Maps | STV","players":[{"user_id":364,"name":"Baldi$","steam_id":76561198245784188,"connected_time":572000000000,"state":"spawning","ping":52},{"user_id":338,"name":"marvi444","steam_id":76561198431534139,"connected_time":3355000000000,"state":"spawning","ping":93},{"user_id":280,"name":"Fat Pigeon","steam_id":76561198817940142,"connected_time":5130000000000,"state":"spawning","ping":68},{"user_id":357,"name":"mental","steam_id":76561198803089656,"connected_time":1451000000000,"state":"spawning","ping":106},{"user_id":366,"name":"aapeli","steam_id":76561198800149689,"connected_time":238000000000,"state":"spawning","ping":150},{"user_id":279,"name":"night.s","steam_id":76561198326287823,"connected_time":5326000000000,"state":"spawning","ping":107},{"user_id":370,"name":"kenzou","steam_id":76561199180054996,"connected_time":26000000000,"state":"connecting","ping":96},{"user_id":361,"name":"AI | Davidoscki","steam_id":76561198129166046,"connected_time":946000000000,"state":"spawning","ping":114},{"user_id":349,"name":"Macron Démission","steam_id":76561198044356491,"connected_time":1774000000000,"state":"spawning","ping":83},{"user_id":363,"name":"Cranjis McBasketball","steam_id":76561198051290193,"connected_time":682000000000,"state":"spawning","ping":87},{"user_id":365,"name":"Udinese Dion","steam_id":76561198067931573,"connected_time":557000000000,"state":"spawning","ping":85},{"user_id":344,"name":"Dispenser(Dispenser)","steam_id":76561199211831658,"connected_time":2782000000000,"state":"spawning","ping":65},{"user_id":367,"name":"snayke","steam_id":76561198077822932,"connected_time":70000000000,"state":"spawning","ping":110},{"user_id":294,"name":"Nittugai","steam_id":76561198067366462,"connected_time":4670000000000,"state":"spawning","ping":82},{"user_id":352,"name":"UpsetPuppy11","steam_id":76561199060288033,"connected_time":1751000000000,"state":"spawning","ping":126},{"user_id":343,"name":"wtabs","steam_id":76561198831766743,"connected_time":2807000000000,"state":"connecting","ping":257}]},{"server_id":321,"name":"Uncletopia | London | 4 | All Maps","name_short":"lon-4","host":"lon-1.uk.uncletopia.com","port":27045,"enabled":true,"region":"eu","cc":"gb","latitude":51.509865,"longitude":-0.118092,"reserved":0,"last_update":"0001-01-01T00:00:00Z","name_a2s":"Uncletopia | London | 4 | All Maps","protocol":17,"map":"pl_badwater","folder":"tf","game":"Team Fortress","app_id":440,"player_count":24,"max_players":24,"Bots":0,"server_type":"Dedicated","server_os":"Linux","password":true,"vac":true,"version":"7961495","steam_id":85568392924510193,"keywords":["nocrits","nodmgspread","payload","uncletopia"],"game_id":440,"stv_port":27046,"stv_name":"Uncletopia | London | 4 | All Maps | STV","players":[{"user_id":299,"name":"Boki","steam_id":76561198044553351,"connected_time":1515000000000,"state":"active","ping":73},{"user_id":300,"name":"Sir Cauterize","steam_id":76561198047079422,"connected_time":1083000000000,"state":"active","ping":49},{"user_id":308,"name":"2006 Mitsubishi Lancer","steam_id":76561198036632498,"connected_time":250000000000,"state":"active","ping":43},{"user_id":237,"name":"Michał","steam_id":76561198320346362,"connected_time":5146000000000,"state":"active","ping":71},{"user_id":248,"name":"Luuk","steam_id":76561198088266026,"connected_time":4443000000000,"state":"active","ping":45},{"user_id":267,"name":"JkauxxHQ","steam_id":76561198135428304,"connected_time":3038000000000,"state":"active","ping":97},{"user_id":258,"name":"Backstreet Badger","steam_id":76561199024411975,"connected_time":3480000000000,"state":"active","ping":109},{"user_id":294,"name":"Rogernuke","steam_id":76561198312815194,"connected_time":2046000000000,"state":"active","ping":64},{"user_id":301,"name":"Bobo","steam_id":76561198052308399,"connected_time":1041000000000,"state":"active","ping":64},{"user_id":280,"name":"ｄｅｓｋｒａｙ","steam_id":76561198805536170,"connected_time":2441000000000,"state":"active","ping":79},{"user_id":273,"name":"DoomGuy","steam_id":76561198303785233,"connected_time":2580000000000,"state":"active","ping":124},{"user_id":290,"name":"[dopijus]","steam_id":76561198943009513,"connected_time":2199000000000,"state":"active","ping":106},{"user_id":297,"name":"LOBZIK","steam_id":76561198114830120,"connected_time":1774000000000,"state":"active","ping":76},{"user_id":303,"name":"Asuka Langley","steam_id":76561198405980575,"connected_time":1031000000000,"state":"active","ping":72},{"user_id":296,"name":"gaming (official)","steam_id":76561198106012909,"connected_time":1820000000000,"state":"active","ping":86},{"user_id":215,"name":"Ark-e","steam_id":76561198261870909,"connected_time":6525000000000,"state":"active","ping":31},{"user_id":305,"name":"Cum Crusader","steam_id":76561198173218318,"connected_time":598000000000,"state":"active","ping":45},{"user_id":281,"name":"Egg123","steam_id":76561198854045058,"connected_time":2438000000000,"state":"active","ping":71},{"user_id":278,"name":"BORGETENNISCLUB","steam_id":76561198049343723,"connected_time":2460000000000,"state":"active","ping":58},{"user_id":246,"name":"Decadence","steam_id":76561198206829379,"connected_time":4799000000000,"state":"active","ping":89},{"user_id":261,"name":"lumikko","steam_id":76561198112012468,"connected_time":3268000000000,"state":"active","ping":93},{"user_id":249,"name":"the shardy horse sauce","steam_id":76561198011450253,"connected_time":4438000000000,"state":"active","ping":49},{"user_id":272,"name":"antihuman","steam_id":76561198116027948,"connected_time":2743000000000,"state":"active","ping":83},{"user_id":307,"name":"Vorkytaka","steam_id":76561198002998620,"connected_time":457000000000,"state":"active","ping":89}]},{"server_id":21,"name":"Uncletopia | London | 5 | All Maps","name_short":"lon-5","host":"lon-1.uk.uncletopia.com","port":27055,"enabled":true,"region":"eu","cc":"gb","latitude":51.509865,"longitude":-0.118092,"reserved":0,"last_update":"0001-01-01T00:00:00Z","name_a2s":"Uncletopia | London | 5 | All Maps","protocol":17,"map":"koth_viaduct","folder":"tf","game":"Team Fortress","app_id":440,"player_count":0,"max_players":24,"Bots":0,"server_type":"Dedicated","server_os":"Linux","password":true,"vac":true,"version":"7961495","steam_id":85568392924742829,"keywords":["cp","nocrits","nodmgspread","uncletopia"],"game_id":440,"stv_port":27056,"stv_name":"Uncletopia | London | 5 | All Maps | STV","players":null},{"server_id":22,"name":"Uncletopia | London | 6 | All Maps","name_short":"lon-6","host":"lon-1.uk.uncletopia.com","port":27065,"enabled":true,"region":"eu","cc":"gb","latitude":51.509865,"longitude":-0.118092,"reserved":0,"last_update":"0001-01-01T00:00:00Z","name_a2s":"Uncletopia | London | 6 | All Maps","protocol":17,"map":"koth_viaduct","folder":"tf","game":"Team Fortress","app_id":440,"player_count":0,"max_players":24,"Bots":0,"server_type":"Dedicated","server_os":"Linux","password":true,"vac":true,"version":"7961495","steam_id":85568392924742830,"keywords":["cp","nocrits","nodmgspread","uncletopia"],"game_id":440,"stv_port":27066,"stv_name":"Uncletopia | London | 6 | All Maps | STV","players":null},{"server_id":40,"name":"Uncletopia | London | 7 | Stopwatch","name_short":"lon-7","host":"lon-1.uk.uncletopia.com","port":27075,"enabled":true,"region":"eu","cc":"gb","latitude":51.509865,"longitude":-0.118092,"reserved":0,"last_update":"0001-01-01T00:00:00Z","name_a2s":"Uncletopia | London | 7 | Stopwatch","protocol":17,"map":"workshop/cp_reckoner_rc6.ugc674719999","folder":"tf","game":"Team Fortress","app_id":440,"player_count":0,"max_players":24,"Bots":0,"server_type":"Dedicated","server_os":"Linux","password":true,"vac":true,"version":"7961495","steam_id":85568392924964314,"keywords":["cp","nocrits","nodmgspread","uncletopia"],"game_id":440,"stv_port":27076,"stv_name":"Uncletopia | London | 7 | Stopwatch | STV","players":null},{"server_id":41,"name":"Uncletopia | London | 8 | Community","name_short":"lon-8","host":"lon-1.uk.uncletopia.com","port":27085,"enabled":true,"region":"eu","cc":"gb","latitude":51.509865,"longitude":-0.118092,"reserved":0,"last_update":"0001-01-01T00:00:00Z","name_a2s":"Uncletopia | London | 8 | Community","protocol":17,"map":"workshop/pl_jinn_rc2.ugc2964570577","folder":"tf","game":"Team Fortress","app_id":440,"player_count":0,"max_players":24,"Bots":0,"server_type":"Dedicated","server_os":"Linux","password":true,"vac":true,"version":"7961495","steam_id":85568392924964315,"keywords":["nocrits","nodmgspread","payload","uncletopia"],"game_id":440,"stv_port":27086,"stv_name":"Uncletopia | London | 8 | Community | STV","players":null},{"server_id":300,"name":"Uncletopia | Montréal | 1 | One Thousand Uncles","name_short":"mtl-1","host":"mtl-1.ca.uncletopia.com","port":27015,"enabled":true,"region":"us-east","cc":"ca","latitude":45.50889,"longitude":-73.56167,"reserved":0,"last_update":"0001-01-01T00:00:00Z","name_a2s":"Uncletopia | Montréal | 1 | One Thousand Uncles","protocol":17,"map":"pl_barnblitz","folder":"tf","game":"Team Fortress","app_id":440,"player_count":26,"max_players":32,"Bots":20,"server_type":"Dedicated","server_os":"Linux","password":true,"vac":true,"version":"7961495","steam_id":85568392924500087,"keywords":["alltalk","bots","danepve","increased_maxplayers","norespawntime","payload","uncletopia"],"game_id":440,"stv_port":0,"stv_name":"","players":[{"user_id":91,"name":"abhorrence","steam_id":76561198208849751,"connected_time":2419000000000,"state":"active","ping":83},{"user_id":118,"name":"🌸O L I V I A🌸","steam_id":76561198321854032,"connected_time":613000000000,"state":"active","ping":72},{"user_id":114,"name":"PapaRicka","steam_id":76561198156474931,"connected_time":1341000000000,"state":"active","ping":64},{"user_id":119,"name":"Enzo","steam_id":76561197975076681,"connected_time":360000000000,"state":"active","ping":64},{"user_id":117,"name":"chiswola","steam_id":76561198046920142,"connected_time":892000000000,"state":"active","ping":82},{"user_id":120,"name":"♥Boy Pussy♥","steam_id":76561199121980584,"connected_time":286000000000,"state":"active","ping":81},{"user_id":122,"name":"Trajan","steam_id":76561198108034112,"connected_time":265000000000,"state":"active","ping":104}]},{"server_id":301,"name":"Uncletopia | Montréal | 2 | One Thousand Uncles","name_short":"mtl-2","host":"mtl-1.ca.uncletopia.com","port":27025,"enabled":true,"region":"us-east","cc":"ca","latitude":45.50889,"longitude":-73.56167,"reserved":0,"last_update":"0001-01-01T00:00:00Z","name_a2s":"Uncletopia | Montréal | 2 | One Thousand Uncles","protocol":17,"map":"cp_mossrock","folder":"tf","game":"Team Fortress","app_id":440,"player_count":0,"max_players":32,"Bots":0,"server_type":"Dedicated","server_os":"Linux","password":true,"vac":true,"version":"7961495","steam_id":85568392924500088,"keywords":["alltalk","cp","danepve","increased_maxplayers","norespawntime","uncletopia"],"game_id":440,"stv_port":0,"stv_name":"","players":null},{"server_id":302,"name":"Uncletopia | Montréal | 3 | One Thousand Uncles","name_short":"mtl-3","host":"mtl-1.ca.uncletopia.com","port":27035,"enabled":true,"region":"us-east","cc":"ca","latitude":45.50889,"longitude":-73.56167,"reserved":0,"last_update":"0001-01-01T00:00:00Z","name_a2s":"Uncletopia | Montréal | 3 | One Thousand Uncles","protocol":17,"map":"pl_pier","folder":"tf","game":"Team Fortress","app_id":440,"player_count":0,"max_players":32,"Bots":0,"server_type":"Dedicated","server_os":"Linux","password":true,"vac":true,"version":"7961495","steam_id":85568392924500089,"keywords":["alltalk","danepve","increased_maxplayers","norespawntime","payload","uncletopia"],"game_id":440,"stv_port":0,"stv_name":"","players":null},{"server_id":13,"name":"Uncletopia | New York City | 1 | All Maps","name_short":"nyc-1","host":"nyc-1.us.uncletopia.com","port":27015,"enabled":true,"region":"us-east","cc":"us","latitude":40.73061,"longitude":-73.93524,"reserved":0,"last_update":"0001-01-01T00:00:00Z","name_a2s":"Uncletopia | New York City | 1 | All Maps","protocol":17,"map":"pl_upward","folder":"tf","game":"Team Fortress","app_id":440,"player_count":24,"max_players":24,"Bots":0,"server_type":"Dedicated","server_os":"Linux","password":true,"vac":true,"version":"7961495","steam_id":85568392924469993,"keywords":["nocrits","nodmgspread","payload","uncletopia"],"game_id":440,"stv_port":27016,"stv_name":"Uncletopia | New York City | 1 | All Maps | STV","players":[{"user_id":71,"name":"Allegory for Us","steam_id":76561198158563931,"connected_time":897000000000,"state":"active","ping":70},{"user_id":20,"name":"Berb","steam_id":76561198193911899,"connected_time":3703000000000,"state":"active","ping":77},{"user_id":18,"name":"Markus Velafi","steam_id":76561198063193924,"connected_time":4009000000000,"state":"active","ping":58},{"user_id":67,"name":"Animal Facts (Leaves)","steam_id":76561198125084613,"connected_time":1099000000000,"state":"active","ping":134},{"user_id":42,"name":"Duncan Idaho","steam_id":76561197988963861,"connected_time":2951000000000,"state":"active","ping":63},{"user_id":47,"name":"Sprucelass","steam_id":76561197998391724,"connected_time":2493000000000,"state":"active","ping":61},{"user_id":51,"name":"wool","steam_id":76561198869689933,"connected_time":2333000000000,"state":"active","ping":52},{"user_id":24,"name":"Hitlinemoss","steam_id":76561198155435669,"connected_time":3432000000000,"state":"active","ping":57},{"user_id":81,"name":"kung fu kenny","steam_id":76561198045968341,"connected_time":303000000000,"state":"active","ping":45},{"user_id":68,"name":"Solid 16","steam_id":76561198956823243,"connected_time":1080000000000,"state":"active","ping":60},{"user_id":62,"name":"Nathan Yeet","steam_id":76561198883966591,"connected_time":1684000000000,"state":"active","ping":74},{"user_id":30,"name":"SalsaDaddy","steam_id":76561198358869108,"connected_time":3297000000000,"state":"active","ping":70},{"user_id":65,"name":"XtraCrums","steam_id":76561199230212648,"connected_time":1187000000000,"state":"active","ping":65},{"user_id":58,"name":"JimmyJimbo","steam_id":76561198304818267,"connected_time":1845000000000,"state":"active","ping":90},{"user_id":70,"name":"Search117","steam_id":76561198021696780,"connected_time":938000000000,"state":"active","ping":113},{"user_id":76,"name":"frederick","steam_id":76561198037746805,"connected_time":706000000000,"state":"active","ping":57},{"user_id":77,"name":"Pasta","steam_id":76561199498088524,"connected_time":673000000000,"state":"active","ping":113},{"user_id":60,"name":"ambatukam","steam_id":76561198981135699,"connected_time":1773000000000,"state":"active","ping":114},{"user_id":72,"name":"✧.*Remzy✧.*","steam_id":76561199239412094,"connected_time":865000000000,"state":"active","ping":138},{"user_id":41,"name":"Pydro","steam_id":76561197995995820,"connected_time":2987000000000,"state":"active","ping":76},{"user_id":82,"name":"Acid trip through time","steam_id":76561198322448472,"connected_time":71000000000,"state":"active","ping":47},{"user_id":66,"name":"ThatGamingKiwi","steam_id":76561199170522237,"connected_time":1170000000000,"state":"active","ping":80},{"user_id":80,"name":"MrEdman4","steam_id":76561198062233923,"connected_time":545000000000,"state":"active","ping":45},{"user_id":45,"name":"Renegaiden","steam_id":76561198060179109,"connected_time":2899000000000,"state":"active","ping":81}]},{"server_id":14,"name":"Uncletopia | New York City | 2 | All Maps","name_short":"nyc-2","host":"nyc-1.us.uncletopia.com","port":27025,"enabled":true,"region":"us-east","cc":"us","latitude":40.73061,"longitude":-73.93524,"reserved":0,"last_update":"0001-01-01T00:00:00Z","name_a2s":"Uncletopia | New York City | 2 | All Maps","protocol":17,"map":"pl_upward","folder":"tf","game":"Team Fortress","app_id":440,"player_count":0,"max_players":24,"Bots":0,"server_type":"Dedicated","server_os":"Linux","password":true,"vac":true,"version":"7961495","steam_id":85568392924469994,"keywords":["nocrits","nodmgspread","payload","uncletopia"],"game_id":440,"stv_port":27026,"stv_name":"Uncletopia | New York City | 2 | All Maps | STV","players":null},{"server_id":15,"name":"Uncletopia | New York City | 3 | Stopwatch","name_short":"nyc-3","host":"nyc-1.us.uncletopia.com","port":27035,"enabled":true,"region":"us-east","cc":"us","latitude":40.73061,"longitude":-73.93524,"reserved":0,"last_update":"0001-01-01T00:00:00Z","name_a2s":"Uncletopia | New York City | 3 | Stopwatch","protocol":17,"map":"workshop/koth_bagel_rc6.ugc2514036946","folder":"tf","game":"Team Fortress","app_id":440,"player_count":0,"max_players":24,"Bots":0,"server_type":"Dedicated","server_os":"Linux","password":true,"vac":true,"version":"7961495","steam_id":85568392924742820,"keywords":["cp","nocrits","nodmgspread","uncletopia"],"game_id":440,"stv_port":27036,"stv_name":"Uncletopia | New York City | 3 | Stopwatch | STV","players":null},{"server_id":16,"name":"Uncletopia | New York City | 4 | Community","name_short":"nyc-4","host":"nyc-1.us.uncletopia.com","port":27045,"enabled":true,"region":"us-east","cc":"us","latitude":40.73061,"longitude":-73.93524,"reserved":0,"last_update":"0001-01-01T00:00:00Z","name_a2s":"Uncletopia | New York City | 4 | Community","protocol":17,"map":"workshop/cp_reckoner_rc6.ugc674719999","folder":"tf","game":"Team Fortress","app_id":440,"player_count":0,"max_players":24,"Bots":0,"server_type":"Dedicated","server_os":"Linux","password":true,"vac":true,"version":"7961495","steam_id":85568392924742821,"keywords":["cp","nocrits","nodmgspread","uncletopia"],"game_id":440,"stv_port":27046,"stv_name":"Uncletopia | New York City | 4 | Community | STV","players":null},{"server_id":142,"name":"Uncletopia | São Paulo | 1 | All Maps","name_short":"sao-1","host":"sao-1.br.uncletopia.com","port":27015,"enabled":true,"region":"sa","cc":"br","latitude":-23.533773,"longitude":-46.62529,"reserved":0,"last_update":"0001-01-01T00:00:00Z","name_a2s":"Uncletopia | São Paulo | 1 | All Maps","protocol":17,"map":"cp_mountainlab","folder":"tf","game":"Team Fortress","app_id":440,"player_count":0,"max_players":24,"Bots":0,"server_type":"Dedicated","server_os":"Linux","password":true,"vac":true,"version":"7961495","steam_id":85568392924469996,"keywords":["cp","nocrits","nodmgspread","uncletopia"],"game_id":440,"stv_port":27016,"stv_name":"Uncletopia | São Paulo | 1 | All Maps | STV","players":null},{"server_id":143,"name":"Uncletopia | São Paulo | 2 | Community","name_short":"sao-2","host":"sao-2.br.uncletopia.com","port":27015,"enabled":true,"region":"sa","cc":"br","latitude":-23.533773,"longitude":-46.62529,"reserved":0,"last_update":"0001-01-01T00:00:00Z","name_a2s":"Uncletopia | São Paulo | 2 | Community","protocol":17,"map":"workshop/koth_slaughter_rc1.ugc1712845210","folder":"tf","game":"Team Fortress","app_id":440,"player_count":0,"max_players":24,"Bots":0,"server_type":"Dedicated","server_os":"Linux","password":true,"vac":true,"version":"7961495","steam_id":85568392924485349,"keywords":["cp","nocrits","nodmgspread","uncletopia"],"game_id":440,"stv_port":27016,"stv_name":"Uncletopia | São Paulo | 2 | Community | STV","players":null},{"server_id":7,"name":"Uncletopia | Seattle | 1 | All Maps","name_short":"sea-1","host":"sea-1.us.uncletopia.com","port":27015,"enabled":true,"region":"us-west","cc":"us","latitude":47.608013,"longitude":-122.33517,"reserved":0,"last_update":"0001-01-01T00:00:00Z","name_a2s":"Uncletopia | Seattle | 1 | All Maps","protocol":17,"map":"koth_suijin","folder":"tf","game":"Team Fortress","app_id":440,"player_count":24,"max_players":24,"Bots":0,"server_type":"Dedicated","server_os":"Linux","password":true,"vac":true,"version":"7961495","steam_id":85568392924469997,"keywords":["cp","nocrits","nodmgspread","uncletopia"],"game_id":440,"stv_port":27016,"stv_name":"Uncletopia | Seattle | 1 | All Maps | STV","players":[{"user_id":211,"name":"goofy goober","steam_id":76561199024079388,"connected_time":2084000000000,"state":"active","ping":44},{"user_id":239,"name":"soda","steam_id":76561198105924953,"connected_time":321000000000,"state":"active","ping":72},{"user_id":228,"name":"Hazel :3","steam_id":76561199247095754,"connected_time":850000000000,"state":"active","ping":71},{"user_id":243,"name":"MineOpal","steam_id":76561198044716407,"connected_time":13000000000,"state":"active","ping":76},{"user_id":187,"name":"motimhill","steam_id":76561198849982896,"connected_time":4948000000000,"state":"active","ping":138},{"user_id":147,"name":"Late Night Vaporwave","steam_id":76561198090419068,"connected_time":7778000000000,"state":"active","ping":63},{"user_id":199,"name":"DaddyGalaxy","steam_id":76561198139697796,"connected_time":3682000000000,"state":"active","ping":59},{"user_id":233,"name":"|-HyperCube-|","steam_id":76561198167133597,"connected_time":491000000000,"state":"active","ping":78},{"user_id":232,"name":"Kebab","steam_id":76561198194449091,"connected_time":507000000000,"state":"active","ping":122},{"user_id":234,"name":"lorient","steam_id":76561198150831438,"connected_time":471000000000,"state":"active","ping":77},{"user_id":212,"name":"James","steam_id":76561198098325427,"connected_time":2042000000000,"state":"active","ping":77},{"user_id":229,"name":"Peppy","steam_id":76561198866629645,"connected_time":822000000000,"state":"active","ping":58},{"user_id":244,"name":"Tritium","steam_id":76561198043305626,"connected_time":8000000000,"state":"spawning","ping":61},{"user_id":222,"name":"Brain Magic","steam_id":76561198010201477,"connected_time":1030000000000,"state":"active","ping":90},{"user_id":235,"name":"wormburnerturner","steam_id":76561198143607463,"connected_time":447000000000,"state":"active","ping":165},{"user_id":241,"name":"LlamaCrazy","steam_id":76561198803427474,"connected_time":146000000000,"state":"active","ping":97},{"user_id":236,"name":"SalsaSpirit","steam_id":76561199230979747,"connected_time":444000000000,"state":"active","ping":110},{"user_id":223,"name":"ItsAChadKing","steam_id":76561199499464350,"connected_time":1026000000000,"state":"active","ping":85},{"user_id":240,"name":"Gilbert Figglebottom","steam_id":76561198269902507,"connected_time":208000000000,"state":"active","ping":124},{"user_id":192,"name":"Yummy Kabobz","steam_id":76561198067661705,"connected_time":4840000000000,"state":"active","ping":117},{"user_id":193,"name":"라니","steam_id":76561198399201495,"connected_time":4834000000000,"state":"active","ping":116},{"user_id":227,"name":"TOTALLY HARDCORE","steam_id":76561198842311643,"connected_time":871000000000,"state":"active","ping":91},{"user_id":226,"name":"KhaosKomputer","steam_id":76561199353970793,"connected_time":881000000000,"state":"active","ping":93},{"user_id":162,"name":"t","steam_id":76561198203079416,"connected_time":6581000000000,"state":"active","ping":42}]},{"server_id":119,"name":"Uncletopia | Seattle | 2 | All Maps","name_short":"sea-2","host":"sea-1.us.uncletopia.com","port":27025,"enabled":true,"region":"us-west","cc":"us","latitude":47.608013,"longitude":-122.33517,"reserved":0,"last_update":"0001-01-01T00:00:00Z","name_a2s":"Uncletopia | Seattle | 2 | All Maps","protocol":17,"map":"cp_mountainlab","folder":"tf","game":"Team Fortress","app_id":440,"player_count":0,"max_players":24,"Bots":0,"server_type":"Dedicated","server_os":"Linux","password":true,"vac":true,"version":"7961495","steam_id":85568392924469998,"keywords":["cp","nocrits","nodmgspread","uncletopia"],"game_id":440,"stv_port":27026,"stv_name":"Uncletopia | Seattle | 2 | All Maps | STV","players":null},{"server_id":406,"name":"Uncletopia | Seattle | 3 | Stopwatch","name_short":"sea-3","host":"sea-1.us.uncletopia.com","port":27035,"enabled":true,"region":"us-west","cc":"us","latitude":47.608013,"longitude":-122.33517,"reserved":0,"last_update":"0001-01-01T00:00:00Z","name_a2s":"Uncletopia | Seattle | 3 | Stopwatch","protocol":17,"map":"cp_gullywash_final1","folder":"tf","game":"Team Fortress","app_id":440,"player_count":0,"max_players":24,"Bots":0,"server_type":"Dedicated","server_os":"Linux","password":true,"vac":true,"version":"7961495","steam_id":85568392924515217,"keywords":["cp","nocrits","nodmgspread","uncletopia"],"game_id":440,"stv_port":27036,"stv_name":"Uncletopia | Seattle | 3 | Stopwatch | STV","players":null},{"server_id":17,"name":"Uncletopia | San Francisco | 1 | All Maps","name_short":"sfo-1","host":"sfo-1.us.uncletopia.com","port":27015,"enabled":true,"region":"us-west","cc":"us","latitude":37.77397,"longitude":-122.4313,"reserved":0,"last_update":"0001-01-01T00:00:00Z","name_a2s":"Uncletopia | San Francisco | 1 | All Maps","protocol":17,"map":"cp_gullywash_final1","folder":"tf","game":"Team Fortress","app_id":440,"player_count":0,"max_players":24,"Bots":0,"server_type":"Dedicated","server_os":"Linux","password":true,"vac":true,"version":"7961495","steam_id":85568392924469999,"keywords":["cp","nocrits","nodmgspread","uncletopia"],"game_id":440,"stv_port":27016,"stv_name":"Uncletopia | San Francisco | 1 | All Maps | STV","players":null},{"server_id":18,"name":"Uncletopia | San Francisco | 2 | All Maps","name_short":"sfo-2","host":"sfo-1.us.uncletopia.com","port":27025,"enabled":true,"region":"us-west","cc":"us","latitude":37.77397,"longitude":-122.4313,"reserved":0,"last_update":"0001-01-01T00:00:00Z","name_a2s":"Uncletopia | San Francisco | 2 | All Maps","protocol":17,"map":"cp_sunshine","folder":"tf","game":"Team Fortress","app_id":440,"player_count":0,"max_players":24,"Bots":0,"server_type":"Dedicated","server_os":"Linux","password":true,"vac":true,"version":"7961495","steam_id":85568392924470000,"keywords":["cp","nocrits","nodmgspread","uncletopia"],"game_id":440,"stv_port":27026,"stv_name":"Uncletopia | San Francisco | 2 | All Maps | STV","players":null},{"server_id":19,"name":"Uncletopia | San Francisco | 3 | Stopwatch","name_short":"sfo-3","host":"sfo-1.us.uncletopia.com","port":27035,"enabled":true,"region":"us-west","cc":"us","latitude":37.77397,"longitude":-122.4313,"reserved":0,"last_update":"0001-01-01T00:00:00Z","name_a2s":"Uncletopia | San Francisco | 3 | Stopwatch","protocol":17,"map":"workshop/koth_clearcut_b15.ugc2107050255","folder":"tf","game":"Team Fortress","app_id":440,"player_count":0,"max_players":24,"Bots":0,"server_type":"Dedicated","server_os":"Linux","password":true,"vac":true,"version":"7961495","steam_id":85568392924742824,"keywords":["cp","nocrits","nodmgspread","uncletopia"],"game_id":440,"stv_port":27036,"stv_name":"Uncletopia | San Francisco | 3 | Stopwatch | STV","players":null},{"server_id":20,"name":"Uncletopia | San Francisco | 4 | Community","name_short":"sfo-4","host":"sfo-1.us.uncletopia.com","port":27045,"enabled":true,"region":"us-west","cc":"us","latitude":37.77397,"longitude":-122.4313,"reserved":0,"last_update":"0001-01-01T00:00:00Z","name_a2s":"Uncletopia | San Francisco | 4 | Community","protocol":17,"map":"workshop/cp_reckoner_rc6.ugc674719999","folder":"tf","game":"Team Fortress","app_id":440,"player_count":0,"max_players":24,"Bots":0,"server_type":"Dedicated","server_os":"Linux","password":true,"vac":true,"version":"7961495","steam_id":85568392924742826,"keywords":["cp","nocrits","nodmgspread","uncletopia"],"game_id":440,"stv_port":27046,"stv_name":"Uncletopia | San Francisco | 4 | Community | STV","players":null},{"server_id":141,"name":"Uncletopia | Sydney | 1 | All Maps","name_short":"syd-1","host":"syd-1.au.uncletopia.com","port":27015,"enabled":true,"region":"au","cc":"au","latitude":-33.865143,"longitude":151.2099,"reserved":0,"last_update":"0001-01-01T00:00:00Z","name_a2s":"Uncletopia | Sydney | 1 | All Maps","protocol":17,"map":"cp_dustbowl","folder":"tf","game":"Team Fortress","app_id":440,"player_count":0,"max_players":24,"Bots":0,"server_type":"Dedicated","server_os":"Linux","password":true,"vac":true,"version":"7961495","steam_id":85568392924470001,"keywords":["cp","nocrits","nodmgspread","uncletopia"],"game_id":440,"stv_port":27016,"stv_name":"Uncletopia | Sydney | 1 | All Maps | STV","players":null},{"server_id":123,"name":"Uncletopia | Sydney | 2 | All Maps","name_short":"syd-2","host":"syd-1.au.uncletopia.com","port":27025,"enabled":true,"region":"au","cc":"au","latitude":-33.865143,"longitude":151.2099,"reserved":0,"last_update":"0001-01-01T00:00:00Z","name_a2s":"Uncletopia | Sydney | 2 | All Maps","protocol":17,"map":"koth_highpass","folder":"tf","game":"Team Fortress","app_id":440,"player_count":0,"max_players":24,"Bots":0,"server_type":"Dedicated","server_os":"Linux","password":true,"vac":true,"version":"7961495","steam_id":85568392924470002,"keywords":["cp","nocrits","nodmgspread","uncletopia"],"game_id":440,"stv_port":27026,"stv_name":"Uncletopia | Sydney | 2 | All Maps | STV","players":null},{"server_id":395,"name":"Uncletopia | Sydney | 3 | All Maps","name_short":"syd-3","host":"syd-1.au.uncletopia.com","port":27035,"enabled":true,"region":"au","cc":"au","latitude":-33.865143,"longitude":151.2099,"reserved":0,"last_update":"0001-01-01T00:00:00Z","name_a2s":"Uncletopia | Sydney | 3 | All Maps","protocol":17,"map":"cp_process_final","folder":"tf","game":"Team Fortress","app_id":440,"player_count":0,"max_players":24,"Bots":0,"server_type":"Dedicated","server_os":"Linux","password":true,"vac":true,"version":"7961495","steam_id":85568392925194467,"keywords":["cp","nocrits","nodmgspread","uncletopia"],"game_id":440,"stv_port":27036,"stv_name":"Uncletopia | Sydney | 3 | All Maps | STV","players":null},{"server_id":396,"name":"Uncletopia | Sydney | 4 | All Maps","name_short":"syd-4","host":"syd-1.au.uncletopia.com","port":27045,"enabled":true,"region":"au","cc":"au","latitude":-33.865143,"longitude":151.2099,"reserved":0,"last_update":"0001-01-01T00:00:00Z","name_a2s":"Uncletopia | Sydney | 4 | All Maps","protocol":17,"map":"plr_bananabay","folder":"tf","game":"Team Fortress","app_id":440,"player_count":0,"max_players":24,"Bots":0,"server_type":"Dedicated","server_os":"Linux","password":true,"vac":true,"version":"7961495","steam_id":85568392925397958,"keywords":["nocrits","nodmgspread","payload","uncletopia"],"game_id":440,"stv_port":27046,"stv_name":"Uncletopia | Sydney | 4 | All Maps | STV","players":null},{"server_id":58,"name":"Uncletopia | Sydney | 5 | Stopwatch","name_short":"syd-5","host":"syd-1.au.uncletopia.com","port":27055,"enabled":true,"region":"au","cc":"au","latitude":-33.865143,"longitude":151.2099,"reserved":0,"last_update":"0001-01-01T00:00:00Z","name_a2s":"Uncletopia | Sydney | 5 | Stopwatch","protocol":17,"map":"workshop/pl_barnblitz_pro7.ugc582280235","folder":"tf","game":"Team Fortress","app_id":440,"player_count":0,"max_players":24,"Bots":0,"server_type":"Dedicated","server_os":"Linux","password":true,"vac":true,"version":"7961495","steam_id":85568392925397959,"keywords":["nocrits","nodmgspread","payload","uncletopia"],"game_id":440,"stv_port":27056,"stv_name":"Uncletopia | Sydney | 5 | Stopwatch | STV","players":null},{"server_id":59,"name":"Uncletopia | Sydney | 6 | Community","name_short":"syd-6","host":"syd-1.au.uncletopia.com","port":27065,"enabled":true,"region":"au","cc":"au","latitude":-33.865143,"longitude":151.2099,"reserved":0,"last_update":"0001-01-01T00:00:00Z","name_a2s":"Uncletopia | Sydney | 6 | Community","protocol":17,"map":"workshop/koth_soot_final1.ugc2969540689","folder":"tf","game":"Team Fortress","app_id":440,"player_count":0,"max_players":24,"Bots":0,"server_type":"Dedicated","server_os":"Linux","password":true,"vac":true,"version":"7961495","steam_id":85568392925397960,"keywords":["cp","nocrits","nodmgspread","uncletopia"],"game_id":440,"stv_port":27066,"stv_name":"Uncletopia | Sydney | 6 | Community | STV","players":null},{"server_id":49,"name":"Uncletopia | Warsaw | 1 | One Thousand Uncles","name_short":"waw-1","host":"waw-1.pl.uncletopia.com","port":27015,"enabled":true,"region":"eu","cc":"pl","latitude":52.2297,"longitude":21.017532,"reserved":0,"last_update":"0001-01-01T00:00:00Z","name_a2s":"Uncletopia | Warsaw | 1 | One Thousand Uncles","protocol":17,"map":"cp_egypt_final","folder":"tf","game":"Team Fortress","app_id":440,"player_count":30,"max_players":32,"Bots":20,"server_type":"Dedicated","server_os":"Linux","password":true,"vac":true,"version":"7961495","steam_id":85568392925397850,"keywords":["alltalk","bots","cp","danepve","increased_maxplayers","norespawntime","uncletopia"],"game_id":440,"stv_port":0,"stv_name":"","players":[{"user_id":2,"name":"[HK]我係香港人","steam_id":76561198165376815,"connected_time":4280000000000,"state":"active","ping":83},{"user_id":3,"name":"The Fire Pyro","steam_id":76561198300296457,"connected_time":4275000000000,"state":"active","ping":80},{"user_id":55,"name":"Hoff","steam_id":76561198138540938,"connected_time":542000000000,"state":"active","ping":95},{"user_id":45,"name":"egzior","steam_id":76561198363608921,"connected_time":2617000000000,"state":"active","ping":48},{"user_id":62,"name":"IHateRandomCrits","steam_id":76561199081550701,"connected_time":63000000000,"state":"active","ping":97},{"user_id":47,"name":"Lowtidey","steam_id":76561198994887486,"connected_time":2438000000000,"state":"active","ping":128},{"user_id":63,"name":"Lazyiest","steam_id":76561199112877907,"connected_time":11000000000,"state":"spawning","ping":86},{"user_id":59,"name":"Dripizdon","steam_id":76561198052913431,"connected_time":475000000000,"state":"active","ping":118},{"user_id":60,"name":"mark.simfi","steam_id":76561198966432244,"connected_time":441000000000,"state":"active","ping":36},{"user_id":61,"name":"Flint","steam_id":76561197995920776,"connected_time":434000000000,"state":"active","ping":87}]},{"server_id":50,"name":"Uncletopia | Warsaw | 2 | One Thousand Uncles","name_short":"waw-2","host":"waw-1.pl.uncletopia.com","port":27025,"enabled":true,"region":"eu","cc":"pl","latitude":52.2297,"longitude":21.017532,"reserved":0,"last_update":"0001-01-01T00:00:00Z","name_a2s":"Uncletopia | Warsaw | 2 | One Thousand Uncles","protocol":17,"map":"pl_barnblitz","folder":"tf","game":"Team Fortress","app_id":440,"player_count":31,"max_players":32,"Bots":20,"server_type":"Dedicated","server_os":"Linux","password":true,"vac":true,"version":"7961495","steam_id":85568392925397851,"keywords":["alltalk","bots","danepve","increased_maxplayers","norespawntime","payload","uncletopia"],"game_id":440,"stv_port":0,"stv_name":"","players":[{"user_id":325,"name":"Eradical","steam_id":76561199035578645,"connected_time":1586000000000,"state":"active","ping":120},{"user_id":327,"name":"Hotdogs","steam_id":76561199112737347,"connected_time":984000000000,"state":"active","ping":100},{"user_id":264,"name":"sad bruh","steam_id":76561198150640861,"connected_time":5583000000000,"state":"active","ping":153},{"user_id":331,"name":"The Deputy_Rook [HCSD]","steam_id":76561198831109346,"connected_time":733000000000,"state":"active","ping":54},{"user_id":294,"name":"adv6","steam_id":76561198029789989,"connected_time":3490000000000,"state":"active","ping":83},{"user_id":259,"name":"momo","steam_id":76561198132750021,"connected_time":7318000000000,"state":"active","ping":69},{"user_id":326,"name":"lungdung","steam_id":76561199041919130,"connected_time":1553000000000,"state":"active","ping":177},{"user_id":328,"name":"Sir Crust","steam_id":76561199122077146,"connected_time":984000000000,"state":"active","ping":77},{"user_id":333,"name":"applefrompear","steam_id":76561199258816743,"connected_time":577000000000,"state":"active","ping":121},{"user_id":336,"name":"The Cool Ice Guy","steam_id":76561198146194820,"connected_time":299000000000,"state":"active","ping":69},{"user_id":301,"name":"lelaki berkulit hitam besar","steam_id":76561199084680369,"connected_time":2191000000000,"state":"active","ping":34}]},{"server_id":51,"name":"Uncletopia | Warsaw | 3 | All Maps","name_short":"waw-3","host":"waw-1.pl.uncletopia.com","port":27035,"enabled":true,"region":"eu","cc":"pl","latitude":52.2297,"longitude":21.017532,"reserved":0,"last_update":"0001-01-01T00:00:00Z","name_a2s":"Uncletopia | Warsaw | 3 | All Maps","protocol":17,"map":"koth_viaduct","folder":"tf","game":"Team Fortress","app_id":440,"player_count":0,"max_players":24,"Bots":0,"server_type":"Dedicated","server_os":"Linux","password":true,"vac":true,"version":"7961495","steam_id":85568392925397852,"keywords":["cp","nocrits","nodmgspread","uncletopia"],"game_id":440,"stv_port":27036,"stv_name":"Uncletopia | Warsaw | 3 | All Maps | STV","players":null},{"server_id":52,"name":"Uncletopia | Warsaw | 4 | All Maps","name_short":"waw-4","host":"waw-1.pl.uncletopia.com","port":27045,"enabled":true,"region":"eu","cc":"pl","latitude":52.2297,"longitude":21.017532,"reserved":0,"last_update":"0001-01-01T00:00:00Z","name_a2s":"Uncletopia | Warsaw | 4 | All Maps","protocol":17,"map":"pl_pier","folder":"tf","game":"Team Fortress","app_id":440,"player_count":16,"max_players":24,"Bots":0,"server_type":"Dedicated","server_os":"Linux","password":true,"vac":true,"version":"7961495","steam_id":85568392925397853,"keywords":["nocrits","nodmgspread","payload","uncletopia"],"game_id":440,"stv_port":27046,"stv_name":"Uncletopia | Warsaw | 4 | All Maps | STV","players":[{"user_id":116,"name":"soney","steam_id":76561198121177512,"connected_time":3626000000000,"state":"active","ping":75},{"user_id":158,"name":"typicalcrimson","steam_id":76561198295439747,"connected_time":978000000000,"state":"active","ping":46},{"user_id":153,"name":"xiiski","steam_id":76561198152387747,"connected_time":1612000000000,"state":"active","ping":99},{"user_id":138,"name":"greggs #1 customer","steam_id":76561198046873337,"connected_time":2775000000000,"state":"active","ping":82},{"user_id":129,"name":"Dirtier Harry","steam_id":76561198134378108,"connected_time":2971000000000,"state":"active","ping":98},{"user_id":112,"name":"shlongy bongy","steam_id":76561198015876799,"connected_time":3909000000000,"state":"active","ping":31},{"user_id":161,"name":"Monsy","steam_id":76561198025735006,"connected_time":393000000000,"state":"active","ping":69},{"user_id":147,"name":"herbal tea","steam_id":76561197980736364,"connected_time":2521000000000,"state":"active","ping":90},{"user_id":144,"name":"Zatusrex","steam_id":76561198104147805,"connected_time":2580000000000,"state":"active","ping":108},{"user_id":152,"name":"Big Mean Muther Hubbard","steam_id":76561199223016965,"connected_time":2234000000000,"state":"active","ping":77},{"user_id":100,"name":"mob","steam_id":76561198099696876,"connected_time":4606000000000,"state":"active","ping":76},{"user_id":132,"name":"GRRRR BARK BARK WOOF WOOF :3","steam_id":76561198010662796,"connected_time":2912000000000,"state":"active","ping":75},{"user_id":160,"name":"ZID","steam_id":76561198214099068,"connected_time":608000000000,"state":"active","ping":105},{"user_id":148,"name":"im practicing airshots","steam_id":76561198388318978,"connected_time":2465000000000,"state":"active","ping":93},{"user_id":106,"name":"popeyes employee of the month","steam_id":76561198076219289,"connected_time":4558000000000,"state":"active","ping":61},{"user_id":162,"name":"Naty","steam_id":76561198083488307,"connected_time":347000000000,"state":"active","ping":60}]},{"server_id":53,"name":"Uncletopia | Warsaw | 5 | Stopwatch","name_short":"waw-5","host":"waw-1.pl.uncletopia.com","port":27055,"enabled":true,"region":"eu","cc":"pl","latitude":52.2297,"longitude":21.017532,"reserved":0,"last_update":"0001-01-01T00:00:00Z","name_a2s":"Uncletopia | Warsaw | 5 | Stopwatch","protocol":17,"map":"koth_lakeside_final","folder":"tf","game":"Team Fortress","app_id":440,"player_count":0,"max_players":24,"Bots":0,"server_type":"Dedicated","server_os":"Linux","password":true,"vac":true,"version":"7961495","steam_id":85568392925397854,"keywords":["cp","nocrits","nodmgspread","uncletopia"],"game_id":440,"stv_port":27056,"stv_name":"Uncletopia | Warsaw | 5 | Stopwatch | STV","players":null},{"server_id":54,"name":"Uncletopia | Warsaw | 6 | Community","name_short":"waw-6","host":"waw-1.pl.uncletopia.com","port":27065,"enabled":true,"region":"eu","cc":"pl","latitude":52.2297,"longitude":21.017532,"reserved":0,"last_update":"0001-01-01T00:00:00Z","name_a2s":"Uncletopia | Warsaw | 6 | Community","protocol":17,"map":"workshop/pl_highwood_b19.ugc1769496557","folder":"tf","game":"Team Fortress","app_id":440,"player_count":0,"max_players":24,"Bots":0,"server_type":"Dedicated","server_os":"Linux","password":true,"vac":true,"version":"7961495","steam_id":85568392925397856,"keywords":["nocrits","nodmgspread","payload","uncletopia"],"game_id":440,"stv_port":27066,"stv_name":"Uncletopia | Warsaw | 6 | Community | STV","players":null}]}