{"status":true,"message":"","result":[{"server_id":9,"name":"Uncletopia | Atlanta | 1 | All Maps","name_short":"atl-1","host":"atl-1.us.uncletopia.com","port":27015,"enabled":true,"region":"us-east","cc":"us","latitude":33.753746,"longitude":-84.38633,"reserved":0,"last_update":"0001-01-01T00:00:00Z","name_a2s":"Uncletopia | Atlanta | 1 | All Maps","protocol":17,"map":"pl_badwater","folder":"tf","game":"Team Fortress","app_id":440,"player_count":17,"max_players":24,"Bots":0,"server_type":"Dedicated","server_os":"Linux","password":true,"vac":true,"version":"7961495","steam_id":85568392924469982,"keywords":["nocrits","nodmgspread","payload","uncletopia"],"game_id":440,"stv_port":27016,"stv_name":"Uncletopia | Atlanta | 1 | All Maps | STV","players":null},{"server_id":104,"name":"Uncletopia | Atlanta | 2 | All Maps","name_short":"atl-2","host":"atl-1.us.uncletopia.com","port":27025,"enabled":true,"region":"us-east","cc":"us","latitude":33.753746,"longitude":-84.38633,"reserved":0,"last_update":"0001-01-01T00:00:00Z","name_a2s":"Uncletopia | Atlanta | 2 | All Maps","protocol":17,"map":"koth_cascade","folder":"tf","game":"Team Fortress","app_id":440,"player_count":0,"max_players":24,"Bots":0,"server_type":"Dedicated","server_os":"Linux","password":true,"vac":true,"version":"7961495","steam_id":85568392924469983,"keywords":["cp","nocrits","nodmgspread","uncletopia"],"game_id":440,"stv_port":27026,"stv_name":"Uncletopia | Atlanta | 2 | All Maps | STV","players":null},{"server_id":400,"name":"Uncletopia | Atlanta | 3 | Stopwatch","name_short":"atl-3","host":"atl-1.us.uncletopia.com","port":27035,"enabled":true,"region":"us-east","cc":"us","latitude":33.753746,"longitude":-84.38633,"reserved":0,"last_update":"0001-01-01T00:00:00Z","name_a2s":"Uncletopia | Atlanta | 3 | Stopwatch","protocol":17,"map":"pl_badwater","folder":"tf","game":"Team Fortress","app_id":440,"player_count":0,"max_players":24,"Bots":0,"server_type":"Dedicated","server_os":"Linux","password":true,"vac":true,"version":"7961495","steam_id":85568392924515187,"keywords":["nocrits","nodmgspread","payload","uncletopia"],"game_id":440,"stv_port":27036,"stv_name":"Uncletopia | Atlanta | 3 | Stopwatch | STV","players":null},{"server_id":401,"name":"Uncletopia | Atlanta | 4 | Community","name_short":"atl-4","host":"atl-1.us.uncletopia.com","port":27045,"enabled":true,"region":"us-east","cc":"us","latitude":33.753746,"longitude":-84.38633,"reserved":0,"last_update":"0001-01-01T00:00:00Z","name_a2s":"Uncletopia | Atlanta | 4 | Community","protocol":17,"map":"cp_sunshine","folder":"tf","game":"Team Fortress","app_id":440,"player_count":0,"max_players":24,"Bots":0,"server_type":"Dedicated","server_os":"Linux","password":true,"vac":true,"version":"7961495","steam_id":85568392924515188,"keywords":["cp","nocrits","nodmgspread","uncletopia"],"game_id":440,"stv_port":27046,"stv_name":"Uncletopia | Atlanta | 4 | Community | STV","players":null},{"server_id":2,"name":"Uncletopia | Chicago | 1 | All Maps","name_short":"chi-1","host":"chi-1.us.uncletopia.com","port":27015,"enabled":true,"region":"us-central","cc":"us","latitude":41.881832,"longitude":-87.62318,"reserved":0,"last_update":"0001-01-01T00:00:00Z","name_a2s":"Uncletopia | Chicago | 1 | All Maps","protocol":17,"map":"ctf_sawmill","folder":"tf","game":"Team Fortress","app_id":440,"player_count":20,"max_players":24,"Bots":0,"server_type":"Dedicated","server_os":"Linux","password":true,"vac":true,"version":"7961495","steam_id":85568392924469984,"keywords":["ctf","nocrits","nodmgspread","uncletopia"],"game_id":440,"stv_port":27016,"stv_name":"Uncletopia | Chicago | 1 | All Maps | STV","players":[{"user_id":5,"name":"pepsi","steam_id":76561198843190923,"connected_time":1380000000000,"state":"active","ping":48},{"user_id":6,"name":"Mr. Sandman","steam_id":76561198065870487,"connected_time":1312000000000,"state":"active","ping":52},{"user_id":7,"name":"H0ovy","steam_id":76561198996230924,"connected_time":1284000000000,"state":"active","ping":67},{"user_id":8,"name":"jimmz","steam_id":76561199076776118,"connected_time":1249000000000,"state":"active","ping":63},{"user_id":21,"name":"Frog","steam_id":76561199165825711,"connected_time":697000000000,"state":"active","ping":78},{"user_id":11,"name":"Bobletoob","steam_id":76561199184464900,"connected_time":1165000000000,"state":"active","ping":100},{"user_id":18,"name":"LittleFieryOne","steam_id":76561198107463724,"connected_time":848000000000,"state":"active","ping":58},{"user_id":13,"name":"socializedCryptid","steam_id":76561198991665007,"connected_time":1078000000000,"state":"active","ping":51},{"user_id":15,"name":"Kazul","steam_id":76561198014925555,"connected_time":967000000000,"state":"active","ping":49},{"user_id":16,"name":"thatguy_luigi","steam_id":76561198968055462,"connected_time":944000000000,"state":"active","ping":125},{"user_id":17,"name":"Just-Some-Menace","steam_id":76561198152324397,"connected_time":915000000000,"state":"active","ping":75},{"user_id":19,"name":"Wafflehead","steam_id":76561198051895288,"connected_time":830000000000,"state":"active","ping":81},{"user_id":28,"name":"ุ","steam_id":76561198170624701,"connected_time":143000000000,"state":"active","ping":67},{"user_id":23,"name":"the munch","steam_id":76561199164347838,"connected_time":422000000000,"state":"active","ping":72},{"user_id":32,"name":"P.C. Baby","steam_id":76561198067011379,"connected_time":47000000000,"state":"active","ping":115},{"user_id":25,"name":"H47","steam_id":76561198088079103,"connected_time":322000000000,"state":"active","ping":78},{"user_id":33,"name":"Gaminglast","steam_id":76561198362927765,"connected_time":36000000000,"state":"active","ping":160},{"user_id":29,"name":"tA.CHRONIC","steam_id":76561197960760990,"connected_time":111000000000,"state":"active","ping":49},{"user_id":30,"name":"Maurdakar","steam_id":76561197983420976,"connected_time":91000000000,"state":"active","ping":71},{"user_id":31,"name":"dansal","steam_id":76561197997042510,"connected_time":76000000000,"state":"active","ping":83}]},{"server_id":106,"name":"Uncletopia | Chicago | 2 | All Maps","name_short":"chi-2","host":"chi-1.us.uncletopia.com","port":27025,"enabled":true,"region":"us-central","cc":"us","latitude":41.881832,"longitude":-87.62318,"reserved":0,"last_update":"0001-01-01T00:00:00Z","name_a2s":"Uncletopia | Chicago | 2 | All Maps","protocol":17,"map":"pl_frontier_final","folder":"tf","game":"Team Fortress","app_id":440,"player_count":0,"max_players":24,"Bots":0,"server_type":"Dedicated","server_os":"Linux","password":true,"vac":true,"version":"7961495","steam_id":85568392924469985,"keywords":["nocrits","nodmgspread","payload","uncletopia"],"game_id":440,"stv_port":27026,"stv_name":"Uncletopia | Chicago | 2 | All Maps | STV","players":null},{"server_id":402,"name":"Uncletopia | Chicago | 3 | All Maps","name_short":"chi-3","host":"chi-1.us.uncletopia.com","port":27035,"enabled":true,"region":"us-central","cc":"us","latitude":41.881832,"longitude":-87.62318,"reserved":0,"last_update":"0001-01-01T00:00:00Z","name_a2s":"Uncletopia | Chicago | 3 | All Maps","protocol":17,"map":"koth_cascade","folder":"tf","game":"Team Fortress","app_id":440,"player_count":0,"max_players":24,"Bots":0,"server_type":"Dedicated","server_os":"Linux","password":true,"vac":true,"version":"7961495","steam_id":85568392924515191,"keywords":["cp","nocrits","nodmgspread","uncletopia"],"game_id":440,"stv_port":27036,"stv_name":"Uncletopia | Chicago | 3 | All Maps | STV","players":null},{"server_id":403,"name":"Uncletopia | Chicago | 4 | All Maps","name_short":"chi-4","host":"chi-1.us.uncletopia.com","port":27045,"enabled":true,"region":"us-central","cc":"us","latitude":41.881832,"longitude":-87.62318,"reserved":0,"last_update":"0001-01-01T00:00:00Z","name_a2s":"Uncletopia | Chicago | 4 | All Maps","protocol":17,"map":"cp_mountainlab","folder":"tf","game":"Team Fortress","app_id":440,"player_count":24,"max_players":24,"Bots":0,"server_type":"Dedicated","server_os":"Linux","password":true,"vac":true,"version":"7961495","steam_id":85568392924515193,"keywords":["cp","nocrits","nodmgspread","uncletopia"],"game_id":440,"stv_port":27046,"stv_name":"Uncletopia | Chicago | 4 | All Maps | STV","players":[{"user_id":86,"name":"A strange old man","steam_id":76561198035529717,"connected_time":312000000000,"state":"active","ping":72},{"user_id":78,"name":"gyat","steam_id":76561198043684960,"connected_time":2052000000000,"state":"active","ping":67},{"user_id":75,"name":"hud_saytext_time 0","steam_id":76561198010327228,"connected_time":2092000000000,"state":"active","ping":171},{"user_id":80,"name":"Magilla","steam_id":76561197972368756,"connected_time":1488000000000,"state":"active","ping":56},{"user_id":87,"name":"Mog","steam_id":76561198025575870,"connected_time":280000000000,"state":"active","ping":49},{"user_id":84,"name":"HyperOrange|#SaveTF2","steam_id":76561198068071327,"connected_time":513000000000,"state":"active","ping":72},{"user_id":81,"name":"Siren","steam_id":76561198047395823,"connected_time":1076000000000,"state":"active","ping":84},{"user_id":94,"name":"LemonCitron","steam_id":76561199009438984,"connected_time":143000000000,"state":"active","ping":100},{"user_id":85,"name":"Sir Spinach","steam_id":76561199164337878,"connected_time":414000000000,"state":"active","ping":80},{"user_id":90,"name":"Manners","steam_id":76561198890681464,"connected_time":253000000000,"state":"active","ping":97},{"user_id":44,"name":"roto","steam_id":76561198138735860,"connected_time":3641000000000,"state":"active","ping":65},{"user_id":49,"name":"beta central","steam_id":76561198301876831,"connected_time":3239000000000,"state":"active","ping":59},{"user_id":65,"name":"A Rhino with Coronavirus","steam_id":76561197999451366,"connected_time":3144000000000,"state":"active","ping":83},{"user_id":91,"name":"Big_Beans888","steam_id":76561198100822287,"connected_time":242000000000,"state":"active","ping":110},{"user_id":79,"name":"P. Yoshi","steam_id":76561197974290515,"connected_time":1857000000000,"state":"active","ping":78},{"user_id":92,"name":"Lseudo","steam_id":76561198346929065,"connected_time":241000000000,"state":"active","ping":61},{"user_id":83,"name":"viagra addict","steam_id":76561198017705248,"connected_time":570000000000,"state":"active","ping":53},{"user_id":99,"name":"carrot cake","steam_id":76561198055174915,"connected_time":57000000000,"state":"active","ping":70},{"user_id":97,"name":"Gabo08","steam_id":76561198261043593,"connected_time":105000000000,"state":"active","ping":214},{"user_id":93,"name":"a","steam_id":76561198131245396,"connected_time":167000000000,"state":"active","ping":50},{"user_id":95,"name":"Kuyumiester","steam_id":76561198126835302,"connected_time":124000000000,"state":"active","ping":62},{"user_id":96,"name":"Gobby's Knight","steam_id":76561198157260335,"connected_time":115000000000,"state":"active","ping":46},{"user_id":98,"name":"LilBruh","steam_id":76561198444876052,"connected_time":97000000000,"state":"active","ping":88},{"user_id":41,"name":"Santa Carrying a Minigun","steam_id":76561198047845399,"connected_time":3944000000000,"state":"active","ping":69}]},{"server_id":36,"name":"Uncletopia | Chicago | 5 | All Maps","name_short":"chi-5","host":"chi-2.us.uncletopia.com","port":27015,"enabled":true,"region":"us-central","cc":"us","latitude":41.881832,"longitude":-87.62318,"reserved":0,"last_update":"0001-01-01T00:00:00Z","name_a2s":"Uncletopia | Chicago | 5 | All Maps","protocol":17,"map":"koth_viaduct","folder":"tf","game":"Team Fortress","app_id":440,"player_count":0,"max_players":24,"Bots":0,"server_type":"Dedicated","server_os":"Linux","password":true,"vac":true,"version":"7961495","steam_id":85568392924866362,"keywords":["cp","nocrits","nodmgspread","uncletopia"],"game_id":440,"stv_port":27016,"stv_name":"Uncletopia | Chicago | 5 | All Maps | STV","players":null},{"server_id":37,"name":"Uncletopia | Chicago | 6 | All Maps","name_short":"chi-6","host":"chi-2.us.uncletopia.com","port":27025,"enabled":true,"region":"us-central","cc":"us","latitude":41.881832,"longitude":-87.62318,"reserved":0,"last_update":"0001-01-01T00:00:00Z","name_a2s":"Uncletopia | Chicago | 6 | All Maps","protocol":17,"map":"pl_frontier_final","folder":"tf","game":"Team Fortress","app_id":440,"player_count":0,"max_players":24,"Bots":0,"server_type":"Dedicated","server_os":"Linux","password":true,"vac":true,"version":"7961495","steam_id":85568392924866363,"keywords":["nocrits","nodmgspread","payload","uncletopia"],"game_id":440,"stv_port":27026,"stv_name":"Uncletopia | Chicago | 6 | All Maps | STV","players":null},{"server_id":38,"name":"Uncletopia | Chicago | 7 | Stopwatch","name_short":"chi-7","host":"chi-2.us.uncletopia.com","port":27035,"enabled":true,"region":"us-central","cc":"us","latitude":41.881832,"longitude":-87.62318,"reserved":0,"last_update":"0001-01-01T00:00:00Z","name_a2s":"Uncletopia | Chicago | 7 | Stopwatch","protocol":17,"map":"pl_badwater","folder":"tf","game":"Team Fortress","app_id":440,"player_count":0,"max_players":24,"Bots":0,"server_type":"Dedicated","server_os":"Linux","password":true,"vac":true,"version":"7961495","steam_id":85568392924866364,"keywords":["nocrits","nodmgspread","payload","uncletopia"],"game_id":440,"stv_port":27036,"stv_name":"Uncletopia | Chicago | 7 | Stopwatch | STV","players":null},{"server_id":39,"name":"Uncletopia | Chicago | 8 | Community","name_short":"chi-8","host":"chi-2.us.uncletopia.com","port":27045,"enabled":true,"region":"us-central","cc":"us","latitude":41.881832,"longitude":-87.62318,"reserved":0,"last_update":"0001-01-01T00:00:00Z","name_a2s":"Uncletopia | Chicago | 8 | Community","protocol":17,"map":"pl_pier","folder":"tf","game":"Team Fortress","app_id":440,"player_count":0,"max_players":24,"Bots":0,"server_type":"Dedicated","server_os":"Linux","password":true,"vac":true,"version":"7961495","steam_id":85568392924866365,"keywords":["nocrits","nodmgspread","payload","uncletopia"],"game_id":440,"stv_port":27046,"stv_name":"Uncletopia | Chicago | 8 | Community | STV","players":null},{"server_id":8,"name":"Uncletopia | Dallas | 1 | All Maps","name_short":"dal-1","host":"dal-1.us.uncletopia.com","port":27015,"enabled":true,"region":"us-central","cc":"us","latitude":32.779167,"longitude":-96.80889,"reserved":0,"last_update":"0001-01-01T00:00:00Z","name_a2s":"Uncletopia | Dallas | 1 | All Maps","protocol":17,"map":"pl_snowycoast","folder":"tf","game":"Team Fortress","app_id":440,"player_count":0,"max_players":24,"Bots":0,"server_type":"Dedicated","server_os":"Linux","password":true,"vac":true,"version":"7961495","steam_id":85568392924469986,"keywords":["nocrits","nodmgspread","payload","uncletopia"],"game_id":440,"stv_port":27016,"stv_name":"Uncletopia | Dallas | 1 | All Maps | STV","players":null},{"server_id":108,"name":"Uncletopia | Dallas | 2 | All Maps","name_short":"dal-2","host":"dal-1.us.uncletopia.com","port":27025,"enabled":true,"region":"us-central","cc":"us","latitude":32.779167,"longitude":-96.80889,"reserved":0,"last_update":"0001-01-01T00:00:00Z","name_a2s":"Uncletopia | Dallas | 2 | All Maps","protocol":17,"map":"pl_snowycoast","folder":"tf","game":"Team Fortress","app_id":440,"player_count":0,"max_players":24,"Bots":0,"server_type":"Dedicated","server_os":"Linux","password":true,"vac":true,"version":"7961495","steam_id":85568392924469988,"keywords":["nocrits","nodmgspread","payload","uncletopia"],"game_id":440,"stv_port":27026,"stv_name":"Uncletopia | Dallas | 2 | All Maps | STV","players":null},{"server_id":404,"name":"Uncletopia | Dallas | 3 | All Maps","name_short":"dal-3","host":"dal-1.us.uncletopia.com","port":27035,"enabled":true,"region":"us-central","cc":"us","latitude":32.779167,"longitude":-96.80889,"reserved":0,"last_update":"0001-01-01T00:00:00Z","name_a2s":"Uncletopia | Dallas | 3 | All Maps","protocol":17,"map":"koth_badlands","folder":"tf","game":"Team Fortress","app_id":440,"player_count":0,"max_players":24,"Bots":0,"server_type":"Dedicated","server_os":"Linux","password":true,"vac":true,"version":"7961495","steam_id":85568392924515219,"keywords":["cp","nocrits","nodmgspread","uncletopia"],"game_id":440,"stv_port":27036,"stv_name":"Uncletopia | Dallas | 3 | All Maps | STV","players":null},{"server_id":405,"name":"Uncletopia | Dallas | 4 | Community","name_short":"dal-4","host":"dal-1.us.uncletopia.com","port":27045,"enabled":true,"region":"us-central","cc":"us","latitude":32.779167,"longitude":-96.80889,"reserved":0,"last_update":"0001-01-01T00:00:00Z","name_a2s":"Uncletopia | Dallas | 4 | Community","protocol":17,"map":"pl_pier","folder":"tf","game":"Team Fortress","app_id":440,"player_count":0,"max_players":24,"Bots":0,"server_type":"Dedicated","server_os":"Linux","password":true,"vac":true,"version":"7961495","steam_id":85568392924515220,"keywords":["nocrits","nodmgspread","payload","uncletopia"],"game_id":440,"stv_port":27046,"stv_name":"Uncletopia | Dallas | 4 | Community | STV","players":null},{"server_id":5,"name":"Uncletopia | Frankfurt | 1 | All Maps","name_short":"frk-1","host":"frk-1.de.uncletopia.com","port":27015,"enabled":true,"region":"eu","cc":"de","latitude":50.110924,"longitude":8.682127,"reserved":0,"last_update":"0001-01-01T00:00:00Z","name_a2s":"Uncletopia | Frankfurt | 1 | All Maps","protocol":17,"map":"pl_borneo","folder":"tf","game":"Team Fortress","app_id":440,"player_count":24,"max_players":24,"Bots":0,"server_type":"Dedicated","server_os":"Linux","password":true,"vac":true,"version":"7961495","steam_id":85568392924469989,"keywords":["nocrits","nodmgspread","payload","uncletopia"],"game_id":440,"stv_port":27016,"stv_name":"Uncletopia | Frankfurt | 1 | All Maps | STV","players":[{"user_id":163,"name":"Nipa5000","steam_id":76561199027332005,"connected_time":1464000000000,"state":"active","ping":105},{"user_id":173,"name":"Marky","steam_id":76561199474556920,"connected_time":630000000000,"state":"active","ping":70},{"user_id":171,"name":"Nebvlak!","steam_id":76561199028057296,"connected_time":663000000000,"state":"active","ping":64},{"user_id":165,"name":"KFD","steam_id":76561198157183003,"connected_time":1186000000000,"state":"active","ping":75},{"user_id":147,"name":"grr","steam_id":76561199429407130,"connected_time":2894000000000,"state":"active","ping":93},{"user_id":123,"name":"mindas","steam_id":76561198056839438,"connected_time":4339000000000,"state":"active","ping":59},{"user_id":168,"name":"Burak","steam_id":76561198441622971,"connected_time":816000000000,"state":"active","ping":99},{"user_id":183,"name":"justify","steam_id":76561199227541378,"connected_time":411000000000,"state":"active","ping":161},{"user_id":170,"name":"Banana khan (F2P)","steam_id":76561198992414056,"connected_time":795000000000,"state":"active","ping":181},{"user_id":182,"name":"AlfonsoM","steam_id":76561198138832894,"connected_time":435000000000,"state":"active","ping":89},{"user_id":175,"name":"Syde","steam_id":76561198071725346,"connected_time":621000000000,"state":"active","ping":59},{"user_id":159,"name":"Sparrose","steam_id":76561199050235461,"connected_time":1782000000000,"state":"active","ping":64},{"user_id":176,"name":"Larry Penus","steam_id":76561198207546233,"connected_time":584000000000,"state":"active","ping":60},{"user_id":184,"name":"Alpha","steam_id":76561198133229149,"connected_time":195000000000,"state":"active","ping":91},{"user_id":161,"name":"Egor Pomidor","steam_id":76561199175688390,"connected_time":1702000000000,"state":"active","ping":75},{"user_id":181,"name":"Arsonist","steam_id":76561199087953833,"connected_time":467000000000,"state":"active","ping":109},{"user_id":99,"name":"mr kiwi","steam_id":76561198069714550,"connected_time":6139000000000,"state":"active","ping":56},{"user_id":143,"name":"Not Steven","steam_id":76561198051881261,"connected_time":3238000000000,"state":"active","ping":45},{"user_id":178,"name":"releng0","steam_id":76561198120708390,"connected_time":576000000000,"state":"active","ping":87},{"user_id":179,"name":"L I F E xq","steam_id":76561198112476786,"connected_time":563000000000,"state":"active","ping":66},{"user_id":151,"name":"Tynnyri","steam_id":76561198075516541,"connected_time":2792000000000,"state":"active","ping":110},{"user_id":142,"name":"QuantumFox","steam_id":76561198125912648,"connected_time":3325000000000,"state":"active","ping":68},{"user_id":185,"name":"Bobo","steam_id":76561198052308399,"connected_time":30000000000,"state":"spawning","ping":52},{"user_id":144,"name":"Nµ","steam_id":76561199088570961,"connected_time":3218000000000,"state":"active","ping":349}]},{"server_id":110,"name":"Uncletopia | Frankfurt | 2 | All Maps","name_short":"frk-2","host":"frk-1.de.uncletopia.com","port":27025,"enabled":true,"region":"eu","cc":"de","latitude":50.110924,"longitude":8.682127,"reserved":0,"last_update":"0001-01-01T00:00:00Z","name_a2s":"Uncletopia | Frankfurt | 2 | All Maps","protocol":17,"map":"pl_borneo","folder":"tf","game":"Team Fortress","app_id":440,"player_count":24,"max_players":24,"Bots":0,"server_type":"Dedicated","server_os":"Linux","password":true,"vac":true,"version":"7961495","steam_id":85568392924469990,"keywords":["nocrits","nodmgspread","payload","uncletopia"],"game_id":440,"stv_port":27026,"stv_name":"Uncletopia | Frankfurt | 2 | All Maps | STV","players":[{"user_id":396,"name":"After8","steam_id":76561198090750865,"connected_time":1002000000000,"state":"active","ping":74},{"user_id":364,"name":"PanPatrik","steam_id":76561198293331527,"connected_time":3598000000000,"state":"active","ping":58},{"user_id":382,"name":"Will","steam_id":76561198173329977,"connected_time":2220000000000,"state":"active","ping":64},{"user_id":337,"name":"Play slowly, pls","steam_id":76561198006463587,"connected_time":5592000000000,"state":"active","ping":132},{"user_id":387,"name":"tony","steam_id":76561199382978934,"connected_time":1516000000000,"state":"active","ping":91},{"user_id":344,"name":"N5LH","steam_id":76561199112528775,"connected_time":4600000000000,"state":"active","ping":108},{"user_id":379,"name":"skippy","steam_id":76561198171958773,"connected_time":2512000000000,"state":"active","ping":69},{"user_id":383,"name":"Tornado","steam_id":76561198025684320,"connected_time":2177000000000,"state":"active","ping":55},{"user_id":386,"name":"Henrik Solan","steam_id":76561198077850479,"connected_time":1637000000000,"state":"active","ping":56},{"user_id":399,"name":"panakid","steam_id":76561198364121077,"connected_time":780000000000,"state":"active","ping":84},{"user_id":345,"name":"kat","steam_id":76561198319297751,"connected_time":4501000000000,"state":"active","ping":56},{"user_id":376,"name":"Red-Kite","steam_id":76561199141255034,"connected_time":2678000000000,"state":"active","ping":71},{"user_id":385,"name":"masculine femboy","steam_id":76561198269583925,"connected_time":1722000000000,"state":"active","ping":121},{"user_id":346,"name":"randem_","steam_id":76561198338793755,"connected_time":4497000000000,"state":"active","ping":54},{"user_id":368,"name":"gpupdate","steam_id":76561198154677956,"connected_time":3469000000000,"state":"active","ping":73},{"user_id":371,"name":"dansci","steam_id":76561198269530717,"connected_time":3330000000000,"state":"active","ping":159},{"user_id":401,"name":"MackPack","steam_id":76561198104243355,"connected_time":202000000000,"state":"active","ping":59},{"user_id":347,"name":"lexa","steam_id":76561199002520104,"connected_time":4492000000000,"state":"active","ping":89},{"user_id":377,"name":"⪢Play Like Leo⪡","steam_id":76561198358471569,"connected_time":2603000000000,"state":"active","ping":60},{"user_id":400,"name":"BrianIsFruity","steam_id":76561198103706881,"connected_time":695000000000,"state":"active","ping":65},{"user_id":373,"name":"remi, she wrote.","steam_id":76561198044045655,"connected_time":3252000000000,"state":"active","ping":90},{"user_id":360,"name":"Acekeni™ ∤ [GMD]","steam_id":76561198352700499,"connected_time":3748000000000,"state":"active","ping":74},{"user_id":397,"name":"ttv/SimplyJeevs","steam_id":76561198060545372,"connected_time":996000000000,"state":"active","ping":60},{"user_id":378,"name":"Damin","steam_id":76561198288156612,"connected_time":2554000000000,"state":"active","ping":47}]},{"server_id":308,"name":"Uncletopia | Frankfurt | 3 | All Maps","name_short":"frk-3","host":"frk-1.de.uncletopia.com","port":27035,"enabled":true,"region":"eu","cc":"de","latitude":50.110924,"longitude":8.682127,"reserved":0,"last_update":"0001-01-01T00:00:00Z","name_a2s":"Uncletopia | Frankfurt | 3 | All Maps","protocol":17,"map":"koth_viaduct","folder":"tf","game":"Team Fortress","app_id":440,"player_count":1,"max_players":24,"Bots":0,"server_type":"Dedicated","server_os":"Linux","password":true,"vac":true,"version":"7961495","steam_id":85568392924504274,"keywords":["cp","nocrits","nodmgspread","uncletopia"],"game_id":440,"stv_port":27036,"stv_name":"Uncletopia | Frankfurt | 3 | All Maps | STV","players":[{"user_id":191,"name":"makoto nagano","steam_id":76561199261094823,"connected_time":75000000000,"state":"active","ping":92}]},{"server_id":309,"name":"Uncletopia | Frankfurt | 4 | All Maps","name_short":"frk-4","host":"frk-1.de.uncletopia.com","port":27045,"enabled":true,"region":"eu","cc":"de","latitude":50.110924,"longitude":8.682127,"reserved":0,"last_update":"0001-01-01T00:00:00Z","name_a2s":"Uncletopia | Frankfurt | 4 | All Maps","protocol":17,"map":"pl_badwater","folder":"tf","game":"Team Fortress","app_id":440,"player_count":24,"max_players":24,"Bots":0,"server_type":"Dedicated","server_os":"Linux","password":true,"vac":true,"version":"7961495","steam_id":85568392924504275,"keywords":["nocrits","nodmgspread","payload","uncletopia"],"game_id":440,"stv_port":27046,"stv_name":"Uncletopia | Frankfurt | 4 | All Maps | STV","players":[{"user_id":125,"name":"Kart is Useless","steam_id":76561198950842095,"connected_time":1891000000000,"state":"active","ping":42},{"user_id":129,"name":"Abska","steam_id":76561198118323803,"connected_time":1691000000000,"state":"active","ping":119},{"user_id":114,"name":"tyroksi :D","steam_id":76561198103875245,"connected_time":2263000000000,"state":"active","ping":102},{"user_id":102,"name":"♠Anti_BOI♠","steam_id":76561198274593231,"connected_time":3123000000000,"state":"active","ping":68},{"user_id":132,"name":"Dark106 (not Light601)","steam_id":76561198134998492,"connected_time":1544000000000,"state":"active","ping":94},{"user_id":142,"name":"Doppelgänger","steam_id":76561198024333262,"connected_time":447000000000,"state":"active","ping":85},{"user_id":45,"name":"HASAN58","steam_id":76561199053508683,"connected_time":7169000000000,"state":"active","ping":94},{"user_id":112,"name":"✡Cpruin✡","steam_id":76561198184924239,"connected_time":2624000000000,"state":"active","ping":68},{"user_id":140,"name":"Heavy TF2 in irl?!","steam_id":76561198082502910,"connected_time":855000000000,"state":"active","ping":48},{"user_id":133,"name":"DwarfInYou","steam_id":76561198966341795,"connected_time":1344000000000,"state":"active","ping":56},{"user_id":135,"name":"[Thrall891]","steam_id":76561198136402128,"connected_time":1069000000000,"state":"active","ping":82},{"user_id":76,"name":"UwUlric","steam_id":76561198136794751,"connected_time":5043000000000,"state":"active","ping":84},{"user_id":77,"name":"Protector.CZ","steam_id":76561197972341084,"connected_time":4966000000000,"state":"active","ping":69},{"user_id":124,"name":"eidis","steam_id":76561198314954479,"connected_time":1936000000000,"state":"active","ping":103},{"user_id":138,"name":"Sir Warock","steam_id":76561198180468693,"connected_time":987000000000,"state":"active","ping":86},{"user_id":64,"name":"Miesny Jez","steam_id":76561199112951867,"connected_time":5963000000000,"state":"active","ping":558},{"user_id":128,"name":"ramedlaV^^","steam_id":76561198074352339,"connected_time":1707000000000,"state":"active","ping":72},{"user_id":144,"name":"核nucleoneツ","steam_id":76561198099372569,"connected_time":161000000000,"state":"active","ping":60},{"user_id":130,"name":"m4tt","steam_id":76561198267909813,"connected_time":1681000000000,"state":"active","ping":69},{"user_id":131,"name":"The Wolf Leader","steam_id":76561198038007462,"connected_time":1649000000000,"state":"active","ping":80},{"user_id":137,"name":"typicalcrimson","steam_id":76561198295439747,"connected_time":1013000000000,"state":"active","ping":70},{"user_id":90,"name":"LordTrap.exe","steam_id":76561198318089716,"connected_time":4209000000000,"state":"active","ping":74},{"user_id":145,"name":"Jnet","steam_id":76561198001282720,"connected_time":151000000000,"state":"active","ping":107},{"user_id":143,"name":"[CIR]Philibert","steam_id":76561198025148053,"connected_time":177000000000,"state":"active","ping":61}]},{"server_id":310,"name":"Uncletopia | Frankfurt | 5 | All Maps","name_short":"frk-5","host":"frk-1.de.uncletopia.com","port":27055,"enabled":true,"region":"eu","cc":"de","latitude":50.110924,"longitude":8.682127,"reserved":0,"last_update":"0001-01-01T00:00:00Z","name_a2s":"Uncletopia | Frankfurt | 5 | All Maps","protocol":17,"map":"pl_goldrush","folder":"tf","game":"Team Fortress","app_id":440,"player_count":24,"max_players":24,"Bots":0,"server_type":"Dedicated","server_os":"Linux","password":true,"vac":true,"version":"7961495","steam_id":85568392924504277,"keywords":["nocrits","nodmgspread","payload","uncletopia"],"game_id":440,"stv_port":27056,"stv_name":"Uncletopia | Frankfurt | 5 | All Maps | STV","players":[{"user_id":317,"name":"Dot","steam_id":76561198047299145,"connected_time":2548000000000,"state":"active","ping":70},{"user_id":215,"name":"Dirocks","steam_id":76561198138494815,"connected_time":9145000000000,"state":"active","ping":80},{"user_id":334,"name":"Lubi Animal","steam_id":76561199041620433,"connected_time":1290000000000,"state":"active","ping":48},{"user_id":346,"name":"Apollo17","steam_id":76561198886930836,"connected_time":609000000000,"state":"active","ping":83},{"user_id":264,"name":"Huggetz with cheese","steam_id":76561198144599511,"connected_time":5739000000000,"state":"active","ping":113},{"user_id":338,"name":"ZodiacThundaga","steam_id":76561199025117814,"connected_time":828000000000,"state":"active","ping":161},{"user_id":331,"name":"Aivohiiri","steam_id":76561198061344125,"connected_time":1479000000000,"state":"active","ping":98},{"user_id":352,"name":"Phantom","steam_id":76561198146074656,"connected_time":428000000000,"state":"active","ping":76},{"user_id":342,"name":"Dėdė Dwarfas","steam_id":76561199134491846,"connected_time":752000000000,"state":"active","ping":122},{"user_id":339,"name":"mick","steam_id":76561199473954060,"connected_time":789000000000,"state":"active","ping":104},{"user_id":340,"name":"RandomPerson","steam_id":76561199084351849,"connected_time":776000000000,"state":"active","ping":71},{"user_id":314,"name":"MrHenry","steam_id":76561199249662743,"connected_time":2936000000000,"state":"active","ping":124},{"user_id":353,"name":"JVLIVS","steam_id":76561198366167099,"connected_time":152000000000,"state":"active","ping":45},{"user_id":294,"name":"Captain V","steam_id":76561198355193630,"connected_time":4057000000000,"state":"active","ping":90},{"user_id":328,"name":"Yuzu","steam_id":76561198121694613,"connected_time":1809000000000,"state":"active","ping":50},{"user_id":350,"name":"Adam Hitlet","steam_id":76561198856537455,"connected_time":471000000000,"state":"active","ping":48},{"user_id":355,"name":"Zeta","steam_id":76561198101917105,"connected_time":78000000000,"state":"active","ping":147},{"user_id":345,"name":"Tre3","steam_id":76561198054795379,"connected_time":646000000000,"state":"active","ping":46},{"user_id":347,"name":"Duck","steam_id":76561198158242888,"connected_time":605000000000,"state":"active","ping":52},{"user_id":354,"name":"Tomato","steam_id":76561199124472513,"connected_time":148000000000,"state":"active","ping":108},{"user_id":319,"name":"akimbo gonads","steam_id":76561198413052419,"connected_time":2310000000000,"state":"active","ping":61},{"user_id":329,"name":"Sergeant_cross","steam_id":76561198148270425,"connected_time":1756000000000,"state":"active","ping":71},{"user_id":335,"name":"Happy Broccol","steam_id":76561198180667795,"connected_time":1127000000000,"state":"active","ping":66},{"user_id":356,"name":"JayKey","steam_id":76561198008847925,"connected_time":23000000000,"state":"active","ping":53}]},{"server_id":311,"name":"Uncletopia | Frankfurt | 6 | All Maps","name_short":"frk-6","host":"frk-1.de.uncletopia.com","port":27065,"enabled":true,"region":"eu","cc":"de","latitude":50.110924,"longitude":8.682127,"reserved":0,"last_update":"0001-01-01T00:00:00Z","name_a2s":"Uncletopia | Frankfurt | 6 | All Maps","protocol":17,"map":"pl_pier","folder":"tf","game":"Team Fortress","app_id":440,"player_count":24,"max_players":24,"Bots":0,"server_type":"Dedicated","server_os":"Linux","password":true,"vac":true,"version":"7961495","steam_id":85568392924504278,"keywords":["nocrits","nodmgspread","payload","uncletopia"],"game_id":440,"stv_port":27066,"stv_name":"Uncletopia | Frankfurt | 6 | All Maps | STV","players":[{"user_id":337,"name":"GueN","steam_id":76561198384689388,"connected_time":171000000000,"state":"active","ping":45},{"user_id":269,"name":"Nick","steam_id":76561198036109469,"connected_time":4663000000000,"state":"active","ping":76},{"user_id":332,"name":"CheesyNacho","steam_id":76561198350445456,"connected_time":339000000000,"state":"active","ping":144},{"user_id":312,"name":"walluu","steam_id":76561198121830870,"connected_time":1657000000000,"state":"active","ping":75},{"user_id":323,"name":"Hexagon","steam_id":76561198151205758,"connected_time":1165000000000,"state":"active","ping":45},{"user_id":265,"name":"XPullaHiiri","steam_id":76561198031652375,"connected_time":4830000000000,"state":"active","ping":87},{"user_id":333,"name":"tensh1","steam_id":76561198282471866,"connected_time":327000000000,"state":"active","ping":109},{"user_id":339,"name":"Fat Pigeon","steam_id":76561198817940142,"connected_time":79000000000,"state":"active","ping":60},{"user_id":338,"name":"Akopi","steam_id":76561198110765486,"connected_time":148000000000,"state":"active","ping":71},{"user_id":335,"name":"Rops","steam_id":76561198031608011,"connected_time":308000000000,"state":"active","ping":77},{"user_id":305,"name":"mt","steam_id":76561197961319303,"connected_time":2306000000000,"state":"active","ping":48},{"user_id":302,"name":"Rin-Nakaret","steam_id":76561197971051188,"connected_time":2397000000000,"state":"active","ping":54},{"user_id":340,"name":"Michael","steam_id":76561198003146906,"connected_time":70000000000,"state":"active","ping":56},{"user_id":294,"name":"Doriian","steam_id":76561198071438810,"connected_time":2808000000000,"state":"active","ping":79},{"user_id":336,"name":"Somephoenix","steam_id":76561198838424791,"connected_time":306000000000,"state":"active","ping":48},{"user_id":95,"name":"hyvakii705","steam_id":76561198086630552,"connected_time":12977000000000,"state":"active","ping":91},{"user_id":341,"name":"̿","steam_id":76561198021473545,"connected_time":39000000000,"state":"spawning","ping":70},{"user_id":324,"name":"CAR DOOR","steam_id":76561198055283295,"connected_time":1153000000000,"state":"active","ping":45},{"user_id":310,"name":"ramirez","steam_id":76561198117060048,"connected_time":2161000000000,"state":"active","ping":50},{"user_id":325,"name":"Hohz RustStake #rustmoment","steam_id":76561198257850715,"connected_time":1115000000000,"state":"active","ping":98},{"user_id":316,"name":"Abrorius","steam_id":76561198095889014,"connected_time":1461000000000,"state":"active","ping":78},{"user_id":321,"name":"P7nball","steam_id":76561198382749493,"connected_time":1236000000000,"state":"active","ping":88},{"user_id":309,"name":"lulu","steam_id":76561199147764133,"connected_time":2220000000000,"state":"active","ping":110},{"user_id":326,"name":"nokia #rustmoment banditcamp.co","steam_id":76561198976411995,"connected_time":1051000000000,"state":"active","ping":158}]},{"server_id":23,"name":"Uncletopia | Frankfurt | 7 | Stopwatch","name_short":"frk-7","host":"frk-1.de.uncletopia.com","port":27075,"enabled":true,"region":"eu","cc":"de","latitude":50.110924,"longitude":8.682127,"reserved":0,"last_update":"0001-01-01T00:00:00Z","name_a2s":"Uncletopia | Frankfurt | 7 | Stopwatch","protocol":17,"map":"workshop/koth_ramjam_rc1.ugc459778887","folder":"tf","game":"Team Fortress","app_id":440,"player_count":0,"max_players":24,"Bots":0,"server_type":"Dedicated","server_os":"Linux","password":true,"vac":true,"version":"7961495","steam_id":85568392924742827,"keywords":["cp","nocrits","nodmgspread","uncletopia"],"game_id":440,"stv_port":27076,"stv_name":"Uncletopia | Frankfurt | 7 | Stopwatch | STV","players":null},{"server_id":24,"name":"Uncletopia | Frankfurt | 8 | Community","name_short":"frk-8","host":"frk-1.de.uncletopia.com","port":27085,"enabled":true,"region":"eu","cc":"de","latitude":50.110924,"longitude":8.682127,"reserved":0,"last_update":"0001-01-01T00:00:00Z","name_a2s":"Uncletopia | Frankfurt | 8 | Community","protocol":17,"map":"workshop/koth_ashville_final.ugc2130459942","folder":"tf","game":"Team Fortress","app_id":440,"player_count":0,"max_players":24,"Bots":0,"server_type":"Dedicated","server_os":"Linux","password":true,"vac":true,"version":"7961495","steam_id":85568392924742828,"keywords":["cp","nocrits","nodmgspread","uncletopia"],"game_id":440,"stv_port":27086,"stv_name":"Uncletopia | Frankfurt | 8 | Community | STV","players":null},{"server_id":202,"name":"Uncletopia | Hong Kong | 1 | All Maps","name_short":"hgk-1","host":"hgk-1.hk.uncletopia.com","port":27015,"enabled":true,"region":"asia","cc":"hk","latitude":22.302711,"longitude":114.177216,"reserved":0,"last_update":"0001-01-01T00:00:00Z","name_a2s":"Uncletopia | Hong Kong | 1 | All Maps","protocol":17,"map":"cp_steel","folder":"tf","game":"Team Fortress","app_id":440,"player_count":24,"max_players":24,"Bots":0,"server_type":"Dedicated","server_os":"Linux","password":true,"vac":true,"version":"7961495","steam_id":85568392924494504,"keywords":["cp","nocrits","nodmgspread","uncletopia"],"game_id":440,"stv_port":27016,"stv_name":"Uncletopia | Hong Kong | 1 | All Maps | STV","players":[{"user_id":426,"name":"spinach (old mouse)","steam_id":76561198042539541,"connected_time":4744000000000,"state":"active","ping":76},{"user_id":546,"name":"QWQ","steam_id":76561198886731650,"connected_time":135000000000,"state":"active","ping":107},{"user_id":543,"name":"Ham Man","steam_id":76561198174102269,"connected_time":344000000000,"state":"active","ping":81},{"user_id":548,"name":"Beef Wellington","steam_id":76561197995635241,"connected_time":13000000000,"state":"spawning","ping":105},{"user_id":444,"name":"h","steam_id":76561199093572590,"connected_time":3964000000000,"state":"active","ping":57},{"user_id":474,"name":"Kpba32(Lego)","steam_id":76561198051927766,"connected_time":3077000000000,"state":"active","ping":110},{"user_id":428,"name":"Lerroy","steam_id":76561199137927625,"connected_time":4721000000000,"state":"active","ping":96},{"user_id":430,"name":"RAVE Velvet","steam_id":76561199381208170,"connected_time":4589000000000,"state":"active","ping":170},{"user_id":549,"name":"Jimmy","steam_id":76561198411087075,"connected_time":8000000000,"state":"spawning","ping":39},{"user_id":414,"name":"Crazywayne","steam_id":76561198056504010,"connected_time":6159000000000,"state":"active","ping":77},{"user_id":492,"name":"j_rex","steam_id":76561198132473926,"connected_time":2464000000000,"state":"active","ping":54},{"user_id":410,"name":"E","steam_id":76561198796342005,"connected_time":6433000000000,"state":"active","ping":100},{"user_id":278,"name":"Corbezy","steam_id":76561197993398349,"connected_time":17639000000000,"state":"active","ping":104},{"user_id":534,"name":"baguette","steam_id":76561198057051511,"connected_time":1044000000000,"state":"active","ping":89},{"user_id":434,"name":"pyroman51","steam_id":76561198074339034,"connected_time":4331000000000,"state":"active","ping":75},{"user_id":538,"name":"CakeMaestor","steam_id":76561198331763015,"connected_time":818000000000,"state":"active","ping":88},{"user_id":540,"name":"Othopeus","steam_id":76561198283534382,"connected_time":603000000000,"state":"active","ping":70},{"user_id":545,"name":"基质的王尼玛","steam_id":76561198209991671,"connected_time":145000000000,"state":"active","ping":118},{"user_id":483,"name":"Streety","steam_id":76561199098969003,"connected_time":2806000000000,"state":"active","ping":61},{"user_id":437,"name":"kaboom","steam_id":76561199146847474,"connected_time":4290000000000,"state":"active","ping":44},{"user_id":541,"name":"washed up slayer","steam_id":76561198113401862,"connected_time":571000000000,"state":"active","ping":90},{"user_id":533,"name":"Drutzhfer","steam_id":76561198299948446,"connected_time":1090000000000,"state":"active","ping":110},{"user_id":405,"name":"xXx_420_Tr!ckSt@bb3R_360_xXx","steam_id":76561198833527091,"connected_time":6658000000000,"state":"active","ping":90},{"user_id":530,"name":"man","steam_id":76561198348487408,"connected_time":1351000000000,"state":"active","ping":42}]},{"server_id":1,"name":"Uncletopia | Los Angeles | 1 | All Maps","name_short":"lax-1","host":"lax-1.us.uncletopia.com","port":27015,"enabled":true,"region":"us-west","cc":"us","latitude":33.94279,"longitude":-118.41004,"reserved":0,"last_update":"0001-01-01T00:00:00Z","name_a2s":"Uncletopia | Los Angeles | 1 | All Maps","protocol":17,"map":"pl_snowycoast","folder":"tf","game":"Team Fortress","app_id":440,"player_count":0,"max_players":24,"Bots":0,"server_type":"Dedicated","server_os":"Linux","password":true,"vac":true,"version":"7961495","steam_id":85568392924469991,"keywords":["nocrits","nodmgspread","payload","uncletopia"],"game_id":440,"stv_port":27016,"stv_name":"Uncletopia | Los Angeles | 1 | All Maps | STV","players":null},{"server_id":112,"name":"Uncletopia | Los Angeles | 2 | All Maps","name_short":"lax-2","host":"lax-1.us.uncletopia.com","port":27025,"enabled":true,"region":"us-west","cc":"us","latitude":33.94279,"longitude":-118.41004,"reserved":0,"last_update":"0001-01-01T00:00:00Z","name_a2s":"Uncletopia | Los Angeles | 2 | All Maps","protocol":17,"map":"cp_mountainlab","folder":"tf","game":"Team Fortress","app_id":440,"player_count":0,"max_players":24,"Bots":0,"server_type":"Dedicated","server_os":"Linux","password":true,"vac":true,"version":"7961495","steam_id":85568392924469992,"keywords":["cp","nocrits","nodmgspread","uncletopia"],"game_id":440,"stv_port":27026,"stv_name":"Uncletopia | Los Angeles | 2 | All Maps | STV","players":null},{"server_id":324,"name":"Uncletopia | Los Angeles | 3 | All Maps","name_short":"lax-3","host":"lax-1.us.uncletopia.com","port":27035,"enabled":true,"region":"us-west","cc":"us","latitude":33.94279,"longitude":-118.41004,"reserved":0,"last_update":"0001-01-01T00:00:00Z","name_a2s":"Uncletopia | Los Angeles | 3 | All Maps","protocol":17,"map":"pl_frontier_final","folder":"tf","game":"Team Fortress","app_id":440,"player_count":0,"max_players":24,"Bots":0,"server_type":"Dedicated","server_os":"Linux","password":true,"vac":true,"version":"7961495","steam_id":85568392924510198,"keywords":["nocrits","nodmgspread","payload","uncletopia"],"game_id":440,"stv_port":27036,"stv_name":"Uncletopia | Los Angeles | 3 | All Maps | STV","players":null},{"server_id":25,"name":"Uncletopia | Los Angeles | 4 | Stopwatch","name_short":"lax-4","host":"lax-1.us.uncletopia.com","port":27045,"enabled":true,"region":"us-west","cc":"us","latitude":33.94279,"longitude":-118.41004,"reserved":0,"last_update":"0001-01-01T00:00:00Z","name_a2s":"Uncletopia | Los Angeles | 4 | Stopwatch","protocol":17,"map":"pl_barnblitz","folder":"tf","game":"Team Fortress","app_id":440,"player_count":0,"max_players":24,"Bots":0,"server_type":"Dedicated","server_os":"Linux","password":true,"vac":true,"version":"7961495","steam_id":85568392924510199,"keywords":["nocrits","nodmgspread","payload","uncletopia"],"game_id":440,"stv_port":27046,"stv_name":"Uncletopia | Los Angeles | 4 | Stopwatch | STV","players":null},{"server_id":11,"name":"Uncletopia | London | 1 | All Maps","name_short":"lon-1","host":"lon-1.uk.uncletopia.com","port":27015,"enabled":true,"region":"eu","cc":"gb","latitude":51.509865,"longitude":-0.118092,"reserved":0,"last_update":"0001-01-01T00:00:00Z","name_a2s":"Uncletopia | London | 1 | All Maps","protocol":17,"map":"koth_highpass","folder":"tf","game":"Team Fortress","app_id":440,"player_count":23,"max_players":24,"Bots":0,"server_type":"Dedicated","server_os":"Linux","password":true,"vac":true,"version":"7961495","steam_id":85568392924367362,"keywords":["cp","nocrits","nodmgspread","uncletopia"],"game_id":440,"stv_port":27016,"stv_name":"Uncletopia | London | 1 | All Maps | STV","players":[{"user_id":178,"name":"armadillo","steam_id":76561198324656652,"connected_time":70000000000,"state":"active","ping":50},{"user_id":169,"name":"Mircoxi","steam_id":76561199407632710,"connected_time":442000000000,"state":"active","ping":54},{"user_id":126,"name":"Biggest Homie","steam_id":76561198373107677,"connected_time":2664000000000,"state":"active","ping":84},{"user_id":106,"name":"hoizil","steam_id":76561198800688436,"connected_time":3366000000000,"state":"active","ping":74},{"user_id":154,"name":"Zenhard","steam_id":76561198099744014,"connected_time":1157000000000,"state":"active","ping":92},{"user_id":141,"name":"DaiDaiMu :3","steam_id":76561198052794823,"connected_time":1689000000000,"state":"active","ping":70},{"user_id":155,"name":"ein","steam_id":76561198152162834,"connected_time":1095000000000,"state":"active","ping":102},{"user_id":101,"name":"Finem Belli","steam_id":76561198227177976,"connected_time":3823000000000,"state":"active","ping":45},{"user_id":173,"name":"Yelowchy","steam_id":76561198199416121,"connected_time":325000000000,"state":"active","ping":68},{"user_id":31,"name":"Swift","steam_id":76561198194603287,"connected_time":7108000000000,"state":"active","ping":50},{"user_id":32,"name":"Kittisci","steam_id":76561198086690940,"connected_time":7108000000000,"state":"active","ping":45},{"user_id":158,"name":"Kota","steam_id":76561198280217109,"connected_time":941000000000,"state":"active","ping":75},{"user_id":168,"name":"Femboy Thighs","steam_id":76561198115496457,"connected_time":534000000000,"state":"active","ping":42},{"user_id":160,"name":"ILoveMyMom420Blaze","steam_id":76561198981016492,"connected_time":925000000000,"state":"active","ping":60},{"user_id":179,"name":"Cg Studios","steam_id":76561198286908002,"connected_time":65000000000,"state":"active","ping":58},{"user_id":109,"name":"Bullet magnet (FIN)","steam_id":76561197975715220,"connected_time":3328000000000,"state":"active","ping":92},{"user_id":174,"name":"xva","steam_id":76561198969286813,"connected_time":322000000000,"state":"active","ping":74},{"user_id":112,"name":"Shine","steam_id":76561198136297981,"connected_time":3282000000000,"state":"active","ping":81},{"user_id":122,"name":"Catt #saveTF2","steam_id":76561199088078419,"connected_time":2933000000000,"state":"active","ping":89},{"user_id":162,"name":"Kaziocalvice","steam_id":76561198146425583,"connected_time":834000000000,"state":"active","ping":77},{"user_id":163,"name":"big beef","steam_id":76561198845046853,"connected_time":784000000000,"state":"active","ping":60},{"user_id":164,"name":"zek","steam_id":76561198862763731,"connected_time":756000000000,"state":"active","ping":71},{"user_id":167,"name":"Princess Fuzz","steam_id":76561198025783000,"connected_time":642000000000,"state":"active","ping":39}]},{"server_id":114,"name":"Uncletopia | London | 2 | All Maps","name_short":"lon-2","host":"lon-1.uk.uncletopia.com","port":27025,"enabled":true,"region":"eu","cc":"gb","latitude":51.509865,"longitude":-0.118092,"reserved":0,"last_update":"0001-01-01T00:00:00Z","name_a2s":"Uncletopia | London | 2 | All Maps","protocol":17,"map":"pl_badwater","folder":"tf","game":"Team Fortress","app_id":440,"player_count":23,"max_players":24,"Bots":0,"server_type":"Dedicated","server_os":"Linux","password":true,"vac":true,"version":"7961495","steam_id":85568392924470941,"keywords":["nocrits","nodmgspread","payload","uncletopia"],"game_id":440,"stv_port":27026,"stv_name":"Uncletopia | London | 2 | All Maps | STV","players":[{"user_id":84,"name":"my mom","steam_id":76561199225201569,"connected_time":1239000000000,"state":"active","ping":103},{"user_id":73,"name":"Ducky[WADZ]","steam_id":76561198060341245,"connected_time":1873000000000,"state":"active","ping":63},{"user_id":85,"name":"rwota","steam_id":76561198385769722,"connected_time":1214000000000,"state":"active","ping":109},{"user_id":45,"name":"Dirk.van.den.Broek 2008","steam_id":76561198124226614,"connected_time":3267000000000,"state":"active","ping":52},{"user_id":98,"name":"ONI","steam_id":76561199038860035,"connected_time":388000000000,"state":"active","ping":67},{"user_id":76,"name":"Meg Thomas","steam_id":76561198308266951,"connected_time":1691000000000,"state":"active","ping":74},{"user_id":94,"name":"nobodyy","steam_id":76561198027735766,"connected_time":720000000000,"state":"active","ping":75},{"user_id":52,"name":"Real (Real)","steam_id":76561198323425034,"connected_time":2584000000000,"state":"active","ping":79},{"user_id":53,"name":"HaylingZar","steam_id":76561198053559897,"connected_time":2521000000000,"state":"active","ping":59},{"user_id":93,"name":"LE$KA","steam_id":76561198211434744,"connected_time":841000000000,"state":"active","ping":85},{"user_id":87,"name":"o","steam_id":76561198066799770,"connected_time":1153000000000,"state":"active","ping":66},{"user_id":77,"name":"Rad","steam_id":76561199001560866,"connected_time":1634000000000,"state":"active","ping":73},{"user_id":75,"name":"tét.","steam_id":76561198146309367,"connected_time":1731000000000,"state":"active","ping":103},{"user_id":82,"name":"grigobno","steam_id":76561198037018719,"connected_time":1414000000000,"state":"active","ping":110},{"user_id":95,"name":"valzecam","steam_id":76561198274352933,"connected_time":694000000000,"state":"active","ping":55},{"user_id":99,"name":"ra","steam_id":76561198239927434,"connected_time":118000000000,"state":"active","ping":78},{"user_id":60,"name":"ThugTugger","steam_id":76561199009004723,"connected_time":2294000000000,"state":"active","ping":44},{"user_id":96,"name":"Morskittar","steam_id":76561198153394861,"connected_time":578000000000,"state":"active","ping":80},{"user_id":64,"name":"moseley519","steam_id":76561198045485374,"connected_time":2147000000000,"state":"active","ping":51},{"user_id":65,"name":"Chairman.Pingu","steam_id":76561198093223592,"connected_time":2139000000000,"state":"active","ping":74},{"user_id":97,"name":"Tywhip","steam_id":76561199207545191,"connected_time":469000000000,"state":"active","ping":55},{"user_id":68,"name":"McGuinnes","steam_id":76561198165915111,"connected_time":2111000000000,"state":"active","ping":117},{"user_id":92,"name":"Vic Chaos","steam_id":76561198951797353,"connected_time":1021000000000,"state":"active","ping":180}]},{"server_id":320,"name":"Uncletopia | London | 3 | All Maps","name_short":"lon-3","host":"lon-1.uk.uncletopia.com","port":27035,"enabled":true,"region":"eu","cc":"gb","latitude":51.509865,"longitude":-0.118092,"reserved":0,"last_update":"0001-01-01T00:00:00Z","name_a2s":"Uncletopia | London | 3 | All Maps","protocol":17,"map":"pl_thundermountain","folder":"tf","game":"Team Fortress","app_id":440,"player_count":18,"max_players":24,"Bots":0,"server_type":"Dedicated","server_os":"Linux","password":true,"vac":true,"version":"7961495","steam_id":85568392924510192,"keywords":["nocrits","nodmgspread","payload","uncletopia"],"game_id":440,"stv_port":27036,"stv_name":"Uncletopia | London | 3 | All Maps | STV","players":[{"user_id":308,"name":"Pan Pan","steam_id":76561199074670515,"connected_time":1414000000000,"state":"active","ping":247},{"user_id":303,"name":"Chris","steam_id":76561198179791702,"connected_time":2321000000000,"state":"active","ping":175},{"user_id":302,"name":"Goldoni","steam_id":76561198030223489,"connected_time":2634000000000,"state":"active","ping":65},{"user_id":329,"name":"clean carp","steam_id":76561198127053294,"connected_time":41000000000,"state":"active","ping":62},{"user_id":327,"name":"Faber","steam_id":76561198015507927,"connected_time":53000000000,"state":"active","ping":67},{"user_id":291,"name":"transgender e-girl","steam_id":76561198168589809,"connected_time":3574000000000,"state":"active","ping":46},{"user_id":328,"name":"Kentucky Fried Crab","steam_id":76561198035586715,"connected_time":52000000000,"state":"active","ping":123},{"user_id":330,"name":"Explosive Poptart","steam_id":76561198023918830,"connected_time":39000000000,"state":"active","ping":45},{"user_id":331,"name":"obi","steam_id":76561198040154461,"connected_time":12000000000,"state":"active","ping":337},{"user_id":323,"name":"Driltin","steam_id":76561198007076807,"connected_time":684000000000,"state":"active","ping":87},{"user_id":315,"name":"Strugatsky","steam_id":76561198124129336,"connected_time":1085000000000,"state":"active","ping":74},{"user_id":296,"name":"The Sun in Rags","steam_id":76561198169990975,"connected_time":3066000000000,"state":"active","ping":40},{"user_id":260,"name":"Jonno","steam_id":76561198023443744,"connected_time":5582000000000,"state":"active","ping":46},{"user_id":321,"name":"Stop The Violence","steam_id":76561198044876779,"connected_time":827000000000,"state":"active","ping":75},{"user_id":217,"name":"Sign up to give bone marrow!","steam_id":76561198055363275,"connected_time":7997000000000,"state":"active","ping":39},{"user_id":292,"name":"Trans Femtress 2","steam_id":76561198014056212,"connected_time":3287000000000,"state":"active","ping":67},{"user_id":288,"name":"Fuck it (unhandicaps)","steam_id":76561197983095579,"connected_time":3842000000000,"state":"active","ping":90},{"user_id":305,"name":"☭ybercat","steam_id":76561198014070417,"connected_time":2275000000000,"state":"active","ping":56}]},{"server_id":321,"name":"Uncletopia | London | 4 | All Maps","name_short":"lon-4","host":"lon-1.uk.uncletopia.com","port":27045,"enabled":true,"region":"eu","cc":"gb","latitude":51.509865,"longitude":-0.118092,"reserved":0,"last_update":"0001-01-01T00:00:00Z","name_a2s":"Uncletopia | London | 4 | All Maps","protocol":17,"map":"pl_badwater","folder":"tf","game":"Team Fortress","app_id":440,"player_count":24,"max_players":24,"Bots":0,"server_type":"Dedicated","server_os":"Linux","password":true,"vac":true,"version":"7961495","steam_id":85568392924510193,"keywords":["nocrits","nodmgspread","payload","uncletopia"],"game_id":440,"stv_port":27046,"stv_name":"Uncletopia | London | 4 | All Maps | STV","players":[{"user_id":247,"name":"3L","steam_id":76561198007208996,"connected_time":752000000000,"state":"active","ping":55},{"user_id":242,"name":"madhead200","steam_id":76561198119498666,"connected_time":987000000000,"state":"active","ping":64},{"user_id":249,"name":"727","steam_id":76561198045891560,"connected_time":730000000000,"state":"active","ping":136},{"user_id":238,"name":"MATTI","steam_id":76561198158031864,"connected_time":1263000000000,"state":"active","ping":61},{"user_id":243,"name":"Sorry","steam_id":76561198040722720,"connected_time":934000000000,"state":"active","ping":137},{"user_id":198,"name":"Ujin","steam_id":76561197995386642,"connected_time":3120000000000,"state":"active","ping":95},{"user_id":214,"name":"ROX","steam_id":76561198272289320,"connected_time":2266000000000,"state":"active","ping":63},{"user_id":145,"name":"JepCabestany","steam_id":76561198123812578,"connected_time":6997000000000,"state":"active","ping":93},{"user_id":260,"name":"WEEP","steam_id":76561199499933159,"connected_time":44000000000,"state":"active","ping":70},{"user_id":259,"name":"Igor","steam_id":76561198206703408,"connected_time":74000000000,"state":"active","ping":83},{"user_id":250,"name":"KLAMA  ❤","steam_id":76561198351549661,"connected_time":636000000000,"state":"active","ping":74},{"user_id":185,"name":"t_g","steam_id":76561198057028649,"connected_time":4547000000000,"state":"active","ping":59},{"user_id":257,"name":"lillunya ♡","steam_id":76561198330418866,"connected_time":208000000000,"state":"active","ping":70},{"user_id":248,"name":"Cosmetic brain","steam_id":76561198055936410,"connected_time":751000000000,"state":"active","ping":88},{"user_id":241,"name":"dumbai","steam_id":76561199098418729,"connected_time":1008000000000,"state":"active","ping":97},{"user_id":221,"name":"haha A-10 Warthog go bbrrrrrrrr","steam_id":76561198247954030,"connected_time":1987000000000,"state":"active","ping":86},{"user_id":244,"name":"xavier","steam_id":76561198076494034,"connected_time":933000000000,"state":"active","ping":53},{"user_id":256,"name":"thefrenchfry","steam_id":76561198088945198,"connected_time":410000000000,"state":"active","ping":131},{"user_id":245,"name":"Mister_fLeXsS","steam_id":76561198075613556,"connected_time":930000000000,"state":"active","ping":106},{"user_id":240,"name":"BenUpde","steam_id":76561198003554034,"connected_time":1199000000000,"state":"active","ping":139},{"user_id":232,"name":"Haven is tired!","steam_id":76561199229904725,"connected_time":1463000000000,"state":"active","ping":81},{"user_id":209,"name":"hehehehaw","steam_id":76561198796428451,"connected_time":2352000000000,"state":"active","ping":63},{"user_id":254,"name":"NeoNetiq","steam_id":76561198126293608,"connected_time":532000000000,"state":"active","ping":103},{"user_id":236,"name":"Yassine","steam_id":76561198140565712,"connected_time":1308000000000,"state":"active","ping":48}]},{"server_id":21,"name":"Uncletopia | London | 5 | All Maps","name_short":"lon-5","host":"lon-1.uk.uncletopia.com","port":27055,"enabled":true,"region":"eu","cc":"gb","latitude":51.509865,"longitude":-0.118092,"reserved":0,"last_update":"0001-01-01T00:00:00Z","name_a2s":"Uncletopia | London | 5 | All Maps","protocol":17,"map":"pl_badwater","folder":"tf","game":"Team Fortress","app_id":440,"player_count":24,"max_players":24,"Bots":0,"server_type":"Dedicated","server_os":"Linux","password":true,"vac":true,"version":"7961495","steam_id":85568392924742829,"keywords":["nocrits","nodmgspread","payload","uncletopia"],"game_id":440,"stv_port":27056,"stv_name":"Uncletopia | London | 5 | All Maps | STV","players":[{"user_id":329,"name":"paypig","steam_id":76561198035137115,"connected_time":525000000000,"state":"active","ping":53},{"user_id":305,"name":"azzy","steam_id":76561198061293740,"connected_time":2115000000000,"state":"active","ping":75},{"user_id":328,"name":"toad (ungodly gigantic)","steam_id":76561198870327755,"connected_time":532000000000,"state":"active","ping":79},{"user_id":331,"name":"Phinton","steam_id":76561198014690842,"connected_time":497000000000,"state":"active","ping":62},{"user_id":335,"name":"Caliban","steam_id":76561197999696839,"connected_time":174000000000,"state":"active","ping":119},{"user_id":287,"name":"videogaming","steam_id":76561198251927912,"connected_time":3246000000000,"state":"active","ping":73},{"user_id":332,"name":"A literal heavy","steam_id":76561199219233587,"connected_time":434000000000,"state":"active","ping":83},{"user_id":307,"name":"[UwU] Blackblood909","steam_id":76561198079427660,"connected_time":2092000000000,"state":"active","ping":68},{"user_id":180,"name":"Beron the Colossus","steam_id":76561198091998555,"connected_time":10691000000000,"state":"active","ping":100},{"user_id":297,"name":"hey STUPID! I'm over here...","steam_id":76561198056388702,"connected_time":2679000000000,"state":"active","ping":93},{"user_id":319,"name":"Iveune™","steam_id":76561198099373783,"connected_time":1200000000000,"state":"active","ping":76},{"user_id":324,"name":"Clay","steam_id":76561198091031305,"connected_time":1010000000000,"state":"active","ping":68},{"user_id":183,"name":":3","steam_id":76561198169471853,"connected_time":10563000000000,"state":"active","ping":40},{"user_id":273,"name":"Ashen","steam_id":76561198274631806,"connected_time":3717000000000,"state":"active","ping":50},{"user_id":293,"name":"mr.resetti","steam_id":76561198974520642,"connected_time":2732000000000,"state":"active","ping":70},{"user_id":323,"name":"FilipeskoBro TF2EASY.COM","steam_id":76561198831347261,"connected_time":1061000000000,"state":"active","ping":70},{"user_id":215,"name":"Henry Fonda","steam_id":76561199378865926,"connected_time":7588000000000,"state":"active","ping":139},{"user_id":308,"name":"Ziomek","steam_id":76561199131735098,"connected_time":2079000000000,"state":"active","ping":82},{"user_id":333,"name":"ExulT","steam_id":76561199064170281,"connected_time":433000000000,"state":"active","ping":114},{"user_id":334,"name":":|","steam_id":76561198145232617,"connected_time":380000000000,"state":"active","ping":39},{"user_id":298,"name":"mossfan1","steam_id":76561198087525446,"connected_time":2666000000000,"state":"active","ping":71},{"user_id":325,"name":"please buy my stupid spy hat","steam_id":76561198281256009,"connected_time":846000000000,"state":"active","ping":110},{"user_id":283,"name":"cold#panda","steam_id":76561199220136710,"connected_time":3403000000000,"state":"active","ping":128},{"user_id":312,"name":"Cpt_frost","steam_id":76561198218034817,"connected_time":1821000000000,"state":"active","ping":42}]},{"server_id":22,"name":"Uncletopia | London | 6 | All Maps","name_short":"lon-6","host":"lon-1.uk.uncletopia.com","port":27065,"enabled":true,"region":"eu","cc":"gb","latitude":51.509865,"longitude":-0.118092,"reserved":0,"last_update":"0001-01-01T00:00:00Z","name_a2s":"Uncletopia | London | 6 | All Maps","protocol":17,"map":"koth_viaduct","folder":"tf","game":"Team Fortress","app_id":440,"player_count":24,"max_players":24,"Bots":0,"server_type":"Dedicated","server_os":"Linux","password":true,"vac":true,"version":"7961495","steam_id":85568392924742830,"keywords":["cp","nocrits","nodmgspread","uncletopia"],"game_id":440,"stv_port":27066,"stv_name":"Uncletopia | London | 6 | All Maps | STV","players":[{"user_id":190,"name":"spl .davi","steam_id":76561198029015952,"connected_time":13423000000000,"state":"active","ping":66},{"user_id":360,"name":"OrangeBanana","steam_id":76561199230233875,"connected_time":670000000000,"state":"active","ping":55},{"user_id":372,"name":"ʀɪᴋᴏᴘ⓽","steam_id":76561198101822510,"connected_time":402000000000,"state":"active","ping":86},{"user_id":364,"name":"xX_NoiceMaster69_Xx","steam_id":76561198179315669,"connected_time":580000000000,"state":"active","ping":62},{"user_id":373,"name":"ratsnrats","steam_id":76561199187258021,"connected_time":398000000000,"state":"active","ping":43},{"user_id":347,"name":"M2rtRa","steam_id":76561198111036466,"connected_time":1612000000000,"state":"active","ping":81},{"user_id":386,"name":"MisterGQ","steam_id":76561198018415918,"connected_time":68000000000,"state":"active","ping":61},{"user_id":366,"name":"Jughead","steam_id":76561198000355410,"connected_time":526000000000,"state":"active","ping":43},{"user_id":385,"name":"Jhare","steam_id":76561198211794225,"connected_time":105000000000,"state":"active","ping":32},{"user_id":348,"name":"cat aesthetics","steam_id":76561199062437546,"connected_time":1604000000000,"state":"active","ping":59},{"user_id":381,"name":"Gibzzler","steam_id":76561198882704996,"connected_time":184000000000,"state":"active","ping":92},{"user_id":368,"name":"OhMyGrosch","steam_id":76561198361193051,"connected_time":495000000000,"state":"active","ping":46},{"user_id":377,"name":"mq","steam_id":76561198091888948,"connected_time":316000000000,"state":"active","ping":46},{"user_id":346,"name":"Tengen","steam_id":76561199356990346,"connected_time":1885000000000,"state":"active","ping":97},{"user_id":369,"name":"Portal2Player","steam_id":76561198062870114,"connected_time":473000000000,"state":"active","ping":129},{"user_id":380,"name":"lithiumsniffer","steam_id":76561198857126944,"connected_time":237000000000,"state":"active","ping":64},{"user_id":374,"name":"Lessoz","steam_id":76561199211572036,"connected_time":392000000000,"state":"active","ping":86},{"user_id":349,"name":"Storm's Foreshadow","steam_id":76561198098462526,"connected_time":1567000000000,"state":"active","ping":77},{"user_id":379,"name":"Frank Horrigan","steam_id":76561198209184131,"connected_time":247000000000,"state":"active","ping":70},{"user_id":375,"name":"fuo","steam_id":76561197995536944,"connected_time":372000000000,"state":"active","ping":32},{"user_id":382,"name":"Wattseyy","steam_id":76561198248567360,"connected_time":172000000000,"state":"active","ping":43},{"user_id":359,"name":"♥Medical student♥","steam_id":76561199119401415,"connected_time":912000000000,"state":"active","ping":117},{"user_id":383,"name":"Confused1221","steam_id":76561199061802741,"connected_time":159000000000,"state":"active","ping":75},{"user_id":384,"name":"bean","steam_id":76561198161013815,"connected_time":128000000000,"state":"active","ping":52}]},{"server_id":40,"name":"Uncletopia | London | 7 | Stopwatch","name_short":"lon-7","host":"lon-1.uk.uncletopia.com","port":27075,"enabled":true,"region":"eu","cc":"gb","latitude":51.509865,"longitude":-0.118092,"reserved":0,"last_update":"0001-01-01T00:00:00Z","name_a2s":"Uncletopia | London | 7 | Stopwatch","protocol":17,"map":"cp_sunshine","folder":"tf","game":"Team Fortress","app_id":440,"player_count":0,"max_players":24,"Bots":0,"server_type":"Dedicated","server_os":"Linux","password":true,"vac":true,"version":"7961495","steam_id":85568392924964314,"keywords":["cp","nocrits","nodmgspread","uncletopia"],"game_id":440,"stv_port":27076,"stv_name":"Uncletopia | London | 7 | Stopwatch | STV","players":null},{"server_id":41,"name":"Uncletopia | London | 8 | Community","name_short":"lon-8","host":"lon-1.uk.uncletopia.com","port":27085,"enabled":true,"region":"eu","cc":"gb","latitude":51.509865,"longitude":-0.118092,"reserved":0,"last_update":"0001-01-01T00:00:00Z","name_a2s":"Uncletopia | London | 8 | Community","protocol":17,"map":"cp_snakewater_final1","folder":"tf","game":"Team Fortress","app_id":440,"player_count":0,"max_players":24,"Bots":0,"server_type":"Dedicated","server_os":"Linux","password":true,"vac":true,"version":"7961495","steam_id":85568392924964315,"keywords":["cp","nocrits","nodmgspread","uncletopia"],"game_id":440,"stv_port":27086,"stv_name":"Uncletopia | London | 8 | Community | STV","players":null},{"server_id":300,"name":"Uncletopia | Montréal | 1 | One Thousand Uncles","name_short":"mtl-1","host":"mtl-1.ca.uncletopia.com","port":27015,"enabled":true,"region":"us-east","cc":"ca","latitude":45.50889,"longitude":-73.56167,"reserved":0,"last_update":"0001-01-01T00:00:00Z","name_a2s":"","protocol":0,"map":"","folder":"","game":"","app_id":0,"player_count":0,"max_players":0,"Bots":0,"server_type":"","server_os":"","password":false,"vac":false,"version":"","steam_id":0,"keywords":null,"game_id":0,"stv_port":0,"stv_name":"","players":null},{"server_id":301,"name":"Uncletopia | Montréal | 2 | One Thousand Uncles","name_short":"mtl-2","host":"mtl-1.ca.uncletopia.com","port":27025,"enabled":true,"region":"us-east","cc":"ca","latitude":45.50889,"longitude":-73.56167,"reserved":0,"last_update":"0001-01-01T00:00:00Z","name_a2s":"","protocol":0,"map":"","folder":"","game":"","app_id":0,"player_count":0,"max_players":0,"Bots":0,"server_type":"","server_os":"","password":false,"vac":false,"version":"","steam_id":0,"keywords":null,"game_id":0,"stv_port":0,"stv_name":"","players":null},{"server_id":302,"name":"Uncletopia | Montréal | 3 | One Thousand Uncles","name_short":"mtl-3","host":"mtl-1.ca.uncletopia.com","port":27035,"enabled":true,"region":"us-east","cc":"ca","latitude":45.50889,"longitude":-73.56167,"reserved":0,"last_update":"0001-01-01T00:00:00Z","name_a2s":"","protocol":0,"map":"","folder":"","game":"","app_id":0,"player_count":0,"max_players":0,"Bots":0,"server_type":"","server_os":"","password":false,"vac":false,"version":"","steam_id":0,"keywords":null,"game_id":0,"stv_port":0,"stv_name":"","players":null},{"server_id":13,"name":"Uncletopia | New York City | 1 | All Maps","name_short":"nyc-1","host":"nyc-1.us.uncletopia.com","port":27015,"enabled":true,"region":"us-east","cc":"us","latitude":40.73061,"longitude":-73.93524,"reserved":0,"last_update":"0001-01-01T00:00:00Z","name_a2s":"Uncletopia | New York City | 1 | All Maps","protocol":17,"map":"pl_upward","folder":"tf","game":"Team Fortress","app_id":440,"player_count":23,"max_players":24,"Bots":0,"server_type":"Dedicated","server_os":"Linux","password":true,"vac":true,"version":"7961495","steam_id":85568392924469993,"keywords":["nocrits","nodmgspread","payload","uncletopia"],"game_id":440,"stv_port":27016,"stv_name":"Uncletopia | New York City | 1 | All Maps | STV","players":[{"user_id":88,"name":"Micro","steam_id":76561198319239296,"connected_time":1511000000000,"state":"active","ping":68},{"user_id":94,"name":"backwoods","steam_id":76561198328109873,"connected_time":765000000000,"state":"active","ping":49},{"user_id":42,"name":"meth ape","steam_id":76561199110579692,"connected_time":5355000000000,"state":"active","ping":56},{"user_id":26,"name":"Spirosity","steam_id":76561198013485753,"connected_time":5818000000000,"state":"active","ping":53},{"user_id":33,"name":"Gooper Blooper","steam_id":76561198067174070,"connected_time":5601000000000,"state":"active","ping":85},{"user_id":55,"name":"taigaxx","steam_id":76561198202669250,"connected_time":4504000000000,"state":"active","ping":74},{"user_id":72,"name":"KURO DCCLIV","steam_id":76561198871991922,"connected_time":2272000000000,"state":"active","ping":115},{"user_id":56,"name":"he suckin on my rick til i mort","steam_id":76561198310711692,"connected_time":4496000000000,"state":"active","ping":170},{"user_id":101,"name":"JustADuck","steam_id":76561198311260943,"connected_time":256000000000,"state":"active","ping":77},{"user_id":100,"name":"jerma but crying and lesbian","steam_id":76561198110661425,"connected_time":262000000000,"state":"active","ping":74},{"user_id":102,"name":"Rennsellaer","steam_id":76561198096207580,"connected_time":210000000000,"state":"active","ping":115},{"user_id":75,"name":"Chafn","steam_id":76561197969386702,"connected_time":2146000000000,"state":"active","ping":124},{"user_id":62,"name":"CornDog","steam_id":76561198249446918,"connected_time":4178000000000,"state":"active","ping":40},{"user_id":99,"name":"cosmic ambiance","steam_id":76561198042788986,"connected_time":619000000000,"state":"active","ping":67},{"user_id":64,"name":"Jeremopolis","steam_id":76561198079467492,"connected_time":3637000000000,"state":"active","ping":91},{"user_id":90,"name":"TheFrogGoesMoo","steam_id":76561198841671908,"connected_time":1343000000000,"state":"active","ping":36},{"user_id":68,"name":"Brown_Dream","steam_id":76561198975766145,"connected_time":3437000000000,"state":"active","ping":69},{"user_id":104,"name":"J21","steam_id":76561198066590783,"connected_time":121000000000,"state":"active","ping":62},{"user_id":80,"name":"DeepDive","steam_id":76561198140542184,"connected_time":1683000000000,"state":"active","ping":59},{"user_id":67,"name":"Kamin","steam_id":76561198255299559,"connected_time":3503000000000,"state":"active","ping":105},{"user_id":91,"name":"M4 SOPMOD II Enjoyer","steam_id":76561198155176802,"connected_time":1141000000000,"state":"active","ping":62},{"user_id":98,"name":"1000 Gigglebytes of clown girls","steam_id":76561198290719848,"connected_time":686000000000,"state":"active","ping":95},{"user_id":96,"name":"Bartholomew","steam_id":76561199097771720,"connected_time":738000000000,"state":"active","ping":76}]},{"server_id":14,"name":"Uncletopia | New York City | 2 | All Maps","name_short":"nyc-2","host":"nyc-1.us.uncletopia.com","port":27025,"enabled":true,"region":"us-east","cc":"us","latitude":40.73061,"longitude":-73.93524,"reserved":0,"last_update":"0001-01-01T00:00:00Z","name_a2s":"Uncletopia | New York City | 2 | All Maps","protocol":17,"map":"pl_swiftwater_final1","folder":"tf","game":"Team Fortress","app_id":440,"player_count":24,"max_players":24,"Bots":0,"server_type":"Dedicated","server_os":"Linux","password":true,"vac":true,"version":"7961495","steam_id":85568392924469994,"keywords":["nocrits","nodmgspread","payload","uncletopia"],"game_id":440,"stv_port":27026,"stv_name":"Uncletopia | New York City | 2 | All Maps | STV","players":[{"user_id":113,"name":"Degausser","steam_id":76561198149671307,"connected_time":2308000000000,"state":"active","ping":53},{"user_id":124,"name":"suns","steam_id":76561198079583278,"connected_time":1355000000000,"state":"active","ping":60},{"user_id":135,"name":"Hellmonger","steam_id":76561198016058155,"connected_time":252000000000,"state":"active","ping":69},{"user_id":127,"name":"Ice","steam_id":76561198069065342,"connected_time":1032000000000,"state":"active","ping":74},{"user_id":136,"name":"TheBeefCow","steam_id":76561198396895911,"connected_time":241000000000,"state":"active","ping":61},{"user_id":119,"name":"CuSO4","steam_id":76561199278147589,"connected_time":1556000000000,"state":"active","ping":56},{"user_id":131,"name":"ck_rene","steam_id":76561199079260488,"connected_time":331000000000,"state":"active","ping":51},{"user_id":132,"name":"lynt","steam_id":76561198988333976,"connected_time":317000000000,"state":"active","ping":54},{"user_id":92,"name":"Samrizo el Chorizo","steam_id":76561198009838162,"connected_time":3757000000000,"state":"active","ping":43},{"user_id":123,"name":"Poi","steam_id":76561198176914898,"connected_time":1420000000000,"state":"active","ping":88},{"user_id":21,"name":"Jerk Tryhard (roleplay)","steam_id":76561199470538309,"connected_time":7824000000000,"state":"active","ping":76},{"user_id":133,"name":"ѕυ【ʕ•ᴥ•ʔ】","steam_id":76561198071233302,"connected_time":304000000000,"state":"active","ping":109},{"user_id":24,"name":"Dreamzapp","steam_id":76561199084936632,"connected_time":7768000000000,"state":"active","ping":131},{"user_id":121,"name":"Bearegard","steam_id":76561198061926542,"connected_time":1476000000000,"state":"active","ping":77},{"user_id":137,"name":"[BBC] b0nes threw grands again","steam_id":76561198360946437,"connected_time":176000000000,"state":"active","ping":51},{"user_id":102,"name":"BarrowBaron","steam_id":76561198013633236,"connected_time":2612000000000,"state":"active","ping":63},{"user_id":126,"name":"popfulmail","steam_id":76561198865971290,"connected_time":1193000000000,"state":"active","ping":86},{"user_id":128,"name":"Rick Assley","steam_id":76561198365019199,"connected_time":1030000000000,"state":"active","ping":108},{"user_id":114,"name":"Monsterjessy","steam_id":76561198035630985,"connected_time":2196000000000,"state":"active","ping":51},{"user_id":98,"name":"Banks","steam_id":76561198276505537,"connected_time":3083000000000,"state":"active","ping":54},{"user_id":138,"name":"solar controller","steam_id":76561198838282369,"connected_time":162000000000,"state":"active","ping":55},{"user_id":77,"name":"BaguetteThief","steam_id":76561197962257656,"connected_time":4840000000000,"state":"active","ping":68},{"user_id":116,"name":"아애재야가 시발새키야","steam_id":76561198167893972,"connected_time":1969000000000,"state":"active","ping":76},{"user_id":129,"name":"leesh","steam_id":76561198079603938,"connected_time":1030000000000,"state":"active","ping":60}]},{"server_id":15,"name":"Uncletopia | New York City | 3 | Stopwatch","name_short":"nyc-3","host":"nyc-1.us.uncletopia.com","port":27035,"enabled":true,"region":"us-east","cc":"us","latitude":40.73061,"longitude":-73.93524,"reserved":0,"last_update":"0001-01-01T00:00:00Z","name_a2s":"Uncletopia | New York City | 3 | Stopwatch","protocol":17,"map":"cp_snakewater_final1","folder":"tf","game":"Team Fortress","app_id":440,"player_count":0,"max_players":24,"Bots":0,"server_type":"Dedicated","server_os":"Linux","password":true,"vac":true,"version":"7961495","steam_id":85568392924742820,"keywords":["cp","nocrits","nodmgspread","uncletopia"],"game_id":440,"stv_port":27036,"stv_name":"Uncletopia | New York City | 3 | Stopwatch | STV","players":null},{"server_id":16,"name":"Uncletopia | New York City | 4 | Community","name_short":"nyc-4","host":"nyc-1.us.uncletopia.com","port":27045,"enabled":true,"region":"us-east","cc":"us","latitude":40.73061,"longitude":-73.93524,"reserved":0,"last_update":"0001-01-01T00:00:00Z","name_a2s":"Uncletopia | New York City | 4 | Community","protocol":17,"map":"cp_altitude","folder":"tf","game":"Team Fortress","app_id":440,"player_count":0,"max_players":24,"Bots":0,"server_type":"Dedicated","server_os":"Linux","password":true,"vac":true,"version":"7961495","steam_id":85568392924742821,"keywords":["cp","nocrits","nodmgspread","uncletopia"],"game_id":440,"stv_port":27046,"stv_name":"Uncletopia | New York City | 4 | Community | STV","players":null},{"server_id":142,"name":"Uncletopia | São Paulo | 1 | All Maps","name_short":"sao-1","host":"sao-1.br.uncletopia.com","port":27015,"enabled":true,"region":"sa","cc":"br","latitude":-23.533773,"longitude":-46.62529,"reserved":0,"last_update":"0001-01-01T00:00:00Z","name_a2s":"Uncletopia | São Paulo | 1 | All Maps","protocol":17,"map":"koth_highpass","folder":"tf","game":"Team Fortress","app_id":440,"player_count":2,"max_players":24,"Bots":0,"server_type":"Dedicated","server_os":"Linux","password":true,"vac":true,"version":"7961495","steam_id":85568392924469996,"keywords":["cp","nocrits","nodmgspread","uncletopia"],"game_id":440,"stv_port":27016,"stv_name":"Uncletopia | São Paulo | 1 | All Maps | STV","players":[{"user_id":4,"name":"guarda-chuva","steam_id":76561198078694330,"connected_time":457000000000,"state":"active","ping":53},{"user_id":5,"name":"Tert_14","steam_id":76561198185952289,"connected_time":435000000000,"state":"active","ping":68}]},{"server_id":143,"name":"Uncletopia | São Paulo | 2 | Community","name_short":"sao-2","host":"sao-2.br.uncletopia.com","port":27015,"enabled":true,"region":"sa","cc":"br","latitude":-23.533773,"longitude":-46.62529,"reserved":0,"last_update":"0001-01-01T00:00:00Z","name_a2s":"Uncletopia | São Paulo | 2 | Community","protocol":17,"map":"workshop/pl_boundary_final1.ugc456799153","folder":"tf","game":"Team Fortress","app_id":440,"player_count":4,"max_players":24,"Bots":0,"server_type":"Dedicated","server_os":"Linux","password":true,"vac":true,"version":"7961495","steam_id":85568392924485349,"keywords":["nocrits","nodmgspread","payload","uncletopia"],"game_id":440,"stv_port":27016,"stv_name":"Uncletopia | São Paulo | 2 | Community | STV","players":[{"user_id":6,"name":"javier moreno","steam_id":76561199115111039,"connected_time":3594000000000,"state":"active","ping":99},{"user_id":7,"name":"Silly cat 69","steam_id":76561199102975848,"connected_time":3524000000000,"state":"active","ping":99},{"user_id":12,"name":"joniexd101","steam_id":76561199136911461,"connected_time":597000000000,"state":"active","ping":89},{"user_id":14,"name":"Pyro","steam_id":76561198256242118,"connected_time":210000000000,"state":"active","ping":59}]},{"server_id":7,"name":"Uncletopia | Seattle | 1 | All Maps","name_short":"sea-1","host":"sea-1.us.uncletopia.com","port":27015,"enabled":true,"region":"us-west","cc":"us","latitude":47.608013,"longitude":-122.33517,"reserved":0,"last_update":"0001-01-01T00:00:00Z","name_a2s":"Uncletopia | Seattle | 1 | All Maps","protocol":17,"map":"cp_sunshine","folder":"tf","game":"Team Fortress","app_id":440,"player_count":11,"max_players":24,"Bots":0,"server_type":"Dedicated","server_os":"Linux","password":true,"vac":true,"version":"7961495","steam_id":85568392924469997,"keywords":["cp","nocrits","nodmgspread","uncletopia"],"game_id":440,"stv_port":27016,"stv_name":"Uncletopia | Seattle | 1 | All Maps | STV","players":[{"user_id":84,"name":"ratware","steam_id":76561198170171115,"connected_time":1265000000000,"state":"active","ping":91},{"user_id":102,"name":"Endermanki","steam_id":76561199217470497,"connected_time":87000000000,"state":"active","ping":47},{"user_id":101,"name":"TortiseWizard96","steam_id":76561199499535363,"connected_time":99000000000,"state":"active","ping":35},{"user_id":104,"name":"YUNG LOAF","steam_id":76561198237338018,"connected_time":58000000000,"state":"active","ping":132},{"user_id":100,"name":"Skad","steam_id":76561198872455128,"connected_time":121000000000,"state":"active","ping":33},{"user_id":85,"name":"echelon","steam_id":76561198139172979,"connected_time":930000000000,"state":"active","ping":60},{"user_id":94,"name":"tylerCHALEX","steam_id":76561199024451937,"connected_time":488000000000,"state":"active","ping":104},{"user_id":76,"name":"aisu","steam_id":76561198043768507,"connected_time":1656000000000,"state":"active","ping":86},{"user_id":95,"name":"I play League of Legends","steam_id":76561198367912282,"connected_time":473000000000,"state":"active","ping":105},{"user_id":97,"name":"Spectre","steam_id":76561198037535169,"connected_time":393000000000,"state":"active","ping":71},{"user_id":66,"name":"Closeted femboy enjoyer","steam_id":76561198217747041,"connected_time":2101000000000,"state":"active","ping":66}]},{"server_id":119,"name":"Uncletopia | Seattle | 2 | All Maps","name_short":"sea-2","host":"sea-1.us.uncletopia.com","port":27025,"enabled":true,"region":"us-west","cc":"us","latitude":47.608013,"longitude":-122.33517,"reserved":0,"last_update":"0001-01-01T00:00:00Z","name_a2s":"Uncletopia | Seattle | 2 | All Maps","protocol":17,"map":"cp_process_final","folder":"tf","game":"Team Fortress","app_id":440,"player_count":0,"max_players":24,"Bots":0,"server_type":"Dedicated","server_os":"Linux","password":true,"vac":true,"version":"7961495","steam_id":85568392924469998,"keywords":["cp","nocrits","nodmgspread","uncletopia"],"game_id":440,"stv_port":27026,"stv_name":"Uncletopia | Seattle | 2 | All Maps | STV","players":null},{"server_id":406,"name":"Uncletopia | Seattle | 3 | Stopwatch","name_short":"sea-3","host":"sea-1.us.uncletopia.com","port":27035,"enabled":true,"region":"us-west","cc":"us","latitude":47.608013,"longitude":-122.33517,"reserved":0,"last_update":"0001-01-01T00:00:00Z","name_a2s":"Uncletopia | Seattle | 3 | Stopwatch","protocol":17,"map":"pl_pier","folder":"tf","game":"Team Fortress","app_id":440,"player_count":0,"max_players":24,"Bots":0,"server_type":"Dedicated","server_os":"Linux","password":true,"vac":true,"version":"7961495","steam_id":85568392924515217,"keywords":["nocrits","nodmgspread","payload","uncletopia"],"game_id":440,"stv_port":27036,"stv_name":"Uncletopia | Seattle | 3 | Stopwatch | STV","players":null},{"server_id":17,"name":"Uncletopia | San Francisco | 1 | All Maps","name_short":"sfo-1","host":"sfo-1.us.uncletopia.com","port":27015,"enabled":true,"region":"us-west","cc":"us","latitude":37.77397,"longitude":-122.4313,"reserved":0,"last_update":"0001-01-01T00:00:00Z","name_a2s":"Uncletopia | San Francisco | 1 | All Maps","protocol":17,"map":"koth_cascade","folder":"tf","game":"Team Fortress","app_id":440,"player_count":0,"max_players":24,"Bots":0,"server_type":"Dedicated","server_os":"Linux","password":true,"vac":true,"version":"7961495","steam_id":85568392924469999,"keywords":["cp","nocrits","nodmgspread","uncletopia"],"game_id":440,"stv_port":27016,"stv_name":"Uncletopia | San Francisco | 1 | All Maps | STV","players":null},{"server_id":18,"name":"Uncletopia | San Francisco | 2 | All Maps","name_short":"sfo-2","host":"sfo-1.us.uncletopia.com","port":27025,"enabled":true,"region":"us-west","cc":"us","latitude":37.77397,"longitude":-122.4313,"reserved":0,"last_update":"0001-01-01T00:00:00Z","name_a2s":"Uncletopia | San Francisco | 2 | All Maps","protocol":17,"map":"pl_frontier_final","folder":"tf","game":"Team Fortress","app_id":440,"player_count":0,"max_players":24,"Bots":0,"server_type":"Dedicated","server_os":"Linux","password":true,"vac":true,"version":"7961495","steam_id":85568392924470000,"keywords":["nocrits","nodmgspread","payload","uncletopia"],"game_id":440,"stv_port":27026,"stv_name":"Uncletopia | San Francisco | 2 | All Maps | STV","players":null},{"server_id":19,"name":"Uncletopia | San Francisco | 3 | Stopwatch","name_short":"sfo-3","host":"sfo-1.us.uncletopia.com","port":27035,"enabled":true,"region":"us-west","cc":"us","latitude":37.77397,"longitude":-122.4313,"reserved":0,"last_update":"0001-01-01T00:00:00Z","name_a2s":"Uncletopia | San Francisco | 3 | Stopwatch","protocol":17,"map":"pl_pier","folder":"tf","game":"Team Fortress","app_id":440,"player_count":0,"max_players":24,"Bots":0,"server_type":"Dedicated","server_os":"Linux","password":true,"vac":true,"version":"7961495","steam_id":85568392924742824,"keywords":["nocrits","nodmgspread","payload","uncletopia"],"game_id":440,"stv_port":27036,"stv_name":"Uncletopia | San Francisco | 3 | Stopwatch | STV","players":null},{"server_id":20,"name":"Uncletopia | San Francisco | 4 | Community","name_short":"sfo-4","host":"sfo-1.us.uncletopia.com","port":27045,"enabled":true,"region":"us-west","cc":"us","latitude":37.77397,"longitude":-122.4313,"reserved":0,"last_update":"0001-01-01T00:00:00Z","name_a2s":"Uncletopia | San Francisco | 4 | Community","protocol":17,"map":"pl_pier","folder":"tf","game":"Team Fortress","app_id":440,"player_count":0,"max_players":24,"Bots":0,"server_type":"Dedicated","server_os":"Linux","password":true,"vac":true,"version":"7961495","steam_id":85568392924742826,"keywords":["nocrits","nodmgspread","payload","uncletopia"],"game_id":440,"stv_port":27046,"stv_name":"Uncletopia | San Francisco | 4 | Community | STV","players":null},{"server_id":141,"name":"Uncletopia | Sydney | 1 | All Maps","name_short":"syd-1","host":"syd-1.au.uncletopia.com","port":27015,"enabled":true,"region":"au","cc":"au","latitude":-33.865143,"longitude":151.2099,"reserved":0,"last_update":"0001-01-01T00:00:00Z","name_a2s":"Uncletopia | Sydney | 1 | All Maps","protocol":17,"map":"pl_upward","folder":"tf","game":"Team Fortress","app_id":440,"player_count":24,"max_players":24,"Bots":0,"server_type":"Dedicated","server_os":"Linux","password":true,"vac":true,"version":"7961495","steam_id":85568392924470001,"keywords":["nocrits","nodmgspread","payload","uncletopia"],"game_id":440,"stv_port":27016,"stv_name":"Uncletopia | Sydney | 1 | All Maps | STV","players":[{"user_id":747,"name":"Matt VII (7) (seven)","steam_id":76561198065340795,"connected_time":4700000000000,"state":"active","ping":95},{"user_id":782,"name":"Moddy-kins","steam_id":76561198009872161,"connected_time":2521000000000,"state":"active","ping":68},{"user_id":718,"name":"Resin","steam_id":76561198054911792,"connected_time":5494000000000,"state":"active","ping":50},{"user_id":771,"name":"i got cooties","steam_id":76561198133668333,"connected_time":2904000000000,"state":"active","ping":34},{"user_id":755,"name":"the 莖莖莖莖莖莖莖莖莖","steam_id":76561198300712697,"connected_time":4095000000000,"state":"active","ping":73},{"user_id":809,"name":"BIGNATE","steam_id":76561199207791519,"connected_time":321000000000,"state":"active","ping":80},{"user_id":793,"name":"Intell_","steam_id":76561198070256596,"connected_time":1853000000000,"state":"active","ping":58},{"user_id":766,"name":"Sinister80s","steam_id":76561198343540472,"connected_time":2936000000000,"state":"active","ping":60},{"user_id":810,"name":"Gumga","steam_id":76561199002175590,"connected_time":59000000000,"state":"spawning","ping":77},{"user_id":798,"name":"fanc","steam_id":76561198071106796,"connected_time":1167000000000,"state":"active","ping":47},{"user_id":765,"name":"AmethystDragon10","steam_id":76561198412979983,"connected_time":2991000000000,"state":"active","ping":85},{"user_id":805,"name":"sweeney","steam_id":76561198164574293,"connected_time":575000000000,"state":"active","ping":32},{"user_id":799,"name":"Salty","steam_id":76561198070497462,"connected_time":1108000000000,"state":"active","ping":62},{"user_id":785,"name":"water vapor","steam_id":76561198133490050,"connected_time":2313000000000,"state":"active","ping":133},{"user_id":802,"name":"Milk Man","steam_id":76561198882677157,"connected_time":991000000000,"state":"active","ping":72},{"user_id":803,"name":"LilCringe","steam_id":76561198171135461,"connected_time":610000000000,"state":"active","ping":59},{"user_id":801,"name":"Wet Wizard","steam_id":76561198277879991,"connected_time":1032000000000,"state":"active","ping":48},{"user_id":787,"name":"F.R.O.G Friend","steam_id":76561198054505772,"connected_time":2272000000000,"state":"active","ping":115},{"user_id":789,"name":"morrissey apologist","steam_id":76561198133901159,"connected_time":2203000000000,"state":"active","ping":71},{"user_id":804,"name":"Superknuckle","steam_id":76561197992650570,"connected_time":597000000000,"state":"active","ping":74},{"user_id":794,"name":"Blondie","steam_id":76561198046977058,"connected_time":1676000000000,"state":"active","ping":67},{"user_id":795,"name":"precious.","steam_id":76561198054804209,"connected_time":1553000000000,"state":"active","ping":92},{"user_id":807,"name":"Ty","steam_id":76561198217211780,"connected_time":370000000000,"state":"active","ping":49},{"user_id":763,"name":"slime","steam_id":76561199176020333,"connected_time":3180000000000,"state":"active","ping":104}]},{"server_id":123,"name":"Uncletopia | Sydney | 2 | All Maps","name_short":"syd-2","host":"syd-1.au.uncletopia.com","port":27025,"enabled":true,"region":"au","cc":"au","latitude":-33.865143,"longitude":151.2099,"reserved":0,"last_update":"0001-01-01T00:00:00Z","name_a2s":"Uncletopia | Sydney | 2 | All Maps","protocol":17,"map":"koth_viaduct","folder":"tf","game":"Team Fortress","app_id":440,"player_count":0,"max_players":24,"Bots":0,"server_type":"Dedicated","server_os":"Linux","password":true,"vac":true,"version":"7961495","steam_id":85568392924470002,"keywords":["cp","nocrits","nodmgspread","uncletopia"],"game_id":440,"stv_port":27026,"stv_name":"Uncletopia | Sydney | 2 | All Maps | STV","players":null},{"server_id":395,"name":"Uncletopia | Sydney | 3 | All Maps","name_short":"syd-3","host":"syd-1.au.uncletopia.com","port":27035,"enabled":true,"region":"au","cc":"au","latitude":-33.865143,"longitude":151.2099,"reserved":0,"last_update":"0001-01-01T00:00:00Z","name_a2s":"Uncletopia | Sydney | 3 | All Maps","protocol":17,"map":"koth_highpass","folder":"tf","game":"Team Fortress","app_id":440,"player_count":0,"max_players":24,"Bots":0,"server_type":"Dedicated","server_os":"Linux","password":true,"vac":true,"version":"7961495","steam_id":85568392925194467,"keywords":["cp","nocrits","nodmgspread","uncletopia"],"game_id":440,"stv_port":27036,"stv_name":"Uncletopia | Sydney | 3 | All Maps | STV","players":null},{"server_id":396,"name":"Uncletopia | Sydney | 4 | All Maps","name_short":"syd-4","host":"syd-1.au.uncletopia.com","port":27045,"enabled":true,"region":"au","cc":"au","latitude":-33.865143,"longitude":151.2099,"reserved":0,"last_update":"0001-01-01T00:00:00Z","name_a2s":"Uncletopia | Sydney | 4 | All Maps","protocol":17,"map":"koth_viaduct","folder":"tf","game":"Team Fortress","app_id":440,"player_count":0,"max_players":24,"Bots":0,"server_type":"Dedicated","server_os":"Linux","password":true,"vac":true,"version":"7961495","steam_id":85568392925397958,"keywords":["cp","nocrits","nodmgspread","uncletopia"],"game_id":440,"stv_port":27046,"stv_name":"Uncletopia | Sydney | 4 | All Maps | STV","players":null},{"server_id":58,"name":"Uncletopia | Sydney | 5 | Stopwatch","name_short":"syd-5","host":"syd-1.au.uncletopia.com","port":27055,"enabled":true,"region":"au","cc":"au","latitude":-33.865143,"longitude":151.2099,"reserved":0,"last_update":"0001-01-01T00:00:00Z","name_a2s":"Uncletopia | Sydney | 5 | Stopwatch","protocol":17,"map":"cp_process_final","folder":"tf","game":"Team Fortress","app_id":440,"player_count":0,"max_players":24,"Bots":0,"server_type":"Dedicated","server_os":"Linux","password":true,"vac":true,"version":"7961495","steam_id":85568392925397959,"keywords":["cp","nocrits","nodmgspread","uncletopia"],"game_id":440,"stv_port":27056,"stv_name":"Uncletopia | Sydney | 5 | Stopwatch | STV","players":null},{"server_id":59,"name":"Uncletopia | Sydney | 6 | Community","name_short":"syd-6","host":"syd-1.au.uncletopia.com","port":27065,"enabled":true,"region":"au","cc":"au","latitude":-33.865143,"longitude":151.2099,"reserved":0,"last_update":"0001-01-01T00:00:00Z","name_a2s":"Uncletopia | Sydney | 6 | Community","protocol":17,"map":"workshop/pl_cashworks_final1.ugc2904065412","folder":"tf","game":"Team Fortress","app_id":440,"player_count":0,"max_players":24,"Bots":0,"server_type":"Dedicated","server_os":"Linux","password":true,"vac":true,"version":"7961495","steam_id":85568392925397960,"keywords":["nocrits","nodmgspread","payload","uncletopia"],"game_id":440,"stv_port":27066,"stv_name":"Uncletopia | Sydney | 6 | Community | STV","players":null},{"server_id":49,"name":"Uncletopia | Warsaw | 1 | One Thousand Uncles","name_short":"waw-1","host":"waw-1.pl.uncletopia.com","port":27015,"enabled":true,"region":"eu","cc":"pl","latitude":52.2297,"longitude":21.017532,"reserved":0,"last_update":"0001-01-01T00:00:00Z","name_a2s":"Uncletopia | Warsaw | 1 | One Thousand Uncles","protocol":17,"map":"koth_highpass","folder":"tf","game":"Team Fortress","app_id":440,"player_count":0,"max_players":32,"Bots":0,"server_type":"Dedicated","server_os":"Linux","password":true,"vac":true,"version":"7961495","steam_id":85568392925397850,"keywords":["alltalk","cp","danepve","increased_maxplayers","nocrits","norespawntime","uncletopia"],"game_id":440,"stv_port":0,"stv_name":"","players":null},{"server_id":50,"name":"Uncletopia | Warsaw | 2 | One Thousand Uncles","name_short":"waw-2","host":"waw-1.pl.uncletopia.com","port":27025,"enabled":true,"region":"eu","cc":"pl","latitude":52.2297,"longitude":21.017532,"reserved":0,"last_update":"0001-01-01T00:00:00Z","name_a2s":"Uncletopia | Warsaw | 2 | One Thousand Uncles","protocol":17,"map":"pl_badwater","folder":"tf","game":"Team Fortress","app_id":440,"player_count":32,"max_players":32,"Bots":16,"server_type":"Dedicated","server_os":"Linux","password":true,"vac":true,"version":"7961495","steam_id":85568392925397851,"keywords":["alltalk","bots","danepve","increased_maxplayers","nocrits","norespawntime","payload","uncletopia"],"game_id":440,"stv_port":0,"stv_name":"","players":[{"user_id":384,"name":"Vibing Wave","steam_id":76561198866358613,"connected_time":1508000000000,"state":"active","ping":165},{"user_id":388,"name":"rysieko","steam_id":76561199385228217,"connected_time":1135000000000,"state":"active","ping":40},{"user_id":301,"name":"Der ewige Boomer","steam_id":76561198254812703,"connected_time":5430000000000,"state":"active","ping":83},{"user_id":389,"name":"^1MARAMA PALEX","steam_id":76561198311372563,"connected_time":746000000000,"state":"active","ping":93},{"user_id":300,"name":"medicinal man","steam_id":76561198202668788,"connected_time":5619000000000,"state":"active","ping":39},{"user_id":390,"name":"Shadowwalker","steam_id":76561198344642637,"connected_time":661000000000,"state":"active","ping":173},{"user_id":304,"name":"Max Power","steam_id":76561198019269089,"connected_time":4567000000000,"state":"active","ping":60},{"user_id":392,"name":"kakash","steam_id":76561199420637314,"connected_time":386000000000,"state":"active","ping":77},{"user_id":329,"name":"getozt","steam_id":76561198021156631,"connected_time":3691000000000,"state":"active","ping":71},{"user_id":395,"name":"just a person","steam_id":76561198340369454,"connected_time":197000000000,"state":"active","ping":45},{"user_id":253,"name":"Ziemniaczki z koperkiem","steam_id":76561198829123464,"connected_time":7377000000000,"state":"active","ping":42},{"user_id":398,"name":"Amon Gus","steam_id":76561199094540960,"connected_time":58000000000,"state":"active","ping":74},{"user_id":332,"name":"God Of Why (Saul Godman®)","steam_id":76561199007495784,"connected_time":3394000000000,"state":"active","ping":110},{"user_id":356,"name":"Loo32","steam_id":76561199094568704,"connected_time":2682000000000,"state":"active","ping":66},{"user_id":399,"name":"rofflehouse","steam_id":76561198090470768,"connected_time":47000000000,"state":"spawning","ping":142},{"user_id":336,"name":"JellieGamerYT","steam_id":76561199113839333,"connected_time":3049000000000,"state":"active","ping":77}]},{"server_id":51,"name":"Uncletopia | Warsaw | 3 | All Maps","name_short":"waw-3","host":"waw-1.pl.uncletopia.com","port":27035,"enabled":true,"region":"eu","cc":"pl","latitude":52.2297,"longitude":21.017532,"reserved":0,"last_update":"0001-01-01T00:00:00Z","name_a2s":"Uncletopia | Warsaw | 3 | All Maps","protocol":17,"map":"plr_pipeline","folder":"tf","game":"Team Fortress","app_id":440,"player_count":0,"max_players":24,"Bots":0,"server_type":"Dedicated","server_os":"Linux","password":true,"vac":true,"version":"7961495","steam_id":85568392925397852,"keywords":["nocrits","nodmgspread","payload","uncletopia"],"game_id":440,"stv_port":27036,"stv_name":"Uncletopia | Warsaw | 3 | All Maps | STV","players":null},{"server_id":52,"name":"Uncletopia | Warsaw | 4 | All Maps","name_short":"waw-4","host":"waw-1.pl.uncletopia.com","port":27045,"enabled":true,"region":"eu","cc":"pl","latitude":52.2297,"longitude":21.017532,"reserved":0,"last_update":"0001-01-01T00:00:00Z","name_a2s":"Uncletopia | Warsaw | 4 | All Maps","protocol":17,"map":"koth_viaduct","folder":"tf","game":"Team Fortress","app_id":440,"player_count":0,"max_players":24,"Bots":0,"server_type":"Dedicated","server_os":"Linux","password":true,"vac":true,"version":"7961495","steam_id":85568392925397853,"keywords":["cp","nocrits","nodmgspread","uncletopia"],"game_id":440,"stv_port":27046,"stv_name":"Uncletopia | Warsaw | 4 | All Maps | STV","players":null},{"server_id":53,"name":"Uncletopia | Warsaw | 5 | Stopwatch","name_short":"waw-5","host":"waw-1.pl.uncletopia.com","port":27055,"enabled":true,"region":"eu","cc":"pl","latitude":52.2297,"longitude":21.017532,"reserved":0,"last_update":"0001-01-01T00:00:00Z","name_a2s":"Uncletopia | Warsaw | 5 | Stopwatch","protocol":17,"map":"koth_highpass","folder":"tf","game":"Team Fortress","app_id":440,"player_count":0,"max_players":24,"Bots":0,"server_type":"Dedicated","server_os":"Linux","password":true,"vac":true,"version":"7961495","steam_id":85568392925397854,"keywords":["cp","nocrits","nodmgspread","uncletopia"],"game_id":440,"stv_port":27056,"stv_name":"Uncletopia | Warsaw | 5 | Stopwatch | STV","players":null},{"server_id":54,"name":"Uncletopia | Warsaw | 6 | Community","name_short":"waw-6","host":"waw-1.pl.uncletopia.com","port":27065,"enabled":true,"region":"eu","cc":"pl","latitude":52.2297,"longitude":21.017532,"reserved":0,"last_update":"0001-01-01T00:00:00Z","name_a2s":"Uncletopia | Warsaw | 6 | Community","protocol":17,"map":"workshop/pl_vigil_rc10.ugc1266210012","folder":"tf","game":"Team Fortress","app_id":440,"player_count":4,"max_players":24,"Bots":0,"server_type":"Dedicated","server_os":"Linux","password":true,"vac":true,"version":"7961495","steam_id":85568392925397856,"keywords":["nocrits","nodmgspread","payload","uncletopia"],"game_id":440,"stv_port":27066,"stv_name":"Uncletopia | Warsaw | 6 | Community | STV","players":[{"user_id":3,"name":"Cheezus","steam_id":76561199093893813,"connected_time":2735000000000,"state":"active","ping":82},{"user_id":4,"name":"Diving","steam_id":76561199168122402,"connected_time":2721000000000,"state":"active","ping":83},{"user_id":7,"name":"Scientific Triumph","steam_id":76561198815127418,"connected_time":978000000000,"state":"active","ping":95},{"user_id":8,"name":"dicksouls26","steam_id":76561198838196266,"connected_time":264000000000,"state":"active","ping":150}]}]}