{"status":true,"message":"","result":[{"server_id":9,"name":"Uncletopia | Atlanta | 1 | All Maps","name_short":"atl-1","host":"atl-1.us.uncletopia.com","port":27015,"enabled":true,"region":"us-east","cc":"us","latitude":33.753746,"longitude":-84.38633,"reserved":0,"last_update":"0001-01-01T00:00:00Z","name_a2s":"Uncletopia | Atlanta | 1 | All Maps","protocol":17,"map":"pl_swiftwater_final1","folder":"tf","game":"Team Fortress","app_id":440,"player_count":23,"max_players":24,"Bots":0,"server_type":"Dedicated","server_os":"Linux","password":true,"vac":true,"version":"7961495","steam_id":85568392924469982,"keywords":["nocrits","nodmgspread","payload","uncletopia"],"game_id":440,"stv_port":27016,"stv_name":"Uncletopia | Atlanta | 1 | All Maps | STV","players":[{"user_id":368,"name":"vegicide","steam_id":76561198239286750,"connected_time":1165000000000,"state":"active","ping":63},{"user_id":359,"name":"zabloinkus","steam_id":76561198069967245,"connected_time":1676000000000,"state":"active","ping":83},{"user_id":344,"name":"Heathcliff","steam_id":76561198044288534,"connected_time":2178000000000,"state":"active","ping":75},{"user_id":321,"name":"LOVEDRAGON","steam_id":76561198089908485,"connected_time":3888000000000,"state":"active","ping":56},{"user_id":343,"name":"aaaxel","steam_id":76561198137430598,"connected_time":2189000000000,"state":"active","ping":75},{"user_id":356,"name":"badasscoolboy57","steam_id":76561198795412055,"connected_time":1827000000000,"state":"active","ping":83},{"user_id":345,"name":"Корзап","steam_id":76561198086030373,"connected_time":2171000000000,"state":"active","ping":113},{"user_id":339,"name":"Toxic-Fluid","steam_id":76561198115530353,"connected_time":2278000000000,"state":"active","ping":87},{"user_id":342,"name":"P.Caniche","steam_id":76561198873907851,"connected_time":2246000000000,"state":"active","ping":64},{"user_id":358,"name":"Kuri","steam_id":76561199037050183,"connected_time":1717000000000,"state":"active","ping":75},{"user_id":369,"name":"Thotimus Begonimus","steam_id":76561197970275938,"connected_time":950000000000,"state":"active","ping":45},{"user_id":355,"name":"ImpeachedPear","steam_id":76561199125565239,"connected_time":1868000000000,"state":"active","ping":95},{"user_id":352,"name":"atl1cyy","steam_id":76561198968001329,"connected_time":1955000000000,"state":"active","ping":45},{"user_id":370,"name":"lil hog","steam_id":76561199230929836,"connected_time":934000000000,"state":"active","ping":72},{"user_id":330,"name":"Monkey Mode","steam_id":76561197961267543,"connected_time":2771000000000,"state":"active","ping":48},{"user_id":265,"name":"ATL1 | Uganda #NEOTOKYO°","steam_id":76561199121276474,"connected_time":11198000000000,"state":"active","ping":78},{"user_id":326,"name":"NEM","steam_id":76561199241131104,"connected_time":3392000000000,"state":"active","ping":78},{"user_id":371,"name":"THE FOOL","steam_id":76561198243965308,"connected_time":602000000000,"state":"active","ping":86},{"user_id":375,"name":"Debarro","steam_id":76561198452105948,"connected_time":63000000000,"state":"active","ping":83},{"user_id":349,"name":"Punchy","steam_id":76561198200000641,"connected_time":2145000000000,"state":"active","ping":60},{"user_id":377,"name":"a hairdryer","steam_id":76561197998390764,"connected_time":39000000000,"state":"spawning","ping":186},{"user_id":351,"name":"PIPPIN","steam_id":76561199013202758,"connected_time":2133000000000,"state":"active","ping":96},{"user_id":367,"name":"freyja","steam_id":76561198249206656,"connected_time":1353000000000,"state":"active","ping":89}]},{"server_id":104,"name":"Uncletopia | Atlanta | 2 | All Maps","name_short":"atl-2","host":"atl-1.us.uncletopia.com","port":27025,"enabled":true,"region":"us-east","cc":"us","latitude":33.753746,"longitude":-84.38633,"reserved":0,"last_update":"0001-01-01T00:00:00Z","name_a2s":"Uncletopia | Atlanta | 2 | All Maps","protocol":17,"map":"pl_barnblitz","folder":"tf","game":"Team Fortress","app_id":440,"player_count":24,"max_players":24,"Bots":0,"server_type":"Dedicated","server_os":"Linux","password":true,"vac":true,"version":"7961495","steam_id":85568392924469983,"keywords":["nocrits","nodmgspread","payload","uncletopia"],"game_id":440,"stv_port":27026,"stv_name":"Uncletopia | Atlanta | 2 | All Maps | STV","players":[{"user_id":452,"name":"RangeDad","steam_id":76561198028186133,"connected_time":84000000000,"state":"active","ping":62},{"user_id":444,"name":"Piss Man","steam_id":76561199446367874,"connected_time":474000000000,"state":"active","ping":57},{"user_id":421,"name":"Mr. Krabs AGH AGH AGH","steam_id":76561198068266632,"connected_time":1927000000000,"state":"active","ping":49},{"user_id":445,"name":"gorf?","steam_id":76561198142286417,"connected_time":473000000000,"state":"active","ping":75},{"user_id":435,"name":"Smog","steam_id":76561198043705383,"connected_time":1508000000000,"state":"active","ping":86},{"user_id":414,"name":"InchMan","steam_id":76561198272658825,"connected_time":2318000000000,"state":"active","ping":89},{"user_id":433,"name":"Missing Minus","steam_id":76561198120822928,"connected_time":1660000000000,"state":"active","ping":47},{"user_id":402,"name":"my monitor is off","steam_id":76561198148905570,"connected_time":3234000000000,"state":"active","ping":60},{"user_id":440,"name":"Le BOONs","steam_id":76561198048524549,"connected_time":1201000000000,"state":"active","ping":78},{"user_id":454,"name":"Your Loyal Familiar","steam_id":76561198106476075,"connected_time":41000000000,"state":"active","ping":65},{"user_id":456,"name":"Shark","steam_id":76561198219031981,"connected_time":17000000000,"state":"active","ping":111},{"user_id":425,"name":"Kas-AI","steam_id":76561199131044338,"connected_time":1804000000000,"state":"active","ping":70},{"user_id":426,"name":"GltichBrah_T","steam_id":76561199467036505,"connected_time":1800000000000,"state":"active","ping":61},{"user_id":427,"name":"Rappy \u003c3","steam_id":76561198105613110,"connected_time":1795000000000,"state":"active","ping":75},{"user_id":428,"name":"The Sorrow of Dandy","steam_id":76561198005551894,"connected_time":1794000000000,"state":"active","ping":78},{"user_id":429,"name":"rapscallion","steam_id":76561198188722751,"connected_time":1792000000000,"state":"active","ping":94},{"user_id":448,"name":"Carcino","steam_id":76561198006170253,"connected_time":185000000000,"state":"active","ping":61},{"user_id":443,"name":"Immoral Boi","steam_id":76561198069551646,"connected_time":549000000000,"state":"active","ping":76},{"user_id":431,"name":"Ryzema","steam_id":76561198165594229,"connected_time":1744000000000,"state":"active","ping":73},{"user_id":451,"name":"Boring101","steam_id":76561198300662918,"connected_time":116000000000,"state":"active","ping":75},{"user_id":453,"name":"DarkenedPolarity","steam_id":76561199073099596,"connected_time":53000000000,"state":"active","ping":73},{"user_id":450,"name":"Yoshimelon","steam_id":76561198253054325,"connected_time":183000000000,"state":"active","ping":64},{"user_id":446,"name":"Lancaster","steam_id":76561198066321016,"connected_time":453000000000,"state":"active","ping":71},{"user_id":447,"name":"schnedwob","steam_id":76561197999146588,"connected_time":440000000000,"state":"active","ping":72}]},{"server_id":400,"name":"Uncletopia | Atlanta | 3 | Stopwatch","name_short":"atl-3","host":"atl-1.us.uncletopia.com","port":27035,"enabled":true,"region":"us-east","cc":"us","latitude":33.753746,"longitude":-84.38633,"reserved":0,"last_update":"0001-01-01T00:00:00Z","name_a2s":"Uncletopia | Atlanta | 3 | Stopwatch","protocol":17,"map":"workshop/koth_bagel_rc6.ugc2514036946","folder":"tf","game":"Team Fortress","app_id":440,"player_count":0,"max_players":24,"Bots":0,"server_type":"Dedicated","server_os":"Linux","password":true,"vac":true,"version":"7961495","steam_id":85568392924515187,"keywords":["cp","nocrits","nodmgspread","uncletopia"],"game_id":440,"stv_port":27036,"stv_name":"Uncletopia | Atlanta | 3 | Stopwatch | STV","players":null},{"server_id":401,"name":"Uncletopia | Atlanta | 4 | Community","name_short":"atl-4","host":"atl-1.us.uncletopia.com","port":27045,"enabled":true,"region":"us-east","cc":"us","latitude":33.753746,"longitude":-84.38633,"reserved":0,"last_update":"0001-01-01T00:00:00Z","name_a2s":"Uncletopia | Atlanta | 4 | Community","protocol":17,"map":"workshop/cp_overgrown_rc8.ugc503939302","folder":"tf","game":"Team Fortress","app_id":440,"player_count":0,"max_players":24,"Bots":0,"server_type":"Dedicated","server_os":"Linux","password":true,"vac":true,"version":"7961495","steam_id":85568392924515188,"keywords":["cp","nocrits","nodmgspread","uncletopia"],"game_id":440,"stv_port":27046,"stv_name":"Uncletopia | Atlanta | 4 | Community | STV","players":null},{"server_id":2,"name":"Uncletopia | Chicago | 1 | All Maps","name_short":"chi-1","host":"chi-1.us.uncletopia.com","port":27015,"enabled":true,"region":"us-central","cc":"us","latitude":41.881832,"longitude":-87.62318,"reserved":0,"last_update":"0001-01-01T00:00:00Z","name_a2s":"Uncletopia | Chicago | 1 | All Maps","protocol":17,"map":"pl_barnblitz","folder":"tf","game":"Team Fortress","app_id":440,"player_count":24,"max_players":24,"Bots":0,"server_type":"Dedicated","server_os":"Linux","password":true,"vac":true,"version":"7961495","steam_id":85568392924469984,"keywords":["nocrits","nodmgspread","payload","uncletopia"],"game_id":440,"stv_port":27016,"stv_name":"Uncletopia | Chicago | 1 | All Maps | STV","players":[{"user_id":688,"name":"Bon gripper #goonset","steam_id":76561198090074621,"connected_time":589000000000,"state":"active","ping":45},{"user_id":676,"name":"mEch114","steam_id":76561198236936060,"connected_time":1013000000000,"state":"active","ping":71},{"user_id":646,"name":"ThunderMonkey (SMOKE)","steam_id":76561198017631728,"connected_time":3637000000000,"state":"active","ping":61},{"user_id":687,"name":"Stoopnagle","steam_id":76561198011942560,"connected_time":662000000000,"state":"active","ping":95},{"user_id":637,"name":"White","steam_id":76561198305863331,"connected_time":4108000000000,"state":"active","ping":74},{"user_id":652,"name":"ctf_well","steam_id":76561198016826181,"connected_time":2875000000000,"state":"active","ping":70},{"user_id":691,"name":"MedRed™ #IATAH","steam_id":76561198002962970,"connected_time":341000000000,"state":"active","ping":104},{"user_id":527,"name":"Elias","steam_id":76561198106431732,"connected_time":13337000000000,"state":"active","ping":56},{"user_id":655,"name":"Lordofthekevins","steam_id":76561198169066956,"connected_time":2216000000000,"state":"active","ping":65},{"user_id":674,"name":"gulch","steam_id":76561199227946025,"connected_time":1023000000000,"state":"active","ping":72},{"user_id":611,"name":"Siz","steam_id":76561198072962154,"connected_time":6269000000000,"state":"active","ping":65},{"user_id":677,"name":"wawa enthusiast","steam_id":76561198087645638,"connected_time":1005000000000,"state":"active","ping":72},{"user_id":682,"name":"Swash","steam_id":76561197969421355,"connected_time":832000000000,"state":"active","ping":53},{"user_id":671,"name":"Jeff","steam_id":76561198050929005,"connected_time":1103000000000,"state":"active","ping":57},{"user_id":668,"name":"Cellus","steam_id":76561198067204847,"connected_time":1340000000000,"state":"active","ping":66},{"user_id":678,"name":"The All-Seeing Tim","steam_id":76561198075510786,"connected_time":998000000000,"state":"active","ping":73},{"user_id":679,"name":"CONKER","steam_id":76561197986079320,"connected_time":988000000000,"state":"active","ping":76},{"user_id":670,"name":"Vaun","steam_id":76561198034075317,"connected_time":1182000000000,"state":"active","ping":82},{"user_id":681,"name":"LalitoTV","steam_id":76561198334302951,"connected_time":972000000000,"state":"active","ping":121},{"user_id":690,"name":"cookies","steam_id":76561198280864779,"connected_time":524000000000,"state":"active","ping":72},{"user_id":667,"name":"Makima Enjoyer","steam_id":76561198852044774,"connected_time":1458000000000,"state":"active","ping":79},{"user_id":610,"name":"hej","steam_id":76561197996366940,"connected_time":6502000000000,"state":"active","ping":60},{"user_id":685,"name":"Ms Twig","steam_id":76561198144111736,"connected_time":810000000000,"state":"active","ping":59},{"user_id":630,"name":"Vanilla Rice","steam_id":76561198315725190,"connected_time":5033000000000,"state":"active","ping":73}]},{"server_id":106,"name":"Uncletopia | Chicago | 2 | All Maps","name_short":"chi-2","host":"chi-1.us.uncletopia.com","port":27025,"enabled":true,"region":"us-central","cc":"us","latitude":41.881832,"longitude":-87.62318,"reserved":0,"last_update":"0001-01-01T00:00:00Z","name_a2s":"Uncletopia | Chicago | 2 | All Maps","protocol":17,"map":"koth_lakeside_final","folder":"tf","game":"Team Fortress","app_id":440,"player_count":24,"max_players":24,"Bots":0,"server_type":"Dedicated","server_os":"Linux","password":true,"vac":true,"version":"7961495","steam_id":85568392924469985,"keywords":["cp","nocrits","nodmgspread","uncletopia"],"game_id":440,"stv_port":27026,"stv_name":"Uncletopia | Chicago | 2 | All Maps | STV","players":[{"user_id":571,"name":"Owl Pacino","steam_id":76561197979970666,"connected_time":5997000000000,"state":"active","ping":50},{"user_id":644,"name":"Soviet-man","steam_id":76561199499645083,"connected_time":247000000000,"state":"active","ping":71},{"user_id":650,"name":"garfield","steam_id":76561198114119308,"connected_time":105000000000,"state":"active","ping":61},{"user_id":552,"name":"Mario","steam_id":76561198321794277,"connected_time":6711000000000,"state":"active","ping":68},{"user_id":621,"name":"dailyspesh","steam_id":76561197988072369,"connected_time":2173000000000,"state":"active","ping":74},{"user_id":648,"name":"shnowshner","steam_id":76561198066450438,"connected_time":140000000000,"state":"active","ping":71},{"user_id":633,"name":"FCKGW-RHQQ2-YXRKT-8TG6W-2B7Q8","steam_id":76561197993138592,"connected_time":1633000000000,"state":"active","ping":90},{"user_id":550,"name":"Wiener Hole Paper Cut","steam_id":76561198000808203,"connected_time":6876000000000,"state":"active","ping":72},{"user_id":651,"name":"veno","steam_id":76561198110261781,"connected_time":23000000000,"state":"active","ping":82},{"user_id":635,"name":"Cassius Money","steam_id":76561197979696414,"connected_time":938000000000,"state":"active","ping":48},{"user_id":623,"name":"xxballfondlerxx","steam_id":76561197991546630,"connected_time":1964000000000,"state":"active","ping":54},{"user_id":643,"name":"DiscoTraveler","steam_id":76561199240168088,"connected_time":250000000000,"state":"active","ping":68},{"user_id":630,"name":"Shockman","steam_id":76561197971281270,"connected_time":1871000000000,"state":"active","ping":82},{"user_id":634,"name":"Sleepy Brady","steam_id":76561198867378129,"connected_time":1314000000000,"state":"active","ping":75},{"user_id":639,"name":"Yarman53","steam_id":76561198099889202,"connected_time":282000000000,"state":"active","ping":38},{"user_id":645,"name":"ToCSDrake","steam_id":76561198296104441,"connected_time":209000000000,"state":"active","ping":109},{"user_id":610,"name":"Amazingamerhawk","steam_id":76561199064935924,"connected_time":3553000000000,"state":"active","ping":72},{"user_id":595,"name":"onionaid","steam_id":76561198065266282,"connected_time":4319000000000,"state":"active","ping":74},{"user_id":646,"name":"Frawg","steam_id":76561198951162196,"connected_time":201000000000,"state":"active","ping":64},{"user_id":539,"name":"YummerBummer","steam_id":76561198094773987,"connected_time":7618000000000,"state":"active","ping":74},{"user_id":649,"name":"Kafka Stan","steam_id":76561198127039453,"connected_time":124000000000,"state":"active","ping":104},{"user_id":629,"name":"Solarin","steam_id":76561198006483758,"connected_time":1893000000000,"state":"active","ping":78},{"user_id":632,"name":"c64guy","steam_id":76561198023022744,"connected_time":1830000000000,"state":"active","ping":59},{"user_id":638,"name":"Icybullets","steam_id":76561198950782310,"connected_time":559000000000,"state":"active","ping":58}]},{"server_id":402,"name":"Uncletopia | Chicago | 3 | All Maps","name_short":"chi-3","host":"chi-1.us.uncletopia.com","port":27035,"enabled":true,"region":"us-central","cc":"us","latitude":41.881832,"longitude":-87.62318,"reserved":0,"last_update":"0001-01-01T00:00:00Z","name_a2s":"Uncletopia | Chicago | 3 | All Maps","protocol":17,"map":"pl_frontier_final","folder":"tf","game":"Team Fortress","app_id":440,"player_count":24,"max_players":24,"Bots":0,"server_type":"Dedicated","server_os":"Linux","password":true,"vac":true,"version":"7961495","steam_id":85568392924515191,"keywords":["nocrits","nodmgspread","payload","uncletopia"],"game_id":440,"stv_port":27036,"stv_name":"Uncletopia | Chicago | 3 | All Maps | STV","players":[{"user_id":507,"name":"Captain Bug","steam_id":76561198137763878,"connected_time":3625000000000,"state":"active","ping":84},{"user_id":548,"name":"carlos.t","steam_id":76561198849981462,"connected_time":1432000000000,"state":"active","ping":53},{"user_id":554,"name":"Valentime!","steam_id":76561198093806229,"connected_time":1166000000000,"state":"active","ping":45},{"user_id":557,"name":"SpedAidan","steam_id":76561198277322893,"connected_time":919000000000,"state":"active","ping":89},{"user_id":518,"name":"MarauderOP","steam_id":76561199087316861,"connected_time":3214000000000,"state":"active","ping":75},{"user_id":550,"name":"Engineer2650","steam_id":76561198121410799,"connected_time":1375000000000,"state":"active","ping":81},{"user_id":540,"name":"scrowen","steam_id":76561198150382695,"connected_time":2170000000000,"state":"active","ping":75},{"user_id":564,"name":"zowie dn","steam_id":76561198043873119,"connected_time":185000000000,"state":"active","ping":51},{"user_id":542,"name":"_Lusty_","steam_id":76561198876948142,"connected_time":1837000000000,"state":"active","ping":65},{"user_id":524,"name":"femboy gaming","steam_id":76561199084226553,"connected_time":2941000000000,"state":"active","ping":67},{"user_id":520,"name":"Fio4","steam_id":76561199221171536,"connected_time":3037000000000,"state":"active","ping":81},{"user_id":482,"name":"dipp","steam_id":76561198395577807,"connected_time":6402000000000,"state":"active","ping":75},{"user_id":551,"name":"TickTock|Mink","steam_id":76561198069809794,"connected_time":1345000000000,"state":"active","ping":57},{"user_id":561,"name":"bobby  peanstalk","steam_id":76561198040495463,"connected_time":841000000000,"state":"active","ping":46},{"user_id":558,"name":"Thug shaker","steam_id":76561198840484105,"connected_time":900000000000,"state":"active","ping":78},{"user_id":506,"name":"winning","steam_id":76561198003206947,"connected_time":3726000000000,"state":"active","ping":65},{"user_id":544,"name":"Toaster","steam_id":76561198152610412,"connected_time":1641000000000,"state":"active","ping":57},{"user_id":478,"name":"xFactr","steam_id":76561198129007422,"connected_time":6669000000000,"state":"active","ping":59},{"user_id":552,"name":"EvilMrPotoo ｡◕‿◕｡","steam_id":76561198012566870,"connected_time":1342000000000,"state":"active","ping":62},{"user_id":560,"name":"big shumpert","steam_id":76561198057116531,"connected_time":851000000000,"state":"active","ping":56},{"user_id":556,"name":"fac_73","steam_id":76561198064692697,"connected_time":1130000000000,"state":"active","ping":74},{"user_id":539,"name":"Chanter","steam_id":76561198246701796,"connected_time":2190000000000,"state":"active","ping":76},{"user_id":496,"name":"Sawer","steam_id":76561198034294967,"connected_time":5093000000000,"state":"active","ping":55},{"user_id":563,"name":"Sku11yy","steam_id":76561198378094265,"connected_time":760000000000,"state":"active","ping":80}]},{"server_id":403,"name":"Uncletopia | Chicago | 4 | All Maps","name_short":"chi-4","host":"chi-1.us.uncletopia.com","port":27045,"enabled":true,"region":"us-central","cc":"us","latitude":41.881832,"longitude":-87.62318,"reserved":0,"last_update":"0001-01-01T00:00:00Z","name_a2s":"Uncletopia | Chicago | 4 | All Maps","protocol":17,"map":"pl_frontier_final","folder":"tf","game":"Team Fortress","app_id":440,"player_count":24,"max_players":24,"Bots":0,"server_type":"Dedicated","server_os":"Linux","password":true,"vac":true,"version":"7961495","steam_id":85568392924515193,"keywords":["nocrits","nodmgspread","payload","uncletopia"],"game_id":440,"stv_port":27046,"stv_name":"Uncletopia | Chicago | 4 | All Maps | STV","players":[{"user_id":270,"name":"dicksnip","steam_id":76561198356515396,"connected_time":3111000000000,"state":"active","ping":100},{"user_id":299,"name":"melon soda","steam_id":76561198066748230,"connected_time":288000000000,"state":"active","ping":65},{"user_id":281,"name":"Phil Collins","steam_id":76561198068868644,"connected_time":2024000000000,"state":"active","ping":105},{"user_id":282,"name":"FunGi","steam_id":76561198881418662,"connected_time":2023000000000,"state":"active","ping":85},{"user_id":238,"name":"Psychosis","steam_id":76561198078659070,"connected_time":6408000000000,"state":"active","ping":77},{"user_id":291,"name":"deadpixel","steam_id":76561198150249843,"connected_time":1767000000000,"state":"active","ping":50},{"user_id":275,"name":"Cyclops_672","steam_id":76561198080169497,"connected_time":2623000000000,"state":"active","ping":47},{"user_id":283,"name":"Painfully Gay","steam_id":76561198054353610,"connected_time":2019000000000,"state":"active","ping":105},{"user_id":245,"name":"toritora","steam_id":76561198023859737,"connected_time":5967000000000,"state":"active","ping":64},{"user_id":240,"name":"Medici","steam_id":76561198310130481,"connected_time":6362000000000,"state":"active","ping":63},{"user_id":284,"name":"YourMamaRGR","steam_id":76561198007886268,"connected_time":2007000000000,"state":"active","ping":57},{"user_id":276,"name":"Why","steam_id":76561199388826335,"connected_time":2398000000000,"state":"active","ping":87},{"user_id":219,"name":"♫ BERSERKYD ♫","steam_id":76561197992765807,"connected_time":7581000000000,"state":"active","ping":68},{"user_id":272,"name":"CDBeans","steam_id":76561198046990367,"connected_time":2888000000000,"state":"active","ping":95},{"user_id":294,"name":"lucanri","steam_id":76561198044189343,"connected_time":1143000000000,"state":"active","ping":101},{"user_id":290,"name":"Junk","steam_id":76561198024382753,"connected_time":1846000000000,"state":"active","ping":54},{"user_id":296,"name":"Dallas","steam_id":76561198066542919,"connected_time":870000000000,"state":"active","ping":99},{"user_id":292,"name":"Dynamo","steam_id":76561198057875639,"connected_time":1599000000000,"state":"active","ping":100},{"user_id":300,"name":"Reaganomics","steam_id":76561199106877333,"connected_time":22000000000,"state":"spawning","ping":101},{"user_id":289,"name":"Boseph Jale","steam_id":76561198149056438,"connected_time":1883000000000,"state":"active","ping":121},{"user_id":269,"name":"CheeseCake488","steam_id":76561199407617942,"connected_time":3356000000000,"state":"active","ping":178},{"user_id":210,"name":"og biden pack cart","steam_id":76561198253731826,"connected_time":7943000000000,"state":"active","ping":62},{"user_id":295,"name":"King of the Beasts","steam_id":76561198123927752,"connected_time":1142000000000,"state":"active","ping":51},{"user_id":243,"name":"wheresgeorge","steam_id":76561198986281248,"connected_time":6115000000000,"state":"active","ping":83}]},{"server_id":36,"name":"Uncletopia | Chicago | 5 | All Maps","name_short":"chi-5","host":"chi-2.us.uncletopia.com","port":27015,"enabled":true,"region":"us-central","cc":"us","latitude":41.881832,"longitude":-87.62318,"reserved":0,"last_update":"0001-01-01T00:00:00Z","name_a2s":"Uncletopia | Chicago | 5 | All Maps","protocol":17,"map":"koth_nucleus","folder":"tf","game":"Team Fortress","app_id":440,"player_count":24,"max_players":24,"Bots":0,"server_type":"Dedicated","server_os":"Linux","password":true,"vac":true,"version":"7961495","steam_id":85568392924866362,"keywords":["cp","nocrits","nodmgspread","uncletopia"],"game_id":440,"stv_port":27016,"stv_name":"Uncletopia | Chicago | 5 | All Maps | STV","players":[{"user_id":501,"name":"Wallish","steam_id":76561198057175636,"connected_time":72000000000,"state":"active","ping":107},{"user_id":473,"name":"AMU","steam_id":76561198092346231,"connected_time":1909000000000,"state":"active","ping":68},{"user_id":494,"name":"JaminDamin","steam_id":76561199465916540,"connected_time":559000000000,"state":"active","ping":78},{"user_id":480,"name":"The local hobo","steam_id":76561198289650060,"connected_time":1473000000000,"state":"active","ping":83},{"user_id":454,"name":"GasterDog","steam_id":76561198844423506,"connected_time":2717000000000,"state":"active","ping":102},{"user_id":492,"name":"hollowtones","steam_id":76561198334484415,"connected_time":604000000000,"state":"active","ping":61},{"user_id":489,"name":"Yackaboi","steam_id":76561199444911765,"connected_time":733000000000,"state":"active","ping":101},{"user_id":496,"name":"mayoratheone","steam_id":76561199013353434,"connected_time":492000000000,"state":"active","ping":117},{"user_id":488,"name":"Ceige","steam_id":76561198068538473,"connected_time":895000000000,"state":"active","ping":93},{"user_id":491,"name":"Its_Salty[ST]","steam_id":76561198273978887,"connected_time":622000000000,"state":"active","ping":64},{"user_id":417,"name":"spencil","steam_id":76561198053727976,"connected_time":5299000000000,"state":"active","ping":60},{"user_id":482,"name":"FireDragon","steam_id":76561198042499763,"connected_time":1383000000000,"state":"active","ping":114},{"user_id":465,"name":"Funny Moment #4","steam_id":76561198271907916,"connected_time":2491000000000,"state":"active","ping":57},{"user_id":493,"name":"SIN K4RMA","steam_id":76561198869287223,"connected_time":591000000000,"state":"active","ping":87},{"user_id":476,"name":"Dieu-Sama","steam_id":76561198002075862,"connected_time":1720000000000,"state":"active","ping":80},{"user_id":477,"name":"dantheman","steam_id":76561199486390813,"connected_time":1600000000000,"state":"active","ping":93},{"user_id":460,"name":"Mooseanator 3000","steam_id":76561198060821243,"connected_time":2576000000000,"state":"active","ping":58},{"user_id":497,"name":"BoyWithTheBeanie","steam_id":76561199435079308,"connected_time":478000000000,"state":"active","ping":160},{"user_id":451,"name":"Splexiey","steam_id":76561199122155213,"connected_time":2955000000000,"state":"active","ping":96},{"user_id":461,"name":"Leemerang","steam_id":76561198035793700,"connected_time":2560000000000,"state":"active","ping":97},{"user_id":469,"name":"Bobbn","steam_id":76561198876124683,"connected_time":2299000000000,"state":"active","ping":78},{"user_id":498,"name":"Michael O","steam_id":76561198071556851,"connected_time":191000000000,"state":"active","ping":75},{"user_id":495,"name":"Bluedemon","steam_id":76561199212058684,"connected_time":558000000000,"state":"active","ping":114},{"user_id":500,"name":"Mysterio","steam_id":76561198979494052,"connected_time":169000000000,"state":"active","ping":104}]},{"server_id":37,"name":"Uncletopia | Chicago | 6 | All Maps","name_short":"chi-6","host":"chi-2.us.uncletopia.com","port":27025,"enabled":true,"region":"us-central","cc":"us","latitude":41.881832,"longitude":-87.62318,"reserved":0,"last_update":"0001-01-01T00:00:00Z","name_a2s":"Uncletopia | Chicago | 6 | All Maps","protocol":17,"map":"cp_mountainlab","folder":"tf","game":"Team Fortress","app_id":440,"player_count":24,"max_players":24,"Bots":0,"server_type":"Dedicated","server_os":"Linux","password":true,"vac":true,"version":"7961495","steam_id":85568392924866363,"keywords":["cp","nocrits","nodmgspread","uncletopia"],"game_id":440,"stv_port":27026,"stv_name":"Uncletopia | Chicago | 6 | All Maps | STV","players":[{"user_id":271,"name":"BFro","steam_id":76561198102758681,"connected_time":703000000000,"state":"active","ping":49},{"user_id":247,"name":"Piss God","steam_id":76561198090504334,"connected_time":1604000000000,"state":"active","ping":73},{"user_id":264,"name":"Wicket","steam_id":76561198044023036,"connected_time":1269000000000,"state":"active","ping":49},{"user_id":270,"name":"Crowvette","steam_id":76561198000457496,"connected_time":714000000000,"state":"active","ping":89},{"user_id":238,"name":"The Washer of Dishes","steam_id":76561198028157625,"connected_time":3522000000000,"state":"active","ping":249},{"user_id":279,"name":"Echo Dragoon","steam_id":76561198014273034,"connected_time":204000000000,"state":"active","ping":79},{"user_id":276,"name":"Iris","steam_id":76561198065037378,"connected_time":569000000000,"state":"active","ping":98},{"user_id":249,"name":"jade","steam_id":76561198055611029,"connected_time":1582000000000,"state":"active","ping":59},{"user_id":280,"name":"RectalExam","steam_id":76561197970502312,"connected_time":153000000000,"state":"active","ping":88},{"user_id":273,"name":"godzillasos900","steam_id":76561199089429763,"connected_time":691000000000,"state":"active","ping":59},{"user_id":252,"name":"Candy Sparkles","steam_id":76561198126871264,"connected_time":1554000000000,"state":"active","ping":88},{"user_id":263,"name":"Ninetees","steam_id":76561198119483989,"connected_time":1295000000000,"state":"active","ping":79},{"user_id":254,"name":"PANG THE CAN O' BEANS","steam_id":76561198134073269,"connected_time":1494000000000,"state":"active","ping":77},{"user_id":260,"name":"frank","steam_id":76561198137777483,"connected_time":1349000000000,"state":"active","ping":63},{"user_id":258,"name":"RexCreeper456","steam_id":76561199319578396,"connected_time":1420000000000,"state":"active","ping":65},{"user_id":269,"name":"Nobody","steam_id":76561198160544586,"connected_time":717000000000,"state":"active","ping":72},{"user_id":261,"name":"y r u mad","steam_id":76561199062024437,"connected_time":1330000000000,"state":"active","ping":60},{"user_id":262,"name":"Priest","steam_id":76561197995048109,"connected_time":1330000000000,"state":"active","ping":43},{"user_id":267,"name":"Yoi Ishiya","steam_id":76561198041639985,"connected_time":1199000000000,"state":"active","ping":99},{"user_id":278,"name":"eipi","steam_id":76561199084492097,"connected_time":464000000000,"state":"active","ping":427},{"user_id":275,"name":"Fattened Dessert","steam_id":76561198351008375,"connected_time":680000000000,"state":"active","ping":67},{"user_id":266,"name":"Theo","steam_id":76561198147484780,"connected_time":1250000000000,"state":"active","ping":89},{"user_id":268,"name":"Aglovail","steam_id":76561198276988844,"connected_time":1093000000000,"state":"active","ping":101},{"user_id":246,"name":"Emerald","steam_id":76561198085530635,"connected_time":1854000000000,"state":"active","ping":87}]},{"server_id":38,"name":"Uncletopia | Chicago | 7 | Stopwatch","name_short":"chi-7","host":"chi-2.us.uncletopia.com","port":27035,"enabled":true,"region":"us-central","cc":"us","latitude":41.881832,"longitude":-87.62318,"reserved":0,"last_update":"0001-01-01T00:00:00Z","name_a2s":"Uncletopia | Chicago | 7 | Stopwatch","protocol":17,"map":"workshop/pl_summercoast_rc8e.ugc1761528829","folder":"tf","game":"Team Fortress","app_id":440,"player_count":0,"max_players":24,"Bots":0,"server_type":"Dedicated","server_os":"Linux","password":true,"vac":true,"version":"7961495","steam_id":85568392924866364,"keywords":["nocrits","nodmgspread","payload","uncletopia"],"game_id":440,"stv_port":27036,"stv_name":"Uncletopia | Chicago | 7 | Stopwatch | STV","players":null},{"server_id":39,"name":"Uncletopia | Chicago | 8 | Community","name_short":"chi-8","host":"chi-2.us.uncletopia.com","port":27045,"enabled":true,"region":"us-central","cc":"us","latitude":41.881832,"longitude":-87.62318,"reserved":0,"last_update":"0001-01-01T00:00:00Z","name_a2s":"Uncletopia | Chicago | 8 | Community","protocol":17,"map":"workshop/cp_propaganda_b18.ugc1603743849","folder":"tf","game":"Team Fortress","app_id":440,"player_count":0,"max_players":24,"Bots":0,"server_type":"Dedicated","server_os":"Linux","password":true,"vac":true,"version":"7961495","steam_id":85568392924866365,"keywords":["cp","nocrits","nodmgspread","uncletopia"],"game_id":440,"stv_port":27046,"stv_name":"Uncletopia | Chicago | 8 | Community | STV","players":null},{"server_id":8,"name":"Uncletopia | Dallas | 1 | All Maps","name_short":"dal-1","host":"dal-1.us.uncletopia.com","port":27015,"enabled":true,"region":"us-central","cc":"us","latitude":32.779167,"longitude":-96.80889,"reserved":0,"last_update":"0001-01-01T00:00:00Z","name_a2s":"Uncletopia | Dallas | 1 | All Maps","protocol":17,"map":"cp_steel","folder":"tf","game":"Team Fortress","app_id":440,"player_count":18,"max_players":24,"Bots":0,"server_type":"Dedicated","server_os":"Linux","password":true,"vac":true,"version":"7961495","steam_id":85568392924469986,"keywords":["cp","nocrits","nodmgspread","uncletopia"],"game_id":440,"stv_port":27016,"stv_name":"Uncletopia | Dallas | 1 | All Maps | STV","players":[{"user_id":491,"name":"viedoamges","steam_id":76561198025295263,"connected_time":394000000000,"state":"active","ping":47},{"user_id":496,"name":"shomai","steam_id":76561198421221613,"connected_time":89000000000,"state":"active","ping":83},{"user_id":395,"name":"Kanye Asada","steam_id":76561198186678831,"connected_time":4569000000000,"state":"active","ping":83},{"user_id":489,"name":"schmuck","steam_id":76561198143789773,"connected_time":464000000000,"state":"active","ping":55},{"user_id":493,"name":"Big Sauce","steam_id":76561198046654750,"connected_time":196000000000,"state":"active","ping":89},{"user_id":455,"name":"Deluxe_Taco34","steam_id":76561199037653437,"connected_time":2508000000000,"state":"active","ping":132},{"user_id":472,"name":"[DATS➡] Sugar Meowth","steam_id":76561197995251793,"connected_time":1909000000000,"state":"active","ping":92},{"user_id":481,"name":"magnolia","steam_id":76561199228865188,"connected_time":1460000000000,"state":"active","ping":37},{"user_id":490,"name":"Megmopep","steam_id":76561198258202958,"connected_time":456000000000,"state":"active","ping":91},{"user_id":492,"name":"swooce","steam_id":76561198156232484,"connected_time":259000000000,"state":"active","ping":89},{"user_id":380,"name":"Liver stealer","steam_id":76561199029954287,"connected_time":5346000000000,"state":"active","ping":164},{"user_id":427,"name":"Harufloofer","steam_id":76561199084506827,"connected_time":3366000000000,"state":"active","ping":46},{"user_id":494,"name":"nnotorise","steam_id":76561199140520927,"connected_time":158000000000,"state":"active","ping":86},{"user_id":495,"name":"Dr. Maybe","steam_id":76561198268304564,"connected_time":133000000000,"state":"active","ping":121},{"user_id":497,"name":"Bandoleon","steam_id":76561199075155791,"connected_time":64000000000,"state":"active","ping":55},{"user_id":440,"name":"Tommy Provolone","steam_id":76561198170062377,"connected_time":2943000000000,"state":"active","ping":66},{"user_id":483,"name":"Пвт Динго","steam_id":76561198119683217,"connected_time":1251000000000,"state":"active","ping":98},{"user_id":388,"name":"Sweet Tooth","steam_id":76561198830158092,"connected_time":5201000000000,"state":"active","ping":85}]},{"server_id":108,"name":"Uncletopia | Dallas | 2 | All Maps","name_short":"dal-2","host":"dal-1.us.uncletopia.com","port":27025,"enabled":true,"region":"us-central","cc":"us","latitude":32.779167,"longitude":-96.80889,"reserved":0,"last_update":"0001-01-01T00:00:00Z","name_a2s":"Uncletopia | Dallas | 2 | All Maps","protocol":17,"map":"pl_barnblitz","folder":"tf","game":"Team Fortress","app_id":440,"player_count":24,"max_players":24,"Bots":0,"server_type":"Dedicated","server_os":"Linux","password":true,"vac":true,"version":"7961495","steam_id":85568392924469988,"keywords":["nocrits","nodmgspread","payload","uncletopia"],"game_id":440,"stv_port":27026,"stv_name":"Uncletopia | Dallas | 2 | All Maps | STV","players":[{"user_id":667,"name":"Queuetimeevent","steam_id":76561198079438423,"connected_time":2728000000000,"state":"active","ping":60},{"user_id":648,"name":"Lunarthrope","steam_id":76561198292132147,"connected_time":4417000000000,"state":"active","ping":94},{"user_id":692,"name":"menonamed","steam_id":76561198199564382,"connected_time":102000000000,"state":"active","ping":85},{"user_id":675,"name":"gunch","steam_id":76561198029318657,"connected_time":1375000000000,"state":"active","ping":37},{"user_id":683,"name":"TechnoBear2099","steam_id":76561198238863596,"connected_time":1099000000000,"state":"active","ping":46},{"user_id":543,"name":"radicalPolio","steam_id":76561197961561855,"connected_time":10015000000000,"state":"active","ping":45},{"user_id":688,"name":"ihave80hp","steam_id":76561199251621911,"connected_time":209000000000,"state":"active","ping":73},{"user_id":690,"name":"Killo","steam_id":76561198052989584,"connected_time":131000000000,"state":"active","ping":75},{"user_id":658,"name":"The creator(made twitter)","steam_id":76561198870900265,"connected_time":3842000000000,"state":"active","ping":80},{"user_id":662,"name":"An Engineer","steam_id":76561198110381643,"connected_time":3111000000000,"state":"active","ping":46},{"user_id":691,"name":"ooblz","steam_id":76561198361326855,"connected_time":109000000000,"state":"active","ping":101},{"user_id":684,"name":"Big Money Alex","steam_id":76561198160225334,"connected_time":1083000000000,"state":"active","ping":92},{"user_id":681,"name":"L-","steam_id":76561198046074220,"connected_time":1185000000000,"state":"active","ping":88},{"user_id":693,"name":"mini vegas stan","steam_id":76561198126029630,"connected_time":98000000000,"state":"active","ping":102},{"user_id":677,"name":"Dullahan","steam_id":76561198119668908,"connected_time":1330000000000,"state":"active","ping":90},{"user_id":659,"name":"Poor Drunk Scot","steam_id":76561199465805056,"connected_time":3332000000000,"state":"active","ping":56},{"user_id":678,"name":"GreenApples","steam_id":76561198120559543,"connected_time":1324000000000,"state":"active","ping":90},{"user_id":689,"name":"Nova","steam_id":76561198049410145,"connected_time":200000000000,"state":"active","ping":92},{"user_id":654,"name":"men kisser","steam_id":76561199026721822,"connected_time":4084000000000,"state":"active","ping":89},{"user_id":696,"name":"Meet The Taunt","steam_id":76561198253927199,"connected_time":56000000000,"state":"active","ping":169},{"user_id":695,"name":"doghouse","steam_id":76561198000319035,"connected_time":73000000000,"state":"active","ping":85},{"user_id":697,"name":"vareh","steam_id":76561197993190926,"connected_time":21000000000,"state":"spawning","ping":106},{"user_id":652,"name":"8th Ward","steam_id":76561198405839882,"connected_time":4157000000000,"state":"active","ping":60},{"user_id":661,"name":"???","steam_id":76561198200155343,"connected_time":3319000000000,"state":"active","ping":45}]},{"server_id":404,"name":"Uncletopia | Dallas | 3 | All Maps","name_short":"dal-3","host":"dal-1.us.uncletopia.com","port":27035,"enabled":true,"region":"us-central","cc":"us","latitude":32.779167,"longitude":-96.80889,"reserved":0,"last_update":"0001-01-01T00:00:00Z","name_a2s":"Uncletopia | Dallas | 3 | All Maps","protocol":17,"map":"cp_foundry","folder":"tf","game":"Team Fortress","app_id":440,"player_count":24,"max_players":24,"Bots":0,"server_type":"Dedicated","server_os":"Linux","password":true,"vac":true,"version":"7961495","steam_id":85568392924515219,"keywords":["cp","nocrits","nodmgspread","uncletopia"],"game_id":440,"stv_port":27036,"stv_name":"Uncletopia | Dallas | 3 | All Maps | STV","players":[{"user_id":446,"name":"Major Woody","steam_id":76561198835541533,"connected_time":1066000000000,"state":"active","ping":56},{"user_id":453,"name":"Freyja","steam_id":76561198207412177,"connected_time":898000000000,"state":"active","ping":78},{"user_id":466,"name":"choi","steam_id":76561198053669887,"connected_time":10000000000,"state":"active","ping":92},{"user_id":458,"name":"yoyo","steam_id":76561198285758098,"connected_time":789000000000,"state":"active","ping":84},{"user_id":424,"name":"wajanta","steam_id":76561199040280852,"connected_time":2403000000000,"state":"active","ping":58},{"user_id":450,"name":"Quarkyツ","steam_id":76561198116411387,"connected_time":931000000000,"state":"active","ping":83},{"user_id":451,"name":"twink gaming","steam_id":76561199117379404,"connected_time":926000000000,"state":"active","ping":79},{"user_id":457,"name":"Legit_Jaxer","steam_id":76561198172234053,"connected_time":800000000000,"state":"active","ping":105},{"user_id":465,"name":"NOBODY","steam_id":76561198094578887,"connected_time":222000000000,"state":"active","ping":78},{"user_id":462,"name":"Just Luck","steam_id":76561198294350105,"connected_time":600000000000,"state":"active","ping":64},{"user_id":452,"name":"rat 2","steam_id":76561198197297414,"connected_time":904000000000,"state":"active","ping":68},{"user_id":454,"name":"Medic Climaxing","steam_id":76561198840123975,"connected_time":896000000000,"state":"active","ping":54},{"user_id":460,"name":"Gamer1243","steam_id":76561199073760355,"connected_time":672000000000,"state":"active","ping":76},{"user_id":464,"name":"rach9411","steam_id":76561198256535721,"connected_time":275000000000,"state":"active","ping":148},{"user_id":403,"name":"Joe Camel","steam_id":76561198205531739,"connected_time":3501000000000,"state":"active","ping":117},{"user_id":448,"name":"Nixhalis","steam_id":76561198289151385,"connected_time":1029000000000,"state":"active","ping":131},{"user_id":456,"name":"Jango","steam_id":76561198084589742,"connected_time":847000000000,"state":"active","ping":76},{"user_id":413,"name":"Holp","steam_id":76561199019186848,"connected_time":3167000000000,"state":"active","ping":83},{"user_id":461,"name":"Russell","steam_id":76561198024159373,"connected_time":630000000000,"state":"active","ping":84},{"user_id":429,"name":"pim","steam_id":76561198095163441,"connected_time":2298000000000,"state":"active","ping":58},{"user_id":443,"name":"Cowboyfos","steam_id":76561199055740230,"connected_time":1245000000000,"state":"active","ping":81},{"user_id":434,"name":"GLG MUTT","steam_id":76561198147785541,"connected_time":2173000000000,"state":"active","ping":60},{"user_id":444,"name":"fish enjoyer","steam_id":76561198307447918,"connected_time":1180000000000,"state":"active","ping":87},{"user_id":463,"name":"Locke","steam_id":76561197988245513,"connected_time":585000000000,"state":"active","ping":57}]},{"server_id":405,"name":"Uncletopia | Dallas | 4 | Community","name_short":"dal-4","host":"dal-1.us.uncletopia.com","port":27045,"enabled":true,"region":"us-central","cc":"us","latitude":32.779167,"longitude":-96.80889,"reserved":0,"last_update":"0001-01-01T00:00:00Z","name_a2s":"Uncletopia | Dallas | 4 | Community","protocol":17,"map":"workshop/rd_asteroid_redux_b1.ugc2154902912","folder":"tf","game":"Team Fortress","app_id":440,"player_count":0,"max_players":24,"Bots":0,"server_type":"Dedicated","server_os":"Linux","password":true,"vac":true,"version":"7961495","steam_id":85568392924515220,"keywords":["beta","nocrits","nodmgspread","rd","uncletopia"],"game_id":440,"stv_port":27046,"stv_name":"Uncletopia | Dallas | 4 | Community | STV","players":null},{"server_id":5,"name":"Uncletopia | Frankfurt | 1 | All Maps","name_short":"frk-1","host":"frk-1.de.uncletopia.com","port":27015,"enabled":true,"region":"eu","cc":"de","latitude":50.110924,"longitude":8.682127,"reserved":0,"last_update":"0001-01-01T00:00:00Z","name_a2s":"Uncletopia | Frankfurt | 1 | All Maps","protocol":17,"map":"koth_cascade","folder":"tf","game":"Team Fortress","app_id":440,"player_count":0,"max_players":24,"Bots":0,"server_type":"Dedicated","server_os":"Linux","password":true,"vac":true,"version":"7961495","steam_id":85568392924469989,"keywords":["cp","nocrits","nodmgspread","uncletopia"],"game_id":440,"stv_port":27016,"stv_name":"Uncletopia | Frankfurt | 1 | All Maps | STV","players":null},{"server_id":110,"name":"Uncletopia | Frankfurt | 2 | All Maps","name_short":"frk-2","host":"frk-1.de.uncletopia.com","port":27025,"enabled":true,"region":"eu","cc":"de","latitude":50.110924,"longitude":8.682127,"reserved":0,"last_update":"0001-01-01T00:00:00Z","name_a2s":"Uncletopia | Frankfurt | 2 | All Maps","protocol":17,"map":"cp_mountainlab","folder":"tf","game":"Team Fortress","app_id":440,"player_count":7,"max_players":24,"Bots":0,"server_type":"Dedicated","server_os":"Linux","password":true,"vac":true,"version":"7961495","steam_id":85568392924469990,"keywords":["cp","nocrits","nodmgspread","uncletopia"],"game_id":440,"stv_port":27026,"stv_name":"Uncletopia | Frankfurt | 2 | All Maps | STV","players":[{"user_id":789,"name":"Artificial.Ignorance","steam_id":76561198453090180,"connected_time":112000000000,"state":"active","ping":149},{"user_id":790,"name":"Zorutan","steam_id":76561198166758127,"connected_time":26000000000,"state":"active","ping":106},{"user_id":751,"name":"BlueBlueFox","steam_id":76561198053817230,"connected_time":3969000000000,"state":"active","ping":63},{"user_id":742,"name":"HazelForest","steam_id":76561198171827033,"connected_time":4255000000000,"state":"active","ping":59},{"user_id":763,"name":"\u003c3","steam_id":76561198379772824,"connected_time":3312000000000,"state":"active","ping":104},{"user_id":784,"name":"SlikeDollar","steam_id":76561199092295526,"connected_time":1683000000000,"state":"active","ping":59},{"user_id":773,"name":"K→daz","steam_id":76561198096294931,"connected_time":2951000000000,"state":"active","ping":45}]},{"server_id":308,"name":"Uncletopia | Frankfurt | 3 | All Maps","name_short":"frk-3","host":"frk-1.de.uncletopia.com","port":27035,"enabled":true,"region":"eu","cc":"de","latitude":50.110924,"longitude":8.682127,"reserved":0,"last_update":"0001-01-01T00:00:00Z","name_a2s":"Uncletopia | Frankfurt | 3 | All Maps","protocol":17,"map":"cp_snakewater_final1","folder":"tf","game":"Team Fortress","app_id":440,"player_count":0,"max_players":24,"Bots":0,"server_type":"Dedicated","server_os":"Linux","password":true,"vac":true,"version":"7961495","steam_id":85568392924504274,"keywords":["cp","nocrits","nodmgspread","uncletopia"],"game_id":440,"stv_port":27036,"stv_name":"Uncletopia | Frankfurt | 3 | All Maps | STV","players":null},{"server_id":309,"name":"Uncletopia | Frankfurt | 4 | All Maps","name_short":"frk-4","host":"frk-1.de.uncletopia.com","port":27045,"enabled":true,"region":"eu","cc":"de","latitude":50.110924,"longitude":8.682127,"reserved":0,"last_update":"0001-01-01T00:00:00Z","name_a2s":"Uncletopia | Frankfurt | 4 | All Maps","protocol":17,"map":"koth_cascade","folder":"tf","game":"Team Fortress","app_id":440,"player_count":0,"max_players":24,"Bots":0,"server_type":"Dedicated","server_os":"Linux","password":true,"vac":true,"version":"7961495","steam_id":85568392924504275,"keywords":["cp","nocrits","nodmgspread","uncletopia"],"game_id":440,"stv_port":27046,"stv_name":"Uncletopia | Frankfurt | 4 | All Maps | STV","players":null},{"server_id":310,"name":"Uncletopia | Frankfurt | 5 | All Maps","name_short":"frk-5","host":"frk-1.de.uncletopia.com","port":27055,"enabled":true,"region":"eu","cc":"de","latitude":50.110924,"longitude":8.682127,"reserved":0,"last_update":"0001-01-01T00:00:00Z","name_a2s":"Uncletopia | Frankfurt | 5 | All Maps","protocol":17,"map":"koth_lakeside_final","folder":"tf","game":"Team Fortress","app_id":440,"player_count":0,"max_players":24,"Bots":0,"server_type":"Dedicated","server_os":"Linux","password":true,"vac":true,"version":"7961495","steam_id":85568392924504277,"keywords":["cp","nocrits","nodmgspread","uncletopia"],"game_id":440,"stv_port":27056,"stv_name":"Uncletopia | Frankfurt | 5 | All Maps | STV","players":null},{"server_id":311,"name":"Uncletopia | Frankfurt | 6 | All Maps","name_short":"frk-6","host":"frk-1.de.uncletopia.com","port":27065,"enabled":true,"region":"eu","cc":"de","latitude":50.110924,"longitude":8.682127,"reserved":0,"last_update":"0001-01-01T00:00:00Z","name_a2s":"Uncletopia | Frankfurt | 6 | All Maps","protocol":17,"map":"koth_highpass","folder":"tf","game":"Team Fortress","app_id":440,"player_count":0,"max_players":24,"Bots":0,"server_type":"Dedicated","server_os":"Linux","password":true,"vac":true,"version":"7961495","steam_id":85568392924504278,"keywords":["cp","nocrits","nodmgspread","uncletopia"],"game_id":440,"stv_port":27066,"stv_name":"Uncletopia | Frankfurt | 6 | All Maps | STV","players":null},{"server_id":23,"name":"Uncletopia | Frankfurt | 7 | Stopwatch","name_short":"frk-7","host":"frk-1.de.uncletopia.com","port":27075,"enabled":true,"region":"eu","cc":"de","latitude":50.110924,"longitude":8.682127,"reserved":0,"last_update":"0001-01-01T00:00:00Z","name_a2s":"Uncletopia | Frankfurt | 7 | Stopwatch","protocol":17,"map":"pl_swiftwater_final1","folder":"tf","game":"Team Fortress","app_id":440,"player_count":0,"max_players":24,"Bots":0,"server_type":"Dedicated","server_os":"Linux","password":true,"vac":true,"version":"7961495","steam_id":85568392924742827,"keywords":["nocrits","nodmgspread","payload","uncletopia"],"game_id":440,"stv_port":27076,"stv_name":"Uncletopia | Frankfurt | 7 | Stopwatch | STV","players":null},{"server_id":24,"name":"Uncletopia | Frankfurt | 8 | Community","name_short":"frk-8","host":"frk-1.de.uncletopia.com","port":27085,"enabled":true,"region":"eu","cc":"de","latitude":50.110924,"longitude":8.682127,"reserved":0,"last_update":"0001-01-01T00:00:00Z","name_a2s":"Uncletopia | Frankfurt | 8 | Community","protocol":17,"map":"workshop/koth_trenchfoot_ab1.ugc731436616","folder":"tf","game":"Team Fortress","app_id":440,"player_count":0,"max_players":24,"Bots":0,"server_type":"Dedicated","server_os":"Linux","password":true,"vac":true,"version":"7961495","steam_id":85568392924742828,"keywords":["cp","nocrits","nodmgspread","uncletopia"],"game_id":440,"stv_port":27086,"stv_name":"Uncletopia | Frankfurt | 8 | Community | STV","players":null},{"server_id":202,"name":"Uncletopia | Hong Kong | 1 | All Maps","name_short":"hgk-1","host":"hgk-1.hk.uncletopia.com","port":27015,"enabled":true,"region":"asia","cc":"hk","latitude":22.302711,"longitude":114.177216,"reserved":0,"last_update":"0001-01-01T00:00:00Z","name_a2s":"Uncletopia | Hong Kong | 1 | All Maps","protocol":17,"map":"pl_borneo","folder":"tf","game":"Team Fortress","app_id":440,"player_count":0,"max_players":24,"Bots":0,"server_type":"Dedicated","server_os":"Linux","password":true,"vac":true,"version":"7961495","steam_id":85568392924494504,"keywords":["nocrits","nodmgspread","payload","uncletopia"],"game_id":440,"stv_port":27016,"stv_name":"Uncletopia | Hong Kong | 1 | All Maps | STV","players":null},{"server_id":1,"name":"Uncletopia | Los Angeles | 1 | All Maps","name_short":"lax-1","host":"lax-1.us.uncletopia.com","port":27015,"enabled":true,"region":"us-west","cc":"us","latitude":33.94279,"longitude":-118.41004,"reserved":0,"last_update":"0001-01-01T00:00:00Z","name_a2s":"Uncletopia | Los Angeles | 1 | All Maps","protocol":17,"map":"cp_snakewater_final1","folder":"tf","game":"Team Fortress","app_id":440,"player_count":0,"max_players":24,"Bots":0,"server_type":"Dedicated","server_os":"Linux","password":true,"vac":true,"version":"7961495","steam_id":85568392924469991,"keywords":["cp","nocrits","nodmgspread","uncletopia"],"game_id":440,"stv_port":27016,"stv_name":"Uncletopia | Los Angeles | 1 | All Maps | STV","players":null},{"server_id":112,"name":"Uncletopia | Los Angeles | 2 | All Maps","name_short":"lax-2","host":"lax-1.us.uncletopia.com","port":27025,"enabled":true,"region":"us-west","cc":"us","latitude":33.94279,"longitude":-118.41004,"reserved":0,"last_update":"0001-01-01T00:00:00Z","name_a2s":"Uncletopia | Los Angeles | 2 | All Maps","protocol":17,"map":"cp_dustbowl","folder":"tf","game":"Team Fortress","app_id":440,"player_count":0,"max_players":24,"Bots":0,"server_type":"Dedicated","server_os":"Linux","password":true,"vac":true,"version":"7961495","steam_id":85568392924469992,"keywords":["cp","nocrits","nodmgspread","uncletopia"],"game_id":440,"stv_port":27026,"stv_name":"Uncletopia | Los Angeles | 2 | All Maps | STV","players":null},{"server_id":324,"name":"Uncletopia | Los Angeles | 3 | All Maps","name_short":"lax-3","host":"lax-1.us.uncletopia.com","port":27035,"enabled":true,"region":"us-west","cc":"us","latitude":33.94279,"longitude":-118.41004,"reserved":0,"last_update":"0001-01-01T00:00:00Z","name_a2s":"Uncletopia | Los Angeles | 3 | All Maps","protocol":17,"map":"cp_process_final","folder":"tf","game":"Team Fortress","app_id":440,"player_count":24,"max_players":24,"Bots":0,"server_type":"Dedicated","server_os":"Linux","password":true,"vac":true,"version":"7961495","steam_id":85568392924510198,"keywords":["cp","nocrits","nodmgspread","uncletopia"],"game_id":440,"stv_port":27036,"stv_name":"Uncletopia | Los Angeles | 3 | All Maps | STV","players":[{"user_id":288,"name":"[ØWQJØ]chubacaalatake","steam_id":76561198136201697,"connected_time":451000000000,"state":"active","ping":100},{"user_id":296,"name":"themanbingbong","steam_id":76561199395710855,"connected_time":188000000000,"state":"active","ping":64},{"user_id":276,"name":"sola venereum","steam_id":76561198368179166,"connected_time":2372000000000,"state":"active","ping":38},{"user_id":286,"name":"bottom pride burger","steam_id":76561198322247602,"connected_time":1149000000000,"state":"active","ping":58},{"user_id":268,"name":"Seskova","steam_id":76561198090207032,"connected_time":3156000000000,"state":"active","ping":78},{"user_id":294,"name":"Rick25","steam_id":76561198188461649,"connected_time":292000000000,"state":"active","ping":145},{"user_id":274,"name":"UwU","steam_id":76561198971629959,"connected_time":2374000000000,"state":"active","ping":162},{"user_id":279,"name":"Asuka Langley","steam_id":76561198157732609,"connected_time":2291000000000,"state":"active","ping":61},{"user_id":273,"name":"Ferret","steam_id":76561198060416458,"connected_time":2376000000000,"state":"active","ping":64},{"user_id":290,"name":"tomandjerry085","steam_id":76561198800789071,"connected_time":433000000000,"state":"active","ping":57},{"user_id":284,"name":"heck","steam_id":76561198315694520,"connected_time":1354000000000,"state":"active","ping":45},{"user_id":297,"name":"TeriyakiDynamite","steam_id":76561198050049346,"connected_time":184000000000,"state":"active","ping":69},{"user_id":278,"name":"Pluto","steam_id":76561198012630802,"connected_time":2325000000000,"state":"active","ping":58},{"user_id":281,"name":"Boobie and vagene","steam_id":76561198078464924,"connected_time":2175000000000,"state":"active","ping":74},{"user_id":287,"name":"Mr. Noodle","steam_id":76561198025280658,"connected_time":457000000000,"state":"active","ping":56},{"user_id":289,"name":"reverie","steam_id":76561198168158637,"connected_time":440000000000,"state":"active","ping":68},{"user_id":291,"name":"hart","steam_id":76561198046073848,"connected_time":400000000000,"state":"active","ping":71},{"user_id":292,"name":"Daddy Topps","steam_id":76561198203594332,"connected_time":382000000000,"state":"active","ping":74},{"user_id":271,"name":"mkwfreak","steam_id":76561198049000779,"connected_time":2767000000000,"state":"active","ping":58},{"user_id":298,"name":"Brigadier Brownie","steam_id":76561198040852898,"connected_time":54000000000,"state":"active","ping":57},{"user_id":285,"name":"RumpelstiltskinShrekForeverAfte","steam_id":76561199196626333,"connected_time":1162000000000,"state":"active","ping":51},{"user_id":218,"name":"Mocha Josie","steam_id":76561198066452726,"connected_time":5361000000000,"state":"active","ping":73},{"user_id":293,"name":"_D_I_S_P_E_N_S_E_R_","steam_id":76561199383097700,"connected_time":358000000000,"state":"active","ping":88},{"user_id":299,"name":"Zenire","steam_id":76561199087298510,"connected_time":15000000000,"state":"active","ping":80}]},{"server_id":25,"name":"Uncletopia | Los Angeles | 4 | Stopwatch","name_short":"lax-4","host":"lax-1.us.uncletopia.com","port":27045,"enabled":true,"region":"us-west","cc":"us","latitude":33.94279,"longitude":-118.41004,"reserved":0,"last_update":"0001-01-01T00:00:00Z","name_a2s":"Uncletopia | Los Angeles | 4 | Stopwatch","protocol":17,"map":"cp_granary","folder":"tf","game":"Team Fortress","app_id":440,"player_count":0,"max_players":24,"Bots":0,"server_type":"Dedicated","server_os":"Linux","password":true,"vac":true,"version":"7961495","steam_id":85568392924510199,"keywords":["cp","nocrits","nodmgspread","uncletopia"],"game_id":440,"stv_port":27046,"stv_name":"Uncletopia | Los Angeles | 4 | Stopwatch | STV","players":null},{"server_id":11,"name":"Uncletopia | London | 1 | All Maps","name_short":"lon-1","host":"lon-1.uk.uncletopia.com","port":27015,"enabled":true,"region":"eu","cc":"gb","latitude":51.509865,"longitude":-0.118092,"reserved":0,"last_update":"0001-01-01T00:00:00Z","name_a2s":"Uncletopia | London | 1 | All Maps","protocol":17,"map":"pl_barnblitz","folder":"tf","game":"Team Fortress","app_id":440,"player_count":24,"max_players":24,"Bots":0,"server_type":"Dedicated","server_os":"Linux","password":true,"vac":true,"version":"7961495","steam_id":85568392924367362,"keywords":["nocrits","nodmgspread","payload","uncletopia"],"game_id":440,"stv_port":27016,"stv_name":"Uncletopia | London | 1 | All Maps | STV","players":[{"user_id":914,"name":"biohazard (#1 beebo fan)","steam_id":76561198162873354,"connected_time":1854000000000,"state":"active","ping":90},{"user_id":924,"name":"Pancholín","steam_id":76561198262777640,"connected_time":409000000000,"state":"active","ping":72},{"user_id":907,"name":"jonbob","steam_id":76561197963506620,"connected_time":2967000000000,"state":"active","ping":51},{"user_id":905,"name":"SuperBob103","steam_id":76561199175360012,"connected_time":3099000000000,"state":"active","ping":47},{"user_id":918,"name":"MANMANGLER3000 flick","steam_id":76561198083505031,"connected_time":1362000000000,"state":"active","ping":45},{"user_id":906,"name":"DEATH-ETANOL","steam_id":76561198010184206,"connected_time":3067000000000,"state":"active","ping":75},{"user_id":862,"name":"Clown :o)","steam_id":76561198074657015,"connected_time":7391000000000,"state":"active","ping":58},{"user_id":923,"name":"skelebin","steam_id":76561199480942903,"connected_time":510000000000,"state":"active","ping":75},{"user_id":799,"name":"sora","steam_id":76561198096547662,"connected_time":11970000000000,"state":"active","ping":54},{"user_id":903,"name":"Paste","steam_id":76561198139275322,"connected_time":3144000000000,"state":"active","ping":115},{"user_id":909,"name":"SeaKane","steam_id":76561198165453318,"connected_time":2407000000000,"state":"active","ping":53},{"user_id":910,"name":"FilipeLuk","steam_id":76561198150675438,"connected_time":2309000000000,"state":"active","ping":71},{"user_id":922,"name":"timmy_22","steam_id":76561198027033926,"connected_time":553000000000,"state":"active","ping":55},{"user_id":919,"name":"K","steam_id":76561198144604444,"connected_time":873000000000,"state":"active","ping":46},{"user_id":915,"name":"Zwphyr","steam_id":76561198160772793,"connected_time":1572000000000,"state":"active","ping":58},{"user_id":843,"name":"Minimi","steam_id":76561198873850443,"connected_time":8909000000000,"state":"active","ping":45},{"user_id":856,"name":"shooer!","steam_id":76561198110531281,"connected_time":7944000000000,"state":"active","ping":72},{"user_id":920,"name":"Visphiric - Ping for Comms","steam_id":76561198071938027,"connected_time":768000000000,"state":"active","ping":43},{"user_id":921,"name":"Basil","steam_id":76561198046832312,"connected_time":576000000000,"state":"active","ping":70},{"user_id":865,"name":"BOT Jeremus","steam_id":76561198072981684,"connected_time":7050000000000,"state":"active","ping":44},{"user_id":845,"name":"beebo (#1 biohazard fan)","steam_id":76561199120277007,"connected_time":8897000000000,"state":"active","ping":91},{"user_id":917,"name":"heuji","steam_id":76561197971067828,"connected_time":1507000000000,"state":"active","ping":51},{"user_id":892,"name":"charlotte","steam_id":76561198075129898,"connected_time":4573000000000,"state":"active","ping":32},{"user_id":901,"name":"I might knife you","steam_id":76561199267543998,"connected_time":3161000000000,"state":"active","ping":81}]},{"server_id":114,"name":"Uncletopia | London | 2 | All Maps","name_short":"lon-2","host":"lon-1.uk.uncletopia.com","port":27025,"enabled":true,"region":"eu","cc":"gb","latitude":51.509865,"longitude":-0.118092,"reserved":0,"last_update":"0001-01-01T00:00:00Z","name_a2s":"Uncletopia | London | 2 | All Maps","protocol":17,"map":"koth_highpass","folder":"tf","game":"Team Fortress","app_id":440,"player_count":0,"max_players":24,"Bots":0,"server_type":"Dedicated","server_os":"Linux","password":true,"vac":true,"version":"7961495","steam_id":85568392924470941,"keywords":["cp","nocrits","nodmgspread","uncletopia"],"game_id":440,"stv_port":27026,"stv_name":"Uncletopia | London | 2 | All Maps | STV","players":null},{"server_id":320,"name":"Uncletopia | London | 3 | All Maps","name_short":"lon-3","host":"lon-1.uk.uncletopia.com","port":27035,"enabled":true,"region":"eu","cc":"gb","latitude":51.509865,"longitude":-0.118092,"reserved":0,"last_update":"0001-01-01T00:00:00Z","name_a2s":"Uncletopia | London | 3 | All Maps","protocol":17,"map":"koth_viaduct","folder":"tf","game":"Team Fortress","app_id":440,"player_count":0,"max_players":24,"Bots":0,"server_type":"Dedicated","server_os":"Linux","password":true,"vac":true,"version":"7961495","steam_id":85568392924510192,"keywords":["cp","nocrits","nodmgspread","uncletopia"],"game_id":440,"stv_port":27036,"stv_name":"Uncletopia | London | 3 | All Maps | STV","players":null},{"server_id":321,"name":"Uncletopia | London | 4 | All Maps","name_short":"lon-4","host":"lon-1.uk.uncletopia.com","port":27045,"enabled":true,"region":"eu","cc":"gb","latitude":51.509865,"longitude":-0.118092,"reserved":0,"last_update":"0001-01-01T00:00:00Z","name_a2s":"Uncletopia | London | 4 | All Maps","protocol":17,"map":"cp_process_final","folder":"tf","game":"Team Fortress","app_id":440,"player_count":20,"max_players":24,"Bots":0,"server_type":"Dedicated","server_os":"Linux","password":true,"vac":true,"version":"7961495","steam_id":85568392924510193,"keywords":["cp","nocrits","nodmgspread","uncletopia"],"game_id":440,"stv_port":27046,"stv_name":"Uncletopia | London | 4 | All Maps | STV","players":[{"user_id":588,"name":"mash","steam_id":76561198367669395,"connected_time":9303000000000,"state":"active","ping":40},{"user_id":669,"name":"Joseph Goldberg","steam_id":76561199435854673,"connected_time":2025000000000,"state":"active","ping":45},{"user_id":560,"name":"smiley","steam_id":76561198042245117,"connected_time":12130000000000,"state":"active","ping":66},{"user_id":687,"name":"भालूजिसनेव","steam_id":76561198340139056,"connected_time":321000000000,"state":"active","ping":119},{"user_id":642,"name":"Live Ruby Reaction","steam_id":76561198304902462,"connected_time":4361000000000,"state":"active","ping":30},{"user_id":668,"name":"Skarp","steam_id":76561198034398376,"connected_time":2268000000000,"state":"active","ping":60},{"user_id":685,"name":"sarcasticsatan69","steam_id":76561198407566842,"connected_time":528000000000,"state":"active","ping":55},{"user_id":579,"name":"xxfishymemesxx","steam_id":76561199021497492,"connected_time":10171000000000,"state":"active","ping":129},{"user_id":646,"name":"vi","steam_id":76561198303147966,"connected_time":3847000000000,"state":"active","ping":45},{"user_id":670,"name":"Swaggasouruss","steam_id":76561198285607649,"connected_time":1917000000000,"state":"active","ping":86},{"user_id":671,"name":"coolrat","steam_id":76561198392407200,"connected_time":1874000000000,"state":"active","ping":108},{"user_id":686,"name":"SnareBreaker","steam_id":76561198854045058,"connected_time":503000000000,"state":"active","ping":68},{"user_id":649,"name":"Quack!","steam_id":76561198172455974,"connected_time":2908000000000,"state":"active","ping":40},{"user_id":689,"name":"Iris","steam_id":76561198430295815,"connected_time":188000000000,"state":"active","ping":59},{"user_id":664,"name":"committed to the bit","steam_id":76561198181368101,"connected_time":2493000000000,"state":"active","ping":62},{"user_id":666,"name":"Cynosure","steam_id":76561198121286517,"connected_time":2405000000000,"state":"active","ping":41},{"user_id":674,"name":"The Twice-Gorped Morp","steam_id":76561198052636352,"connected_time":1607000000000,"state":"active","ping":45},{"user_id":691,"name":"golbat","steam_id":76561198041601161,"connected_time":24000000000,"state":"active","ping":152},{"user_id":632,"name":"Ch4bby","steam_id":76561198058792875,"connected_time":5975000000000,"state":"active","ping":54},{"user_id":647,"name":"Steen","steam_id":76561198122992510,"connected_time":3788000000000,"state":"active","ping":47}]},{"server_id":21,"name":"Uncletopia | London | 5 | All Maps","name_short":"lon-5","host":"lon-1.uk.uncletopia.com","port":27055,"enabled":true,"region":"eu","cc":"gb","latitude":51.509865,"longitude":-0.118092,"reserved":0,"last_update":"0001-01-01T00:00:00Z","name_a2s":"Uncletopia | London | 5 | All Maps","protocol":17,"map":"koth_highpass","folder":"tf","game":"Team Fortress","app_id":440,"player_count":0,"max_players":24,"Bots":0,"server_type":"Dedicated","server_os":"Linux","password":true,"vac":true,"version":"7961495","steam_id":85568392924742829,"keywords":["cp","nocrits","nodmgspread","uncletopia"],"game_id":440,"stv_port":27056,"stv_name":"Uncletopia | London | 5 | All Maps | STV","players":null},{"server_id":22,"name":"Uncletopia | London | 6 | All Maps","name_short":"lon-6","host":"lon-1.uk.uncletopia.com","port":27065,"enabled":true,"region":"eu","cc":"gb","latitude":51.509865,"longitude":-0.118092,"reserved":0,"last_update":"0001-01-01T00:00:00Z","name_a2s":"Uncletopia | London | 6 | All Maps","protocol":17,"map":"cp_dustbowl","folder":"tf","game":"Team Fortress","app_id":440,"player_count":0,"max_players":24,"Bots":0,"server_type":"Dedicated","server_os":"Linux","password":true,"vac":true,"version":"7961495","steam_id":85568392924742830,"keywords":["cp","nocrits","nodmgspread","uncletopia"],"game_id":440,"stv_port":27066,"stv_name":"Uncletopia | London | 6 | All Maps | STV","players":null},{"server_id":40,"name":"Uncletopia | London | 7 | Stopwatch","name_short":"lon-7","host":"lon-1.uk.uncletopia.com","port":27075,"enabled":true,"region":"eu","cc":"gb","latitude":51.509865,"longitude":-0.118092,"reserved":0,"last_update":"0001-01-01T00:00:00Z","name_a2s":"Uncletopia | London | 7 | Stopwatch","protocol":17,"map":"koth_highpass","folder":"tf","game":"Team Fortress","app_id":440,"player_count":0,"max_players":24,"Bots":0,"server_type":"Dedicated","server_os":"Linux","password":true,"vac":true,"version":"7961495","steam_id":85568392924964314,"keywords":["cp","nocrits","nodmgspread","uncletopia"],"game_id":440,"stv_port":27076,"stv_name":"Uncletopia | London | 7 | Stopwatch | STV","players":null},{"server_id":41,"name":"Uncletopia | London | 8 | Community","name_short":"lon-8","host":"lon-1.uk.uncletopia.com","port":27085,"enabled":true,"region":"eu","cc":"gb","latitude":51.509865,"longitude":-0.118092,"reserved":0,"last_update":"0001-01-01T00:00:00Z","name_a2s":"Uncletopia | London | 8 | Community","protocol":17,"map":"workshop/koth_trenchfoot_ab1.ugc731436616","folder":"tf","game":"Team Fortress","app_id":440,"player_count":0,"max_players":24,"Bots":0,"server_type":"Dedicated","server_os":"Linux","password":true,"vac":true,"version":"7961495","steam_id":85568392924964315,"keywords":["cp","nocrits","nodmgspread","uncletopia"],"game_id":440,"stv_port":27086,"stv_name":"Uncletopia | London | 8 | Community | STV","players":null},{"server_id":300,"name":"Uncletopia | Montréal | 1 | One Thousand Uncles","name_short":"mtl-1","host":"mtl-1.ca.uncletopia.com","port":27015,"enabled":true,"region":"us-east","cc":"ca","latitude":45.50889,"longitude":-73.56167,"reserved":0,"last_update":"0001-01-01T00:00:00Z","name_a2s":"","protocol":0,"map":"","folder":"","game":"","app_id":0,"player_count":7,"max_players":0,"Bots":0,"server_type":"","server_os":"","password":false,"vac":false,"version":"","steam_id":0,"keywords":null,"game_id":0,"stv_port":0,"stv_name":"","players":[{"user_id":630,"name":"ExoTheFlyingFish","steam_id":76561198034388243,"connected_time":117000000000,"state":"active","ping":59},{"user_id":631,"name":"Female Gamer","steam_id":76561199366482682,"connected_time":29000000000,"state":"active","ping":127},{"user_id":540,"name":"RacoonGamer","steam_id":76561198100907657,"connected_time":5840000000000,"state":"active","ping":42},{"user_id":608,"name":"Why not Zoidberg?","steam_id":76561197982207556,"connected_time":1488000000000,"state":"active","ping":75},{"user_id":512,"name":"zi zi","steam_id":76561198075325837,"connected_time":7016000000000,"state":"active","ping":71},{"user_id":514,"name":"FercoButter | F4 Enjoyer","steam_id":76561198062982729,"connected_time":6972000000000,"state":"active","ping":50},{"user_id":465,"name":"{ST} Oxythemoron","steam_id":76561198060089965,"connected_time":9648000000000,"state":"active","ping":73}]},{"server_id":301,"name":"Uncletopia | Montréal | 2 | One Thousand Uncles","name_short":"mtl-2","host":"mtl-1.ca.uncletopia.com","port":27025,"enabled":true,"region":"us-east","cc":"ca","latitude":45.50889,"longitude":-73.56167,"reserved":0,"last_update":"0001-01-01T00:00:00Z","name_a2s":"","protocol":0,"map":"","folder":"","game":"","app_id":0,"player_count":0,"max_players":0,"Bots":0,"server_type":"","server_os":"","password":false,"vac":false,"version":"","steam_id":0,"keywords":null,"game_id":0,"stv_port":0,"stv_name":"","players":null},{"server_id":302,"name":"Uncletopia | Montréal | 3 | One Thousand Uncles","name_short":"mtl-3","host":"mtl-1.ca.uncletopia.com","port":27035,"enabled":true,"region":"us-east","cc":"ca","latitude":45.50889,"longitude":-73.56167,"reserved":0,"last_update":"0001-01-01T00:00:00Z","name_a2s":"","protocol":0,"map":"","folder":"","game":"","app_id":0,"player_count":0,"max_players":0,"Bots":0,"server_type":"","server_os":"","password":false,"vac":false,"version":"","steam_id":0,"keywords":null,"game_id":0,"stv_port":0,"stv_name":"","players":null},{"server_id":13,"name":"Uncletopia | New York City | 1 | All Maps","name_short":"nyc-1","host":"nyc-1.us.uncletopia.com","port":27015,"enabled":true,"region":"us-east","cc":"us","latitude":40.73061,"longitude":-73.93524,"reserved":0,"last_update":"0001-01-01T00:00:00Z","name_a2s":"Uncletopia | New York City | 1 | All Maps","protocol":17,"map":"ctf_2fort","folder":"tf","game":"Team Fortress","app_id":440,"player_count":24,"max_players":24,"Bots":0,"server_type":"Dedicated","server_os":"Linux","password":true,"vac":true,"version":"7961495","steam_id":85568392924469993,"keywords":["ctf","nocrits","nodmgspread","uncletopia"],"game_id":440,"stv_port":27016,"stv_name":"Uncletopia | New York City | 1 | All Maps | STV","players":[{"user_id":412,"name":"club going up","steam_id":76561198141700569,"connected_time":1421000000000,"state":"active","ping":60},{"user_id":406,"name":"Nexusuxen","steam_id":76561198117547131,"connected_time":1799000000000,"state":"active","ping":77},{"user_id":353,"name":"Mr. Hankey","steam_id":76561198872852200,"connected_time":6014000000000,"state":"active","ping":140},{"user_id":407,"name":"Dam","steam_id":76561198146943059,"connected_time":1684000000000,"state":"active","ping":62},{"user_id":419,"name":"Almonicus","steam_id":76561198044401351,"connected_time":996000000000,"state":"active","ping":88},{"user_id":417,"name":"Fish Fisherman","steam_id":76561198018656022,"connected_time":1154000000000,"state":"active","ping":52},{"user_id":424,"name":"sasharudzik","steam_id":76561199126617781,"connected_time":405000000000,"state":"active","ping":80},{"user_id":425,"name":"Bluey TEW58","steam_id":76561198319565164,"connected_time":397000000000,"state":"active","ping":249},{"user_id":433,"name":"ChinSquared","steam_id":76561198046468506,"connected_time":120000000000,"state":"active","ping":95},{"user_id":422,"name":"Berb","steam_id":76561198193911899,"connected_time":426000000000,"state":"active","ping":96},{"user_id":401,"name":"ThreatLvl 9 (she/her)","steam_id":76561198079410533,"connected_time":2339000000000,"state":"active","ping":62},{"user_id":341,"name":"Joe Mama","steam_id":76561198828750440,"connected_time":7063000000000,"state":"active","ping":70},{"user_id":376,"name":"logitchy","steam_id":76561199062753505,"connected_time":4739000000000,"state":"active","ping":62},{"user_id":413,"name":"Carpet enthusiast","steam_id":76561198024040142,"connected_time":1416000000000,"state":"active","ping":102},{"user_id":426,"name":"CCTV Camera","steam_id":76561198373692962,"connected_time":379000000000,"state":"active","ping":65},{"user_id":392,"name":"Yuzu","steam_id":76561198417913035,"connected_time":2810000000000,"state":"active","ping":70},{"user_id":427,"name":"Brawns","steam_id":76561198045190199,"connected_time":345000000000,"state":"active","ping":65},{"user_id":411,"name":"h","steam_id":76561198067163223,"connected_time":1463000000000,"state":"active","ping":63},{"user_id":397,"name":"Phocae \u003c3","steam_id":76561199317584594,"connected_time":2474000000000,"state":"active","ping":57},{"user_id":428,"name":"PieSpie","steam_id":76561198054531169,"connected_time":341000000000,"state":"active","ping":93},{"user_id":429,"name":"Kingpin","steam_id":76561198348922883,"connected_time":341000000000,"state":"active","ping":79},{"user_id":402,"name":"Plunderphonic","steam_id":76561198062565784,"connected_time":2267000000000,"state":"active","ping":67},{"user_id":434,"name":"RealStanzy","steam_id":76561199060261003,"connected_time":119000000000,"state":"active","ping":57},{"user_id":363,"name":"Bubz","steam_id":76561199013499631,"connected_time":5364000000000,"state":"active","ping":82}]},{"server_id":14,"name":"Uncletopia | New York City | 2 | All Maps","name_short":"nyc-2","host":"nyc-1.us.uncletopia.com","port":27025,"enabled":true,"region":"us-east","cc":"us","latitude":40.73061,"longitude":-73.93524,"reserved":0,"last_update":"0001-01-01T00:00:00Z","name_a2s":"Uncletopia | New York City | 2 | All Maps","protocol":17,"map":"koth_highpass","folder":"tf","game":"Team Fortress","app_id":440,"player_count":23,"max_players":24,"Bots":0,"server_type":"Dedicated","server_os":"Linux","password":true,"vac":true,"version":"7961495","steam_id":85568392924469994,"keywords":["cp","nocrits","nodmgspread","uncletopia"],"game_id":440,"stv_port":27026,"stv_name":"Uncletopia | New York City | 2 | All Maps | STV","players":[{"user_id":649,"name":"gerge","steam_id":76561198092238353,"connected_time":2275000000000,"state":"active","ping":91},{"user_id":680,"name":"Vida","steam_id":76561198050038651,"connected_time":592000000000,"state":"active","ping":101},{"user_id":668,"name":"Riley The lol","steam_id":76561198196153110,"connected_time":930000000000,"state":"active","ping":84},{"user_id":685,"name":"Moofins","steam_id":76561198050291949,"connected_time":419000000000,"state":"active","ping":74},{"user_id":678,"name":"CHero","steam_id":76561198242525850,"connected_time":634000000000,"state":"active","ping":87},{"user_id":679,"name":"stew","steam_id":76561198136286178,"connected_time":633000000000,"state":"active","ping":51},{"user_id":671,"name":"CatMagic","steam_id":76561199454230243,"connected_time":871000000000,"state":"active","ping":47},{"user_id":689,"name":"ive lost my marbles","steam_id":76561198284576334,"connected_time":74000000000,"state":"active","ping":38},{"user_id":686,"name":"dr peppah chug!","steam_id":76561198068835693,"connected_time":399000000000,"state":"active","ping":90},{"user_id":635,"name":"yo","steam_id":76561198044856349,"connected_time":3543000000000,"state":"active","ping":75},{"user_id":682,"name":"Bunnyboy","steam_id":76561198298416058,"connected_time":554000000000,"state":"active","ping":71},{"user_id":673,"name":"Training Bot [Easy]","steam_id":76561199119473164,"connected_time":843000000000,"state":"active","ping":94},{"user_id":667,"name":"Knuckles","steam_id":76561198000704259,"connected_time":1379000000000,"state":"active","ping":40},{"user_id":674,"name":"Real","steam_id":76561198119315680,"connected_time":835000000000,"state":"active","ping":84},{"user_id":610,"name":"Bigsumoslammer","steam_id":76561198044505076,"connected_time":5336000000000,"state":"active","ping":43},{"user_id":570,"name":"absurdly high number of gecs","steam_id":76561198022806102,"connected_time":8554000000000,"state":"active","ping":62},{"user_id":656,"name":"SpongedSocks","steam_id":76561198374009086,"connected_time":1997000000000,"state":"active","ping":53},{"user_id":663,"name":"rugbyralph288","steam_id":76561198161475964,"connected_time":1594000000000,"state":"active","ping":90},{"user_id":602,"name":"kibble","steam_id":76561198239909096,"connected_time":5711000000000,"state":"active","ping":69},{"user_id":657,"name":"soof","steam_id":76561198043762955,"connected_time":1949000000000,"state":"active","ping":50},{"user_id":681,"name":"BALLS?!?!","steam_id":76561198449656454,"connected_time":592000000000,"state":"active","ping":48},{"user_id":675,"name":"Joe","steam_id":76561198975174452,"connected_time":804000000000,"state":"active","ping":85},{"user_id":677,"name":"dietcokefan42","steam_id":76561198135307995,"connected_time":738000000000,"state":"active","ping":59}]},{"server_id":15,"name":"Uncletopia | New York City | 3 | Stopwatch","name_short":"nyc-3","host":"nyc-1.us.uncletopia.com","port":27035,"enabled":true,"region":"us-east","cc":"us","latitude":40.73061,"longitude":-73.93524,"reserved":0,"last_update":"0001-01-01T00:00:00Z","name_a2s":"Uncletopia | New York City | 3 | Stopwatch","protocol":17,"map":"workshop/koth_bagel_rc6.ugc2514036946","folder":"tf","game":"Team Fortress","app_id":440,"player_count":24,"max_players":24,"Bots":0,"server_type":"Dedicated","server_os":"Linux","password":true,"vac":true,"version":"7961495","steam_id":85568392924742820,"keywords":["cp","nocrits","nodmgspread","uncletopia"],"game_id":440,"stv_port":27036,"stv_name":"Uncletopia | New York City | 3 | Stopwatch | STV","players":[{"user_id":210,"name":"Jim the Fish","steam_id":76561199135784419,"connected_time":555000000000,"state":"active","ping":69},{"user_id":196,"name":"Susej13","steam_id":76561198294191158,"connected_time":1159000000000,"state":"active","ping":62},{"user_id":220,"name":"Oma Fez","steam_id":76561198860099659,"connected_time":254000000000,"state":"active","ping":132},{"user_id":185,"name":"Juan Solo","steam_id":76561198018688536,"connected_time":2034000000000,"state":"active","ping":60},{"user_id":195,"name":"BurgerSweat47","steam_id":76561198055422562,"connected_time":1261000000000,"state":"active","ping":45},{"user_id":216,"name":"Angelo","steam_id":76561198319281487,"connected_time":447000000000,"state":"active","ping":128},{"user_id":112,"name":"Rated_C","steam_id":76561199226478414,"connected_time":7679000000000,"state":"active","ping":155},{"user_id":167,"name":"Some_Arse","steam_id":76561198039095394,"connected_time":3457000000000,"state":"active","ping":69},{"user_id":206,"name":"rofl","steam_id":76561198951971228,"connected_time":737000000000,"state":"active","ping":63},{"user_id":213,"name":"DarkJesterofit","steam_id":76561198438092461,"connected_time":520000000000,"state":"active","ping":139},{"user_id":201,"name":"sansa musa","steam_id":76561198163723555,"connected_time":1012000000000,"state":"active","ping":44},{"user_id":197,"name":"HailStone EQ","steam_id":76561198167566733,"connected_time":1154000000000,"state":"active","ping":85},{"user_id":198,"name":"Sparking Blade","steam_id":76561198342347989,"connected_time":1131000000000,"state":"active","ping":137},{"user_id":193,"name":"neet","steam_id":76561197968115168,"connected_time":1454000000000,"state":"active","ping":49},{"user_id":214,"name":"Asanez3","steam_id":76561198037381436,"connected_time":487000000000,"state":"active","ping":67},{"user_id":215,"name":"Scum Knight | T.I.D.K.","steam_id":76561198282444763,"connected_time":473000000000,"state":"active","ping":50},{"user_id":186,"name":"FreshlyBrewed","steam_id":76561198181099881,"connected_time":1870000000000,"state":"active","ping":101},{"user_id":202,"name":"Lanecero","steam_id":76561198169864663,"connected_time":889000000000,"state":"active","ping":77},{"user_id":217,"name":"vscramble","steam_id":76561198185980055,"connected_time":403000000000,"state":"active","ping":94},{"user_id":203,"name":"Scraggles98","steam_id":76561198354055910,"connected_time":880000000000,"state":"active","ping":83},{"user_id":218,"name":"ʕ•ᴥ•ʔ the bear","steam_id":76561197989591976,"connected_time":368000000000,"state":"active","ping":59},{"user_id":204,"name":"faraway_mind6","steam_id":76561199070976606,"connected_time":867000000000,"state":"active","ping":132},{"user_id":221,"name":"Xx_Savage_Twerks_xX","steam_id":76561198011665915,"connected_time":220000000000,"state":"active","ping":49},{"user_id":187,"name":"Caleb","steam_id":76561198002641282,"connected_time":1856000000000,"state":"active","ping":78}]},{"server_id":16,"name":"Uncletopia | New York City | 4 | Community","name_short":"nyc-4","host":"nyc-1.us.uncletopia.com","port":27045,"enabled":true,"region":"us-east","cc":"us","latitude":40.73061,"longitude":-73.93524,"reserved":0,"last_update":"0001-01-01T00:00:00Z","name_a2s":"Uncletopia | New York City | 4 | Community","protocol":17,"map":"workshop/pl_fifthcurve_rc1.ugc648227046","folder":"tf","game":"Team Fortress","app_id":440,"player_count":0,"max_players":24,"Bots":0,"server_type":"Dedicated","server_os":"Linux","password":true,"vac":true,"version":"7961495","steam_id":85568392924742821,"keywords":["nocrits","nodmgspread","payload","uncletopia"],"game_id":440,"stv_port":27046,"stv_name":"Uncletopia | New York City | 4 | Community | STV","players":null},{"server_id":142,"name":"Uncletopia | São Paulo | 1 | All Maps","name_short":"sao-1","host":"sao-1.br.uncletopia.com","port":27015,"enabled":true,"region":"sa","cc":"br","latitude":-23.533773,"longitude":-46.62529,"reserved":0,"last_update":"0001-01-01T00:00:00Z","name_a2s":"Uncletopia | São Paulo | 1 | All Maps","protocol":17,"map":"koth_viaduct","folder":"tf","game":"Team Fortress","app_id":440,"player_count":0,"max_players":24,"Bots":0,"server_type":"Dedicated","server_os":"Linux","password":true,"vac":true,"version":"7961495","steam_id":85568392924469996,"keywords":["cp","nocrits","nodmgspread","uncletopia"],"game_id":440,"stv_port":27016,"stv_name":"Uncletopia | São Paulo | 1 | All Maps | STV","players":null},{"server_id":143,"name":"Uncletopia | São Paulo | 2 | Community","name_short":"sao-2","host":"sao-2.br.uncletopia.com","port":27015,"enabled":true,"region":"sa","cc":"br","latitude":-23.533773,"longitude":-46.62529,"reserved":0,"last_update":"0001-01-01T00:00:00Z","name_a2s":"Uncletopia | São Paulo | 2 | Community","protocol":17,"map":"workshop/cp_caldera_rc3.ugc2834196889","folder":"tf","game":"Team Fortress","app_id":440,"player_count":0,"max_players":24,"Bots":0,"server_type":"Dedicated","server_os":"Linux","password":true,"vac":true,"version":"7961495","steam_id":85568392924485349,"keywords":["cp","nocrits","nodmgspread","uncletopia"],"game_id":440,"stv_port":27016,"stv_name":"Uncletopia | São Paulo | 2 | Community | STV","players":null},{"server_id":7,"name":"Uncletopia | Seattle | 1 | All Maps","name_short":"sea-1","host":"sea-1.us.uncletopia.com","port":27015,"enabled":true,"region":"us-west","cc":"us","latitude":47.608013,"longitude":-122.33517,"reserved":0,"last_update":"0001-01-01T00:00:00Z","name_a2s":"Uncletopia | Seattle | 1 | All Maps","protocol":17,"map":"cp_dustbowl","folder":"tf","game":"Team Fortress","app_id":440,"player_count":24,"max_players":24,"Bots":0,"server_type":"Dedicated","server_os":"Linux","password":true,"vac":true,"version":"7961495","steam_id":85568392924469997,"keywords":["cp","nocrits","nodmgspread","uncletopia"],"game_id":440,"stv_port":27016,"stv_name":"Uncletopia | Seattle | 1 | All Maps | STV","players":[{"user_id":658,"name":"Sweets","steam_id":76561198998446307,"connected_time":3310000000000,"state":"active","ping":71},{"user_id":647,"name":"Ayayayayayayayayayayayayahuasca","steam_id":76561199002906056,"connected_time":4548000000000,"state":"active","ping":49},{"user_id":628,"name":"Timemx63","steam_id":76561198062377543,"connected_time":5919000000000,"state":"active","ping":48},{"user_id":629,"name":"medd","steam_id":76561198078238722,"connected_time":5760000000000,"state":"active","ping":45},{"user_id":678,"name":"TROY","steam_id":76561197983852176,"connected_time":1942000000000,"state":"active","ping":75},{"user_id":672,"name":"imasheep","steam_id":76561198210322871,"connected_time":2184000000000,"state":"active","ping":90},{"user_id":681,"name":"Tsunami","steam_id":76561198097188001,"connected_time":975000000000,"state":"active","ping":46},{"user_id":667,"name":"fly","steam_id":76561199003715735,"connected_time":2472000000000,"state":"active","ping":88},{"user_id":673,"name":"blonk-182","steam_id":76561198035304483,"connected_time":2046000000000,"state":"active","ping":103},{"user_id":649,"name":"ShidFard|RayWilliamJohnsonGamin","steam_id":76561198207800784,"connected_time":3834000000000,"state":"active","ping":35},{"user_id":660,"name":"trackpad gaming | f2p","steam_id":76561198840414371,"connected_time":3224000000000,"state":"active","ping":53},{"user_id":680,"name":"Blueyou","steam_id":76561198086516692,"connected_time":997000000000,"state":"active","ping":56},{"user_id":630,"name":"Puskinti","steam_id":76561198032120688,"connected_time":5750000000000,"state":"active","ping":47},{"user_id":669,"name":"ShinomiyaSimp","steam_id":76561198998311855,"connected_time":2199000000000,"state":"active","ping":89},{"user_id":679,"name":"[TrC] Dackstrus","steam_id":76561197973518509,"connected_time":1861000000000,"state":"active","ping":59},{"user_id":640,"name":"Kawaiiestboi","steam_id":76561198182178703,"connected_time":5038000000000,"state":"active","ping":51},{"user_id":670,"name":"Streamline","steam_id":76561198031098638,"connected_time":2196000000000,"state":"active","ping":100},{"user_id":651,"name":"Shrimps","steam_id":76561198983016709,"connected_time":3828000000000,"state":"active","ping":68},{"user_id":671,"name":"Twitch.tv/Jinx_VM","steam_id":76561198280150602,"connected_time":2196000000000,"state":"active","ping":45},{"user_id":656,"name":"Haydob13","steam_id":76561198110378191,"connected_time":3454000000000,"state":"active","ping":55},{"user_id":645,"name":"chunkysquare","steam_id":76561199076468383,"connected_time":4745000000000,"state":"active","ping":66},{"user_id":599,"name":"soup","steam_id":76561198043209046,"connected_time":7150000000000,"state":"active","ping":63},{"user_id":439,"name":"Nom Skirrett","steam_id":76561198014600788,"connected_time":14336000000000,"state":"active","ping":63},{"user_id":659,"name":"Gm_Sweet","steam_id":76561199445091548,"connected_time":3287000000000,"state":"active","ping":59}]},{"server_id":119,"name":"Uncletopia | Seattle | 2 | All Maps","name_short":"sea-2","host":"sea-1.us.uncletopia.com","port":27025,"enabled":true,"region":"us-west","cc":"us","latitude":47.608013,"longitude":-122.33517,"reserved":0,"last_update":"0001-01-01T00:00:00Z","name_a2s":"Uncletopia | Seattle | 2 | All Maps","protocol":17,"map":"pl_frontier_final","folder":"tf","game":"Team Fortress","app_id":440,"player_count":0,"max_players":24,"Bots":0,"server_type":"Dedicated","server_os":"Linux","password":true,"vac":true,"version":"7961495","steam_id":85568392924469998,"keywords":["nocrits","nodmgspread","payload","uncletopia"],"game_id":440,"stv_port":27026,"stv_name":"Uncletopia | Seattle | 2 | All Maps | STV","players":null},{"server_id":406,"name":"Uncletopia | Seattle | 3 | Stopwatch","name_short":"sea-3","host":"sea-1.us.uncletopia.com","port":27035,"enabled":true,"region":"us-west","cc":"us","latitude":47.608013,"longitude":-122.33517,"reserved":0,"last_update":"0001-01-01T00:00:00Z","name_a2s":"Uncletopia | Seattle | 3 | Stopwatch","protocol":17,"map":"pl_swiftwater_final1","folder":"tf","game":"Team Fortress","app_id":440,"player_count":0,"max_players":24,"Bots":0,"server_type":"Dedicated","server_os":"Linux","password":true,"vac":true,"version":"7961495","steam_id":85568392924515217,"keywords":["nocrits","nodmgspread","payload","uncletopia"],"game_id":440,"stv_port":27036,"stv_name":"Uncletopia | Seattle | 3 | Stopwatch | STV","players":null},{"server_id":17,"name":"Uncletopia | San Francisco | 1 | All Maps","name_short":"sfo-1","host":"sfo-1.us.uncletopia.com","port":27015,"enabled":true,"region":"us-west","cc":"us","latitude":37.77397,"longitude":-122.4313,"reserved":0,"last_update":"0001-01-01T00:00:00Z","name_a2s":"Uncletopia | San Francisco | 1 | All Maps","protocol":17,"map":"cp_steel","folder":"tf","game":"Team Fortress","app_id":440,"player_count":24,"max_players":24,"Bots":0,"server_type":"Dedicated","server_os":"Linux","password":true,"vac":true,"version":"7961495","steam_id":85568392924469999,"keywords":["cp","nocrits","nodmgspread","uncletopia"],"game_id":440,"stv_port":27016,"stv_name":"Uncletopia | San Francisco | 1 | All Maps | STV","players":[{"user_id":212,"name":"pl i board","steam_id":76561198367414695,"connected_time":1225000000000,"state":"active","ping":85},{"user_id":83,"name":"Jonatello","steam_id":76561198045699189,"connected_time":8232000000000,"state":"active","ping":76},{"user_id":213,"name":"zoinks","steam_id":76561198127238003,"connected_time":1225000000000,"state":"active","ping":61},{"user_id":186,"name":"Ecliptica","steam_id":76561198171951333,"connected_time":2686000000000,"state":"active","ping":121},{"user_id":214,"name":"Chafn","steam_id":76561197969386702,"connected_time":1214000000000,"state":"active","ping":64},{"user_id":217,"name":"bird who can't aim","steam_id":76561198062360755,"connected_time":1157000000000,"state":"active","ping":93},{"user_id":172,"name":"Divinitas","steam_id":76561199079034911,"connected_time":3201000000000,"state":"active","ping":133},{"user_id":215,"name":"turn around","steam_id":76561198046526036,"connected_time":1212000000000,"state":"active","ping":55},{"user_id":196,"name":"medisun","steam_id":76561198858474714,"connected_time":2088000000000,"state":"active","ping":62},{"user_id":176,"name":"Goat","steam_id":76561198068447650,"connected_time":3150000000000,"state":"active","ping":92},{"user_id":207,"name":"top 10 sidewalks","steam_id":76561198844273999,"connected_time":1515000000000,"state":"active","ping":68},{"user_id":216,"name":"VAC/Banned","steam_id":76561199129174517,"connected_time":1171000000000,"state":"active","ping":72},{"user_id":218,"name":"APOTATO","steam_id":76561198118199858,"connected_time":1067000000000,"state":"active","ping":60},{"user_id":219,"name":"miscellaneous","steam_id":76561199436642954,"connected_time":1041000000000,"state":"active","ping":80},{"user_id":138,"name":"Dezzithediscoduck","steam_id":76561198037043489,"connected_time":5198000000000,"state":"active","ping":50},{"user_id":106,"name":"A UsedNom","steam_id":76561198402832756,"connected_time":7183000000000,"state":"active","ping":41},{"user_id":208,"name":"Cacophony","steam_id":76561198047474050,"connected_time":1430000000000,"state":"active","ping":45},{"user_id":220,"name":"Igrium","steam_id":76561198119549811,"connected_time":1041000000000,"state":"active","ping":56},{"user_id":197,"name":"Keamy","steam_id":76561199471434875,"connected_time":2077000000000,"state":"active","ping":65},{"user_id":204,"name":"Clorox Chugger 69","steam_id":76561198049508548,"connected_time":1673000000000,"state":"active","ping":70},{"user_id":224,"name":"amagicowl","steam_id":76561199060487814,"connected_time":716000000000,"state":"active","ping":75},{"user_id":179,"name":"OxOoxen841","steam_id":76561198297981993,"connected_time":3111000000000,"state":"active","ping":106},{"user_id":225,"name":"DORK","steam_id":76561198037384555,"connected_time":471000000000,"state":"active","ping":59},{"user_id":223,"name":"southern hospitality","steam_id":76561198862785401,"connected_time":1005000000000,"state":"active","ping":68}]},{"server_id":18,"name":"Uncletopia | San Francisco | 2 | All Maps","name_short":"sfo-2","host":"sfo-1.us.uncletopia.com","port":27025,"enabled":true,"region":"us-west","cc":"us","latitude":37.77397,"longitude":-122.4313,"reserved":0,"last_update":"0001-01-01T00:00:00Z","name_a2s":"Uncletopia | San Francisco | 2 | All Maps","protocol":17,"map":"koth_cascade","folder":"tf","game":"Team Fortress","app_id":440,"player_count":0,"max_players":24,"Bots":0,"server_type":"Dedicated","server_os":"Linux","password":true,"vac":true,"version":"7961495","steam_id":85568392924470000,"keywords":["cp","nocrits","nodmgspread","uncletopia"],"game_id":440,"stv_port":27026,"stv_name":"Uncletopia | San Francisco | 2 | All Maps | STV","players":null},{"server_id":19,"name":"Uncletopia | San Francisco | 3 | Stopwatch","name_short":"sfo-3","host":"sfo-1.us.uncletopia.com","port":27035,"enabled":true,"region":"us-west","cc":"us","latitude":37.77397,"longitude":-122.4313,"reserved":0,"last_update":"0001-01-01T00:00:00Z","name_a2s":"Uncletopia | San Francisco | 3 | Stopwatch","protocol":17,"map":"workshop/koth_clearcut_b15.ugc2107050255","folder":"tf","game":"Team Fortress","app_id":440,"player_count":0,"max_players":24,"Bots":0,"server_type":"Dedicated","server_os":"Linux","password":true,"vac":true,"version":"7961495","steam_id":85568392924742824,"keywords":["cp","nocrits","nodmgspread","uncletopia"],"game_id":440,"stv_port":27036,"stv_name":"Uncletopia | San Francisco | 3 | Stopwatch | STV","players":null},{"server_id":20,"name":"Uncletopia | San Francisco | 4 | Community","name_short":"sfo-4","host":"sfo-1.us.uncletopia.com","port":27045,"enabled":true,"region":"us-west","cc":"us","latitude":37.77397,"longitude":-122.4313,"reserved":0,"last_update":"0001-01-01T00:00:00Z","name_a2s":"Uncletopia | San Francisco | 4 | Community","protocol":17,"map":"workshop/koth_kemptown_rc1.ugc767410655","folder":"tf","game":"Team Fortress","app_id":440,"player_count":0,"max_players":24,"Bots":0,"server_type":"Dedicated","server_os":"Linux","password":true,"vac":true,"version":"7961495","steam_id":85568392924742826,"keywords":["cp","nocrits","nodmgspread","uncletopia"],"game_id":440,"stv_port":27046,"stv_name":"Uncletopia | San Francisco | 4 | Community | STV","players":null},{"server_id":141,"name":"Uncletopia | Sydney | 1 | All Maps","name_short":"syd-1","host":"syd-1.au.uncletopia.com","port":27015,"enabled":true,"region":"au","cc":"au","latitude":-33.865143,"longitude":151.2099,"reserved":0,"last_update":"0001-01-01T00:00:00Z","name_a2s":"Uncletopia | Sydney | 1 | All Maps","protocol":17,"map":"koth_viaduct","folder":"tf","game":"Team Fortress","app_id":440,"player_count":0,"max_players":24,"Bots":0,"server_type":"Dedicated","server_os":"Linux","password":true,"vac":true,"version":"7961495","steam_id":85568392924470001,"keywords":["cp","nocrits","nodmgspread","uncletopia"],"game_id":440,"stv_port":27016,"stv_name":"Uncletopia | Sydney | 1 | All Maps | STV","players":null},{"server_id":123,"name":"Uncletopia | Sydney | 2 | All Maps","name_short":"syd-2","host":"syd-1.au.uncletopia.com","port":27025,"enabled":true,"region":"au","cc":"au","latitude":-33.865143,"longitude":151.2099,"reserved":0,"last_update":"0001-01-01T00:00:00Z","name_a2s":"Uncletopia | Sydney | 2 | All Maps","protocol":17,"map":"koth_lakeside_final","folder":"tf","game":"Team Fortress","app_id":440,"player_count":0,"max_players":24,"Bots":0,"server_type":"Dedicated","server_os":"Linux","password":true,"vac":true,"version":"7961495","steam_id":85568392924470002,"keywords":["cp","nocrits","nodmgspread","uncletopia"],"game_id":440,"stv_port":27026,"stv_name":"Uncletopia | Sydney | 2 | All Maps | STV","players":null},{"server_id":395,"name":"Uncletopia | Sydney | 3 | All Maps","name_short":"syd-3","host":"syd-1.au.uncletopia.com","port":27035,"enabled":true,"region":"au","cc":"au","latitude":-33.865143,"longitude":151.2099,"reserved":0,"last_update":"0001-01-01T00:00:00Z","name_a2s":"Uncletopia | Sydney | 3 | All Maps","protocol":17,"map":"pl_upward","folder":"tf","game":"Team Fortress","app_id":440,"player_count":0,"max_players":24,"Bots":0,"server_type":"Dedicated","server_os":"Linux","password":true,"vac":true,"version":"7961495","steam_id":85568392925194467,"keywords":["nocrits","nodmgspread","payload","uncletopia"],"game_id":440,"stv_port":27036,"stv_name":"Uncletopia | Sydney | 3 | All Maps | STV","players":null},{"server_id":396,"name":"Uncletopia | Sydney | 4 | All Maps","name_short":"syd-4","host":"syd-1.au.uncletopia.com","port":27045,"enabled":true,"region":"au","cc":"au","latitude":-33.865143,"longitude":151.2099,"reserved":0,"last_update":"0001-01-01T00:00:00Z","name_a2s":"Uncletopia | Sydney | 4 | All Maps","protocol":17,"map":"pl_pier","folder":"tf","game":"Team Fortress","app_id":440,"player_count":0,"max_players":24,"Bots":0,"server_type":"Dedicated","server_os":"Linux","password":true,"vac":true,"version":"7961495","steam_id":85568392925397958,"keywords":["nocrits","nodmgspread","payload","uncletopia"],"game_id":440,"stv_port":27046,"stv_name":"Uncletopia | Sydney | 4 | All Maps | STV","players":null},{"server_id":58,"name":"Uncletopia | Sydney | 5 | Stopwatch","name_short":"syd-5","host":"syd-1.au.uncletopia.com","port":27055,"enabled":true,"region":"au","cc":"au","latitude":-33.865143,"longitude":151.2099,"reserved":0,"last_update":"0001-01-01T00:00:00Z","name_a2s":"Uncletopia | Sydney | 5 | Stopwatch","protocol":17,"map":"pl_frontier_final","folder":"tf","game":"Team Fortress","app_id":440,"player_count":0,"max_players":24,"Bots":0,"server_type":"Dedicated","server_os":"Linux","password":true,"vac":true,"version":"7961495","steam_id":85568392925397959,"keywords":["nocrits","nodmgspread","payload","uncletopia"],"game_id":440,"stv_port":27056,"stv_name":"Uncletopia | Sydney | 5 | Stopwatch | STV","players":null},{"server_id":59,"name":"Uncletopia | Sydney | 6 | Community","name_short":"syd-6","host":"syd-1.au.uncletopia.com","port":27065,"enabled":true,"region":"au","cc":"au","latitude":-33.865143,"longitude":151.2099,"reserved":0,"last_update":"0001-01-01T00:00:00Z","name_a2s":"Uncletopia | Sydney | 6 | Community","protocol":17,"map":"workshop/koth_product_final.ugc454272353","folder":"tf","game":"Team Fortress","app_id":440,"player_count":0,"max_players":24,"Bots":0,"server_type":"Dedicated","server_os":"Linux","password":true,"vac":true,"version":"7961495","steam_id":85568392925397960,"keywords":["cp","nocrits","nodmgspread","uncletopia"],"game_id":440,"stv_port":27066,"stv_name":"Uncletopia | Sydney | 6 | Community | STV","players":null},{"server_id":49,"name":"Uncletopia | Warsaw | 1 | One Thousand Uncles","name_short":"waw-1","host":"waw-1.pl.uncletopia.com","port":27015,"enabled":true,"region":"eu","cc":"pl","latitude":52.2297,"longitude":21.017532,"reserved":0,"last_update":"0001-01-01T00:00:00Z","name_a2s":"Uncletopia | Warsaw | 1 | One Thousand Uncles","protocol":17,"map":"pl_upward","folder":"tf","game":"Team Fortress","app_id":440,"player_count":0,"max_players":32,"Bots":0,"server_type":"Dedicated","server_os":"Linux","password":true,"vac":true,"version":"7961495","steam_id":85568392925397850,"keywords":["alltalk","danepve","increased_maxplayers","nocrits","norespawntime","payload","uncletopia"],"game_id":440,"stv_port":0,"stv_name":"","players":null},{"server_id":50,"name":"Uncletopia | Warsaw | 2 | One Thousand Uncles","name_short":"waw-2","host":"waw-1.pl.uncletopia.com","port":27025,"enabled":true,"region":"eu","cc":"pl","latitude":52.2297,"longitude":21.017532,"reserved":0,"last_update":"0001-01-01T00:00:00Z","name_a2s":"Uncletopia | Warsaw | 2 | One Thousand Uncles","protocol":17,"map":"pl_hoodoo_final","folder":"tf","game":"Team Fortress","app_id":440,"player_count":0,"max_players":32,"Bots":0,"server_type":"Dedicated","server_os":"Linux","password":true,"vac":true,"version":"7961495","steam_id":85568392925397851,"keywords":["alltalk","danepve","increased_maxplayers","nocrits","norespawntime","payload","uncletopia"],"game_id":440,"stv_port":0,"stv_name":"","players":null},{"server_id":51,"name":"Uncletopia | Warsaw | 3 | All Maps","name_short":"waw-3","host":"waw-1.pl.uncletopia.com","port":27035,"enabled":true,"region":"eu","cc":"pl","latitude":52.2297,"longitude":21.017532,"reserved":0,"last_update":"0001-01-01T00:00:00Z","name_a2s":"Uncletopia | Warsaw | 3 | All Maps","protocol":17,"map":"pl_barnblitz","folder":"tf","game":"Team Fortress","app_id":440,"player_count":0,"max_players":24,"Bots":0,"server_type":"Dedicated","server_os":"Linux","password":true,"vac":true,"version":"7961495","steam_id":85568392925397852,"keywords":["nocrits","nodmgspread","payload","uncletopia"],"game_id":440,"stv_port":27036,"stv_name":"Uncletopia | Warsaw | 3 | All Maps | STV","players":null},{"server_id":52,"name":"Uncletopia | Warsaw | 4 | All Maps","name_short":"waw-4","host":"waw-1.pl.uncletopia.com","port":27045,"enabled":true,"region":"eu","cc":"pl","latitude":52.2297,"longitude":21.017532,"reserved":0,"last_update":"0001-01-01T00:00:00Z","name_a2s":"Uncletopia | Warsaw | 4 | All Maps","protocol":17,"map":"koth_suijin","folder":"tf","game":"Team Fortress","app_id":440,"player_count":0,"max_players":24,"Bots":0,"server_type":"Dedicated","server_os":"Linux","password":true,"vac":true,"version":"7961495","steam_id":85568392925397853,"keywords":["cp","nocrits","nodmgspread","uncletopia"],"game_id":440,"stv_port":27046,"stv_name":"Uncletopia | Warsaw | 4 | All Maps | STV","players":null},{"server_id":53,"name":"Uncletopia | Warsaw | 5 | Stopwatch","name_short":"waw-5","host":"waw-1.pl.uncletopia.com","port":27055,"enabled":true,"region":"eu","cc":"pl","latitude":52.2297,"longitude":21.017532,"reserved":0,"last_update":"0001-01-01T00:00:00Z","name_a2s":"Uncletopia | Warsaw | 5 | Stopwatch","protocol":17,"map":"workshop/koth_ramjam_rc1.ugc459778887","folder":"tf","game":"Team Fortress","app_id":440,"player_count":0,"max_players":24,"Bots":0,"server_type":"Dedicated","server_os":"Linux","password":true,"vac":true,"version":"7961495","steam_id":85568392925397854,"keywords":["cp","nocrits","nodmgspread","uncletopia"],"game_id":440,"stv_port":27056,"stv_name":"Uncletopia | Warsaw | 5 | Stopwatch | STV","players":null},{"server_id":54,"name":"Uncletopia | Warsaw | 6 | Community","name_short":"waw-6","host":"waw-1.pl.uncletopia.com","port":27065,"enabled":true,"region":"eu","cc":"pl","latitude":52.2297,"longitude":21.017532,"reserved":0,"last_update":"0001-01-01T00:00:00Z","name_a2s":"Uncletopia | Warsaw | 6 | Community","protocol":17,"map":"workshop/pl_corrode_rc2.ugc546577989","folder":"tf","game":"Team Fortress","app_id":440,"player_count":0,"max_players":24,"Bots":0,"server_type":"Dedicated","server_os":"Linux","password":true,"vac":true,"version":"7961495","steam_id":85568392925397856,"keywords":["nocrits","nodmgspread","payload","uncletopia"],"game_id":440,"stv_port":27066,"stv_name":"Uncletopia | Warsaw | 6 | Community | STV","players":null}]}