{"status":true,"message":"","result":[{"server_id":9,"name":"Uncletopia | Atlanta | 1 | All Maps","name_short":"atl-1","host":"atl-1.us.uncletopia.com","port":27015,"enabled":true,"region":"us-east","cc":"us","latitude":33.753746,"longitude":-84.38633,"reserved":0,"last_update":"0001-01-01T00:00:00Z","name_a2s":"Uncletopia | Atlanta | 1 | All Maps","protocol":17,"map":"cp_dustbowl","folder":"tf","game":"Team Fortress","app_id":440,"player_count":0,"max_players":24,"Bots":0,"server_type":"Dedicated","server_os":"Linux","password":true,"vac":true,"version":"7757534","steam_id":85568392924469982,"keywords":["cp","nocrits","nodmgspread","uncletopia"],"game_id":440,"stv_port":27016,"stv_name":"Uncletopia | Atlanta | 1 | All Maps | STV","players":null},{"server_id":400,"name":"Uncletopia | Atlanta | 3 | Stopwatch Beta","name_short":"atl-3","host":"atl-1.us.uncletopia.com","port":27035,"enabled":true,"region":"us-east","cc":"us","latitude":33.753746,"longitude":-84.38633,"reserved":0,"last_update":"0001-01-01T00:00:00Z","name_a2s":"Uncletopia | Atlanta | 3 | Stopwatch Beta","protocol":17,"map":"pl_upward","folder":"tf","game":"Team Fortress","app_id":440,"player_count":0,"max_players":24,"Bots":0,"server_type":"Dedicated","server_os":"Linux","password":true,"vac":true,"version":"7757534","steam_id":85568392924515187,"keywords":["nocrits","nodmgspread","payload","uncletopia"],"game_id":440,"stv_port":27036,"stv_name":"Uncletopia | Atlanta | 3 | Stopwatch Beta | STV","players":null},{"server_id":401,"name":"Uncletopia | Atlanta | 4 | No Payload","name_short":"atl-4","host":"atl-1.us.uncletopia.com","port":27045,"enabled":true,"region":"us-east","cc":"us","latitude":33.753746,"longitude":-84.38633,"reserved":0,"last_update":"0001-01-01T00:00:00Z","name_a2s":"Uncletopia | Atlanta | 4 | No Payload","protocol":17,"map":"pl_pier","folder":"tf","game":"Team Fortress","app_id":440,"player_count":0,"max_players":24,"Bots":0,"server_type":"Dedicated","server_os":"Linux","password":true,"vac":true,"version":"7723704","steam_id":85568392924515188,"keywords":["nocrits","nodmgspread","payload","uncletopia"],"game_id":440,"stv_port":27046,"stv_name":"Uncletopia | Atlanta | 4 | No Payload | STV","players":null},{"server_id":2,"name":"Uncletopia | Chicago | 1 | All Maps","name_short":"chi-1","host":"chi-1.us.uncletopia.com","port":27015,"enabled":true,"region":"us-central","cc":"us","latitude":41.881832,"longitude":-87.62318,"reserved":0,"last_update":"0001-01-01T00:00:00Z","name_a2s":"Uncletopia | Chicago | 1 | All Maps","protocol":17,"map":"cp_snakewater_final1","folder":"tf","game":"Team Fortress","app_id":440,"player_count":9,"max_players":24,"Bots":0,"server_type":"Dedicated","server_os":"Linux","password":true,"vac":true,"version":"7757534","steam_id":85568392924469984,"keywords":["cp","nocrits","nodmgspread","uncletopia"],"game_id":440,"stv_port":27016,"stv_name":"Uncletopia | Chicago | 1 | All Maps | STV","players":[{"user_id":6,"name":"ethanfive","steam_id":76561198035294132,"connected_time":800000000000,"state":"active","ping":60},{"user_id":4,"name":"Homeless","steam_id":76561198996230924,"connected_time":1161000000000,"state":"active","ping":62},{"user_id":5,"name":"kametro4","steam_id":76561198835430429,"connected_time":1156000000000,"state":"active","ping":75},{"user_id":7,"name":"707","steam_id":76561198846610729,"connected_time":572000000000,"state":"active","ping":310},{"user_id":8,"name":"Zoro01","steam_id":76561198407989540,"connected_time":316000000000,"state":"active","ping":112},{"user_id":9,"name":"Mr. Luggy","steam_id":76561198072723392,"connected_time":249000000000,"state":"active","ping":90},{"user_id":10,"name":"Dr. Enforcicle (real)","steam_id":76561198964471859,"connected_time":114000000000,"state":"active","ping":69},{"user_id":11,"name":"Blue Necromancer","steam_id":76561198275755146,"connected_time":29000000000,"state":"active","ping":114},{"user_id":12,"name":"legendaryluc_ohio","steam_id":76561198271985277,"connected_time":4000000000,"state":"spawning","ping":119}]},{"server_id":106,"name":"Uncletopia | Chicago | 2 | All Maps","name_short":"chi-2","host":"chi-1.us.uncletopia.com","port":27025,"enabled":true,"region":"us-central","cc":"us","latitude":41.881832,"longitude":-87.62318,"reserved":0,"last_update":"0001-01-01T00:00:00Z","name_a2s":"Uncletopia | Chicago | 2 | All Maps","protocol":17,"map":"koth_lakeside_final","folder":"tf","game":"Team Fortress","app_id":440,"player_count":0,"max_players":24,"Bots":0,"server_type":"Dedicated","server_os":"Linux","password":true,"vac":true,"version":"7757534","steam_id":85568392924469985,"keywords":["cp","nocrits","nodmgspread","uncletopia"],"game_id":440,"stv_port":27026,"stv_name":"Uncletopia | Chicago | 2 | All Maps | STV","players":null},{"server_id":402,"name":"Uncletopia | Chicago | 3 | All Maps","name_short":"chi-3","host":"chi-1.us.uncletopia.com","port":27035,"enabled":true,"region":"us-central","cc":"us","latitude":41.881832,"longitude":-87.62318,"reserved":0,"last_update":"0001-01-01T00:00:00Z","name_a2s":"Uncletopia | Chicago | 3 | All Maps","protocol":17,"map":"cp_mountainlab","folder":"tf","game":"Team Fortress","app_id":440,"player_count":0,"max_players":24,"Bots":0,"server_type":"Dedicated","server_os":"Linux","password":true,"vac":true,"version":"7757534","steam_id":85568392924515191,"keywords":["cp","nocrits","nodmgspread","uncletopia"],"game_id":440,"stv_port":27036,"stv_name":"Uncletopia | Chicago | 3 | All Maps | STV","players":null},{"server_id":403,"name":"Uncletopia | Chicago | 4 | All Maps","name_short":"chi-4","host":"chi-1.us.uncletopia.com","port":27045,"enabled":true,"region":"us-central","cc":"us","latitude":41.881832,"longitude":-87.62318,"reserved":0,"last_update":"0001-01-01T00:00:00Z","name_a2s":"Uncletopia | Chicago | 4 | All Maps","protocol":17,"map":"cp_altitude","folder":"tf","game":"Team Fortress","app_id":440,"player_count":0,"max_players":24,"Bots":0,"server_type":"Dedicated","server_os":"Linux","password":true,"vac":true,"version":"7757534","steam_id":85568392924515193,"keywords":["cp","nocrits","nodmgspread","uncletopia"],"game_id":440,"stv_port":27046,"stv_name":"Uncletopia | Chicago | 4 | All Maps | STV","players":null},{"server_id":36,"name":"Uncletopia | Chicago | 5 | All Maps","name_short":"chi-5","host":"chi-2.us.uncletopia.com","port":27015,"enabled":true,"region":"us-central","cc":"us","latitude":41.881832,"longitude":-87.62318,"reserved":0,"last_update":"0001-01-01T00:00:00Z","name_a2s":"Uncletopia | Chicago | 5 | All Maps","protocol":17,"map":"koth_cascade","folder":"tf","game":"Team Fortress","app_id":440,"player_count":0,"max_players":24,"Bots":0,"server_type":"Dedicated","server_os":"Linux","password":true,"vac":true,"version":"7757534","steam_id":85568392924866362,"keywords":["cp","nocrits","nodmgspread","uncletopia"],"game_id":440,"stv_port":27016,"stv_name":"Uncletopia | Chicago | 5 | All Maps | STV","players":null},{"server_id":37,"name":"Uncletopia | Chicago | 6 | All Maps","name_short":"chi-6","host":"chi-2.us.uncletopia.com","port":27025,"enabled":true,"region":"us-central","cc":"us","latitude":41.881832,"longitude":-87.62318,"reserved":0,"last_update":"0001-01-01T00:00:00Z","name_a2s":"Uncletopia | Chicago | 6 | All Maps","protocol":17,"map":"cp_mountainlab","folder":"tf","game":"Team Fortress","app_id":440,"player_count":0,"max_players":24,"Bots":0,"server_type":"Dedicated","server_os":"Linux","password":true,"vac":true,"version":"7757534","steam_id":85568392924866363,"keywords":["cp","nocrits","nodmgspread","uncletopia"],"game_id":440,"stv_port":27026,"stv_name":"Uncletopia | Chicago | 6 | All Maps | STV","players":null},{"server_id":38,"name":"Uncletopia | Chicago | 7 | Stopwatch Beta","name_short":"chi-7","host":"chi-2.us.uncletopia.com","port":27035,"enabled":true,"region":"us-central","cc":"us","latitude":41.881832,"longitude":-87.62318,"reserved":0,"last_update":"0001-01-01T00:00:00Z","name_a2s":"Uncletopia | Chicago | 7 | Stopwatch Beta","protocol":17,"map":"cp_sunshine","folder":"tf","game":"Team Fortress","app_id":440,"player_count":0,"max_players":24,"Bots":0,"server_type":"Dedicated","server_os":"Linux","password":true,"vac":true,"version":"7757534","steam_id":85568392924866364,"keywords":["cp","nocrits","nodmgspread","uncletopia"],"game_id":440,"stv_port":27036,"stv_name":"Uncletopia | Chicago | 7 | Stopwatch Beta | STV","players":null},{"server_id":39,"name":"Uncletopia | Chicago | 8 | Community","name_short":"chi-8","host":"chi-2.us.uncletopia.com","port":27045,"enabled":true,"region":"us-central","cc":"us","latitude":41.881832,"longitude":-87.62318,"reserved":0,"last_update":"0001-01-01T00:00:00Z","name_a2s":"Uncletopia | Chicago | 8 | Community","protocol":17,"map":"pl_pier","folder":"tf","game":"Team Fortress","app_id":440,"player_count":0,"max_players":24,"Bots":0,"server_type":"Dedicated","server_os":"Linux","password":true,"vac":true,"version":"7757534","steam_id":85568392924866365,"keywords":["nocrits","nodmgspread","payload","uncletopia"],"game_id":440,"stv_port":27046,"stv_name":"Uncletopia | Chicago | 8 | Community | STV","players":null},{"server_id":8,"name":"Uncletopia | Dallas | 1 | All Maps","name_short":"dal-1","host":"dal-1.us.uncletopia.com","port":27015,"enabled":true,"region":"us-central","cc":"us","latitude":32.779167,"longitude":-96.80889,"reserved":0,"last_update":"0001-01-01T00:00:00Z","name_a2s":"Uncletopia | Dallas | 1 | All Maps","protocol":17,"map":"pl_badwater","folder":"tf","game":"Team Fortress","app_id":440,"player_count":0,"max_players":24,"Bots":0,"server_type":"Dedicated","server_os":"Linux","password":true,"vac":true,"version":"7757534","steam_id":85568392924469986,"keywords":["nocrits","nodmgspread","payload","uncletopia"],"game_id":440,"stv_port":27016,"stv_name":"Uncletopia | Dallas | 1 | All Maps | STV","players":null},{"server_id":108,"name":"Uncletopia | Dallas | 2 | All Maps","name_short":"dal-2","host":"dal-1.us.uncletopia.com","port":27025,"enabled":true,"region":"us-central","cc":"us","latitude":32.779167,"longitude":-96.80889,"reserved":0,"last_update":"0001-01-01T00:00:00Z","name_a2s":"Uncletopia | Dallas | 2 | All Maps","protocol":17,"map":"koth_highpass","folder":"tf","game":"Team Fortress","app_id":440,"player_count":0,"max_players":24,"Bots":0,"server_type":"Dedicated","server_os":"Linux","password":true,"vac":true,"version":"7757534","steam_id":85568392924469988,"keywords":["cp","nocrits","nodmgspread","uncletopia"],"game_id":440,"stv_port":27026,"stv_name":"Uncletopia | Dallas | 2 | All Maps | STV","players":null},{"server_id":5,"name":"Uncletopia | Frankfurt | 1 | All Maps","name_short":"frk-1","host":"frk-1.de.uncletopia.com","port":27015,"enabled":true,"region":"eu","cc":"de","latitude":50.110924,"longitude":8.682127,"reserved":0,"last_update":"0001-01-01T00:00:00Z","name_a2s":"Uncletopia | Frankfurt | 1 | All Maps","protocol":17,"map":"cp_steel","folder":"tf","game":"Team Fortress","app_id":440,"player_count":24,"max_players":24,"Bots":0,"server_type":"Dedicated","server_os":"Linux","password":true,"vac":true,"version":"7757534","steam_id":85568392924469989,"keywords":["cp","nocrits","nodmgspread","uncletopia"],"game_id":440,"stv_port":27016,"stv_name":"Uncletopia | Frankfurt | 1 | All Maps | STV","players":[{"user_id":145,"name":"Hann√º","steam_id":76561197969886128,"connected_time":119000000000,"state":"active","ping":67},{"user_id":147,"name":"walluu","steam_id":76561198121830870,"connected_time":46000000000,"state":"active","ping":71},{"user_id":146,"name":"KeanuCheems","steam_id":76561198145580689,"connected_time":104000000000,"state":"active","ping":72},{"user_id":134,"name":"Silent Person","steam_id":76561198107763537,"connected_time":299000000000,"state":"active","ping":95},{"user_id":72,"name":"theo von","steam_id":76561198125381319,"connected_time":4184000000000,"state":"active","ping":76},{"user_id":136,"name":"KajaStorm","steam_id":76561199215842872,"connected_time":280000000000,"state":"active","ping":127},{"user_id":141,"name":"The Major Squadron","steam_id":76561198144692735,"connected_time":204000000000,"state":"active","ping":72},{"user_id":120,"name":"Dos","steam_id":76561198410598772,"connected_time":843000000000,"state":"active","ping":45},{"user_id":45,"name":"makin' piss","steam_id":76561198052136478,"connected_time":6193000000000,"state":"active","ping":60},{"user_id":127,"name":"sexo","steam_id":76561199088284199,"connected_time":455000000000,"state":"active","ping":71},{"user_id":144,"name":"Choruptian","steam_id":76561198017686366,"connected_time":159000000000,"state":"active","ping":48},{"user_id":115,"name":"Hooggers","steam_id":76561198120447741,"connected_time":1039000000000,"state":"active","ping":99},{"user_id":138,"name":"„É†GeRmAn |√óUA√ó„É†","steam_id":76561199044754898,"connected_time":257000000000,"state":"active","ping":67},{"user_id":80,"name":"sergey476a","steam_id":76561199468609800,"connected_time":3279000000000,"state":"active","ping":73},{"user_id":111,"name":"bleak autumn night","steam_id":76561198142183478,"connected_time":1290000000000,"state":"active","ping":86},{"user_id":139,"name":"Laura ‚ù§","steam_id":76561198975652501,"connected_time":230000000000,"state":"active","ping":90},{"user_id":123,"name":"Dachowiec","steam_id":76561198195408281,"connected_time":668000000000,"state":"active","ping":54},{"user_id":129,"name":"Dzan50","steam_id":76561198059758591,"connected_time":405000000000,"state":"active","ping":98},{"user_id":112,"name":"tqla","steam_id":76561198073092585,"connected_time":1192000000000,"state":"active","ping":106},{"user_id":78,"name":"1couver","steam_id":76561198168553215,"connected_time":3316000000000,"state":"active","ping":90},{"user_id":117,"name":"2004 Kanye","steam_id":76561198189000841,"connected_time":1011000000000,"state":"active","ping":89},{"user_id":132,"name":"–≥–ª—É–ø–µ—Ü","steam_id":76561199003520305,"connected_time":375000000000,"state":"active","ping":130},{"user_id":140,"name":"MRLOLENO","steam_id":76561198450911838,"connected_time":226000000000,"state":"active","ping":64},{"user_id":143,"name":"LOBZIK","steam_id":76561198114830120,"connected_time":184000000000,"state":"active","ping":76}]},{"server_id":110,"name":"Uncletopia | Frankfurt | 2 | All Maps","name_short":"frk-2","host":"frk-1.de.uncletopia.com","port":27025,"enabled":true,"region":"eu","cc":"de","latitude":50.110924,"longitude":8.682127,"reserved":0,"last_update":"0001-01-01T00:00:00Z","name_a2s":"Uncletopia | Frankfurt | 2 | All Maps","protocol":17,"map":"pl_barnblitz","folder":"tf","game":"Team Fortress","app_id":440,"player_count":14,"max_players":24,"Bots":0,"server_type":"Dedicated","server_os":"Linux","password":true,"vac":true,"version":"7757534","steam_id":85568392924469990,"keywords":["nocrits","nodmgspread","payload","uncletopia"],"game_id":440,"stv_port":27026,"stv_name":"Uncletopia | Frankfurt | 2 | All Maps | STV","players":[{"user_id":21,"name":"men snus","steam_id":76561198311864757,"connected_time":193000000000,"state":"active","ping":59},{"user_id":19,"name":"tealoverr.190","steam_id":76561199028497703,"connected_time":455000000000,"state":"active","ping":100},{"user_id":22,"name":"TJ1212","steam_id":76561199013575313,"connected_time":141000000000,"state":"active","ping":70},{"user_id":11,"name":"Blyatwork","steam_id":76561198825379598,"connected_time":803000000000,"state":"active","ping":40},{"user_id":28,"name":"the real lancer from deltarune","steam_id":76561199078505144,"connected_time":38000000000,"state":"active","ping":80},{"user_id":13,"name":"Innocent Bystander","steam_id":76561198259885007,"connected_time":774000000000,"state":"active","ping":47},{"user_id":24,"name":"MaKo","steam_id":76561199013535305,"connected_time":92000000000,"state":"active","ping":67},{"user_id":15,"name":"Minigrim0","steam_id":76561198087819466,"connected_time":684000000000,"state":"active","ping":81},{"user_id":16,"name":"My pee is red","steam_id":76561198219126032,"connected_time":670000000000,"state":"active","ping":76},{"user_id":25,"name":"adriel672006","steam_id":76561199173411927,"connected_time":87000000000,"state":"active","ping":87},{"user_id":26,"name":"Sonder","steam_id":76561198115893794,"connected_time":78000000000,"state":"active","ping":70},{"user_id":27,"name":"Your dad","steam_id":76561199046215821,"connected_time":62000000000,"state":"active","ping":64},{"user_id":29,"name":"DrilleR_","steam_id":76561198284636705,"connected_time":24000000000,"state":"active","ping":86},{"user_id":30,"name":"remove trains","steam_id":76561199433578516,"connected_time":4000000000,"state":"spawning","ping":82}]},{"server_id":308,"name":"Uncletopia | Frankfurt | 3 | All Maps","name_short":"frk-3","host":"frk-1.de.uncletopia.com","port":27035,"enabled":true,"region":"eu","cc":"de","latitude":50.110924,"longitude":8.682127,"reserved":0,"last_update":"0001-01-01T00:00:00Z","name_a2s":"Uncletopia | Frankfurt | 3 | All Maps","protocol":17,"map":"pl_frontier_final","folder":"tf","game":"Team Fortress","app_id":440,"player_count":24,"max_players":24,"Bots":0,"server_type":"Dedicated","server_os":"Linux","password":true,"vac":true,"version":"7757534","steam_id":85568392924504274,"keywords":["nocrits","nodmgspread","payload","uncletopia"],"game_id":440,"stv_port":27036,"stv_name":"Uncletopia | Frankfurt | 3 | All Maps | STV","players":[{"user_id":195,"name":"PrivatePengu","steam_id":76561198100112667,"connected_time":2279000000000,"state":"active","ping":46},{"user_id":165,"name":"john fortress","steam_id":76561198013237629,"connected_time":5090000000000,"state":"active","ping":95},{"user_id":131,"name":"dotdotdot","steam_id":76561198057628751,"connected_time":7290000000000,"state":"active","ping":60},{"user_id":196,"name":"Loading","steam_id":76561198201981190,"connected_time":2276000000000,"state":"active","ping":77},{"user_id":239,"name":"I LOVE THE HIGH GROUND","steam_id":76561198989449047,"connected_time":171000000000,"state":"active","ping":224},{"user_id":217,"name":"ProFessional","steam_id":76561198308928698,"connected_time":970000000000,"state":"active","ping":156},{"user_id":222,"name":"Platform666","steam_id":76561198314266851,"connected_time":920000000000,"state":"active","ping":97},{"user_id":237,"name":"Alerxy","steam_id":76561198930670117,"connected_time":289000000000,"state":"active","ping":46},{"user_id":234,"name":"soil.dirt.earth","steam_id":76561198014377623,"connected_time":397000000000,"state":"active","ping":65},{"user_id":180,"name":"toust","steam_id":76561199103417422,"connected_time":3372000000000,"state":"active","ping":48},{"user_id":231,"name":"PAN","steam_id":76561198118671779,"connected_time":527000000000,"state":"active","ping":69},{"user_id":194,"name":"Kodutah","steam_id":76561198203405574,"connected_time":2603000000000,"state":"active","ping":60},{"user_id":207,"name":"zaspanaa","steam_id":76561198294172474,"connected_time":1932000000000,"state":"active","ping":54},{"user_id":221,"name":"Talent","steam_id":76561198153880354,"connected_time":930000000000,"state":"active","ping":54},{"user_id":236,"name":"luma","steam_id":76561198081649669,"connected_time":292000000000,"state":"active","ping":70},{"user_id":215,"name":"Leituga","steam_id":76561198051127598,"connected_time":1076000000000,"state":"active","ping":93},{"user_id":210,"name":"Tomatron","steam_id":76561197981248976,"connected_time":1796000000000,"state":"active","ping":83},{"user_id":216,"name":"szebniok ‚òÉ‚ùÑüéÑ","steam_id":76561198031435395,"connected_time":1000000000000,"state":"active","ping":64},{"user_id":232,"name":"Saint","steam_id":76561198303326214,"connected_time":489000000000,"state":"active","ping":81},{"user_id":225,"name":"kallerannar","steam_id":76561199095701143,"connected_time":910000000000,"state":"active","ping":94},{"user_id":238,"name":"71KCAJ","steam_id":76561198369480480,"connected_time":223000000000,"state":"active","ping":69},{"user_id":229,"name":"Overhaul","steam_id":76561198878610347,"connected_time":730000000000,"state":"active","ping":102},{"user_id":212,"name":"Cypher","steam_id":76561197996967254,"connected_time":1529000000000,"state":"active","ping":61},{"user_id":230,"name":"Slimeby","steam_id":76561198353438688,"connected_time":730000000000,"state":"active","ping":87}]},{"server_id":309,"name":"Uncletopia | Frankfurt | 4 | All Maps","name_short":"frk-4","host":"frk-1.de.uncletopia.com","port":27045,"enabled":true,"region":"eu","cc":"de","latitude":50.110924,"longitude":8.682127,"reserved":0,"last_update":"0001-01-01T00:00:00Z","name_a2s":"Uncletopia | Frankfurt | 4 | All Maps","protocol":17,"map":"pl_pier","folder":"tf","game":"Team Fortress","app_id":440,"player_count":24,"max_players":24,"Bots":0,"server_type":"Dedicated","server_os":"Linux","password":true,"vac":true,"version":"7757534","steam_id":85568392924504275,"keywords":["nocrits","nodmgspread","payload","uncletopia"],"game_id":440,"stv_port":27046,"stv_name":"Uncletopia | Frankfurt | 4 | All Maps | STV","players":[{"user_id":8,"name":"Mozzaza","steam_id":76561198156316111,"connected_time":4080000000000,"state":"active","ping":138},{"user_id":56,"name":"Katy Perry #1 fan","steam_id":76561198157406151,"connected_time":937000000000,"state":"active","ping":70},{"user_id":55,"name":"Yellow Sarong","steam_id":76561198114056695,"connected_time":1118000000000,"state":"active","ping":76},{"user_id":19,"name":"ZeeZer0","steam_id":76561198043828441,"connected_time":3325000000000,"state":"active","ping":41},{"user_id":51,"name":"The 4th Doctor","steam_id":76561198191516706,"connected_time":1569000000000,"state":"active","ping":63},{"user_id":42,"name":"big noob","steam_id":76561198281332748,"connected_time":2307000000000,"state":"active","ping":66},{"user_id":59,"name":"KingofCubes","steam_id":76561198258037513,"connected_time":537000000000,"state":"active","ping":69},{"user_id":53,"name":"Azurh","steam_id":76561199330143102,"connected_time":1269000000000,"state":"active","ping":63},{"user_id":64,"name":"kotamine","steam_id":76561198068907991,"connected_time":347000000000,"state":"active","ping":65},{"user_id":66,"name":"ass pounder","steam_id":76561198057768802,"connected_time":309000000000,"state":"active","ping":189},{"user_id":58,"name":"Akira Yamaoka Fan","steam_id":76561198146194820,"connected_time":559000000000,"state":"active","ping":58},{"user_id":37,"name":"Xie Xil Ling","steam_id":76561198053394831,"connected_time":2620000000000,"state":"active","ping":69},{"user_id":24,"name":"richardhpg","steam_id":76561199027087074,"connected_time":3112000000000,"state":"active","ping":66},{"user_id":61,"name":"DomeTheFox","steam_id":76561198372778565,"connected_time":513000000000,"state":"active","ping":69},{"user_id":26,"name":"CosminSL","steam_id":76561198055827684,"connected_time":3088000000000,"state":"active","ping":76},{"user_id":27,"name":"GuSkand","steam_id":76561198043775605,"connected_time":3081000000000,"state":"active","ping":78},{"user_id":57,"name":"·Ω≠","steam_id":76561199112749466,"connected_time":833000000000,"state":"active","ping":75},{"user_id":29,"name":"BŒ£NZOIC","steam_id":76561198875665995,"connected_time":3079000000000,"state":"active","ping":85},{"user_id":67,"name":"uma","steam_id":76561198147976939,"connected_time":92000000000,"state":"active","ping":83},{"user_id":31,"name":"JunketsGM","steam_id":76561199122728626,"connected_time":2997000000000,"state":"active","ping":75},{"user_id":41,"name":"andria","steam_id":76561198930247131,"connected_time":2440000000000,"state":"active","ping":120},{"user_id":33,"name":"happy.new.year.2023","steam_id":76561198236773400,"connected_time":2956000000000,"state":"active","ping":119},{"user_id":34,"name":"papaja","steam_id":76561199216208960,"connected_time":2941000000000,"state":"active","ping":79},{"user_id":62,"name":"Mor'du","steam_id":76561198274105878,"connected_time":501000000000,"state":"active","ping":78}]},{"server_id":310,"name":"Uncletopia | Frankfurt | 5 | All Maps","name_short":"frk-5","host":"frk-1.de.uncletopia.com","port":27055,"enabled":true,"region":"eu","cc":"de","latitude":50.110924,"longitude":8.682127,"reserved":0,"last_update":"0001-01-01T00:00:00Z","name_a2s":"Uncletopia | Frankfurt | 5 | All Maps","protocol":17,"map":"pl_borneo","folder":"tf","game":"Team Fortress","app_id":440,"player_count":0,"max_players":24,"Bots":0,"server_type":"Dedicated","server_os":"Linux","password":true,"vac":true,"version":"7757534","steam_id":85568392924504277,"keywords":["nocrits","nodmgspread","payload","uncletopia"],"game_id":440,"stv_port":27056,"stv_name":"Uncletopia | Frankfurt | 5 | All Maps | STV","players":null},{"server_id":311,"name":"Uncletopia | Frankfurt | 6 | All Maps","name_short":"frk-6","host":"frk-1.de.uncletopia.com","port":27065,"enabled":true,"region":"eu","cc":"de","latitude":50.110924,"longitude":8.682127,"reserved":0,"last_update":"0001-01-01T00:00:00Z","name_a2s":"Uncletopia | Frankfurt | 6 | All Maps","protocol":17,"map":"koth_highpass","folder":"tf","game":"Team Fortress","app_id":440,"player_count":0,"max_players":24,"Bots":0,"server_type":"Dedicated","server_os":"Linux","password":true,"vac":true,"version":"7757534","steam_id":85568392924504278,"keywords":["cp","nocrits","nodmgspread","uncletopia"],"game_id":440,"stv_port":27066,"stv_name":"Uncletopia | Frankfurt | 6 | All Maps | STV","players":null},{"server_id":23,"name":"Uncletopia | Frankfurt | 7 | Stopwatch Beta","name_short":"frk-7","host":"frk-1.de.uncletopia.com","port":27075,"enabled":true,"region":"eu","cc":"de","latitude":50.110924,"longitude":8.682127,"reserved":0,"last_update":"0001-01-01T00:00:00Z","name_a2s":"Uncletopia | Frankfurt | 7 | Stopwatch Beta","protocol":17,"map":"workshop/koth_ramjam_rc1.ugc459778887","folder":"tf","game":"Team Fortress","app_id":440,"player_count":0,"max_players":24,"Bots":0,"server_type":"Dedicated","server_os":"Linux","password":true,"vac":true,"version":"7757534","steam_id":85568392924742827,"keywords":["cp","nocrits","nodmgspread","uncletopia"],"game_id":440,"stv_port":27076,"stv_name":"Uncletopia | Frankfurt | 7 | Stopwatch Beta | STV","players":null},{"server_id":24,"name":"Uncletopia | Frankfurt | 8 | Community","name_short":"frk-8","host":"frk-1.de.uncletopia.com","port":27085,"enabled":true,"region":"eu","cc":"de","latitude":50.110924,"longitude":8.682127,"reserved":0,"last_update":"0001-01-01T00:00:00Z","name_a2s":"Uncletopia | Frankfurt | 8 | Community","protocol":17,"map":"workshop/cp_reckoner_rc6.ugc674719999","folder":"tf","game":"Team Fortress","app_id":440,"player_count":24,"max_players":24,"Bots":0,"server_type":"Dedicated","server_os":"Linux","password":true,"vac":true,"version":"7757534","steam_id":85568392924742828,"keywords":["cp","nocrits","nodmgspread","uncletopia"],"game_id":440,"stv_port":27086,"stv_name":"Uncletopia | Frankfurt | 8 | Community | STV","players":[{"user_id":3,"name":"Tazerann","steam_id":76561198043743881,"connected_time":10097000000000,"state":"active","ping":56},{"user_id":121,"name":"this is a cat","steam_id":76561199407659065,"connected_time":1814000000000,"state":"active","ping":122},{"user_id":103,"name":"Maximus","steam_id":76561198032472655,"connected_time":3245000000000,"state":"active","ping":60},{"user_id":141,"name":"joachym","steam_id":76561198428579761,"connected_time":199000000000,"state":"active","ping":66},{"user_id":139,"name":"mesoni","steam_id":76561199141290973,"connected_time":288000000000,"state":"active","ping":94},{"user_id":142,"name":"Owlet","steam_id":76561198065613974,"connected_time":198000000000,"state":"active","ping":74},{"user_id":146,"name":"Chris","steam_id":76561198018626828,"connected_time":56000000000,"state":"active","ping":66},{"user_id":124,"name":"Heisenberg","steam_id":76561198842650212,"connected_time":1780000000000,"state":"active","ping":61},{"user_id":140,"name":"Dispenser (Lopata)","steam_id":76561198820264239,"connected_time":253000000000,"state":"active","ping":90},{"user_id":80,"name":"mrgthemedic935","steam_id":76561199160156787,"connected_time":4200000000000,"state":"active","ping":74},{"user_id":93,"name":"Reomk","steam_id":76561198309314129,"connected_time":3698000000000,"state":"active","ping":67},{"user_id":143,"name":"‡∂ûbominasus 2137  #SaveTF2","steam_id":76561198030062981,"connected_time":190000000000,"state":"active","ping":63},{"user_id":114,"name":"Frager","steam_id":76561198016575620,"connected_time":2130000000000,"state":"active","ping":86},{"user_id":138,"name":"Bill_nye","steam_id":76561199216249214,"connected_time":417000000000,"state":"active","ping":144},{"user_id":144,"name":"european retard","steam_id":76561199042470246,"connected_time":155000000000,"state":"active","ping":46},{"user_id":101,"name":"hud_saytext_time 0","steam_id":76561198010327228,"connected_time":3417000000000,"state":"active","ping":60},{"user_id":128,"name":"FJADL","steam_id":76561198237008214,"connected_time":1221000000000,"state":"active","ping":57},{"user_id":55,"name":"frey`","steam_id":76561197971548290,"connected_time":5434000000000,"state":"active","ping":73},{"user_id":135,"name":"I wanna be a lassie","steam_id":76561198131924713,"connected_time":457000000000,"state":"active","ping":58},{"user_id":136,"name":"koziol","steam_id":76561198014716232,"connected_time":442000000000,"state":"active","ping":61},{"user_id":105,"name":"Fish 'n' Chips","steam_id":76561198033476886,"connected_time":2843000000000,"state":"active","ping":46},{"user_id":111,"name":"‚ô†R4nge_R‚ô†","steam_id":76561198040655921,"connected_time":2373000000000,"state":"active","ping":150},{"user_id":137,"name":"Fit Crow mark","steam_id":76561198309246388,"connected_time":433000000000,"state":"active","ping":45},{"user_id":145,"name":"Kai","steam_id":76561198097986175,"connected_time":154000000000,"state":"active","ping":78}]},{"server_id":202,"name":"Uncletopia | Hong Kong | 1 | All Maps","name_short":"hgk-1","host":"hgk-1.hk.uncletopia.com","port":27015,"enabled":true,"region":"asia","cc":"hk","latitude":22.302711,"longitude":114.177216,"reserved":0,"last_update":"0001-01-01T00:00:00Z","name_a2s":"Uncletopia | Hong Kong | 1 | All Maps","protocol":17,"map":"pl_barnblitz","folder":"tf","game":"Team Fortress","app_id":440,"player_count":25,"max_players":24,"Bots":0,"server_type":"Dedicated","server_os":"Linux","password":true,"vac":true,"version":"7757534","steam_id":85568392924494504,"keywords":["nocrits","nodmgspread","payload","uncletopia"],"game_id":440,"stv_port":27016,"stv_name":"Uncletopia | Hong Kong | 1 | All Maps | STV","players":[{"user_id":428,"name":"screaming sniper","steam_id":76561199085568674,"connected_time":7202000000000,"state":"active","ping":69},{"user_id":504,"name":"shiko-","steam_id":76561198026340247,"connected_time":4072000000000,"state":"active","ping":75},{"user_id":549,"name":"MongGoyo63","steam_id":76561198349540834,"connected_time":564000000000,"state":"active","ping":70},{"user_id":446,"name":"Sedna","steam_id":76561198120797504,"connected_time":6542000000000,"state":"active","ping":84},{"user_id":541,"name":"Guns","steam_id":76561198109372394,"connected_time":1126000000000,"state":"active","ping":67},{"user_id":522,"name":"Boo","steam_id":76561198200955590,"connected_time":3011000000000,"state":"active","ping":86},{"user_id":532,"name":"timmy.1366","steam_id":76561199065433547,"connected_time":1664000000000,"state":"active","ping":72},{"user_id":507,"name":"Cipher(#savetf2)","steam_id":76561198796591492,"connected_time":3897000000000,"state":"active","ping":101},{"user_id":512,"name":"Akash","steam_id":76561198066517317,"connected_time":3869000000000,"state":"active","ping":123},{"user_id":463,"name":"Leroy","steam_id":76561199137927625,"connected_time":5780000000000,"state":"active","ping":100},{"user_id":516,"name":"Old Friend","steam_id":76561198203073201,"connected_time":3595000000000,"state":"active","ping":68},{"user_id":551,"name":"force","steam_id":76561199109339247,"connected_time":190000000000,"state":"active","ping":72},{"user_id":550,"name":"√¶vidd","steam_id":76561198447451285,"connected_time":413000000000,"state":"active","ping":196},{"user_id":531,"name":"Vortex Morez","steam_id":76561198833527091,"connected_time":1665000000000,"state":"active","ping":98},{"user_id":534,"name":"Buttman","steam_id":76561198044693388,"connected_time":1657000000000,"state":"active","ping":46},{"user_id":546,"name":"amd","steam_id":76561199047755765,"connected_time":886000000000,"state":"active","ping":101},{"user_id":525,"name":"the butchers club","steam_id":76561198318126190,"connected_time":2265000000000,"state":"active","ping":91},{"user_id":547,"name":"moguizhong","steam_id":76561198152588681,"connected_time":582000000000,"state":"active","ping":78},{"user_id":552,"name":"RinRin the pansexual witch","steam_id":76561199024333803,"connected_time":6000000000,"state":"spawning","ping":212},{"user_id":524,"name":"rtgod","steam_id":76561198125363469,"connected_time":2750000000000,"state":"active","ping":79},{"user_id":535,"name":"AmaiToxic","steam_id":76561199122491157,"connected_time":1656000000000,"state":"active","ping":176},{"user_id":538,"name":"Âæ°Èáú„ÅåÂÆ∂„Å´‰∏≠„Å´„ÅÑ„Çã","steam_id":76561198306574432,"connected_time":1395000000000,"state":"active","ping":107},{"user_id":519,"name":"TomCat","steam_id":76561198133744053,"connected_time":3064000000000,"state":"active","ping":114},{"user_id":536,"name":"Crankle","steam_id":76561198151732957,"connected_time":1655000000000,"state":"active","ping":88},{"user_id":529,"name":"JayJ","steam_id":76561198324008555,"connected_time":1678000000000,"state":"active","ping":48}]},{"server_id":1,"name":"Uncletopia | Los Angeles | 1 | All Maps","name_short":"lax-1","host":"lax-1.us.uncletopia.com","port":27015,"enabled":true,"region":"us-west","cc":"us","latitude":33.94279,"longitude":-118.41004,"reserved":0,"last_update":"0001-01-01T00:00:00Z","name_a2s":"Uncletopia | Los Angeles | 1 | All Maps","protocol":17,"map":"koth_cascade","folder":"tf","game":"Team Fortress","app_id":440,"player_count":0,"max_players":24,"Bots":0,"server_type":"Dedicated","server_os":"Linux","password":true,"vac":true,"version":"7757534","steam_id":85568392924469991,"keywords":["cp","nocrits","nodmgspread","uncletopia"],"game_id":440,"stv_port":27016,"stv_name":"Uncletopia | Los Angeles | 1 | All Maps | STV","players":null},{"server_id":112,"name":"Uncletopia | Los Angeles | 2 | All Maps","name_short":"lax-2","host":"lax-1.us.uncletopia.com","port":27025,"enabled":true,"region":"us-west","cc":"us","latitude":33.94279,"longitude":-118.41004,"reserved":0,"last_update":"0001-01-01T00:00:00Z","name_a2s":"Uncletopia | Los Angeles | 2 | All Maps","protocol":17,"map":"koth_highpass","folder":"tf","game":"Team Fortress","app_id":440,"player_count":0,"max_players":24,"Bots":0,"server_type":"Dedicated","server_os":"Linux","password":true,"vac":true,"version":"7757534","steam_id":85568392924469992,"keywords":["cp","nocrits","nodmgspread","uncletopia"],"game_id":440,"stv_port":27026,"stv_name":"Uncletopia | Los Angeles | 2 | All Maps | STV","players":null},{"server_id":324,"name":"Uncletopia | Los Angeles | 3 | All Maps","name_short":"lax-3","host":"lax-1.us.uncletopia.com","port":27035,"enabled":true,"region":"us-west","cc":"us","latitude":33.94279,"longitude":-118.41004,"reserved":0,"last_update":"0001-01-01T00:00:00Z","name_a2s":"Uncletopia | Los Angeles | 3 | All Maps","protocol":17,"map":"cp_sunshine","folder":"tf","game":"Team Fortress","app_id":440,"player_count":0,"max_players":24,"Bots":0,"server_type":"Dedicated","server_os":"Linux","password":true,"vac":true,"version":"7757534","steam_id":85568392924510198,"keywords":["cp","nocrits","nodmgspread","uncletopia"],"game_id":440,"stv_port":27036,"stv_name":"Uncletopia | Los Angeles | 3 | All Maps | STV","players":null},{"server_id":25,"name":"Uncletopia | Los Angeles | 4 | Stopwatch Beta","name_short":"lax-4","host":"lax-1.us.uncletopia.com","port":27045,"enabled":true,"region":"us-west","cc":"us","latitude":33.94279,"longitude":-118.41004,"reserved":0,"last_update":"0001-01-01T00:00:00Z","name_a2s":"Uncletopia | Los Angeles | 4 | Stopwatch Beta","protocol":17,"map":"workshop/pl_barnblitz_pro7.ugc582280235","folder":"tf","game":"Team Fortress","app_id":440,"player_count":0,"max_players":24,"Bots":0,"server_type":"Dedicated","server_os":"Linux","password":true,"vac":true,"version":"7757534","steam_id":85568392924510199,"keywords":["nocrits","nodmgspread","payload","uncletopia"],"game_id":440,"stv_port":27046,"stv_name":"Uncletopia | Los Angeles | 4 | Stopwatch Beta | STV","players":null},{"server_id":11,"name":"Uncletopia | London | 1 | All Maps","name_short":"lon-1","host":"lon-1.uk.uncletopia.com","port":27015,"enabled":true,"region":"eu","cc":"gb","latitude":51.509865,"longitude":-0.118092,"reserved":0,"last_update":"0001-01-01T00:00:00Z","name_a2s":"Uncletopia | London | 1 | All Maps","protocol":17,"map":"ctf_2fort","folder":"tf","game":"Team Fortress","app_id":440,"player_count":22,"max_players":24,"Bots":0,"server_type":"Dedicated","server_os":"Linux","password":true,"vac":true,"version":"7757534","steam_id":85568392924367362,"keywords":["ctf","nocrits","nodmgspread","uncletopia"],"game_id":440,"stv_port":27016,"stv_name":"Uncletopia | London | 1 | All Maps | STV","players":[{"user_id":13,"name":"JOHN GAMING (based)","steam_id":76561199085822219,"connected_time":3934000000000,"state":"active","ping":89},{"user_id":14,"name":"Fbafroguy","steam_id":76561199113010473,"connected_time":3628000000000,"state":"active","ping":55},{"user_id":30,"name":"Videogamer","steam_id":76561198106012909,"connected_time":2429000000000,"state":"active","ping":75},{"user_id":66,"name":"Lessoz","steam_id":76561199211572036,"connected_time":1272000000000,"state":"active","ping":93},{"user_id":69,"name":"Fargo","steam_id":76561197977513303,"connected_time":1162000000000,"state":"active","ping":51},{"user_id":77,"name":"Mefuu","steam_id":76561198287729818,"connected_time":786000000000,"state":"active","ping":99},{"user_id":88,"name":"Echo of Abyss","steam_id":76561198981841782,"connected_time":161000000000,"state":"active","ping":87},{"user_id":86,"name":"silicon based life form","steam_id":76561199127121346,"connected_time":333000000000,"state":"active","ping":54},{"user_id":87,"name":"Jacquouille la Fripouille","steam_id":76561199269042680,"connected_time":325000000000,"state":"active","ping":57},{"user_id":72,"name":"Bob_Tostas","steam_id":76561198249006560,"connected_time":1006000000000,"state":"active","ping":85},{"user_id":78,"name":"padillacampos","steam_id":76561198161923970,"connected_time":780000000000,"state":"active","ping":73},{"user_id":27,"name":"gGABEsz","steam_id":76561198117199068,"connected_time":2630000000000,"state":"active","ping":68},{"user_id":85,"name":"Spieller","steam_id":76561198057197847,"connected_time":545000000000,"state":"active","ping":80},{"user_id":83,"name":"Edgey","steam_id":76561198271461309,"connected_time":640000000000,"state":"active","ping":158},{"user_id":75,"name":"Waldmeister","steam_id":76561198007216522,"connected_time":812000000000,"state":"active","ping":64},{"user_id":76,"name":"Dedeil","steam_id":76561198254839532,"connected_time":809000000000,"state":"active","ping":52},{"user_id":39,"name":"–î–µ–Ω–∏—Å –ë–∞–∑—É–∫–∞","steam_id":76561198835849082,"connected_time":2126000000000,"state":"active","ping":104},{"user_id":40,"name":"‚Ä†‚ò≠|ƒê√ò√ò·∏æ|‚ò≠‚Ä†","steam_id":76561197983605586,"connected_time":2111000000000,"state":"active","ping":111},{"user_id":61,"name":"gVulture","steam_id":76561198034100354,"connected_time":1406000000000,"state":"active","ping":46},{"user_id":80,"name":"the meme lord","steam_id":76561198279369377,"connected_time":703000000000,"state":"active","ping":57},{"user_id":82,"name":"FELHEEE","steam_id":76561197987151150,"connected_time":661000000000,"state":"active","ping":81},{"user_id":53,"name":"RanchFish","steam_id":76561198123551809,"connected_time":1750000000000,"state":"active","ping":69}]},{"server_id":114,"name":"Uncletopia | London | 2 | All Maps","name_short":"lon-2","host":"lon-1.uk.uncletopia.com","port":27025,"enabled":true,"region":"eu","cc":"gb","latitude":51.509865,"longitude":-0.118092,"reserved":0,"last_update":"0001-01-01T00:00:00Z","name_a2s":"Uncletopia | London | 2 | All Maps","protocol":17,"map":"pl_badwater","folder":"tf","game":"Team Fortress","app_id":440,"player_count":24,"max_players":24,"Bots":0,"server_type":"Dedicated","server_os":"Linux","password":true,"vac":true,"version":"7757534","steam_id":85568392924470941,"keywords":["nocrits","nodmgspread","payload","uncletopia"],"game_id":440,"stv_port":27026,"stv_name":"Uncletopia | London | 2 | All Maps | STV","players":[{"user_id":272,"name":"SpilledMilk","steam_id":76561198174123971,"connected_time":295000000000,"state":"active","ping":59},{"user_id":260,"name":"Bad and Wuji","steam_id":76561199385280253,"connected_time":1417000000000,"state":"active","ping":108},{"user_id":257,"name":"Sam Fisher","steam_id":76561198364121077,"connected_time":1594000000000,"state":"active","ping":100},{"user_id":250,"name":"me strong","steam_id":76561199062586342,"connected_time":2005000000000,"state":"active","ping":60},{"user_id":265,"name":"Ebaklak","steam_id":76561198016102699,"connected_time":882000000000,"state":"active","ping":83},{"user_id":191,"name":"ALARM","steam_id":76561198120686521,"connected_time":6636000000000,"state":"active","ping":61},{"user_id":164,"name":"Miczu555PL","steam_id":76561198058500895,"connected_time":9531000000000,"state":"active","ping":66},{"user_id":242,"name":"Tort","steam_id":76561198329646769,"connected_time":2393000000000,"state":"active","ping":56},{"user_id":274,"name":"mogdrogen","steam_id":76561198827552986,"connected_time":101000000000,"state":"active","ping":120},{"user_id":269,"name":"Hariboz","steam_id":76561198244468102,"connected_time":371000000000,"state":"active","ping":43},{"user_id":243,"name":"Tomau5","steam_id":76561198027409468,"connected_time":2379000000000,"state":"active","ping":57},{"user_id":259,"name":"Vinhal Keller","steam_id":76561198145589528,"connected_time":1451000000000,"state":"active","ping":63},{"user_id":268,"name":"Thorley","steam_id":76561199053031344,"connected_time":401000000000,"state":"active","ping":31},{"user_id":230,"name":"player","steam_id":76561198054474684,"connected_time":3738000000000,"state":"active","ping":82},{"user_id":253,"name":"Swedde","steam_id":76561198297296440,"connected_time":1945000000000,"state":"active","ping":72},{"user_id":247,"name":"homeinvasion$","steam_id":76561199111905021,"connected_time":2256000000000,"state":"active","ping":125},{"user_id":266,"name":"JohnnyRakieta","steam_id":76561198855789287,"connected_time":882000000000,"state":"active","ping":74},{"user_id":270,"name":"travis","steam_id":76561198138119811,"connected_time":360000000000,"state":"active","ping":45},{"user_id":245,"name":"Fales","steam_id":76561198126124929,"connected_time":2358000000000,"state":"active","ping":86},{"user_id":258,"name":"Mato","steam_id":76561198267114673,"connected_time":1590000000000,"state":"active","ping":74},{"user_id":261,"name":"Lonely are the brave helper","steam_id":76561199303622823,"connected_time":1225000000000,"state":"active","ping":72},{"user_id":254,"name":"katzdani","steam_id":76561198843351132,"connected_time":1904000000000,"state":"active","ping":74},{"user_id":275,"name":"Reast","steam_id":76561198022796927,"connected_time":65000000000,"state":"active","ping":87},{"user_id":264,"name":"Z√°por√°k","steam_id":76561198207175503,"connected_time":1008000000000,"state":"active","ping":62}]},{"server_id":320,"name":"Uncletopia | London | 3 | All Maps","name_short":"lon-3","host":"lon-1.uk.uncletopia.com","port":27035,"enabled":true,"region":"eu","cc":"gb","latitude":51.509865,"longitude":-0.118092,"reserved":0,"last_update":"0001-01-01T00:00:00Z","name_a2s":"Uncletopia | London | 3 | All Maps","protocol":17,"map":"cp_mountainlab","folder":"tf","game":"Team Fortress","app_id":440,"player_count":1,"max_players":24,"Bots":0,"server_type":"Dedicated","server_os":"Linux","password":true,"vac":true,"version":"7757534","steam_id":85568392924510192,"keywords":["cp","nocrits","nodmgspread","uncletopia"],"game_id":440,"stv_port":27036,"stv_name":"Uncletopia | London | 3 | All Maps | STV","players":[{"user_id":9,"name":"QuorglepleegJR","steam_id":76561198984658438,"connected_time":129000000000,"state":"active","ping":43}]},{"server_id":321,"name":"Uncletopia | London | 4 | All Maps","name_short":"lon-4","host":"lon-1.uk.uncletopia.com","port":27045,"enabled":true,"region":"eu","cc":"gb","latitude":51.509865,"longitude":-0.118092,"reserved":0,"last_update":"0001-01-01T00:00:00Z","name_a2s":"Uncletopia | London | 4 | All Maps","protocol":17,"map":"koth_cascade","folder":"tf","game":"Team Fortress","app_id":440,"player_count":0,"max_players":24,"Bots":0,"server_type":"Dedicated","server_os":"Linux","password":true,"vac":true,"version":"7757534","steam_id":85568392924510193,"keywords":["cp","nocrits","nodmgspread","uncletopia"],"game_id":440,"stv_port":27046,"stv_name":"Uncletopia | London | 4 | All Maps | STV","players":null},{"server_id":21,"name":"Uncletopia | London | 5 | All Maps","name_short":"lon-5","host":"lon-1.uk.uncletopia.com","port":27055,"enabled":true,"region":"eu","cc":"gb","latitude":51.509865,"longitude":-0.118092,"reserved":0,"last_update":"0001-01-01T00:00:00Z","name_a2s":"Uncletopia | London | 5 | All Maps","protocol":17,"map":"pl_borneo","folder":"tf","game":"Team Fortress","app_id":440,"player_count":24,"max_players":24,"Bots":0,"server_type":"Dedicated","server_os":"Linux","password":true,"vac":true,"version":"7757534","steam_id":85568392924742829,"keywords":["nocrits","nodmgspread","payload","uncletopia"],"game_id":440,"stv_port":27056,"stv_name":"Uncletopia | London | 5 | All Maps | STV","players":[{"user_id":233,"name":"Fat Pigeon","steam_id":76561198817940142,"connected_time":610000000000,"state":"active","ping":46},{"user_id":227,"name":"AwterSix","steam_id":76561198042561678,"connected_time":1400000000000,"state":"active","ping":61},{"user_id":199,"name":"InsectKing","steam_id":76561199013519071,"connected_time":3032000000000,"state":"active","ping":38},{"user_id":225,"name":"Hector","steam_id":76561198028618586,"connected_time":1576000000000,"state":"active","ping":64},{"user_id":195,"name":"sondi","steam_id":76561198045466209,"connected_time":3849000000000,"state":"active","ping":76},{"user_id":229,"name":"mge bro","steam_id":76561198796600155,"connected_time":1355000000000,"state":"active","ping":91},{"user_id":202,"name":"FNF","steam_id":76561199151422826,"connected_time":2661000000000,"state":"active","ping":106},{"user_id":170,"name":"Littleyoshifan","steam_id":76561198445491045,"connected_time":4992000000000,"state":"active","ping":44},{"user_id":145,"name":"static","steam_id":76561198836825741,"connected_time":7515000000000,"state":"active","ping":44},{"user_id":172,"name":"Wuffington","steam_id":76561198033762881,"connected_time":4916000000000,"state":"active","ping":50},{"user_id":205,"name":"MicardoRilos","steam_id":76561198860205441,"connected_time":2556000000000,"state":"active","ping":60},{"user_id":206,"name":"Bosnian Ketamine Mafia","steam_id":76561198163571788,"connected_time":2530000000000,"state":"active","ping":94},{"user_id":232,"name":"harrison","steam_id":76561198990132243,"connected_time":782000000000,"state":"active","ping":69},{"user_id":230,"name":"Rory","steam_id":76561198354037580,"connected_time":804000000000,"state":"active","ping":160},{"user_id":234,"name":"Fancy","steam_id":76561198350658462,"connected_time":494000000000,"state":"active","ping":85},{"user_id":231,"name":"subway vergil","steam_id":76561199110064166,"connected_time":801000000000,"state":"active","ping":59},{"user_id":212,"name":"ji","steam_id":76561198845550388,"connected_time":2398000000000,"state":"active","ping":112},{"user_id":203,"name":"_zipfile","steam_id":76561198066133808,"connected_time":2625000000000,"state":"active","ping":70},{"user_id":226,"name":"Swiss_Nostalgia","steam_id":76561199159896259,"connected_time":1553000000000,"state":"active","ping":62},{"user_id":159,"name":"Lyra","steam_id":76561198043601838,"connected_time":6517000000000,"state":"active","ping":61},{"user_id":223,"name":"kill john lennon","steam_id":76561198452111945,"connected_time":1718000000000,"state":"active","ping":48},{"user_id":218,"name":"Farmercy","steam_id":76561198000038039,"connected_time":2205000000000,"state":"active","ping":63},{"user_id":221,"name":"Jess‚ô•","steam_id":76561198137106459,"connected_time":1978000000000,"state":"active","ping":60},{"user_id":235,"name":"Hifumi Togo","steam_id":76561198074930636,"connected_time":491000000000,"state":"active","ping":135}]},{"server_id":22,"name":"Uncletopia | London | 6 | All Maps","name_short":"lon-6","host":"lon-1.uk.uncletopia.com","port":27065,"enabled":true,"region":"eu","cc":"gb","latitude":51.509865,"longitude":-0.118092,"reserved":0,"last_update":"0001-01-01T00:00:00Z","name_a2s":"Uncletopia | London | 6 | All Maps","protocol":17,"map":"pl_snowycoast","folder":"tf","game":"Team Fortress","app_id":440,"player_count":0,"max_players":24,"Bots":0,"server_type":"Dedicated","server_os":"Linux","password":true,"vac":true,"version":"7757534","steam_id":85568392924742830,"keywords":["nocrits","nodmgspread","payload","uncletopia"],"game_id":440,"stv_port":27066,"stv_name":"Uncletopia | London | 6 | All Maps | STV","players":null},{"server_id":40,"name":"Uncletopia | London | 7 | No Payload","name_short":"lon-7","host":"lon-1.uk.uncletopia.com","port":27075,"enabled":true,"region":"eu","cc":"gb","latitude":51.509865,"longitude":-0.118092,"reserved":0,"last_update":"0001-01-01T00:00:00Z","name_a2s":"Uncletopia | London | 7 | No Payload","protocol":17,"map":"koth_harvest_final","folder":"tf","game":"Team Fortress","app_id":440,"player_count":23,"max_players":24,"Bots":0,"server_type":"Dedicated","server_os":"Linux","password":true,"vac":true,"version":"7757534","steam_id":85568392924964314,"keywords":["cp","nocrits","nodmgspread","uncletopia"],"game_id":440,"stv_port":27076,"stv_name":"Uncletopia | London | 7 | No Payload | STV","players":[{"user_id":54,"name":"Bostrash641","steam_id":76561199447225685,"connected_time":3708000000000,"state":"active","ping":71},{"user_id":99,"name":"Syd","steam_id":76561198020515027,"connected_time":478000000000,"state":"active","ping":89},{"user_id":92,"name":"Chucky","steam_id":76561198891579362,"connected_time":757000000000,"state":"active","ping":60},{"user_id":96,"name":"BottledSprite","steam_id":76561199131957081,"connected_time":510000000000,"state":"active","ping":73},{"user_id":84,"name":"DeCypher","steam_id":76561198171992619,"connected_time":1444000000000,"state":"active","ping":67},{"user_id":73,"name":"ceeblues","steam_id":76561198197203519,"connected_time":1764000000000,"state":"active","ping":90},{"user_id":24,"name":"Allereinan","steam_id":76561198342239906,"connected_time":5019000000000,"state":"active","ping":109},{"user_id":100,"name":"-TA- skai :3","steam_id":76561198184881255,"connected_time":478000000000,"state":"active","ping":73},{"user_id":101,"name":"Slazaa","steam_id":76561197993252446,"connected_time":468000000000,"state":"active","ping":56},{"user_id":74,"name":"lisivi","steam_id":76561198365503306,"connected_time":1754000000000,"state":"active","ping":51},{"user_id":102,"name":"K'aax Itzam","steam_id":76561198044024509,"connected_time":424000000000,"state":"active","ping":67},{"user_id":108,"name":"MelonLikeAFelon","steam_id":76561198060170336,"connected_time":94000000000,"state":"active","ping":158},{"user_id":109,"name":"IndigoJones","steam_id":76561198050284262,"connected_time":70000000000,"state":"active","ping":46},{"user_id":40,"name":"zek","steam_id":76561198862763731,"connected_time":4241000000000,"state":"active","ping":60},{"user_id":98,"name":"The_Jaystone","steam_id":76561198126280691,"connected_time":496000000000,"state":"active","ping":34},{"user_id":95,"name":"aliquam.games","steam_id":76561198834270944,"connected_time":553000000000,"state":"active","ping":92},{"user_id":89,"name":"lazoboy","steam_id":76561199074095198,"connected_time":1182000000000,"state":"active","ping":121},{"user_id":81,"name":"Le Chevalier Pingouin","steam_id":76561198221355000,"connected_time":1496000000000,"state":"active","ping":38},{"user_id":83,"name":"Soulman25 (FIN)","steam_id":76561198103611974,"connected_time":1467000000000,"state":"active","ping":113},{"user_id":56,"name":"chopsticks","steam_id":76561198045899345,"connected_time":3648000000000,"state":"active","ping":109},{"user_id":68,"name":"foursixsixseven","steam_id":76561199123727043,"connected_time":1932000000000,"state":"active","ping":81},{"user_id":105,"name":"Tortoise Guy","steam_id":76561199047825610,"connected_time":411000000000,"state":"active","ping":86},{"user_id":106,"name":"qwghcbnfcsna","steam_id":76561198927694734,"connected_time":405000000000,"state":"active","ping":83}]},{"server_id":41,"name":"Uncletopia | London | 8 | Community","name_short":"lon-8","host":"lon-1.uk.uncletopia.com","port":27085,"enabled":true,"region":"eu","cc":"gb","latitude":51.509865,"longitude":-0.118092,"reserved":0,"last_update":"0001-01-01T00:00:00Z","name_a2s":"Uncletopia | London | 8 | Community","protocol":17,"map":"workshop/pl_cactuscanyon_redux_rc4b.ugc2579644293","folder":"tf","game":"Team Fortress","app_id":440,"player_count":0,"max_players":24,"Bots":0,"server_type":"Dedicated","server_os":"Linux","password":true,"vac":true,"version":"7757534","steam_id":85568392924964315,"keywords":["nocrits","nodmgspread","payload","uncletopia"],"game_id":440,"stv_port":27086,"stv_name":"Uncletopia | London | 8 | Community | STV","players":null},{"server_id":300,"name":"Uncletopia | Montr√©al | 1 | All Maps","name_short":"mtl-1","host":"mtl-1.ca.uncletopia.com","port":27015,"enabled":true,"region":"us-east","cc":"ca","latitude":45.50889,"longitude":-73.56167,"reserved":0,"last_update":"0001-01-01T00:00:00Z","name_a2s":"Uncletopia | Montr√©al | 1 | All Maps","protocol":17,"map":"koth_cascade","folder":"tf","game":"Team Fortress","app_id":440,"player_count":0,"max_players":24,"Bots":0,"server_type":"Dedicated","server_os":"Linux","password":true,"vac":true,"version":"7757534","steam_id":85568392924500087,"keywords":["cp","nocrits","nodmgspread","uncletopia"],"game_id":440,"stv_port":27016,"stv_name":"Uncletopia | Montr√©al | 1 | All Maps | STV","players":null},{"server_id":301,"name":"Uncletopia | Montr√©al | 2 | All Maps","name_short":"mtl-2","host":"mtl-1.ca.uncletopia.com","port":27025,"enabled":true,"region":"us-east","cc":"ca","latitude":45.50889,"longitude":-73.56167,"reserved":0,"last_update":"0001-01-01T00:00:00Z","name_a2s":"Uncletopia | Montr√©al | 2 | All Maps","protocol":17,"map":"pl_borneo","folder":"tf","game":"Team Fortress","app_id":440,"player_count":0,"max_players":24,"Bots":0,"server_type":"Dedicated","server_os":"Linux","password":true,"vac":true,"version":"7757534","steam_id":85568392924500088,"keywords":["nocrits","nodmgspread","payload","uncletopia"],"game_id":440,"stv_port":27026,"stv_name":"Uncletopia | Montr√©al | 2 | All Maps | STV","players":null},{"server_id":302,"name":"Uncletopia | Montr√©al | 3 | All Maps","name_short":"mtl-3","host":"mtl-1.ca.uncletopia.com","port":27035,"enabled":true,"region":"us-east","cc":"ca","latitude":45.50889,"longitude":-73.56167,"reserved":0,"last_update":"0001-01-01T00:00:00Z","name_a2s":"Uncletopia | Montr√©al | 3 | All Maps","protocol":17,"map":"cp_sunshine","folder":"tf","game":"Team Fortress","app_id":440,"player_count":0,"max_players":24,"Bots":0,"server_type":"Dedicated","server_os":"Linux","password":true,"vac":true,"version":"7757534","steam_id":85568392924500089,"keywords":["cp","nocrits","nodmgspread","uncletopia"],"game_id":440,"stv_port":27036,"stv_name":"Uncletopia | Montr√©al | 3 | All Maps | STV","players":null},{"server_id":303,"name":"Uncletopia | Montr√©al | 4 | No Payload","name_short":"mtl-4","host":"mtl-1.ca.uncletopia.com","port":27045,"enabled":true,"region":"us-east","cc":"ca","latitude":45.50889,"longitude":-73.56167,"reserved":0,"last_update":"0001-01-01T00:00:00Z","name_a2s":"Uncletopia | Montr√©al | 4 | No Payload","protocol":17,"map":"koth_lakeside_final","folder":"tf","game":"Team Fortress","app_id":440,"player_count":0,"max_players":24,"Bots":0,"server_type":"Dedicated","server_os":"Linux","password":true,"vac":true,"version":"7757534","steam_id":85568392924500090,"keywords":["cp","nocrits","nodmgspread","uncletopia"],"game_id":440,"stv_port":27046,"stv_name":"Uncletopia | Montr√©al | 4 | No Payload | STV","players":null},{"server_id":13,"name":"Uncletopia | New York City | 1 | All Maps","name_short":"nyc-1","host":"nyc-1.us.uncletopia.com","port":27015,"enabled":true,"region":"us-east","cc":"us","latitude":40.73061,"longitude":-73.93524,"reserved":0,"last_update":"0001-01-01T00:00:00Z","name_a2s":"Uncletopia | New York City | 1 | All Maps","protocol":17,"map":"pl_borneo","folder":"tf","game":"Team Fortress","app_id":440,"player_count":0,"max_players":24,"Bots":0,"server_type":"Dedicated","server_os":"Linux","password":true,"vac":true,"version":"7757534","steam_id":85568392924469993,"keywords":["nocrits","nodmgspread","payload","uncletopia"],"game_id":440,"stv_port":27016,"stv_name":"Uncletopia | New York City | 1 | All Maps | STV","players":null},{"server_id":14,"name":"Uncletopia | New York City | 2 | All Maps","name_short":"nyc-2","host":"nyc-1.us.uncletopia.com","port":27025,"enabled":true,"region":"us-east","cc":"us","latitude":40.73061,"longitude":-73.93524,"reserved":0,"last_update":"0001-01-01T00:00:00Z","name_a2s":"Uncletopia | New York City | 2 | All Maps","protocol":17,"map":"pl_snowycoast","folder":"tf","game":"Team Fortress","app_id":440,"player_count":0,"max_players":24,"Bots":0,"server_type":"Dedicated","server_os":"Linux","password":true,"vac":true,"version":"7757534","steam_id":85568392924469994,"keywords":["nocrits","nodmgspread","payload","uncletopia"],"game_id":440,"stv_port":27026,"stv_name":"Uncletopia | New York City | 2 | All Maps | STV","players":null},{"server_id":15,"name":"Uncletopia | New York City | 3 | Stopwatch Beta","name_short":"nyc-3","host":"nyc-1.us.uncletopia.com","port":27035,"enabled":true,"region":"us-east","cc":"us","latitude":40.73061,"longitude":-73.93524,"reserved":0,"last_update":"0001-01-01T00:00:00Z","name_a2s":"Uncletopia | New York City | 3 | Stopwatch Beta","protocol":17,"map":"koth_lakeside_final","folder":"tf","game":"Team Fortress","app_id":440,"player_count":0,"max_players":24,"Bots":0,"server_type":"Dedicated","server_os":"Linux","password":true,"vac":true,"version":"7757534","steam_id":85568392924742820,"keywords":["cp","nocrits","nodmgspread","uncletopia"],"game_id":440,"stv_port":27036,"stv_name":"Uncletopia | New York City | 3 | Stopwatch Beta | STV","players":null},{"server_id":16,"name":"Uncletopia | New York City | 4 | Community","name_short":"nyc-4","host":"nyc-1.us.uncletopia.com","port":27045,"enabled":true,"region":"us-east","cc":"us","latitude":40.73061,"longitude":-73.93524,"reserved":0,"last_update":"0001-01-01T00:00:00Z","name_a2s":"Uncletopia | New York City | 4 | Community","protocol":17,"map":"workshop/koth_bagel_rc5.ugc2514036946","folder":"tf","game":"Team Fortress","app_id":440,"player_count":0,"max_players":24,"Bots":0,"server_type":"Dedicated","server_os":"Linux","password":true,"vac":true,"version":"7757534","steam_id":85568392924742821,"keywords":["cp","nocrits","nodmgspread","uncletopia"],"game_id":440,"stv_port":27046,"stv_name":"Uncletopia | New York City | 4 | Community | STV","players":null},{"server_id":142,"name":"Uncletopia | S√£o Paulo | 1 | All Maps","name_short":"sao-1","host":"sao-1.br.uncletopia.com","port":27015,"enabled":true,"region":"sa","cc":"br","latitude":-23.533773,"longitude":-46.62529,"reserved":0,"last_update":"0001-01-01T00:00:00Z","name_a2s":"Uncletopia | S√£o Paulo | 1 | All Maps","protocol":17,"map":"pl_snowycoast","folder":"tf","game":"Team Fortress","app_id":440,"player_count":0,"max_players":24,"Bots":0,"server_type":"Dedicated","server_os":"Linux","password":true,"vac":true,"version":"7757534","steam_id":85568392924469996,"keywords":["nocrits","nodmgspread","payload","uncletopia"],"game_id":440,"stv_port":27016,"stv_name":"Uncletopia | S√£o Paulo | 1 | All Maps | STV","players":null},{"server_id":143,"name":"Uncletopia | S√£o Paulo | 2 | All Maps","name_short":"sao-2","host":"sao-2.br.uncletopia.com","port":27015,"enabled":true,"region":"sa","cc":"br","latitude":-23.533773,"longitude":-46.62529,"reserved":0,"last_update":"0001-01-01T00:00:00Z","name_a2s":"Uncletopia | S√£o Paulo | 2 | All Maps","protocol":17,"map":"pl_barnblitz","folder":"tf","game":"Team Fortress","app_id":440,"player_count":0,"max_players":24,"Bots":0,"server_type":"Dedicated","server_os":"Linux","password":true,"vac":true,"version":"7757534","steam_id":85568392924485349,"keywords":["nocrits","nodmgspread","payload","uncletopia"],"game_id":440,"stv_port":27016,"stv_name":"Uncletopia | S√£o Paulo | 2 | All Maps | STV","players":null},{"server_id":7,"name":"Uncletopia | Seattle | 1 | All Maps","name_short":"sea-1","host":"sea-1.us.uncletopia.com","port":27015,"enabled":true,"region":"us-west","cc":"us","latitude":47.608013,"longitude":-122.33517,"reserved":0,"last_update":"0001-01-01T00:00:00Z","name_a2s":"Uncletopia | Seattle | 1 | All Maps","protocol":17,"map":"koth_viaduct","folder":"tf","game":"Team Fortress","app_id":440,"player_count":2,"max_players":24,"Bots":0,"server_type":"Dedicated","server_os":"Linux","password":true,"vac":true,"version":"7757534","steam_id":85568392924469997,"keywords":["cp","nocrits","nodmgspread","uncletopia"],"game_id":440,"stv_port":27016,"stv_name":"Uncletopia | Seattle | 1 | All Maps | STV","players":[{"user_id":807,"name":"fruit brute fiend","steam_id":76561198811500361,"connected_time":2356000000000,"state":"active","ping":42},{"user_id":818,"name":"SadFapping","steam_id":76561198076651049,"connected_time":1201000000000,"state":"active","ping":55}]},{"server_id":119,"name":"Uncletopia | Seattle | 2 | All Maps","name_short":"sea-2","host":"sea-1.us.uncletopia.com","port":27025,"enabled":true,"region":"us-west","cc":"us","latitude":47.608013,"longitude":-122.33517,"reserved":0,"last_update":"0001-01-01T00:00:00Z","name_a2s":"Uncletopia | Seattle | 2 | All Maps","protocol":17,"map":"pl_swiftwater_final1","folder":"tf","game":"Team Fortress","app_id":440,"player_count":0,"max_players":24,"Bots":0,"server_type":"Dedicated","server_os":"Linux","password":true,"vac":true,"version":"7757534","steam_id":85568392924469998,"keywords":["nocrits","nodmgspread","payload","uncletopia"],"game_id":440,"stv_port":27026,"stv_name":"Uncletopia | Seattle | 2 | All Maps | STV","players":null},{"server_id":406,"name":"Uncletopia | Seattle | 3 | Stopwatch Beta","name_short":"sea-3","host":"sea-1.us.uncletopia.com","port":27035,"enabled":true,"region":"us-west","cc":"us","latitude":47.608013,"longitude":-122.33517,"reserved":0,"last_update":"0001-01-01T00:00:00Z","name_a2s":"Uncletopia | Seattle | 3 | Stopwatch Beta","protocol":17,"map":"workshop/koth_bagel_rc5.ugc2514036946","folder":"tf","game":"Team Fortress","app_id":440,"player_count":0,"max_players":24,"Bots":0,"server_type":"Dedicated","server_os":"Linux","password":true,"vac":true,"version":"7757534","steam_id":85568392924515217,"keywords":["cp","nocrits","nodmgspread","uncletopia"],"game_id":440,"stv_port":27036,"stv_name":"Uncletopia | Seattle | 3 | Stopwatch Beta | STV","players":null},{"server_id":17,"name":"Uncletopia | San Francisco | 1 | All Maps","name_short":"sfo-1","host":"sfo-1.us.uncletopia.com","port":27015,"enabled":true,"region":"us-west","cc":"us","latitude":37.77397,"longitude":-122.4313,"reserved":0,"last_update":"0001-01-01T00:00:00Z","name_a2s":"Uncletopia | San Francisco | 1 | All Maps","protocol":17,"map":"pl_snowycoast","folder":"tf","game":"Team Fortress","app_id":440,"player_count":0,"max_players":24,"Bots":0,"server_type":"Dedicated","server_os":"Linux","password":true,"vac":true,"version":"7757534","steam_id":85568392924469999,"keywords":["nocrits","nodmgspread","payload","uncletopia"],"game_id":440,"stv_port":27016,"stv_name":"Uncletopia | San Francisco | 1 | All Maps | STV","players":null},{"server_id":18,"name":"Uncletopia | San Francisco | 2 | All Maps","name_short":"sfo-2","host":"sfo-1.us.uncletopia.com","port":27025,"enabled":true,"region":"us-west","cc":"us","latitude":37.77397,"longitude":-122.4313,"reserved":0,"last_update":"0001-01-01T00:00:00Z","name_a2s":"Uncletopia | San Francisco | 2 | All Maps","protocol":17,"map":"cp_snakewater_final1","folder":"tf","game":"Team Fortress","app_id":440,"player_count":0,"max_players":24,"Bots":0,"server_type":"Dedicated","server_os":"Linux","password":true,"vac":true,"version":"7757534","steam_id":85568392924470000,"keywords":["cp","nocrits","nodmgspread","uncletopia"],"game_id":440,"stv_port":27026,"stv_name":"Uncletopia | San Francisco | 2 | All Maps | STV","players":null},{"server_id":19,"name":"Uncletopia | San Francisco | 3 | Stopwatch Beta","name_short":"sfo-3","host":"sfo-1.us.uncletopia.com","port":27035,"enabled":true,"region":"us-west","cc":"us","latitude":37.77397,"longitude":-122.4313,"reserved":0,"last_update":"0001-01-01T00:00:00Z","name_a2s":"Uncletopia | San Francisco | 3 | Stopwatch Beta","protocol":17,"map":"workshop/koth_clearcut_b15.ugc2107050255","folder":"tf","game":"Team Fortress","app_id":440,"player_count":0,"max_players":24,"Bots":0,"server_type":"Dedicated","server_os":"Linux","password":true,"vac":true,"version":"7757534","steam_id":85568392924742824,"keywords":["cp","nocrits","nodmgspread","uncletopia"],"game_id":440,"stv_port":27036,"stv_name":"Uncletopia | San Francisco | 3 | Stopwatch Beta | STV","players":null},{"server_id":20,"name":"Uncletopia | San Francisco | 4 | Community","name_short":"sfo-4","host":"sfo-1.us.uncletopia.com","port":27045,"enabled":true,"region":"us-west","cc":"us","latitude":37.77397,"longitude":-122.4313,"reserved":0,"last_update":"0001-01-01T00:00:00Z","name_a2s":"Uncletopia | San Francisco | 4 | Community","protocol":17,"map":"workshop/pl_vigil_rc9.ugc1266210012","folder":"tf","game":"Team Fortress","app_id":440,"player_count":22,"max_players":24,"Bots":0,"server_type":"Dedicated","server_os":"Linux","password":true,"vac":true,"version":"7757534","steam_id":85568392924742826,"keywords":["nocrits","nodmgspread","payload","uncletopia"],"game_id":440,"stv_port":27046,"stv_name":"Uncletopia | San Francisco | 4 | Community | STV","players":[{"user_id":801,"name":"dakota","steam_id":76561198063159414,"connected_time":611000000000,"state":"active","ping":102},{"user_id":808,"name":"MicrowavableKoolAid","steam_id":76561199097169265,"connected_time":92000000000,"state":"active","ping":178},{"user_id":809,"name":"*BOOM*TSK*MORTAL KOMBAAAAAT!","steam_id":76561197961107982,"connected_time":88000000000,"state":"active","ping":104},{"user_id":804,"name":"seats","steam_id":76561197998756039,"connected_time":359000000000,"state":"active","ping":57},{"user_id":778,"name":"Yaint","steam_id":76561198032868026,"connected_time":2629000000000,"state":"active","ping":69},{"user_id":664,"name":"daemon","steam_id":76561198001541433,"connected_time":14433000000000,"state":"active","ping":105},{"user_id":803,"name":"Large Charles","steam_id":76561197999663001,"connected_time":502000000000,"state":"active","ping":71},{"user_id":783,"name":"Discovery","steam_id":76561198841844093,"connected_time":2238000000000,"state":"active","ping":59},{"user_id":799,"name":"chicken wit dah eggrow","steam_id":76561198115458307,"connected_time":758000000000,"state":"active","ping":60},{"user_id":779,"name":"lol","steam_id":76561198026491738,"connected_time":2538000000000,"state":"active","ping":56},{"user_id":794,"name":"Disc0","steam_id":76561198067337267,"connected_time":1212000000000,"state":"active","ping":61},{"user_id":810,"name":"Professional catboy hunter","steam_id":76561198290124697,"connected_time":86000000000,"state":"active","ping":44},{"user_id":780,"name":"jimmyfortnite2014","steam_id":76561198987713830,"connected_time":2482000000000,"state":"active","ping":179},{"user_id":755,"name":"jole","steam_id":76561198037292232,"connected_time":3764000000000,"state":"active","ping":146},{"user_id":811,"name":"Foop","steam_id":76561198042554605,"connected_time":77000000000,"state":"active","ping":64},{"user_id":805,"name":"Lamy","steam_id":76561198348354629,"connected_time":327000000000,"state":"active","ping":58},{"user_id":798,"name":"Chill Out","steam_id":76561198026188676,"connected_time":840000000000,"state":"active","ping":79},{"user_id":800,"name":"Saggle","steam_id":76561198056075147,"connected_time":721000000000,"state":"active","ping":175},{"user_id":806,"name":"TwerkForWiFi","steam_id":76561198022489615,"connected_time":160000000000,"state":"active","ping":54},{"user_id":807,"name":"Sugar Rush","steam_id":76561198094620058,"connected_time":135000000000,"state":"active","ping":85},{"user_id":812,"name":"Mr. Skelly Bones","steam_id":76561199040330362,"connected_time":72000000000,"state":"active","ping":212},{"user_id":790,"name":"bavzeed275","steam_id":76561199240218335,"connected_time":1844000000000,"state":"active","ping":75}]},{"server_id":141,"name":"Uncletopia | Sydney | 1 | All Maps","name_short":"syd-1","host":"syd-1.au.uncletopia.com","port":27015,"enabled":true,"region":"au","cc":"au","latitude":-33.865143,"longitude":151.2099,"reserved":0,"last_update":"0001-01-01T00:00:00Z","name_a2s":"Uncletopia | Sydney | 1 | All Maps","protocol":17,"map":"pl_pier","folder":"tf","game":"Team Fortress","app_id":440,"player_count":18,"max_players":24,"Bots":0,"server_type":"Dedicated","server_os":"Linux","password":true,"vac":true,"version":"7757534","steam_id":85568392924470001,"keywords":["nocrits","nodmgspread","payload","uncletopia"],"game_id":440,"stv_port":27016,"stv_name":"Uncletopia | Sydney | 1 | All Maps | STV","players":[{"user_id":567,"name":"Meihronias","steam_id":76561199163845108,"connected_time":2471000000000,"state":"active","ping":66},{"user_id":601,"name":"sydney sydney","steam_id":76561199057568663,"connected_time":442000000000,"state":"active","ping":57},{"user_id":600,"name":"Corhix","steam_id":76561198968706355,"connected_time":586000000000,"state":"active","ping":166},{"user_id":588,"name":"Drakeo","steam_id":76561198268859184,"connected_time":1111000000000,"state":"active","ping":94},{"user_id":573,"name":"mrquestables","steam_id":76561198954911129,"connected_time":2162000000000,"state":"active","ping":52},{"user_id":589,"name":"Y0shua3","steam_id":76561199381627916,"connected_time":1091000000000,"state":"active","ping":117},{"user_id":590,"name":"mvharris","steam_id":76561198193124397,"connected_time":1074000000000,"state":"active","ping":73},{"user_id":593,"name":"Peashooter","steam_id":76561198157250318,"connected_time":902000000000,"state":"active","ping":59},{"user_id":605,"name":"i only uber spies","steam_id":76561198021454448,"connected_time":297000000000,"state":"active","ping":139},{"user_id":608,"name":"(„Éé‡≤†Áõä‡≤†)„Éé","steam_id":76561198409853978,"connected_time":182000000000,"state":"active","ping":35},{"user_id":591,"name":"duff","steam_id":76561198252163844,"connected_time":1029000000000,"state":"active","ping":72},{"user_id":594,"name":"dtvhagger","steam_id":76561199260722715,"connected_time":894000000000,"state":"active","ping":59},{"user_id":569,"name":"SpacyCron","steam_id":76561198201524273,"connected_time":2443000000000,"state":"active","ping":107},{"user_id":595,"name":"Whyyan","steam_id":76561198123825900,"connected_time":826000000000,"state":"active","ping":55},{"user_id":609,"name":"Taskmaster","steam_id":76561198402045918,"connected_time":12000000000,"state":"active","ping":55},{"user_id":610,"name":"SaltierThanYou","steam_id":76561198444395188,"connected_time":2000000000,"state":"spawning","ping":67},{"user_id":597,"name":"ToadFungus","steam_id":76561199219667039,"connected_time":644000000000,"state":"active","ping":100},{"user_id":611,"name":"VerseG","steam_id":76561198059246919,"connected_time":0,"state":"connecting","ping":0}]},{"server_id":123,"name":"Uncletopia | Sydney | 2 | All Maps","name_short":"syd-2","host":"syd-1.au.uncletopia.com","port":27025,"enabled":true,"region":"au","cc":"au","latitude":-33.865143,"longitude":151.2099,"reserved":0,"last_update":"0001-01-01T00:00:00Z","name_a2s":"Uncletopia | Sydney | 2 | All Maps","protocol":17,"map":"pl_pier","folder":"tf","game":"Team Fortress","app_id":440,"player_count":5,"max_players":24,"Bots":0,"server_type":"Dedicated","server_os":"Linux","password":true,"vac":true,"version":"7757534","steam_id":85568392924470002,"keywords":["nocrits","nodmgspread","payload","uncletopia"],"game_id":440,"stv_port":27026,"stv_name":"Uncletopia | Sydney | 2 | All Maps | STV","players":[{"user_id":347,"name":"Oysenberry","steam_id":76561198125443335,"connected_time":5381000000000,"state":"active","ping":44},{"user_id":403,"name":"P'pot","steam_id":76561198117278590,"connected_time":785000000000,"state":"active","ping":56},{"user_id":375,"name":"MR Martian","steam_id":76561198157854561,"connected_time":3837000000000,"state":"active","ping":87},{"user_id":297,"name":"Consolidated Fart","steam_id":76561198924101909,"connected_time":9983000000000,"state":"active","ping":62},{"user_id":337,"name":"Bobby Bigman","steam_id":76561198044679656,"connected_time":6468000000000,"state":"active","ping":59}]},{"server_id":395,"name":"Uncletopia | Sydney | 3 | All Maps","name_short":"syd-3","host":"syd-1.au.uncletopia.com","port":27035,"enabled":true,"region":"au","cc":"au","latitude":-33.865143,"longitude":151.2099,"reserved":0,"last_update":"0001-01-01T00:00:00Z","name_a2s":"Uncletopia | Sydney | 3 | All Maps","protocol":17,"map":"koth_viaduct","folder":"tf","game":"Team Fortress","app_id":440,"player_count":0,"max_players":24,"Bots":0,"server_type":"Dedicated","server_os":"Linux","password":true,"vac":true,"version":"7757534","steam_id":85568392925194467,"keywords":["cp","nocrits","nodmgspread","uncletopia"],"game_id":440,"stv_port":27036,"stv_name":"Uncletopia | Sydney | 3 | All Maps | STV","players":null},{"server_id":396,"name":"Uncletopia | Sydney | 4 | All Maps","name_short":"syd-4","host":"syd-1.au.uncletopia.com","port":27045,"enabled":true,"region":"au","cc":"au","latitude":-33.865143,"longitude":151.2099,"reserved":0,"last_update":"0001-01-01T00:00:00Z","name_a2s":"Uncletopia | Sydney | 4 | All Maps","protocol":17,"map":"koth_highpass","folder":"tf","game":"Team Fortress","app_id":440,"player_count":0,"max_players":24,"Bots":0,"server_type":"Dedicated","server_os":"Linux","password":true,"vac":true,"version":"7757534","steam_id":85568392925397958,"keywords":["cp","nocrits","nodmgspread","uncletopia"],"game_id":440,"stv_port":27046,"stv_name":"Uncletopia | Sydney | 4 | All Maps | STV","players":null},{"server_id":58,"name":"Uncletopia | Sydney | 5 | Stopwatch Beta","name_short":"syd-5","host":"syd-1.au.uncletopia.com","port":27055,"enabled":true,"region":"au","cc":"au","latitude":-33.865143,"longitude":151.2099,"reserved":0,"last_update":"0001-01-01T00:00:00Z","name_a2s":"Uncletopia | Sydney | 5 | Stopwatch Beta","protocol":17,"map":"workshop/koth_ashville_final.ugc2130459942","folder":"tf","game":"Team Fortress","app_id":440,"player_count":0,"max_players":24,"Bots":0,"server_type":"Dedicated","server_os":"Linux","password":true,"vac":true,"version":"7757534","steam_id":85568392925397959,"keywords":["cp","nocrits","nodmgspread","uncletopia"],"game_id":440,"stv_port":27056,"stv_name":"Uncletopia | Sydney | 5 | Stopwatch Beta | STV","players":null},{"server_id":59,"name":"Uncletopia | Sydney | 6 | Community","name_short":"syd-6","host":"syd-1.au.uncletopia.com","port":27065,"enabled":true,"region":"au","cc":"au","latitude":-33.865143,"longitude":151.2099,"reserved":0,"last_update":"0001-01-01T00:00:00Z","name_a2s":"Uncletopia | Sydney | 6 | Community","protocol":17,"map":"workshop/koth_ashville_final.ugc2130459942","folder":"tf","game":"Team Fortress","app_id":440,"player_count":1,"max_players":24,"Bots":0,"server_type":"Dedicated","server_os":"Linux","password":true,"vac":true,"version":"7757534","steam_id":85568392925397960,"keywords":["cp","nocrits","nodmgspread","uncletopia"],"game_id":440,"stv_port":27066,"stv_name":"Uncletopia | Sydney | 6 | Community | STV","players":[{"user_id":21,"name":"The Bisoneer TF2","steam_id":76561199446773766,"connected_time":221000000000,"state":"active","ping":88}]},{"server_id":49,"name":"Uncletopia | Warsaw | 1 | All Maps","name_short":"waw-1","host":"waw-1.pl.uncletopia.com","port":27015,"enabled":true,"region":"eu","cc":"pl","latitude":52.2297,"longitude":21.017532,"reserved":0,"last_update":"0001-01-01T00:00:00Z","name_a2s":"","protocol":0,"map":"","folder":"","game":"","app_id":0,"player_count":0,"max_players":0,"Bots":0,"server_type":"","server_os":"","password":false,"vac":false,"version":"","steam_id":0,"keywords":null,"game_id":0,"stv_port":0,"stv_name":"","players":null},{"server_id":50,"name":"Uncletopia | Warsaw | 2 | All Maps","name_short":"waw-2","host":"waw-1.pl.uncletopia.com","port":27025,"enabled":true,"region":"eu","cc":"pl","latitude":52.2297,"longitude":21.017532,"reserved":0,"last_update":"0001-01-01T00:00:00Z","name_a2s":"Uncletopia | Warsaw | 2 | All Maps","protocol":17,"map":"cp_snakewater_final1","folder":"tf","game":"Team Fortress","app_id":440,"player_count":0,"max_players":24,"Bots":0,"server_type":"Dedicated","server_os":"Linux","password":true,"vac":true,"version":"7757534","steam_id":85568392925397851,"keywords":["cp","nocrits","nodmgspread","uncletopia"],"game_id":440,"stv_port":27026,"stv_name":"Uncletopia | Warsaw | 2 | All Maps | STV","players":null},{"server_id":51,"name":"Uncletopia | Warsaw | 3 | All Maps","name_short":"waw-3","host":"waw-1.pl.uncletopia.com","port":27035,"enabled":true,"region":"eu","cc":"pl","latitude":52.2297,"longitude":21.017532,"reserved":0,"last_update":"0001-01-01T00:00:00Z","name_a2s":"Uncletopia | Warsaw | 3 | All Maps","protocol":17,"map":"pl_barnblitz","folder":"tf","game":"Team Fortress","app_id":440,"player_count":0,"max_players":24,"Bots":0,"server_type":"Dedicated","server_os":"Linux","password":true,"vac":true,"version":"7757534","steam_id":85568392925397852,"keywords":["nocrits","nodmgspread","payload","uncletopia"],"game_id":440,"stv_port":27036,"stv_name":"Uncletopia | Warsaw | 3 | All Maps | STV","players":null},{"server_id":52,"name":"Uncletopia | Warsaw | 4 | All Maps","name_short":"waw-4","host":"waw-1.pl.uncletopia.com","port":27045,"enabled":true,"region":"eu","cc":"pl","latitude":52.2297,"longitude":21.017532,"reserved":0,"last_update":"0001-01-01T00:00:00Z","name_a2s":"Uncletopia | Warsaw | 4 | All Maps","protocol":17,"map":"pl_borneo","folder":"tf","game":"Team Fortress","app_id":440,"player_count":0,"max_players":24,"Bots":0,"server_type":"Dedicated","server_os":"Linux","password":true,"vac":true,"version":"7757534","steam_id":85568392925397853,"keywords":["nocrits","nodmgspread","payload","uncletopia"],"game_id":440,"stv_port":27046,"stv_name":"Uncletopia | Warsaw | 4 | All Maps | STV","players":null},{"server_id":53,"name":"Uncletopia | Warsaw | 5 | Stopwatch Beta","name_short":"waw-5","host":"waw-1.pl.uncletopia.com","port":27055,"enabled":true,"region":"eu","cc":"pl","latitude":52.2297,"longitude":21.017532,"reserved":0,"last_update":"0001-01-01T00:00:00Z","name_a2s":"Uncletopia | Warsaw | 5 | Stopwatch Beta","protocol":17,"map":"pl_upward","folder":"tf","game":"Team Fortress","app_id":440,"player_count":0,"max_players":24,"Bots":0,"server_type":"Dedicated","server_os":"Linux","password":true,"vac":true,"version":"7757534","steam_id":85568392925397854,"keywords":["nocrits","nodmgspread","payload","uncletopia"],"game_id":440,"stv_port":27056,"stv_name":"Uncletopia | Warsaw | 5 | Stopwatch Beta | STV","players":null},{"server_id":54,"name":"Uncletopia | Warsaw | 6 | Community","name_short":"waw-6","host":"waw-1.pl.uncletopia.com","port":27065,"enabled":true,"region":"eu","cc":"pl","latitude":52.2297,"longitude":21.017532,"reserved":0,"last_update":"0001-01-01T00:00:00Z","name_a2s":"Uncletopia | Warsaw | 6 | Community","protocol":17,"map":"workshop/koth_bagel_rc5.ugc2514036946","folder":"tf","game":"Team Fortress","app_id":440,"player_count":0,"max_players":24,"Bots":0,"server_type":"Dedicated","server_os":"Linux","password":true,"vac":true,"version":"7757534","steam_id":85568392925397856,"keywords":["cp","nocrits","nodmgspread","uncletopia"],"game_id":440,"stv_port":27066,"stv_name":"Uncletopia | Warsaw | 6 | Community | STV","players":null}]}