{"status":true,"message":"","result":[{"server_id":9,"name":"Uncletopia | Atlanta | 1 | All Maps","name_short":"atl-1","host":"atl-1.us.uncletopia.com","port":27015,"enabled":true,"region":"us-east","cc":"us","latitude":33.753746,"longitude":-84.38633,"reserved":0,"last_update":"0001-01-01T00:00:00Z","name_a2s":"Uncletopia | Atlanta | 1 | All Maps","protocol":17,"map":"pl_pier","folder":"tf","game":"Team Fortress","app_id":440,"player_count":2,"max_players":24,"Bots":0,"server_type":"Dedicated","server_os":"Linux","password":true,"vac":true,"version":"7742253","steam_id":85568392924469982,"keywords":["nocrits","nodmgspread","payload","uncletopia"],"game_id":440,"stv_port":27016,"stv_name":"Uncletopia | Atlanta | 1 | All Maps | STV","players":[{"user_id":4,"name":"„ÄåSaint„Äç","steam_id":76561198241943070,"connected_time":337000000000,"state":"active","ping":79},{"user_id":5,"name":"Drygongames","steam_id":76561198250418424,"connected_time":32000000000,"state":"active","ping":88}]},{"server_id":400,"name":"Uncletopia | Atlanta | 3 | Stopwatch Beta","name_short":"atl-3","host":"atl-1.us.uncletopia.com","port":27035,"enabled":true,"region":"us-east","cc":"us","latitude":33.753746,"longitude":-84.38633,"reserved":0,"last_update":"0001-01-01T00:00:00Z","name_a2s":"Uncletopia | Atlanta | 3 | Stopwatch Beta","protocol":17,"map":"pl_pier","folder":"tf","game":"Team Fortress","app_id":440,"player_count":0,"max_players":24,"Bots":0,"server_type":"Dedicated","server_os":"Linux","password":true,"vac":true,"version":"7742253","steam_id":85568392924515187,"keywords":["nocrits","nodmgspread","payload","uncletopia"],"game_id":440,"stv_port":27036,"stv_name":"Uncletopia | Atlanta | 3 | Stopwatch Beta | STV","players":null},{"server_id":401,"name":"Uncletopia | Atlanta | 4 | No Payload","name_short":"atl-4","host":"atl-1.us.uncletopia.com","port":27045,"enabled":true,"region":"us-east","cc":"us","latitude":33.753746,"longitude":-84.38633,"reserved":0,"last_update":"0001-01-01T00:00:00Z","name_a2s":"Uncletopia | Atlanta | 4 | No Payload","protocol":17,"map":"pl_pier","folder":"tf","game":"Team Fortress","app_id":440,"player_count":0,"max_players":24,"Bots":0,"server_type":"Dedicated","server_os":"Linux","password":true,"vac":true,"version":"7723704","steam_id":85568392924515188,"keywords":["nocrits","nodmgspread","payload","uncletopia"],"game_id":440,"stv_port":27046,"stv_name":"Uncletopia | Atlanta | 4 | No Payload | STV","players":null},{"server_id":2,"name":"Uncletopia | Chicago | 1 | All Maps","name_short":"chi-1","host":"chi-1.us.uncletopia.com","port":27015,"enabled":true,"region":"us-central","cc":"us","latitude":41.881832,"longitude":-87.62318,"reserved":0,"last_update":"0001-01-01T00:00:00Z","name_a2s":"Uncletopia | Chicago | 1 | All Maps","protocol":17,"map":"pl_barnblitz","folder":"tf","game":"Team Fortress","app_id":440,"player_count":0,"max_players":24,"Bots":0,"server_type":"Dedicated","server_os":"Linux","password":true,"vac":true,"version":"7742253","steam_id":85568392924469984,"keywords":["nocrits","nodmgspread","payload","uncletopia"],"game_id":440,"stv_port":27016,"stv_name":"Uncletopia | Chicago | 1 | All Maps | STV","players":null},{"server_id":106,"name":"Uncletopia | Chicago | 2 | All Maps","name_short":"chi-2","host":"chi-1.us.uncletopia.com","port":27025,"enabled":true,"region":"us-central","cc":"us","latitude":41.881832,"longitude":-87.62318,"reserved":0,"last_update":"0001-01-01T00:00:00Z","name_a2s":"Uncletopia | Chicago | 2 | All Maps","protocol":17,"map":"cp_sunshine","folder":"tf","game":"Team Fortress","app_id":440,"player_count":0,"max_players":24,"Bots":0,"server_type":"Dedicated","server_os":"Linux","password":true,"vac":true,"version":"7742253","steam_id":85568392924469985,"keywords":["cp","nocrits","nodmgspread","uncletopia"],"game_id":440,"stv_port":27026,"stv_name":"Uncletopia | Chicago | 2 | All Maps | STV","players":null},{"server_id":402,"name":"Uncletopia | Chicago | 3 | All Maps","name_short":"chi-3","host":"chi-1.us.uncletopia.com","port":27035,"enabled":true,"region":"us-central","cc":"us","latitude":41.881832,"longitude":-87.62318,"reserved":0,"last_update":"0001-01-01T00:00:00Z","name_a2s":"Uncletopia | Chicago | 3 | All Maps","protocol":17,"map":"koth_viaduct","folder":"tf","game":"Team Fortress","app_id":440,"player_count":0,"max_players":24,"Bots":0,"server_type":"Dedicated","server_os":"Linux","password":true,"vac":true,"version":"7742253","steam_id":85568392924515191,"keywords":["cp","nocrits","nodmgspread","uncletopia"],"game_id":440,"stv_port":27036,"stv_name":"Uncletopia | Chicago | 3 | All Maps | STV","players":null},{"server_id":403,"name":"Uncletopia | Chicago | 4 | All Maps","name_short":"chi-4","host":"chi-1.us.uncletopia.com","port":27045,"enabled":true,"region":"us-central","cc":"us","latitude":41.881832,"longitude":-87.62318,"reserved":0,"last_update":"0001-01-01T00:00:00Z","name_a2s":"Uncletopia | Chicago | 4 | All Maps","protocol":17,"map":"koth_lakeside_final","folder":"tf","game":"Team Fortress","app_id":440,"player_count":0,"max_players":24,"Bots":0,"server_type":"Dedicated","server_os":"Linux","password":true,"vac":true,"version":"7742253","steam_id":85568392924515193,"keywords":["cp","nocrits","nodmgspread","uncletopia"],"game_id":440,"stv_port":27046,"stv_name":"Uncletopia | Chicago | 4 | All Maps | STV","players":null},{"server_id":36,"name":"Uncletopia | Chicago | 5 | All Maps","name_short":"chi-5","host":"chi-2.us.uncletopia.com","port":27015,"enabled":true,"region":"us-central","cc":"us","latitude":41.881832,"longitude":-87.62318,"reserved":0,"last_update":"0001-01-01T00:00:00Z","name_a2s":"Uncletopia | Chicago | 5 | All Maps","protocol":17,"map":"pl_frontier_final","folder":"tf","game":"Team Fortress","app_id":440,"player_count":24,"max_players":24,"Bots":0,"server_type":"Dedicated","server_os":"Linux","password":true,"vac":true,"version":"7742253","steam_id":85568392924866362,"keywords":["nocrits","nodmgspread","payload","uncletopia"],"game_id":440,"stv_port":27016,"stv_name":"Uncletopia | Chicago | 5 | All Maps | STV","players":[{"user_id":82,"name":"the mold untold","steam_id":76561198857781374,"connected_time":1612000000000,"state":"active","ping":66},{"user_id":63,"name":"Veir≈´ Viseris","steam_id":76561197989857176,"connected_time":2961000000000,"state":"active","ping":163},{"user_id":47,"name":"SlimGrady","steam_id":76561198451231329,"connected_time":4107000000000,"state":"active","ping":74},{"user_id":55,"name":"dan","steam_id":76561197984998426,"connected_time":3557000000000,"state":"active","ping":93},{"user_id":33,"name":"the doom of acoustic","steam_id":76561198328109873,"connected_time":4731000000000,"state":"active","ping":73},{"user_id":101,"name":"Normalux","steam_id":76561198293891426,"connected_time":166000000000,"state":"active","ping":69},{"user_id":95,"name":"Luffy","steam_id":76561198120914343,"connected_time":591000000000,"state":"active","ping":63},{"user_id":98,"name":"Lil_Ginngy","steam_id":76561198390624676,"connected_time":322000000000,"state":"active","ping":81},{"user_id":100,"name":"Soldier Impact","steam_id":76561198157004224,"connected_time":210000000000,"state":"active","ping":60},{"user_id":56,"name":"c.atto","steam_id":76561198202448753,"connected_time":3519000000000,"state":"active","ping":162},{"user_id":83,"name":"trasho","steam_id":76561198066867150,"connected_time":1403000000000,"state":"active","ping":60},{"user_id":65,"name":"Carmine","steam_id":76561199405378993,"connected_time":2830000000000,"state":"active","ping":70},{"user_id":60,"name":"Fuegan Ra","steam_id":76561198287923849,"connected_time":3183000000000,"state":"active","ping":51},{"user_id":76,"name":"The Grinch Lyncher","steam_id":76561198081617990,"connected_time":1766000000000,"state":"active","ping":91},{"user_id":94,"name":"cl0useau","steam_id":76561198191050167,"connected_time":615000000000,"state":"active","ping":75},{"user_id":88,"name":"The Caretaker","steam_id":76561198125241411,"connected_time":1130000000000,"state":"active","ping":116},{"user_id":66,"name":"Argon","steam_id":76561198091133177,"connected_time":2825000000000,"state":"active","ping":56},{"user_id":71,"name":"Cheezer","steam_id":76561198153117396,"connected_time":2556000000000,"state":"active","ping":155},{"user_id":74,"name":"lostos","steam_id":76561197983869145,"connected_time":2262000000000,"state":"active","ping":125},{"user_id":67,"name":"kametro4","steam_id":76561198835430429,"connected_time":2812000000000,"state":"active","ping":89},{"user_id":97,"name":"William Wallace","steam_id":76561199343316814,"connected_time":427000000000,"state":"active","ping":69},{"user_id":69,"name":"Snake Handler","steam_id":76561198027198306,"connected_time":2716000000000,"state":"active","ping":61},{"user_id":75,"name":"cAssBlaster","steam_id":76561198138488101,"connected_time":2242000000000,"state":"active","ping":66},{"user_id":81,"name":"Lady Duckland","steam_id":76561198077092840,"connected_time":1643000000000,"state":"active","ping":59}]},{"server_id":37,"name":"Uncletopia | Chicago | 6 | All Maps","name_short":"chi-6","host":"chi-2.us.uncletopia.com","port":27025,"enabled":true,"region":"us-central","cc":"us","latitude":41.881832,"longitude":-87.62318,"reserved":0,"last_update":"0001-01-01T00:00:00Z","name_a2s":"Uncletopia | Chicago | 6 | All Maps","protocol":17,"map":"pl_upward","folder":"tf","game":"Team Fortress","app_id":440,"player_count":0,"max_players":24,"Bots":0,"server_type":"Dedicated","server_os":"Linux","password":true,"vac":true,"version":"7742253","steam_id":85568392924866363,"keywords":["nocrits","nodmgspread","payload","uncletopia"],"game_id":440,"stv_port":27026,"stv_name":"Uncletopia | Chicago | 6 | All Maps | STV","players":null},{"server_id":38,"name":"Uncletopia | Chicago | 7 | Stopwatch Beta","name_short":"chi-7","host":"chi-2.us.uncletopia.com","port":27035,"enabled":true,"region":"us-central","cc":"us","latitude":41.881832,"longitude":-87.62318,"reserved":0,"last_update":"0001-01-01T00:00:00Z","name_a2s":"Uncletopia | Chicago | 7 | Stopwatch Beta","protocol":17,"map":"koth_lakeside_final","folder":"tf","game":"Team Fortress","app_id":440,"player_count":0,"max_players":24,"Bots":0,"server_type":"Dedicated","server_os":"Linux","password":true,"vac":true,"version":"7742253","steam_id":85568392924866364,"keywords":["cp","nocrits","nodmgspread","uncletopia"],"game_id":440,"stv_port":27036,"stv_name":"Uncletopia | Chicago | 7 | Stopwatch Beta | STV","players":null},{"server_id":39,"name":"Uncletopia | Chicago | 8 | Community","name_short":"chi-8","host":"chi-2.us.uncletopia.com","port":27045,"enabled":true,"region":"us-central","cc":"us","latitude":41.881832,"longitude":-87.62318,"reserved":0,"last_update":"0001-01-01T00:00:00Z","name_a2s":"Uncletopia | Chicago | 8 | Community","protocol":17,"map":"koth_lakeside_final","folder":"tf","game":"Team Fortress","app_id":440,"player_count":0,"max_players":24,"Bots":0,"server_type":"Dedicated","server_os":"Linux","password":true,"vac":true,"version":"7742253","steam_id":85568392924866365,"keywords":["cp","nocrits","nodmgspread","uncletopia"],"game_id":440,"stv_port":27046,"stv_name":"Uncletopia | Chicago | 8 | Community | STV","players":null},{"server_id":8,"name":"Uncletopia | Dallas | 1 | All Maps","name_short":"dal-1","host":"dal-1.us.uncletopia.com","port":27015,"enabled":true,"region":"us-central","cc":"us","latitude":32.779167,"longitude":-96.80889,"reserved":0,"last_update":"0001-01-01T00:00:00Z","name_a2s":"Uncletopia | Dallas | 1 | All Maps","protocol":17,"map":"pl_borneo","folder":"tf","game":"Team Fortress","app_id":440,"player_count":0,"max_players":24,"Bots":0,"server_type":"Dedicated","server_os":"Linux","password":true,"vac":true,"version":"7742253","steam_id":85568392924469986,"keywords":["nocrits","nodmgspread","payload","uncletopia"],"game_id":440,"stv_port":27016,"stv_name":"Uncletopia | Dallas | 1 | All Maps | STV","players":null},{"server_id":108,"name":"Uncletopia | Dallas | 2 | All Maps","name_short":"dal-2","host":"dal-1.us.uncletopia.com","port":27025,"enabled":true,"region":"us-central","cc":"us","latitude":32.779167,"longitude":-96.80889,"reserved":0,"last_update":"0001-01-01T00:00:00Z","name_a2s":"Uncletopia | Dallas | 2 | All Maps","protocol":17,"map":"cp_process_final","folder":"tf","game":"Team Fortress","app_id":440,"player_count":0,"max_players":24,"Bots":0,"server_type":"Dedicated","server_os":"Linux","password":true,"vac":true,"version":"7742253","steam_id":85568392924469988,"keywords":["cp","nocrits","nodmgspread","uncletopia"],"game_id":440,"stv_port":27026,"stv_name":"Uncletopia | Dallas | 2 | All Maps | STV","players":null},{"server_id":5,"name":"Uncletopia | Frankfurt | 1 | All Maps","name_short":"frk-1","host":"frk-1.de.uncletopia.com","port":27015,"enabled":true,"region":"eu","cc":"de","latitude":50.110924,"longitude":8.682127,"reserved":0,"last_update":"0001-01-01T00:00:00Z","name_a2s":"Uncletopia | Frankfurt | 1 | All Maps","protocol":17,"map":"ctf_2fort","folder":"tf","game":"Team Fortress","app_id":440,"player_count":24,"max_players":24,"Bots":0,"server_type":"Dedicated","server_os":"Linux","password":true,"vac":true,"version":"7742253","steam_id":85568392924469989,"keywords":["ctf","nocrits","nodmgspread","uncletopia"],"game_id":440,"stv_port":27016,"stv_name":"Uncletopia | Frankfurt | 1 | All Maps | STV","players":[{"user_id":453,"name":"soopeli","steam_id":76561198003350251,"connected_time":1414000000000,"state":"active","ping":64},{"user_id":448,"name":"Lizardly","steam_id":76561198176750238,"connected_time":1758000000000,"state":"active","ping":69},{"user_id":436,"name":"jormavainen","steam_id":76561198126115435,"connected_time":2398000000000,"state":"active","ping":98},{"user_id":468,"name":"K3YRING","steam_id":76561198408597576,"connected_time":737000000000,"state":"active","ping":91},{"user_id":438,"name":"lord-carlos","steam_id":76561198025150761,"connected_time":2349000000000,"state":"active","ping":46},{"user_id":466,"name":"Artock","steam_id":76561198808599713,"connected_time":826000000000,"state":"active","ping":81},{"user_id":455,"name":"I'm too high for this","steam_id":76561198080053422,"connected_time":1225000000000,"state":"active","ping":60},{"user_id":481,"name":"Acid","steam_id":76561198102110680,"connected_time":218000000000,"state":"active","ping":86},{"user_id":469,"name":"Le Chevalier Pingouin","steam_id":76561198221355000,"connected_time":732000000000,"state":"active","ping":52},{"user_id":430,"name":"16s","steam_id":76561199118850564,"connected_time":3184000000000,"state":"active","ping":114},{"user_id":475,"name":"PotatoMan","steam_id":76561199210412078,"connected_time":555000000000,"state":"active","ping":96},{"user_id":462,"name":"avarage evangelion fan","steam_id":76561198083359604,"connected_time":1076000000000,"state":"active","ping":61},{"user_id":458,"name":"kid named jeezo:","steam_id":76561198123592400,"connected_time":1139000000000,"state":"active","ping":87},{"user_id":459,"name":"Campty","steam_id":76561198810134666,"connected_time":1114000000000,"state":"active","ping":56},{"user_id":470,"name":"Gwishin","steam_id":76561198257158275,"connected_time":676000000000,"state":"active","ping":149},{"user_id":471,"name":"Floris","steam_id":76561198001717422,"connected_time":662000000000,"state":"active","ping":52},{"user_id":485,"name":"Rikard√£o Gamer","steam_id":76561198296251547,"connected_time":89000000000,"state":"active","ping":318},{"user_id":480,"name":"alamodefenders","steam_id":76561199014939498,"connected_time":313000000000,"state":"active","ping":183},{"user_id":482,"name":"Jess_the_Mess","steam_id":76561198149226401,"connected_time":214000000000,"state":"active","ping":58},{"user_id":483,"name":"Regular Human","steam_id":76561198083228561,"connected_time":120000000000,"state":"active","ping":102},{"user_id":484,"name":"nygerbomber209","steam_id":76561199028388329,"connected_time":91000000000,"state":"active","ping":54},{"user_id":477,"name":"wolfgang","steam_id":76561199111818670,"connected_time":542000000000,"state":"active","ping":99},{"user_id":486,"name":"bifi","steam_id":76561198045347066,"connected_time":73000000000,"state":"active","ping":66},{"user_id":488,"name":"tup444","steam_id":76561198847462964,"connected_time":30000000000,"state":"active","ping":95}]},{"server_id":110,"name":"Uncletopia | Frankfurt | 2 | All Maps","name_short":"frk-2","host":"frk-1.de.uncletopia.com","port":27025,"enabled":true,"region":"eu","cc":"de","latitude":50.110924,"longitude":8.682127,"reserved":0,"last_update":"0001-01-01T00:00:00Z","name_a2s":"Uncletopia | Frankfurt | 2 | All Maps","protocol":17,"map":"pl_frontier_final","folder":"tf","game":"Team Fortress","app_id":440,"player_count":21,"max_players":24,"Bots":0,"server_type":"Dedicated","server_os":"Linux","password":true,"vac":true,"version":"7742253","steam_id":85568392924469990,"keywords":["nocrits","nodmgspread","payload","uncletopia"],"game_id":440,"stv_port":27026,"stv_name":"Uncletopia | Frankfurt | 2 | All Maps | STV","players":[{"user_id":248,"name":"Menty","steam_id":76561198036748212,"connected_time":2907000000000,"state":"active","ping":44},{"user_id":280,"name":"kreeekz","steam_id":76561198014431602,"connected_time":695000000000,"state":"active","ping":65},{"user_id":240,"name":"Fat Pigeon","steam_id":76561198817940142,"connected_time":3612000000000,"state":"active","ping":46},{"user_id":161,"name":"BowDoesChilling","steam_id":76561198278133818,"connected_time":7940000000000,"state":"active","ping":59},{"user_id":273,"name":"tekt","steam_id":76561198044554387,"connected_time":914000000000,"state":"active","ping":87},{"user_id":226,"name":"disturbing polish father","steam_id":76561198126398022,"connected_time":5031000000000,"state":"active","ping":74},{"user_id":285,"name":"NALA","steam_id":76561198039806469,"connected_time":102000000000,"state":"active","ping":68},{"user_id":227,"name":"MAKENTAKEN","steam_id":76561199127359587,"connected_time":4818000000000,"state":"active","ping":82},{"user_id":265,"name":"Edward Blom Gaming","steam_id":76561198050214002,"connected_time":1045000000000,"state":"active","ping":60},{"user_id":217,"name":"Micha≈Ç","steam_id":76561198320346362,"connected_time":5277000000000,"state":"active","ping":59},{"user_id":287,"name":"No, Why?","steam_id":76561198888755969,"connected_time":23000000000,"state":"spawning","ping":401},{"user_id":221,"name":"citronous","steam_id":76561198093290934,"connected_time":5230000000000,"state":"active","ping":51},{"user_id":254,"name":"dansci","steam_id":76561198269530717,"connected_time":2676000000000,"state":"active","ping":152},{"user_id":267,"name":"Lateguy","steam_id":76561198069446079,"connected_time":1022000000000,"state":"active","ping":90},{"user_id":286,"name":"Seail_M","steam_id":76561198002405605,"connected_time":83000000000,"state":"active","ping":47},{"user_id":278,"name":"Edward Bloms Julskinka","steam_id":76561198011340227,"connected_time":804000000000,"state":"active","ping":65},{"user_id":193,"name":"JohnTraveltime","steam_id":76561199244281754,"connected_time":6210000000000,"state":"active","ping":76},{"user_id":262,"name":"dunduu","steam_id":76561198875240717,"connected_time":1835000000000,"state":"active","ping":60},{"user_id":281,"name":"mt","steam_id":76561197961319303,"connected_time":532000000000,"state":"active","ping":44},{"user_id":288,"name":"Jason","steam_id":76561198131894488,"connected_time":23000000000,"state":"active","ping":47},{"user_id":245,"name":"small-minded polish hillbilly","steam_id":76561198062107879,"connected_time":3179000000000,"state":"active","ping":76}]},{"server_id":308,"name":"Uncletopia | Frankfurt | 3 | All Maps","name_short":"frk-3","host":"frk-1.de.uncletopia.com","port":27035,"enabled":true,"region":"eu","cc":"de","latitude":50.110924,"longitude":8.682127,"reserved":0,"last_update":"0001-01-01T00:00:00Z","name_a2s":"Uncletopia | Frankfurt | 3 | All Maps","protocol":17,"map":"koth_cascade","folder":"tf","game":"Team Fortress","app_id":440,"player_count":0,"max_players":24,"Bots":0,"server_type":"Dedicated","server_os":"Linux","password":true,"vac":true,"version":"7742253","steam_id":85568392924504274,"keywords":["cp","nocrits","nodmgspread","uncletopia"],"game_id":440,"stv_port":27036,"stv_name":"Uncletopia | Frankfurt | 3 | All Maps | STV","players":null},{"server_id":309,"name":"Uncletopia | Frankfurt | 4 | All Maps","name_short":"frk-4","host":"frk-1.de.uncletopia.com","port":27045,"enabled":true,"region":"eu","cc":"de","latitude":50.110924,"longitude":8.682127,"reserved":0,"last_update":"0001-01-01T00:00:00Z","name_a2s":"Uncletopia | Frankfurt | 4 | All Maps","protocol":17,"map":"cp_process_final","folder":"tf","game":"Team Fortress","app_id":440,"player_count":0,"max_players":24,"Bots":0,"server_type":"Dedicated","server_os":"Linux","password":true,"vac":true,"version":"7742253","steam_id":85568392924504275,"keywords":["cp","nocrits","nodmgspread","uncletopia"],"game_id":440,"stv_port":27046,"stv_name":"Uncletopia | Frankfurt | 4 | All Maps | STV","players":null},{"server_id":310,"name":"Uncletopia | Frankfurt | 5 | All Maps","name_short":"frk-5","host":"frk-1.de.uncletopia.com","port":27055,"enabled":true,"region":"eu","cc":"de","latitude":50.110924,"longitude":8.682127,"reserved":0,"last_update":"0001-01-01T00:00:00Z","name_a2s":"Uncletopia | Frankfurt | 5 | All Maps","protocol":17,"map":"pl_frontier_final","folder":"tf","game":"Team Fortress","app_id":440,"player_count":24,"max_players":24,"Bots":0,"server_type":"Dedicated","server_os":"Linux","password":true,"vac":true,"version":"7742253","steam_id":85568392924504277,"keywords":["nocrits","nodmgspread","payload","uncletopia"],"game_id":440,"stv_port":27056,"stv_name":"Uncletopia | Frankfurt | 5 | All Maps | STV","players":[{"user_id":61,"name":"Ascendary","steam_id":76561198036267241,"connected_time":2148000000000,"state":"active","ping":76},{"user_id":97,"name":"f–∞t c’Ω’∏t","steam_id":76561198845550388,"connected_time":111000000000,"state":"active","ping":110},{"user_id":41,"name":"waluigi","steam_id":76561198215809251,"connected_time":2922000000000,"state":"active","ping":54},{"user_id":91,"name":"Julez","steam_id":76561198045505082,"connected_time":433000000000,"state":"active","ping":61},{"user_id":74,"name":"Elon Ma cs.deals","steam_id":76561199018053264,"connected_time":1576000000000,"state":"active","ping":63},{"user_id":92,"name":"L√∂ys√§ Masa","steam_id":76561198343396172,"connected_time":432000000000,"state":"active","ping":92},{"user_id":90,"name":".::[SerafeTTiN]::.","steam_id":76561198009471724,"connected_time":456000000000,"state":"active","ping":86},{"user_id":84,"name":"wise ukrainian shaman","steam_id":76561198989398023,"connected_time":854000000000,"state":"active","ping":102},{"user_id":94,"name":"jmp","steam_id":76561198168283286,"connected_time":328000000000,"state":"active","ping":75},{"user_id":60,"name":"Pabs :D","steam_id":76561198000016962,"connected_time":2260000000000,"state":"active","ping":59},{"user_id":71,"name":"Sandvich Gaming","steam_id":76561199079493666,"connected_time":1609000000000,"state":"active","ping":97},{"user_id":99,"name":"YILK","steam_id":76561198077913307,"connected_time":65000000000,"state":"active","ping":53},{"user_id":89,"name":"moopviii","steam_id":76561199177831851,"connected_time":502000000000,"state":"active","ping":135},{"user_id":46,"name":"The Wuzy :)","steam_id":76561199138271019,"connected_time":2731000000000,"state":"active","ping":64},{"user_id":70,"name":"Goliath","steam_id":76561198088583638,"connected_time":1675000000000,"state":"active","ping":50},{"user_id":95,"name":"Clamor_","steam_id":76561198104368295,"connected_time":260000000000,"state":"active","ping":83},{"user_id":49,"name":"WHUSSKEY","steam_id":76561198137827441,"connected_time":2658000000000,"state":"active","ping":70},{"user_id":98,"name":"Leland Palmer","steam_id":76561197988580782,"connected_time":111000000000,"state":"active","ping":66},{"user_id":82,"name":"JugoTopia","steam_id":76561197996067209,"connected_time":968000000000,"state":"active","ping":116},{"user_id":78,"name":"leonardini.w #SaveTF2","steam_id":76561199097963071,"connected_time":1435000000000,"state":"active","ping":84},{"user_id":55,"name":"anairat","steam_id":76561198863788240,"connected_time":2597000000000,"state":"active","ping":79},{"user_id":56,"name":"jt7","steam_id":76561198073655162,"connected_time":2592000000000,"state":"active","ping":66},{"user_id":57,"name":"Dolcelatte","steam_id":76561198038501770,"connected_time":2571000000000,"state":"active","ping":48},{"user_id":86,"name":"Gnome561","steam_id":76561198183771141,"connected_time":700000000000,"state":"active","ping":81}]},{"server_id":311,"name":"Uncletopia | Frankfurt | 6 | All Maps","name_short":"frk-6","host":"frk-1.de.uncletopia.com","port":27065,"enabled":true,"region":"eu","cc":"de","latitude":50.110924,"longitude":8.682127,"reserved":0,"last_update":"0001-01-01T00:00:00Z","name_a2s":"Uncletopia | Frankfurt | 6 | All Maps","protocol":17,"map":"cp_dustbowl","folder":"tf","game":"Team Fortress","app_id":440,"player_count":24,"max_players":24,"Bots":0,"server_type":"Dedicated","server_os":"Linux","password":true,"vac":true,"version":"7742253","steam_id":85568392924504278,"keywords":["cp","nocrits","nodmgspread","uncletopia"],"game_id":440,"stv_port":27066,"stv_name":"Uncletopia | Frankfurt | 6 | All Maps | STV","players":[{"user_id":125,"name":"Boycie","steam_id":76561198179116027,"connected_time":3599000000000,"state":"active","ping":62},{"user_id":135,"name":"Captain Morgan","steam_id":76561198062237929,"connected_time":2012000000000,"state":"active","ping":74},{"user_id":131,"name":"Raxor","steam_id":76561198239927434,"connected_time":2499000000000,"state":"active","ping":90},{"user_id":140,"name":"yea","steam_id":76561198399674779,"connected_time":1756000000000,"state":"active","ping":83},{"user_id":170,"name":"„É¨„Éà„ÅÆÂ•áÂ¶ô„Å™ÂÜíÈô∫","steam_id":76561198419429742,"connected_time":258000000000,"state":"active","ping":50},{"user_id":171,"name":"Ciaguta_rolex","steam_id":76561198046709588,"connected_time":249000000000,"state":"active","ping":74},{"user_id":108,"name":"VK2124 :D","steam_id":76561198111130688,"connected_time":4471000000000,"state":"active","ping":47},{"user_id":128,"name":"Jedi Knight","steam_id":76561198039030709,"connected_time":3278000000000,"state":"active","ping":45},{"user_id":160,"name":"True American Hero","steam_id":76561198025473302,"connected_time":783000000000,"state":"active","ping":175},{"user_id":63,"name":"john fortress","steam_id":76561198202668788,"connected_time":7628000000000,"state":"active","ping":63},{"user_id":167,"name":"Grey","steam_id":76561198073954578,"connected_time":579000000000,"state":"active","ping":83},{"user_id":143,"name":"Gorilla","steam_id":76561199250963099,"connected_time":1602000000000,"state":"active","ping":79},{"user_id":144,"name":"Gabriel Masa","steam_id":76561198211455375,"connected_time":1564000000000,"state":"active","ping":74},{"user_id":175,"name":"Fyann","steam_id":76561199139052789,"connected_time":99000000000,"state":"active","ping":96},{"user_id":119,"name":"Xayir","steam_id":76561198079566786,"connected_time":3877000000000,"state":"active","ping":72},{"user_id":145,"name":"KazooBard","steam_id":76561198273124726,"connected_time":1479000000000,"state":"active","ping":63},{"user_id":162,"name":"TheKing","steam_id":76561198207787960,"connected_time":734000000000,"state":"active","ping":76},{"user_id":156,"name":"Lepattaja","steam_id":76561198120743889,"connected_time":957000000000,"state":"active","ping":95},{"user_id":173,"name":"nobody","steam_id":76561198180637374,"connected_time":194000000000,"state":"active","ping":88},{"user_id":149,"name":"üòà COCKDESTROYER üòà","steam_id":76561198042846999,"connected_time":1414000000000,"state":"active","ping":70},{"user_id":157,"name":"Bentley","steam_id":76561197978252169,"connected_time":936000000000,"state":"active","ping":76},{"user_id":174,"name":"Chad IV","steam_id":76561198107767058,"connected_time":190000000000,"state":"active","ping":90},{"user_id":165,"name":"lolimsogreat21","steam_id":76561199052033788,"connected_time":633000000000,"state":"active","ping":121},{"user_id":166,"name":"R8 Player","steam_id":76561198064048189,"connected_time":613000000000,"state":"active","ping":64}]},{"server_id":23,"name":"Uncletopia | Frankfurt | 7 | Stopwatch Beta","name_short":"frk-7","host":"frk-1.de.uncletopia.com","port":27075,"enabled":true,"region":"eu","cc":"de","latitude":50.110924,"longitude":8.682127,"reserved":0,"last_update":"0001-01-01T00:00:00Z","name_a2s":"Uncletopia | Frankfurt | 7 | Stopwatch Beta","protocol":17,"map":"pl_badwater","folder":"tf","game":"Team Fortress","app_id":440,"player_count":0,"max_players":24,"Bots":0,"server_type":"Dedicated","server_os":"Linux","password":true,"vac":true,"version":"7742253","steam_id":85568392924742827,"keywords":["nocrits","nodmgspread","payload","uncletopia"],"game_id":440,"stv_port":27076,"stv_name":"Uncletopia | Frankfurt | 7 | Stopwatch Beta | STV","players":null},{"server_id":24,"name":"Uncletopia | Frankfurt | 8 | Community","name_short":"frk-8","host":"frk-1.de.uncletopia.com","port":27085,"enabled":true,"region":"eu","cc":"de","latitude":50.110924,"longitude":8.682127,"reserved":0,"last_update":"0001-01-01T00:00:00Z","name_a2s":"Uncletopia | Frankfurt | 8 | Community","protocol":17,"map":"koth_cascade","folder":"tf","game":"Team Fortress","app_id":440,"player_count":0,"max_players":24,"Bots":0,"server_type":"Dedicated","server_os":"Linux","password":true,"vac":true,"version":"7742253","steam_id":85568392924742828,"keywords":["cp","nocrits","nodmgspread","uncletopia"],"game_id":440,"stv_port":27086,"stv_name":"Uncletopia | Frankfurt | 8 | Community | STV","players":null},{"server_id":202,"name":"Uncletopia | Hong Kong | 1 | All Maps","name_short":"hgk-1","host":"hgk-1.hk.uncletopia.com","port":27015,"enabled":true,"region":"asia","cc":"hk","latitude":22.302711,"longitude":114.177216,"reserved":0,"last_update":"0001-01-01T00:00:00Z","name_a2s":"Uncletopia | Hong Kong | 1 | All Maps","protocol":17,"map":"pl_frontier_final","folder":"tf","game":"Team Fortress","app_id":440,"player_count":24,"max_players":24,"Bots":0,"server_type":"Dedicated","server_os":"Linux","password":true,"vac":true,"version":"7742253","steam_id":85568392924494504,"keywords":["nocrits","nodmgspread","payload","uncletopia"],"game_id":440,"stv_port":27016,"stv_name":"Uncletopia | Hong Kong | 1 | All Maps | STV","players":[{"user_id":985,"name":"Wakiiiz","steam_id":76561198850134590,"connected_time":10492000000000,"state":"active","ping":50},{"user_id":1052,"name":"m1ko-  ‚ùÄ‚ùÜ","steam_id":76561198337154745,"connected_time":2188000000000,"state":"active","ping":130},{"user_id":1049,"name":"Pillboi","steam_id":76561198011172886,"connected_time":3341000000000,"state":"active","ping":45},{"user_id":1035,"name":"Û†Ä°Û†Ä°","steam_id":76561198413116920,"connected_time":4836000000000,"state":"active","ping":78},{"user_id":1044,"name":"Bertengkar","steam_id":76561198213031155,"connected_time":3990000000000,"state":"active","ping":102},{"user_id":1028,"name":"am not playing minecraft","steam_id":76561199077602424,"connected_time":5372000000000,"state":"active","ping":56},{"user_id":1054,"name":"Ïø†ÌÇ§","steam_id":76561197997220367,"connected_time":2124000000000,"state":"active","ping":47},{"user_id":1066,"name":"I LOVE SZA","steam_id":76561198400698408,"connected_time":637000000000,"state":"active","ping":87},{"user_id":1055,"name":"ScaldingCoffee","steam_id":76561199053910995,"connected_time":2123000000000,"state":"active","ping":78},{"user_id":1069,"name":"hpeed","steam_id":76561198808595586,"connected_time":446000000000,"state":"active","ping":115},{"user_id":1057,"name":"Gwa","steam_id":76561198858555818,"connected_time":2111000000000,"state":"active","ping":133},{"user_id":1067,"name":"dntkddnr7514","steam_id":76561198125363469,"connected_time":625000000000,"state":"active","ping":82},{"user_id":1050,"name":"clori","steam_id":76561199146847474,"connected_time":2968000000000,"state":"active","ping":49},{"user_id":1051,"name":"Faclo","steam_id":76561198217101861,"connected_time":2555000000000,"state":"active","ping":43},{"user_id":1045,"name":"Alan the Annihilator","steam_id":76561198346128694,"connected_time":3989000000000,"state":"active","ping":68},{"user_id":1061,"name":"Puddin","steam_id":76561198140052918,"connected_time":1770000000000,"state":"active","ping":95},{"user_id":1060,"name":"indistinguishable from magic","steam_id":76561198442507642,"connected_time":2025000000000,"state":"active","ping":91},{"user_id":1034,"name":"0range","steam_id":76561198241996524,"connected_time":4956000000000,"state":"active","ping":93},{"user_id":1071,"name":"ÊØç„ÅÆËÇâÂõ£Â≠ê","steam_id":76561198069561896,"connected_time":397000000000,"state":"active","ping":46},{"user_id":1059,"name":"tybrl","steam_id":76561198055553140,"connected_time":2067000000000,"state":"active","ping":84},{"user_id":1063,"name":"The Cake is a lie","steam_id":76561198190738610,"connected_time":714000000000,"state":"active","ping":84},{"user_id":1038,"name":"instant karma","steam_id":76561198027307933,"connected_time":4647000000000,"state":"active","ping":48},{"user_id":1072,"name":"Sel","steam_id":76561198190923207,"connected_time":323000000000,"state":"active","ping":60},{"user_id":1040,"name":"Momoxhien","steam_id":76561198414997429,"connected_time":4031000000000,"state":"active","ping":59}]},{"server_id":1,"name":"Uncletopia | Los Angeles | 1 | All Maps","name_short":"lax-1","host":"lax-1.us.uncletopia.com","port":27015,"enabled":true,"region":"us-west","cc":"us","latitude":33.94279,"longitude":-118.41004,"reserved":0,"last_update":"0001-01-01T00:00:00Z","name_a2s":"Uncletopia | Los Angeles | 1 | All Maps","protocol":17,"map":"cp_dustbowl","folder":"tf","game":"Team Fortress","app_id":440,"player_count":0,"max_players":24,"Bots":0,"server_type":"Dedicated","server_os":"Linux","password":true,"vac":true,"version":"7742253","steam_id":85568392924469991,"keywords":["cp","nocrits","nodmgspread","uncletopia"],"game_id":440,"stv_port":27016,"stv_name":"Uncletopia | Los Angeles | 1 | All Maps | STV","players":null},{"server_id":112,"name":"Uncletopia | Los Angeles | 2 | All Maps","name_short":"lax-2","host":"lax-1.us.uncletopia.com","port":27025,"enabled":true,"region":"us-west","cc":"us","latitude":33.94279,"longitude":-118.41004,"reserved":0,"last_update":"0001-01-01T00:00:00Z","name_a2s":"Uncletopia | Los Angeles | 2 | All Maps","protocol":17,"map":"pl_frontier_final","folder":"tf","game":"Team Fortress","app_id":440,"player_count":0,"max_players":24,"Bots":0,"server_type":"Dedicated","server_os":"Linux","password":true,"vac":true,"version":"7742253","steam_id":85568392924469992,"keywords":["nocrits","nodmgspread","payload","uncletopia"],"game_id":440,"stv_port":27026,"stv_name":"Uncletopia | Los Angeles | 2 | All Maps | STV","players":null},{"server_id":324,"name":"Uncletopia | Los Angeles | 3 | All Maps","name_short":"lax-3","host":"lax-1.us.uncletopia.com","port":27035,"enabled":true,"region":"us-west","cc":"us","latitude":33.94279,"longitude":-118.41004,"reserved":0,"last_update":"0001-01-01T00:00:00Z","name_a2s":"Uncletopia | Los Angeles | 3 | All Maps","protocol":17,"map":"cp_snakewater_final1","folder":"tf","game":"Team Fortress","app_id":440,"player_count":0,"max_players":24,"Bots":0,"server_type":"Dedicated","server_os":"Linux","password":true,"vac":true,"version":"7742253","steam_id":85568392924510198,"keywords":["cp","nocrits","nodmgspread","uncletopia"],"game_id":440,"stv_port":27036,"stv_name":"Uncletopia | Los Angeles | 3 | All Maps | STV","players":null},{"server_id":25,"name":"Uncletopia | Los Angeles | 4 | Stopwatch Beta","name_short":"lax-4","host":"lax-1.us.uncletopia.com","port":27045,"enabled":true,"region":"us-west","cc":"us","latitude":33.94279,"longitude":-118.41004,"reserved":0,"last_update":"0001-01-01T00:00:00Z","name_a2s":"Uncletopia | Los Angeles | 4 | Stopwatch Beta","protocol":17,"map":"cp_snakewater_final1","folder":"tf","game":"Team Fortress","app_id":440,"player_count":0,"max_players":24,"Bots":0,"server_type":"Dedicated","server_os":"Linux","password":true,"vac":true,"version":"7742253","steam_id":85568392924510199,"keywords":["cp","nocrits","nodmgspread","uncletopia"],"game_id":440,"stv_port":27046,"stv_name":"Uncletopia | Los Angeles | 4 | Stopwatch Beta | STV","players":null},{"server_id":11,"name":"Uncletopia | London | 1 | All Maps","name_short":"lon-1","host":"lon-1.uk.uncletopia.com","port":27015,"enabled":true,"region":"eu","cc":"gb","latitude":51.509865,"longitude":-0.118092,"reserved":0,"last_update":"0001-01-01T00:00:00Z","name_a2s":"Uncletopia | London | 1 | All Maps","protocol":17,"map":"pl_frontier_final","folder":"tf","game":"Team Fortress","app_id":440,"player_count":24,"max_players":24,"Bots":0,"server_type":"Dedicated","server_os":"Linux","password":true,"vac":true,"version":"7742253","steam_id":85568392924367362,"keywords":["nocrits","nodmgspread","payload","uncletopia"],"game_id":440,"stv_port":27016,"stv_name":"Uncletopia | London | 1 | All Maps | STV","players":[{"user_id":153,"name":"Louki","steam_id":76561198150080041,"connected_time":1033000000000,"state":"active","ping":61},{"user_id":164,"name":"purplecan","steam_id":76561199208283508,"connected_time":894000000000,"state":"active","ping":68},{"user_id":120,"name":"Ciccioimberlicchio","steam_id":76561198031239041,"connected_time":4975000000000,"state":"active","ping":66},{"user_id":148,"name":"nudjura","steam_id":76561198281986139,"connected_time":1399000000000,"state":"active","ping":47},{"user_id":167,"name":"Son Goku","steam_id":76561199383437138,"connected_time":284000000000,"state":"active","ping":121},{"user_id":130,"name":"Green","steam_id":76561198183580019,"connected_time":3279000000000,"state":"active","ping":72},{"user_id":47,"name":"roblan11","steam_id":76561198066839258,"connected_time":6782000000000,"state":"active","ping":53},{"user_id":135,"name":"kackboon","steam_id":76561198044189114,"connected_time":3045000000000,"state":"active","ping":65},{"user_id":139,"name":"aikeb","steam_id":76561198137506427,"connected_time":2813000000000,"state":"active","ping":62},{"user_id":145,"name":"Fluffy","steam_id":76561198084447725,"connected_time":2147000000000,"state":"active","ping":45},{"user_id":168,"name":"Slex_","steam_id":76561198118483396,"connected_time":144000000000,"state":"active","ping":52},{"user_id":129,"name":"Koli","steam_id":76561197992428783,"connected_time":3427000000000,"state":"active","ping":60},{"user_id":149,"name":"ryce","steam_id":76561198256262286,"connected_time":1347000000000,"state":"active","ping":56},{"user_id":127,"name":"Sylbar","steam_id":76561198065379590,"connected_time":3437000000000,"state":"active","ping":65},{"user_id":161,"name":"MarioThePlumber","steam_id":76561198314229530,"connected_time":965000000000,"state":"active","ping":78},{"user_id":131,"name":"pitagora","steam_id":76561198402335041,"connected_time":3272000000000,"state":"active","ping":67},{"user_id":152,"name":"Thamahawk76","steam_id":76561198061986360,"connected_time":1038000000000,"state":"active","ping":134},{"user_id":162,"name":"Aera","steam_id":76561198113324486,"connected_time":952000000000,"state":"active","ping":46},{"user_id":146,"name":"eggslut","steam_id":76561198010752241,"connected_time":2103000000000,"state":"active","ping":64},{"user_id":160,"name":"After8","steam_id":76561198090750865,"connected_time":970000000000,"state":"active","ping":85},{"user_id":163,"name":"rlty","steam_id":76561198009395055,"connected_time":944000000000,"state":"active","ping":130},{"user_id":159,"name":"GGabesz","steam_id":76561198117199068,"connected_time":975000000000,"state":"active","ping":76},{"user_id":68,"name":"Xydran","steam_id":76561198042397402,"connected_time":6011000000000,"state":"active","ping":70},{"user_id":74,"name":"faqing POG BOG","steam_id":76561198042749479,"connected_time":5820000000000,"state":"active","ping":50}]},{"server_id":114,"name":"Uncletopia | London | 2 | All Maps","name_short":"lon-2","host":"lon-1.uk.uncletopia.com","port":27025,"enabled":true,"region":"eu","cc":"gb","latitude":51.509865,"longitude":-0.118092,"reserved":0,"last_update":"0001-01-01T00:00:00Z","name_a2s":"Uncletopia | London | 2 | All Maps","protocol":17,"map":"pl_frontier_final","folder":"tf","game":"Team Fortress","app_id":440,"player_count":24,"max_players":24,"Bots":0,"server_type":"Dedicated","server_os":"Linux","password":true,"vac":true,"version":"7742253","steam_id":85568392924470941,"keywords":["nocrits","nodmgspread","payload","uncletopia"],"game_id":440,"stv_port":27026,"stv_name":"Uncletopia | London | 2 | All Maps | STV","players":[{"user_id":284,"name":"you're gonna make me act up","steam_id":76561198022115830,"connected_time":2087000000000,"state":"active","ping":75},{"user_id":257,"name":"t.tv/soarfps","steam_id":76561198010662796,"connected_time":4009000000000,"state":"active","ping":50},{"user_id":301,"name":"Citrus","steam_id":76561198090650837,"connected_time":68000000000,"state":"active","ping":44},{"user_id":262,"name":"breaking bow","steam_id":76561198076219289,"connected_time":3210000000000,"state":"active","ping":45},{"user_id":235,"name":"R8N - Obismal","steam_id":76561198007482714,"connected_time":5013000000000,"state":"active","ping":73},{"user_id":282,"name":":)","steam_id":76561198103988618,"connected_time":2301000000000,"state":"active","ping":55},{"user_id":271,"name":"Tobi","steam_id":76561198049890080,"connected_time":2814000000000,"state":"active","ping":44},{"user_id":268,"name":"√Ñ√§rik ‚ô£","steam_id":76561198131871737,"connected_time":2974000000000,"state":"active","ping":59},{"user_id":288,"name":"murderwow","steam_id":76561198024566944,"connected_time":867000000000,"state":"active","ping":118},{"user_id":297,"name":"ÏõÉ","steam_id":76561199026097466,"connected_time":238000000000,"state":"active","ping":75},{"user_id":277,"name":"xing xilling","steam_id":76561198053394831,"connected_time":2377000000000,"state":"active","ping":70},{"user_id":223,"name":"TSx* Naxer","steam_id":76561198011986779,"connected_time":5432000000000,"state":"active","ping":66},{"user_id":296,"name":"ck","steam_id":76561197984084920,"connected_time":260000000000,"state":"active","ping":74},{"user_id":291,"name":"kinimon","steam_id":76561198178453270,"connected_time":357000000000,"state":"active","ping":37},{"user_id":295,"name":".ZigZaggedly","steam_id":76561199225859056,"connected_time":330000000000,"state":"active","ping":47},{"user_id":298,"name":"sin","steam_id":76561198193416785,"connected_time":231000000000,"state":"active","ping":53},{"user_id":254,"name":"wheelie bin","steam_id":76561198040040328,"connected_time":4218000000000,"state":"active","ping":52},{"user_id":260,"name":"soar32_PL","steam_id":76561198084799925,"connected_time":3597000000000,"state":"active","ping":74},{"user_id":292,"name":"blue mean-eyes","steam_id":76561198060105180,"connected_time":354000000000,"state":"active","ping":74},{"user_id":236,"name":"Caruzon - Obismal","steam_id":76561198036211170,"connected_time":4936000000000,"state":"active","ping":74},{"user_id":290,"name":"Soar smelly :)","steam_id":76561198133901720,"connected_time":373000000000,"state":"active","ping":67},{"user_id":300,"name":"Heretican","steam_id":76561198018202228,"connected_time":116000000000,"state":"active","ping":51},{"user_id":281,"name":"thekoolest88","steam_id":76561199022415672,"connected_time":2330000000000,"state":"active","ping":141}]},{"server_id":320,"name":"Uncletopia | London | 3 | All Maps","name_short":"lon-3","host":"lon-1.uk.uncletopia.com","port":27035,"enabled":true,"region":"eu","cc":"gb","latitude":51.509865,"longitude":-0.118092,"reserved":0,"last_update":"0001-01-01T00:00:00Z","name_a2s":"Uncletopia | London | 3 | All Maps","protocol":17,"map":"cp_steel","folder":"tf","game":"Team Fortress","app_id":440,"player_count":24,"max_players":24,"Bots":0,"server_type":"Dedicated","server_os":"Linux","password":true,"vac":true,"version":"7742253","steam_id":85568392924510192,"keywords":["cp","nocrits","nodmgspread","uncletopia"],"game_id":440,"stv_port":27036,"stv_name":"Uncletopia | London | 3 | All Maps | STV","players":[{"user_id":45,"name":"AleXandriX","steam_id":76561198035203950,"connected_time":3652000000000,"state":"active","ping":70},{"user_id":46,"name":"bob","steam_id":76561198309295580,"connected_time":3629000000000,"state":"active","ping":74},{"user_id":79,"name":"Circular","steam_id":76561198001536710,"connected_time":2312000000000,"state":"active","ping":57},{"user_id":69,"name":"Noob_with_source","steam_id":76561198870362103,"connected_time":3164000000000,"state":"active","ping":50},{"user_id":119,"name":"brick fortress","steam_id":76561198052465575,"connected_time":246000000000,"state":"active","ping":72},{"user_id":123,"name":"Frazzles","steam_id":76561199228009586,"connected_time":137000000000,"state":"active","ping":54},{"user_id":40,"name":"Burgermeister","steam_id":76561199454619979,"connected_time":3737000000000,"state":"active","ping":141},{"user_id":67,"name":"JeanCorben","steam_id":76561197965133561,"connected_time":3241000000000,"state":"active","ping":45},{"user_id":112,"name":"–ò–Ω—Å–ø–µ–∫—Ç–æ—Ä –ê—Ç–∞—Å","steam_id":76561199175688390,"connected_time":483000000000,"state":"active","ping":89},{"user_id":113,"name":"Omerta","steam_id":76561197989478766,"connected_time":482000000000,"state":"active","ping":60},{"user_id":78,"name":"Daoloth, Render of the Veils","steam_id":76561198115106008,"connected_time":2921000000000,"state":"active","ping":50},{"user_id":115,"name":"Trolli","steam_id":76561199069726280,"connected_time":473000000000,"state":"active","ping":53},{"user_id":91,"name":"poliakov.noam","steam_id":76561199259322961,"connected_time":1531000000000,"state":"active","ping":92},{"user_id":121,"name":"FhOsAn","steam_id":76561198057418427,"connected_time":212000000000,"state":"active","ping":75},{"user_id":90,"name":"kaT","steam_id":76561198879664338,"connected_time":1648000000000,"state":"active","ping":66},{"user_id":54,"name":"TheWisePenny","steam_id":76561198196492146,"connected_time":3414000000000,"state":"active","ping":54},{"user_id":117,"name":"Gandalf","steam_id":76561199072668363,"connected_time":466000000000,"state":"active","ping":86},{"user_id":56,"name":"PhantomStriker","steam_id":76561199116689935,"connected_time":3364000000000,"state":"active","ping":68},{"user_id":122,"name":"Frank","steam_id":76561198086672774,"connected_time":190000000000,"state":"active","ping":45},{"user_id":84,"name":"Miton","steam_id":76561197970323209,"connected_time":2248000000000,"state":"active","ping":92},{"user_id":124,"name":"Pyrolander","steam_id":76561198050785450,"connected_time":104000000000,"state":"active","ping":46},{"user_id":96,"name":"Krabs","steam_id":76561198161679477,"connected_time":964000000000,"state":"active","ping":44},{"user_id":74,"name":"orangetimeOT","steam_id":76561199114900319,"connected_time":3090000000000,"state":"active","ping":69},{"user_id":109,"name":"Cosmetic brain","steam_id":76561198055936410,"connected_time":542000000000,"state":"active","ping":84}]},{"server_id":321,"name":"Uncletopia | London | 4 | All Maps","name_short":"lon-4","host":"lon-1.uk.uncletopia.com","port":27045,"enabled":true,"region":"eu","cc":"gb","latitude":51.509865,"longitude":-0.118092,"reserved":0,"last_update":"0001-01-01T00:00:00Z","name_a2s":"Uncletopia | London | 4 | All Maps","protocol":17,"map":"cp_process_final","folder":"tf","game":"Team Fortress","app_id":440,"player_count":24,"max_players":24,"Bots":0,"server_type":"Dedicated","server_os":"Linux","password":true,"vac":true,"version":"7742253","steam_id":85568392924510193,"keywords":["cp","nocrits","nodmgspread","uncletopia"],"game_id":440,"stv_port":27046,"stv_name":"Uncletopia | London | 4 | All Maps | STV","players":[{"user_id":294,"name":"12Adam12","steam_id":76561198037882443,"connected_time":1061000000000,"state":"active","ping":45},{"user_id":210,"name":"TxrraFINN","steam_id":76561199006591691,"connected_time":6051000000000,"state":"active","ping":51},{"user_id":270,"name":"Suspicious Cabin","steam_id":76561198083261198,"connected_time":2663000000000,"state":"active","ping":52},{"user_id":295,"name":"LazarusReturns","steam_id":76561198058827319,"connected_time":1058000000000,"state":"active","ping":44},{"user_id":305,"name":"UNO, The Ubisoft Original","steam_id":76561198846784757,"connected_time":88000000000,"state":"active","ping":46},{"user_id":292,"name":"Teddy \u003c3","steam_id":76561198307893662,"connected_time":1467000000000,"state":"active","ping":60},{"user_id":282,"name":"WOO","steam_id":76561198081699492,"connected_time":2055000000000,"state":"active","ping":60},{"user_id":271,"name":"Kurage","steam_id":76561198021221288,"connected_time":2582000000000,"state":"active","ping":72},{"user_id":288,"name":"Hedj","steam_id":76561198108369687,"connected_time":1961000000000,"state":"active","ping":44},{"user_id":302,"name":"LasagnaLarry22","steam_id":76561198089478290,"connected_time":441000000000,"state":"active","ping":43},{"user_id":265,"name":"macauw","steam_id":76561198010467088,"connected_time":3162000000000,"state":"active","ping":49},{"user_id":276,"name":"Milosz52","steam_id":76561199060940204,"connected_time":2316000000000,"state":"active","ping":81},{"user_id":296,"name":"potato wedgie UNITED!!","steam_id":76561198256755222,"connected_time":1030000000000,"state":"active","ping":42},{"user_id":298,"name":"sniper ruins TF2","steam_id":76561199439030016,"connected_time":994000000000,"state":"active","ping":111},{"user_id":297,"name":"Dr. Enforcicle (real)","steam_id":76561198964471859,"connected_time":1022000000000,"state":"active","ping":123},{"user_id":262,"name":"Lyell","steam_id":76561198350329389,"connected_time":3438000000000,"state":"active","ping":80},{"user_id":293,"name":"Hexagon","steam_id":76561198151205758,"connected_time":1154000000000,"state":"active","ping":60},{"user_id":268,"name":"apple","steam_id":76561198116932635,"connected_time":2841000000000,"state":"active","ping":41},{"user_id":274,"name":"night.s","steam_id":76561198326287823,"connected_time":2527000000000,"state":"active","ping":84},{"user_id":306,"name":"C O M F Y","steam_id":76561198072101210,"connected_time":71000000000,"state":"active","ping":151},{"user_id":300,"name":"MESSI","steam_id":76561198179339326,"connected_time":905000000000,"state":"active","ping":89},{"user_id":290,"name":"ShaDen 16Rus","steam_id":76561197989744083,"connected_time":1866000000000,"state":"active","ping":105},{"user_id":287,"name":"Cossack","steam_id":76561198076661772,"connected_time":1986000000000,"state":"active","ping":95},{"user_id":301,"name":"zaleek69","steam_id":76561198058877595,"connected_time":657000000000,"state":"active","ping":88}]},{"server_id":21,"name":"Uncletopia | London | 5 | All Maps","name_short":"lon-5","host":"lon-1.uk.uncletopia.com","port":27055,"enabled":true,"region":"eu","cc":"gb","latitude":51.509865,"longitude":-0.118092,"reserved":0,"last_update":"0001-01-01T00:00:00Z","name_a2s":"Uncletopia | London | 5 | All Maps","protocol":17,"map":"cp_mercenarypark","folder":"tf","game":"Team Fortress","app_id":440,"player_count":0,"max_players":24,"Bots":0,"server_type":"Dedicated","server_os":"Linux","password":true,"vac":true,"version":"7742253","steam_id":85568392924742829,"keywords":["cp","nocrits","nodmgspread","uncletopia"],"game_id":440,"stv_port":27056,"stv_name":"Uncletopia | London | 5 | All Maps | STV","players":null},{"server_id":22,"name":"Uncletopia | London | 6 | All Maps","name_short":"lon-6","host":"lon-1.uk.uncletopia.com","port":27065,"enabled":true,"region":"eu","cc":"gb","latitude":51.509865,"longitude":-0.118092,"reserved":0,"last_update":"0001-01-01T00:00:00Z","name_a2s":"Uncletopia | London | 6 | All Maps","protocol":17,"map":"koth_lakeside_final","folder":"tf","game":"Team Fortress","app_id":440,"player_count":0,"max_players":24,"Bots":0,"server_type":"Dedicated","server_os":"Linux","password":true,"vac":true,"version":"7742253","steam_id":85568392924742830,"keywords":["cp","nocrits","nodmgspread","uncletopia"],"game_id":440,"stv_port":27066,"stv_name":"Uncletopia | London | 6 | All Maps | STV","players":null},{"server_id":40,"name":"Uncletopia | London | 7 | No Payload","name_short":"lon-7","host":"lon-1.uk.uncletopia.com","port":27075,"enabled":true,"region":"eu","cc":"gb","latitude":51.509865,"longitude":-0.118092,"reserved":0,"last_update":"0001-01-01T00:00:00Z","name_a2s":"Uncletopia | London | 7 | No Payload","protocol":17,"map":"koth_viaduct","folder":"tf","game":"Team Fortress","app_id":440,"player_count":0,"max_players":24,"Bots":0,"server_type":"Dedicated","server_os":"Linux","password":true,"vac":true,"version":"7742253","steam_id":85568392924964314,"keywords":["cp","nocrits","nodmgspread","uncletopia"],"game_id":440,"stv_port":27076,"stv_name":"Uncletopia | London | 7 | No Payload | STV","players":null},{"server_id":41,"name":"Uncletopia | London | 8 | Community","name_short":"lon-8","host":"lon-1.uk.uncletopia.com","port":27085,"enabled":true,"region":"eu","cc":"gb","latitude":51.509865,"longitude":-0.118092,"reserved":0,"last_update":"0001-01-01T00:00:00Z","name_a2s":"Uncletopia | London | 8 | Community","protocol":17,"map":"workshop/koth_ramjam_rc1.ugc459778887","folder":"tf","game":"Team Fortress","app_id":440,"player_count":0,"max_players":24,"Bots":0,"server_type":"Dedicated","server_os":"Linux","password":true,"vac":true,"version":"7742253","steam_id":85568392924964315,"keywords":["cp","nocrits","nodmgspread","uncletopia"],"game_id":440,"stv_port":27086,"stv_name":"Uncletopia | London | 8 | Community | STV","players":null},{"server_id":300,"name":"Uncletopia | Montr√©al | 1 | All Maps","name_short":"mtl-1","host":"mtl-1.ca.uncletopia.com","port":27015,"enabled":true,"region":"us-east","cc":"ca","latitude":45.50889,"longitude":-73.56167,"reserved":0,"last_update":"0001-01-01T00:00:00Z","name_a2s":"Uncletopia | Montr√©al | 1 | All Maps","protocol":17,"map":"pl_pier","folder":"tf","game":"Team Fortress","app_id":440,"player_count":0,"max_players":24,"Bots":0,"server_type":"Dedicated","server_os":"Linux","password":true,"vac":true,"version":"7742253","steam_id":85568392924500087,"keywords":["nocrits","nodmgspread","payload","uncletopia"],"game_id":440,"stv_port":27016,"stv_name":"Uncletopia | Montr√©al | 1 | All Maps | STV","players":null},{"server_id":301,"name":"Uncletopia | Montr√©al | 2 | All Maps","name_short":"mtl-2","host":"mtl-1.ca.uncletopia.com","port":27025,"enabled":true,"region":"us-east","cc":"ca","latitude":45.50889,"longitude":-73.56167,"reserved":0,"last_update":"0001-01-01T00:00:00Z","name_a2s":"Uncletopia | Montr√©al | 2 | All Maps","protocol":17,"map":"koth_highpass","folder":"tf","game":"Team Fortress","app_id":440,"player_count":0,"max_players":24,"Bots":0,"server_type":"Dedicated","server_os":"Linux","password":true,"vac":true,"version":"7742253","steam_id":85568392924500088,"keywords":["cp","nocrits","nodmgspread","uncletopia"],"game_id":440,"stv_port":27026,"stv_name":"Uncletopia | Montr√©al | 2 | All Maps | STV","players":null},{"server_id":302,"name":"Uncletopia | Montr√©al | 3 | All Maps","name_short":"mtl-3","host":"mtl-1.ca.uncletopia.com","port":27035,"enabled":true,"region":"us-east","cc":"ca","latitude":45.50889,"longitude":-73.56167,"reserved":0,"last_update":"0001-01-01T00:00:00Z","name_a2s":"Uncletopia | Montr√©al | 3 | All Maps","protocol":17,"map":"cp_mountainlab","folder":"tf","game":"Team Fortress","app_id":440,"player_count":0,"max_players":24,"Bots":0,"server_type":"Dedicated","server_os":"Linux","password":true,"vac":true,"version":"7742253","steam_id":85568392924500089,"keywords":["cp","nocrits","nodmgspread","uncletopia"],"game_id":440,"stv_port":27036,"stv_name":"Uncletopia | Montr√©al | 3 | All Maps | STV","players":null},{"server_id":303,"name":"Uncletopia | Montr√©al | 4 | No Payload","name_short":"mtl-4","host":"mtl-1.ca.uncletopia.com","port":27045,"enabled":true,"region":"us-east","cc":"ca","latitude":45.50889,"longitude":-73.56167,"reserved":0,"last_update":"0001-01-01T00:00:00Z","name_a2s":"Uncletopia | Montr√©al | 4 | No Payload","protocol":17,"map":"cp_snakewater_final1","folder":"tf","game":"Team Fortress","app_id":440,"player_count":0,"max_players":24,"Bots":0,"server_type":"Dedicated","server_os":"Linux","password":true,"vac":true,"version":"7742253","steam_id":85568392924500090,"keywords":["cp","nocrits","nodmgspread","uncletopia"],"game_id":440,"stv_port":27046,"stv_name":"Uncletopia | Montr√©al | 4 | No Payload | STV","players":null},{"server_id":13,"name":"Uncletopia | New York City | 1 | All Maps","name_short":"nyc-1","host":"nyc-1.us.uncletopia.com","port":27015,"enabled":true,"region":"us-east","cc":"us","latitude":40.73061,"longitude":-73.93524,"reserved":0,"last_update":"0001-01-01T00:00:00Z","name_a2s":"Uncletopia | New York City | 1 | All Maps","protocol":17,"map":"cp_snakewater_final1","folder":"tf","game":"Team Fortress","app_id":440,"player_count":0,"max_players":24,"Bots":0,"server_type":"Dedicated","server_os":"Linux","password":true,"vac":true,"version":"7742253","steam_id":85568392924469993,"keywords":["cp","nocrits","nodmgspread","uncletopia"],"game_id":440,"stv_port":27016,"stv_name":"Uncletopia | New York City | 1 | All Maps | STV","players":null},{"server_id":14,"name":"Uncletopia | New York City | 2 | All Maps","name_short":"nyc-2","host":"nyc-1.us.uncletopia.com","port":27025,"enabled":true,"region":"us-east","cc":"us","latitude":40.73061,"longitude":-73.93524,"reserved":0,"last_update":"0001-01-01T00:00:00Z","name_a2s":"Uncletopia | New York City | 2 | All Maps","protocol":17,"map":"cp_dustbowl","folder":"tf","game":"Team Fortress","app_id":440,"player_count":0,"max_players":24,"Bots":0,"server_type":"Dedicated","server_os":"Linux","password":true,"vac":true,"version":"7742253","steam_id":85568392924469994,"keywords":["cp","nocrits","nodmgspread","uncletopia"],"game_id":440,"stv_port":27026,"stv_name":"Uncletopia | New York City | 2 | All Maps | STV","players":null},{"server_id":15,"name":"Uncletopia | New York City | 3 | Stopwatch Beta","name_short":"nyc-3","host":"nyc-1.us.uncletopia.com","port":27035,"enabled":true,"region":"us-east","cc":"us","latitude":40.73061,"longitude":-73.93524,"reserved":0,"last_update":"0001-01-01T00:00:00Z","name_a2s":"Uncletopia | New York City | 3 | Stopwatch Beta","protocol":17,"map":"pl_pier","folder":"tf","game":"Team Fortress","app_id":440,"player_count":0,"max_players":24,"Bots":0,"server_type":"Dedicated","server_os":"Linux","password":true,"vac":true,"version":"7742253","steam_id":85568392924742820,"keywords":["nocrits","nodmgspread","payload","uncletopia"],"game_id":440,"stv_port":27036,"stv_name":"Uncletopia | New York City | 3 | Stopwatch Beta | STV","players":null},{"server_id":16,"name":"Uncletopia | New York City | 4 | Community","name_short":"nyc-4","host":"nyc-1.us.uncletopia.com","port":27045,"enabled":true,"region":"us-east","cc":"us","latitude":40.73061,"longitude":-73.93524,"reserved":0,"last_update":"0001-01-01T00:00:00Z","name_a2s":"Uncletopia | New York City | 4 | Community","protocol":17,"map":"koth_viaduct","folder":"tf","game":"Team Fortress","app_id":440,"player_count":0,"max_players":24,"Bots":0,"server_type":"Dedicated","server_os":"Linux","password":true,"vac":true,"version":"7742253","steam_id":85568392924742821,"keywords":["cp","nocrits","nodmgspread","uncletopia"],"game_id":440,"stv_port":27046,"stv_name":"Uncletopia | New York City | 4 | Community | STV","players":null},{"server_id":142,"name":"Uncletopia | S√£o Paulo | 1 | All Maps","name_short":"sao-1","host":"sao-1.br.uncletopia.com","port":27015,"enabled":true,"region":"sa","cc":"br","latitude":-23.533773,"longitude":-46.62529,"reserved":0,"last_update":"0001-01-01T00:00:00Z","name_a2s":"Uncletopia | S√£o Paulo | 1 | All Maps","protocol":17,"map":"koth_viaduct","folder":"tf","game":"Team Fortress","app_id":440,"player_count":0,"max_players":24,"Bots":0,"server_type":"Dedicated","server_os":"Linux","password":true,"vac":true,"version":"7742253","steam_id":85568392924469996,"keywords":["cp","nocrits","nodmgspread","uncletopia"],"game_id":440,"stv_port":27016,"stv_name":"Uncletopia | S√£o Paulo | 1 | All Maps | STV","players":null},{"server_id":143,"name":"Uncletopia | S√£o Paulo | 2 | All Maps","name_short":"sao-2","host":"sao-2.br.uncletopia.com","port":27015,"enabled":true,"region":"sa","cc":"br","latitude":-23.533773,"longitude":-46.62529,"reserved":0,"last_update":"0001-01-01T00:00:00Z","name_a2s":"Uncletopia | S√£o Paulo | 2 | All Maps","protocol":17,"map":"koth_viaduct","folder":"tf","game":"Team Fortress","app_id":440,"player_count":0,"max_players":24,"Bots":0,"server_type":"Dedicated","server_os":"Linux","password":true,"vac":true,"version":"7742253","steam_id":85568392924485349,"keywords":["cp","nocrits","nodmgspread","uncletopia"],"game_id":440,"stv_port":27016,"stv_name":"Uncletopia | S√£o Paulo | 2 | All Maps | STV","players":null},{"server_id":7,"name":"Uncletopia | Seattle | 1 | All Maps","name_short":"sea-1","host":"sea-1.us.uncletopia.com","port":27015,"enabled":true,"region":"us-west","cc":"us","latitude":47.608013,"longitude":-122.33517,"reserved":0,"last_update":"0001-01-01T00:00:00Z","name_a2s":"Uncletopia | Seattle | 1 | All Maps","protocol":17,"map":"pl_badwater","folder":"tf","game":"Team Fortress","app_id":440,"player_count":24,"max_players":24,"Bots":0,"server_type":"Dedicated","server_os":"Linux","password":true,"vac":true,"version":"7742253","steam_id":85568392924469997,"keywords":["nocrits","nodmgspread","payload","uncletopia"],"game_id":440,"stv_port":27016,"stv_name":"Uncletopia | Seattle | 1 | All Maps | STV","players":[{"user_id":3,"name":"Sir Loincloth","steam_id":76561198033073991,"connected_time":4386000000000,"state":"active","ping":60},{"user_id":64,"name":"Mania13","steam_id":76561198334886955,"connected_time":554000000000,"state":"active","ping":119},{"user_id":44,"name":"Portuguese Geese","steam_id":76561198145938080,"connected_time":2055000000000,"state":"active","ping":118},{"user_id":36,"name":"world machine","steam_id":76561198020689909,"connected_time":3096000000000,"state":"active","ping":75},{"user_id":71,"name":"Nansral26","steam_id":76561198886650496,"connected_time":7000000000,"state":"spawning","ping":119},{"user_id":51,"name":"Ham Fatty","steam_id":76561198071454198,"connected_time":1449000000000,"state":"active","ping":106},{"user_id":48,"name":"Lord Scrubling","steam_id":76561198263744445,"connected_time":1683000000000,"state":"active","ping":91},{"user_id":10,"name":"PotatMun","steam_id":76561198031448999,"connected_time":4372000000000,"state":"active","ping":83},{"user_id":34,"name":"terraria enjoyer","steam_id":76561198064631164,"connected_time":3193000000000,"state":"active","ping":79},{"user_id":66,"name":"TendedKibbles0","steam_id":76561198320304516,"connected_time":512000000000,"state":"active","ping":120},{"user_id":57,"name":"Anxious Nerd Bird","steam_id":76561198112178602,"connected_time":824000000000,"state":"active","ping":79},{"user_id":63,"name":"4Real","steam_id":76561199051709367,"connected_time":612000000000,"state":"active","ping":60},{"user_id":61,"name":"Octobella Enthusiast","steam_id":76561198199266047,"connected_time":670000000000,"state":"active","ping":117},{"user_id":58,"name":"The Classy Ferret","steam_id":76561198200961750,"connected_time":763000000000,"state":"active","ping":65},{"user_id":59,"name":"Jesus Loves You57","steam_id":76561199058833769,"connected_time":759000000000,"state":"active","ping":52},{"user_id":26,"name":"Huge","steam_id":76561199030987614,"connected_time":3606000000000,"state":"active","ping":166},{"user_id":37,"name":"LORD MC CHUBS","steam_id":76561199396661854,"connected_time":3022000000000,"state":"active","ping":91},{"user_id":25,"name":"VerociousVee","steam_id":76561198289106015,"connected_time":3635000000000,"state":"active","ping":46},{"user_id":68,"name":"Ifrit","steam_id":76561198044730782,"connected_time":390000000000,"state":"active","ping":124},{"user_id":33,"name":"Rhutebeer","steam_id":76561198018302761,"connected_time":3249000000000,"state":"active","ping":136},{"user_id":70,"name":"limegrass619","steam_id":76561198167789909,"connected_time":129000000000,"state":"active","ping":80},{"user_id":67,"name":"dust","steam_id":76561198045218909,"connected_time":512000000000,"state":"active","ping":42},{"user_id":52,"name":"Polpetta","steam_id":76561198044331477,"connected_time":1423000000000,"state":"active","ping":114},{"user_id":38,"name":"SomeGuyWhoLikesPotatoes","steam_id":76561198110276797,"connected_time":2809000000000,"state":"active","ping":53}]},{"server_id":119,"name":"Uncletopia | Seattle | 2 | All Maps","name_short":"sea-2","host":"sea-1.us.uncletopia.com","port":27025,"enabled":true,"region":"us-west","cc":"us","latitude":47.608013,"longitude":-122.33517,"reserved":0,"last_update":"0001-01-01T00:00:00Z","name_a2s":"Uncletopia | Seattle | 2 | All Maps","protocol":17,"map":"cp_sunshine","folder":"tf","game":"Team Fortress","app_id":440,"player_count":0,"max_players":24,"Bots":0,"server_type":"Dedicated","server_os":"Linux","password":true,"vac":true,"version":"7742253","steam_id":85568392924469998,"keywords":["cp","nocrits","nodmgspread","uncletopia"],"game_id":440,"stv_port":27026,"stv_name":"Uncletopia | Seattle | 2 | All Maps | STV","players":null},{"server_id":406,"name":"Uncletopia | Seattle | 3 | Stopwatch Beta","name_short":"sea-3","host":"sea-1.us.uncletopia.com","port":27035,"enabled":true,"region":"us-west","cc":"us","latitude":47.608013,"longitude":-122.33517,"reserved":0,"last_update":"0001-01-01T00:00:00Z","name_a2s":"Uncletopia | Seattle | 3 | Stopwatch Beta","protocol":17,"map":"cp_altitude","folder":"tf","game":"Team Fortress","app_id":440,"player_count":0,"max_players":24,"Bots":0,"server_type":"Dedicated","server_os":"Linux","password":true,"vac":true,"version":"7742253","steam_id":85568392924515217,"keywords":["cp","nocrits","nodmgspread","uncletopia"],"game_id":440,"stv_port":27036,"stv_name":"Uncletopia | Seattle | 3 | Stopwatch Beta | STV","players":null},{"server_id":17,"name":"Uncletopia | San Francisco | 1 | All Maps","name_short":"sfo-1","host":"sfo-1.us.uncletopia.com","port":27015,"enabled":true,"region":"us-west","cc":"us","latitude":37.77397,"longitude":-122.4313,"reserved":0,"last_update":"0001-01-01T00:00:00Z","name_a2s":"Uncletopia | San Francisco | 1 | All Maps","protocol":17,"map":"pl_snowycoast","folder":"tf","game":"Team Fortress","app_id":440,"player_count":0,"max_players":24,"Bots":0,"server_type":"Dedicated","server_os":"Linux","password":true,"vac":true,"version":"7742253","steam_id":85568392924469999,"keywords":["nocrits","nodmgspread","payload","uncletopia"],"game_id":440,"stv_port":27016,"stv_name":"Uncletopia | San Francisco | 1 | All Maps | STV","players":null},{"server_id":18,"name":"Uncletopia | San Francisco | 2 | All Maps","name_short":"sfo-2","host":"sfo-1.us.uncletopia.com","port":27025,"enabled":true,"region":"us-west","cc":"us","latitude":37.77397,"longitude":-122.4313,"reserved":0,"last_update":"0001-01-01T00:00:00Z","name_a2s":"Uncletopia | San Francisco | 2 | All Maps","protocol":17,"map":"cp_altitude","folder":"tf","game":"Team Fortress","app_id":440,"player_count":0,"max_players":24,"Bots":0,"server_type":"Dedicated","server_os":"Linux","password":true,"vac":true,"version":"7742253","steam_id":85568392924470000,"keywords":["cp","nocrits","nodmgspread","uncletopia"],"game_id":440,"stv_port":27026,"stv_name":"Uncletopia | San Francisco | 2 | All Maps | STV","players":null},{"server_id":19,"name":"Uncletopia | San Francisco | 3 | Stopwatch Beta","name_short":"sfo-3","host":"sfo-1.us.uncletopia.com","port":27035,"enabled":true,"region":"us-west","cc":"us","latitude":37.77397,"longitude":-122.4313,"reserved":0,"last_update":"0001-01-01T00:00:00Z","name_a2s":"Uncletopia | San Francisco | 3 | Stopwatch Beta","protocol":17,"map":"cp_snakewater_final1","folder":"tf","game":"Team Fortress","app_id":440,"player_count":0,"max_players":24,"Bots":0,"server_type":"Dedicated","server_os":"Linux","password":true,"vac":true,"version":"7742253","steam_id":85568392924742824,"keywords":["cp","nocrits","nodmgspread","uncletopia"],"game_id":440,"stv_port":27036,"stv_name":"Uncletopia | San Francisco | 3 | Stopwatch Beta | STV","players":null},{"server_id":20,"name":"Uncletopia | San Francisco | 4 | Community","name_short":"sfo-4","host":"sfo-1.us.uncletopia.com","port":27045,"enabled":true,"region":"us-west","cc":"us","latitude":37.77397,"longitude":-122.4313,"reserved":0,"last_update":"0001-01-01T00:00:00Z","name_a2s":"Uncletopia | San Francisco | 4 | Community","protocol":17,"map":"cp_dustbowl","folder":"tf","game":"Team Fortress","app_id":440,"player_count":0,"max_players":24,"Bots":0,"server_type":"Dedicated","server_os":"Linux","password":true,"vac":true,"version":"7742253","steam_id":85568392924742826,"keywords":["cp","nocrits","nodmgspread","uncletopia"],"game_id":440,"stv_port":27046,"stv_name":"Uncletopia | San Francisco | 4 | Community | STV","players":null},{"server_id":141,"name":"Uncletopia | Sydney | 1 | All Maps","name_short":"syd-1","host":"syd-1.au.uncletopia.com","port":27015,"enabled":true,"region":"au","cc":"au","latitude":-33.865143,"longitude":151.2099,"reserved":0,"last_update":"0001-01-01T00:00:00Z","name_a2s":"Uncletopia | Sydney | 1 | All Maps","protocol":17,"map":"koth_viaduct","folder":"tf","game":"Team Fortress","app_id":440,"player_count":1,"max_players":24,"Bots":0,"server_type":"Dedicated","server_os":"Linux","password":true,"vac":true,"version":"7742253","steam_id":85568392924470001,"keywords":["cp","nocrits","nodmgspread","uncletopia"],"game_id":440,"stv_port":27016,"stv_name":"Uncletopia | Sydney | 1 | All Maps | STV","players":[{"user_id":328,"name":"Sk3e_Bob","steam_id":76561199218025223,"connected_time":205000000000,"state":"spawning","ping":296}]},{"server_id":123,"name":"Uncletopia | Sydney | 2 | All Maps","name_short":"syd-2","host":"syd-1.au.uncletopia.com","port":27025,"enabled":true,"region":"au","cc":"au","latitude":-33.865143,"longitude":151.2099,"reserved":0,"last_update":"0001-01-01T00:00:00Z","name_a2s":"Uncletopia | Sydney | 2 | All Maps","protocol":17,"map":"pl_barnblitz","folder":"tf","game":"Team Fortress","app_id":440,"player_count":0,"max_players":24,"Bots":0,"server_type":"Dedicated","server_os":"Linux","password":true,"vac":true,"version":"7742253","steam_id":85568392924470002,"keywords":["nocrits","nodmgspread","payload","uncletopia"],"game_id":440,"stv_port":27026,"stv_name":"Uncletopia | Sydney | 2 | All Maps | STV","players":null},{"server_id":395,"name":"Uncletopia | Sydney | 3 | All Maps","name_short":"syd-3","host":"syd-1.au.uncletopia.com","port":27035,"enabled":true,"region":"au","cc":"au","latitude":-33.865143,"longitude":151.2099,"reserved":0,"last_update":"0001-01-01T00:00:00Z","name_a2s":"Uncletopia | Sydney | 3 | All Maps","protocol":17,"map":"koth_highpass","folder":"tf","game":"Team Fortress","app_id":440,"player_count":0,"max_players":24,"Bots":0,"server_type":"Dedicated","server_os":"Linux","password":true,"vac":true,"version":"7742253","steam_id":85568392925194467,"keywords":["cp","nocrits","nodmgspread","uncletopia"],"game_id":440,"stv_port":27036,"stv_name":"Uncletopia | Sydney | 3 | All Maps | STV","players":null},{"server_id":396,"name":"Uncletopia | Sydney | 4 | All Maps","name_short":"syd-4","host":"syd-1.au.uncletopia.com","port":27045,"enabled":true,"region":"au","cc":"au","latitude":-33.865143,"longitude":151.2099,"reserved":0,"last_update":"0001-01-01T00:00:00Z","name_a2s":"Uncletopia | Sydney | 4 | All Maps","protocol":17,"map":"koth_lakeside_final","folder":"tf","game":"Team Fortress","app_id":440,"player_count":0,"max_players":24,"Bots":0,"server_type":"Dedicated","server_os":"Linux","password":true,"vac":true,"version":"7742253","steam_id":85568392925397958,"keywords":["cp","nocrits","nodmgspread","uncletopia"],"game_id":440,"stv_port":27046,"stv_name":"Uncletopia | Sydney | 4 | All Maps | STV","players":null},{"server_id":58,"name":"Uncletopia | Sydney | 5 | Stopwatch Beta","name_short":"syd-5","host":"syd-1.au.uncletopia.com","port":27055,"enabled":true,"region":"au","cc":"au","latitude":-33.865143,"longitude":151.2099,"reserved":0,"last_update":"0001-01-01T00:00:00Z","name_a2s":"Uncletopia | Sydney | 5 | Stopwatch Beta","protocol":17,"map":"workshop/koth_bagel_rc5.ugc2514036946","folder":"tf","game":"Team Fortress","app_id":440,"player_count":0,"max_players":24,"Bots":0,"server_type":"Dedicated","server_os":"Linux","password":true,"vac":true,"version":"7742253","steam_id":85568392925397959,"keywords":["cp","nocrits","nodmgspread","uncletopia"],"game_id":440,"stv_port":27056,"stv_name":"Uncletopia | Sydney | 5 | Stopwatch Beta | STV","players":null},{"server_id":59,"name":"Uncletopia | Sydney | 6 | Community","name_short":"syd-6","host":"syd-1.au.uncletopia.com","port":27065,"enabled":true,"region":"au","cc":"au","latitude":-33.865143,"longitude":151.2099,"reserved":0,"last_update":"0001-01-01T00:00:00Z","name_a2s":"Uncletopia | Sydney | 6 | Community","protocol":17,"map":"workshop/koth_synthetic_rc6a.ugc1549817316","folder":"tf","game":"Team Fortress","app_id":440,"player_count":0,"max_players":24,"Bots":0,"server_type":"Dedicated","server_os":"Linux","password":true,"vac":true,"version":"7742253","steam_id":85568392925397960,"keywords":["cp","nocrits","nodmgspread","uncletopia"],"game_id":440,"stv_port":27066,"stv_name":"Uncletopia | Sydney | 6 | Community | STV","players":null},{"server_id":49,"name":"Uncletopia | Warsaw | 1 | All Maps","name_short":"waw-1","host":"waw-1.pl.uncletopia.com","port":27015,"enabled":true,"region":"eu","cc":"pl","latitude":52.2297,"longitude":21.017532,"reserved":0,"last_update":"0001-01-01T00:00:00Z","name_a2s":"","protocol":0,"map":"","folder":"","game":"","app_id":0,"player_count":0,"max_players":0,"Bots":0,"server_type":"","server_os":"","password":false,"vac":false,"version":"","steam_id":0,"keywords":null,"game_id":0,"stv_port":0,"stv_name":"","players":null},{"server_id":50,"name":"Uncletopia | Warsaw | 2 | All Maps","name_short":"waw-2","host":"waw-1.pl.uncletopia.com","port":27025,"enabled":true,"region":"eu","cc":"pl","latitude":52.2297,"longitude":21.017532,"reserved":0,"last_update":"0001-01-01T00:00:00Z","name_a2s":"Uncletopia | Warsaw | 2 | All Maps","protocol":17,"map":"koth_lakeside_final","folder":"tf","game":"Team Fortress","app_id":440,"player_count":0,"max_players":24,"Bots":0,"server_type":"Dedicated","server_os":"Linux","password":true,"vac":true,"version":"7742253","steam_id":85568392925397851,"keywords":["cp","nocrits","nodmgspread","uncletopia"],"game_id":440,"stv_port":27026,"stv_name":"Uncletopia | Warsaw | 2 | All Maps | STV","players":null},{"server_id":51,"name":"Uncletopia | Warsaw | 3 | All Maps","name_short":"waw-3","host":"waw-1.pl.uncletopia.com","port":27035,"enabled":true,"region":"eu","cc":"pl","latitude":52.2297,"longitude":21.017532,"reserved":0,"last_update":"0001-01-01T00:00:00Z","name_a2s":"Uncletopia | Warsaw | 3 | All Maps","protocol":17,"map":"koth_lakeside_final","folder":"tf","game":"Team Fortress","app_id":440,"player_count":0,"max_players":24,"Bots":0,"server_type":"Dedicated","server_os":"Linux","password":true,"vac":true,"version":"7742253","steam_id":85568392925397852,"keywords":["cp","nocrits","nodmgspread","uncletopia"],"game_id":440,"stv_port":27036,"stv_name":"Uncletopia | Warsaw | 3 | All Maps | STV","players":null},{"server_id":52,"name":"Uncletopia | Warsaw | 4 | All Maps","name_short":"waw-4","host":"waw-1.pl.uncletopia.com","port":27045,"enabled":true,"region":"eu","cc":"pl","latitude":52.2297,"longitude":21.017532,"reserved":0,"last_update":"0001-01-01T00:00:00Z","name_a2s":"Uncletopia | Warsaw | 4 | All Maps","protocol":17,"map":"pl_barnblitz","folder":"tf","game":"Team Fortress","app_id":440,"player_count":24,"max_players":24,"Bots":0,"server_type":"Dedicated","server_os":"Linux","password":true,"vac":true,"version":"7742253","steam_id":85568392925397853,"keywords":["nocrits","nodmgspread","payload","uncletopia"],"game_id":440,"stv_port":27046,"stv_name":"Uncletopia | Warsaw | 4 | All Maps | STV","players":[{"user_id":159,"name":"Old Hat","steam_id":76561197994673297,"connected_time":1164000000000,"state":"active","ping":65},{"user_id":161,"name":"Gangsta Broccoli","steam_id":76561198051925782,"connected_time":432000000000,"state":"active","ping":113},{"user_id":164,"name":"”ã‘º◊ü.maS","steam_id":76561198114953928,"connected_time":264000000000,"state":"active","ping":88},{"user_id":132,"name":"Fortezza","steam_id":76561198972539903,"connected_time":2823000000000,"state":"active","ping":74},{"user_id":136,"name":"sussy kong","steam_id":76561199116882319,"connected_time":2360000000000,"state":"active","ping":76},{"user_id":134,"name":"Sprottel","steam_id":76561198362958293,"connected_time":2502000000000,"state":"active","ping":56},{"user_id":153,"name":"Insain Bolt!","steam_id":76561198025687726,"connected_time":1355000000000,"state":"active","ping":67},{"user_id":154,"name":"linkinparkfan123","steam_id":76561199033782005,"connected_time":1331000000000,"state":"active","ping":67},{"user_id":162,"name":"V_ODa","steam_id":76561199371432514,"connected_time":371000000000,"state":"active","ping":100},{"user_id":155,"name":"Umbro","steam_id":76561198881752406,"connected_time":1242000000000,"state":"active","ping":62},{"user_id":142,"name":"t0ksi","steam_id":76561198107240798,"connected_time":2185000000000,"state":"active","ping":84},{"user_id":139,"name":"Dachowiec","steam_id":76561198195408281,"connected_time":2290000000000,"state":"active","ping":35},{"user_id":160,"name":"suna militisto","steam_id":76561198352926998,"connected_time":710000000000,"state":"active","ping":117},{"user_id":165,"name":"jon-sol","steam_id":76561198393780721,"connected_time":129000000000,"state":"active","ping":79},{"user_id":108,"name":"Welder","steam_id":76561198355300561,"connected_time":4817000000000,"state":"active","ping":84},{"user_id":123,"name":"ScarredPixel123","steam_id":76561199165112703,"connected_time":3901000000000,"state":"active","ping":120},{"user_id":156,"name":"Zeppelin","steam_id":76561198154867991,"connected_time":1204000000000,"state":"active","ping":63},{"user_id":157,"name":"WeArMature","steam_id":76561198046116420,"connected_time":1200000000000,"state":"active","ping":79},{"user_id":147,"name":"Mr.Dies a lot","steam_id":76561199061602946,"connected_time":1749000000000,"state":"active","ping":114},{"user_id":119,"name":"GardenFungus","steam_id":76561198054894337,"connected_time":4320000000000,"state":"active","ping":72},{"user_id":99,"name":"okar","steam_id":76561198916847884,"connected_time":5511000000000,"state":"active","ping":145},{"user_id":158,"name":"plonked","steam_id":76561198314919758,"connected_time":1193000000000,"state":"active","ping":101},{"user_id":150,"name":"Vero_Wk","steam_id":76561199048182950,"connected_time":1652000000000,"state":"active","ping":77},{"user_id":163,"name":"logaming101","steam_id":76561198433112232,"connected_time":368000000000,"state":"active","ping":189}]},{"server_id":53,"name":"Uncletopia | Warsaw | 5 | Stopwatch Beta","name_short":"waw-5","host":"waw-1.pl.uncletopia.com","port":27055,"enabled":true,"region":"eu","cc":"pl","latitude":52.2297,"longitude":21.017532,"reserved":0,"last_update":"0001-01-01T00:00:00Z","name_a2s":"Uncletopia | Warsaw | 5 | Stopwatch Beta","protocol":17,"map":"pl_swiftwater_final1","folder":"tf","game":"Team Fortress","app_id":440,"player_count":0,"max_players":24,"Bots":0,"server_type":"Dedicated","server_os":"Linux","password":true,"vac":true,"version":"7742253","steam_id":85568392925397854,"keywords":["nocrits","nodmgspread","payload","uncletopia"],"game_id":440,"stv_port":27056,"stv_name":"Uncletopia | Warsaw | 5 | Stopwatch Beta | STV","players":null},{"server_id":54,"name":"Uncletopia | Warsaw | 6 | Community","name_short":"waw-6","host":"waw-1.pl.uncletopia.com","port":27065,"enabled":true,"region":"eu","cc":"pl","latitude":52.2297,"longitude":21.017532,"reserved":0,"last_update":"0001-01-01T00:00:00Z","name_a2s":"Uncletopia | Warsaw | 6 | Community","protocol":17,"map":"koth_highpass","folder":"tf","game":"Team Fortress","app_id":440,"player_count":0,"max_players":24,"Bots":0,"server_type":"Dedicated","server_os":"Linux","password":true,"vac":true,"version":"7742253","steam_id":85568392925397856,"keywords":["cp","nocrits","nodmgspread","uncletopia"],"game_id":440,"stv_port":27066,"stv_name":"Uncletopia | Warsaw | 6 | Community | STV","players":null}]}