{"status":true,"message":"","result":[{"server_id":9,"name":"Uncletopia | Atlanta | 1 | All Maps","name_short":"atl-1","host":"atl-1.us.uncletopia.com","port":27015,"enabled":true,"region":"us-east","cc":"us","latitude":33.753746,"longitude":-84.38633,"reserved":0,"last_update":"0001-01-01T00:00:00Z","name_a2s":"Uncletopia | Atlanta | 1 | All Maps","protocol":17,"map":"pl_badwater","folder":"tf","game":"Team Fortress","app_id":440,"player_count":24,"max_players":24,"Bots":0,"server_type":"Dedicated","server_os":"Linux","password":true,"vac":true,"version":"7961495","steam_id":85568392924469982,"keywords":["nocrits","nodmgspread","payload","uncletopia"],"game_id":440,"stv_port":27016,"stv_name":"Uncletopia | Atlanta | 1 | All Maps | STV","players":null},{"server_id":104,"name":"Uncletopia | Atlanta | 2 | All Maps","name_short":"atl-2","host":"atl-1.us.uncletopia.com","port":27025,"enabled":true,"region":"us-east","cc":"us","latitude":33.753746,"longitude":-84.38633,"reserved":0,"last_update":"0001-01-01T00:00:00Z","name_a2s":"Uncletopia | Atlanta | 2 | All Maps","protocol":17,"map":"cp_steel","folder":"tf","game":"Team Fortress","app_id":440,"player_count":24,"max_players":24,"Bots":0,"server_type":"Dedicated","server_os":"Linux","password":true,"vac":true,"version":"7961495","steam_id":85568392924469983,"keywords":["cp","nocrits","nodmgspread","uncletopia"],"game_id":440,"stv_port":27026,"stv_name":"Uncletopia | Atlanta | 2 | All Maps | STV","players":null},{"server_id":400,"name":"Uncletopia | Atlanta | 3 | Stopwatch","name_short":"atl-3","host":"atl-1.us.uncletopia.com","port":27035,"enabled":true,"region":"us-east","cc":"us","latitude":33.753746,"longitude":-84.38633,"reserved":0,"last_update":"0001-01-01T00:00:00Z","name_a2s":"Uncletopia | Atlanta | 3 | Stopwatch","protocol":17,"map":"cp_reckoner_rc6","folder":"tf","game":"Team Fortress","app_id":440,"player_count":0,"max_players":24,"Bots":0,"server_type":"Dedicated","server_os":"Linux","password":true,"vac":true,"version":"7961495","steam_id":85568392924515187,"keywords":["cp","nocrits","nodmgspread","uncletopia"],"game_id":440,"stv_port":27036,"stv_name":"Uncletopia | Atlanta | 3 | Stopwatch | STV","players":null},{"server_id":401,"name":"Uncletopia | Atlanta | 4 | Community","name_short":"atl-4","host":"atl-1.us.uncletopia.com","port":27045,"enabled":true,"region":"us-east","cc":"us","latitude":33.753746,"longitude":-84.38633,"reserved":0,"last_update":"0001-01-01T00:00:00Z","name_a2s":"Uncletopia | Atlanta | 4 | Community","protocol":17,"map":"koth_ashville_final","folder":"tf","game":"Team Fortress","app_id":440,"player_count":0,"max_players":24,"Bots":0,"server_type":"Dedicated","server_os":"Linux","password":true,"vac":true,"version":"7961495","steam_id":85568392924515188,"keywords":["cp","nocrits","nodmgspread","uncletopia"],"game_id":440,"stv_port":27046,"stv_name":"Uncletopia | Atlanta | 4 | Community | STV","players":null},{"server_id":2,"name":"Uncletopia | Chicago | 1 | All Maps","name_short":"chi-1","host":"chi-1.us.uncletopia.com","port":27015,"enabled":true,"region":"us-central","cc":"us","latitude":41.881832,"longitude":-87.62318,"reserved":0,"last_update":"0001-01-01T00:00:00Z","name_a2s":"Uncletopia | Chicago | 1 | All Maps","protocol":17,"map":"pl_badwater","folder":"tf","game":"Team Fortress","app_id":440,"player_count":24,"max_players":24,"Bots":0,"server_type":"Dedicated","server_os":"Linux","password":true,"vac":true,"version":"7961495","steam_id":85568392924469984,"keywords":["nocrits","nodmgspread","payload","uncletopia"],"game_id":440,"stv_port":27016,"stv_name":"Uncletopia | Chicago | 1 | All Maps | STV","players":[{"user_id":545,"name":"Aster","steam_id":76561198037920420,"connected_time":263000000000,"state":"active","ping":75},{"user_id":511,"name":"ultralisk52","steam_id":76561198051666604,"connected_time":1974000000000,"state":"active","ping":59},{"user_id":524,"name":"little man is chuffed","steam_id":76561198057054984,"connected_time":1140000000000,"state":"active","ping":100},{"user_id":498,"name":"HOMIE","steam_id":76561198057325155,"connected_time":3119000000000,"state":"active","ping":62},{"user_id":546,"name":"Prophet No. 8","steam_id":76561199164300600,"connected_time":254000000000,"state":"active","ping":75},{"user_id":525,"name":"fishy","steam_id":76561198018622305,"connected_time":1135000000000,"state":"active","ping":72},{"user_id":454,"name":"cube","steam_id":76561197991759721,"connected_time":5933000000000,"state":"active","ping":60},{"user_id":532,"name":"Cooler Ye","steam_id":76561198068830312,"connected_time":1044000000000,"state":"active","ping":46},{"user_id":522,"name":"KBoneski ♡","steam_id":76561198307409065,"connected_time":1181000000000,"state":"active","ping":86},{"user_id":547,"name":"Inpeed","steam_id":76561199073182279,"connected_time":252000000000,"state":"active","ping":68},{"user_id":528,"name":"sloppenheimer","steam_id":76561198074678273,"connected_time":1102000000000,"state":"active","ping":53},{"user_id":542,"name":"Brocklee","steam_id":76561198189330642,"connected_time":633000000000,"state":"active","ping":104},{"user_id":536,"name":"RusticCarp42989","steam_id":76561198361151865,"connected_time":869000000000,"state":"active","ping":117},{"user_id":520,"name":"rhen","steam_id":76561198085256979,"connected_time":1234000000000,"state":"active","ping":89},{"user_id":544,"name":"flamingcookies","steam_id":76561198280864779,"connected_time":272000000000,"state":"active","ping":70},{"user_id":550,"name":"An Electric Blue Lobster","steam_id":76561198303125229,"connected_time":246000000000,"state":"active","ping":53},{"user_id":540,"name":"debin","steam_id":76561198070711217,"connected_time":755000000000,"state":"active","ping":59},{"user_id":492,"name":"BoysWhoCry(MEGAFAN)","steam_id":76561198106967143,"connected_time":3365000000000,"state":"active","ping":71},{"user_id":487,"name":"Macko","steam_id":76561198452005461,"connected_time":4120000000000,"state":"active","ping":93},{"user_id":552,"name":"Cash MoneyBlue","steam_id":76561198934825927,"connected_time":160000000000,"state":"active","ping":69},{"user_id":521,"name":"Saddam Hussein","steam_id":76561199389283507,"connected_time":1209000000000,"state":"active","ping":70},{"user_id":534,"name":"|UGA| Chiyufu","steam_id":76561199072878633,"connected_time":979000000000,"state":"active","ping":83},{"user_id":535,"name":"Johnny Lawrence #JohnnyMaxxing","steam_id":76561199367141671,"connected_time":970000000000,"state":"active","ping":60},{"user_id":539,"name":"cactail","steam_id":76561198238898732,"connected_time":857000000000,"state":"active","ping":82}]},{"server_id":106,"name":"Uncletopia | Chicago | 2 | All Maps","name_short":"chi-2","host":"chi-1.us.uncletopia.com","port":27025,"enabled":true,"region":"us-central","cc":"us","latitude":41.881832,"longitude":-87.62318,"reserved":0,"last_update":"0001-01-01T00:00:00Z","name_a2s":"Uncletopia | Chicago | 2 | All Maps","protocol":17,"map":"koth_viaduct","folder":"tf","game":"Team Fortress","app_id":440,"player_count":24,"max_players":24,"Bots":0,"server_type":"Dedicated","server_os":"Linux","password":true,"vac":true,"version":"7961495","steam_id":85568392924469985,"keywords":["cp","nocrits","nodmgspread","uncletopia"],"game_id":440,"stv_port":27026,"stv_name":"Uncletopia | Chicago | 2 | All Maps | STV","players":[{"user_id":412,"name":"dog","steam_id":76561198263873491,"connected_time":885000000000,"state":"active","ping":46},{"user_id":423,"name":"im scared of my teammates","steam_id":76561198159339442,"connected_time":687000000000,"state":"active","ping":79},{"user_id":400,"name":"Thumbs","steam_id":76561199065890132,"connected_time":1353000000000,"state":"active","ping":49},{"user_id":427,"name":"HUMBY","steam_id":76561198065045867,"connected_time":385000000000,"state":"active","ping":81},{"user_id":419,"name":"cumscumscumscumscumscumscumscum","steam_id":76561198057861378,"connected_time":773000000000,"state":"active","ping":70},{"user_id":397,"name":"drift","steam_id":76561198093781093,"connected_time":1520000000000,"state":"active","ping":49},{"user_id":430,"name":"Comfy!","steam_id":76561198008818346,"connected_time":45000000000,"state":"active","ping":60},{"user_id":398,"name":"menace","steam_id":76561198319142233,"connected_time":1485000000000,"state":"active","ping":37},{"user_id":429,"name":"rudy","steam_id":76561198088712799,"connected_time":49000000000,"state":"active","ping":70},{"user_id":425,"name":"Bubtit","steam_id":76561199138751788,"connected_time":571000000000,"state":"active","ping":43},{"user_id":424,"name":"gritty 2024","steam_id":76561198165567310,"connected_time":681000000000,"state":"active","ping":59},{"user_id":250,"name":"SilverLife25","steam_id":76561198392015722,"connected_time":10282000000000,"state":"active","ping":68},{"user_id":431,"name":"Dareu","steam_id":76561198081781710,"connected_time":27000000000,"state":"active","ping":62},{"user_id":413,"name":"ADRIEN BRODY","steam_id":76561198009299473,"connected_time":882000000000,"state":"active","ping":65},{"user_id":402,"name":"Menachem","steam_id":76561198041226420,"connected_time":1298000000000,"state":"active","ping":49},{"user_id":417,"name":"poopybutt420","steam_id":76561199000805315,"connected_time":828000000000,"state":"active","ping":109},{"user_id":403,"name":"Waesel","steam_id":76561198069188177,"connected_time":1290000000000,"state":"active","ping":74},{"user_id":396,"name":"Poodwaddle","steam_id":76561198060384838,"connected_time":1558000000000,"state":"active","ping":76},{"user_id":381,"name":"vv","steam_id":76561198134813102,"connected_time":3204000000000,"state":"active","ping":50},{"user_id":421,"name":"Moonage Lobotomy","steam_id":76561198045837710,"connected_time":727000000000,"state":"active","ping":60},{"user_id":411,"name":"what the freak","steam_id":76561198080754727,"connected_time":984000000000,"state":"active","ping":76},{"user_id":409,"name":"ham salmontizer","steam_id":76561198168840293,"connected_time":1082000000000,"state":"active","ping":75},{"user_id":428,"name":"GorillaC","steam_id":76561199148314970,"connected_time":276000000000,"state":"active","ping":63},{"user_id":408,"name":"Kung fu Mungus","steam_id":76561198069281556,"connected_time":1247000000000,"state":"active","ping":64}]},{"server_id":402,"name":"Uncletopia | Chicago | 3 | All Maps","name_short":"chi-3","host":"chi-1.us.uncletopia.com","port":27035,"enabled":true,"region":"us-central","cc":"us","latitude":41.881832,"longitude":-87.62318,"reserved":0,"last_update":"0001-01-01T00:00:00Z","name_a2s":"Uncletopia | Chicago | 3 | All Maps","protocol":17,"map":"cp_dustbowl","folder":"tf","game":"Team Fortress","app_id":440,"player_count":24,"max_players":24,"Bots":0,"server_type":"Dedicated","server_os":"Linux","password":true,"vac":true,"version":"7961495","steam_id":85568392924515191,"keywords":["cp","nocrits","nodmgspread","uncletopia"],"game_id":440,"stv_port":27036,"stv_name":"Uncletopia | Chicago | 3 | All Maps | STV","players":[{"user_id":297,"name":"Wendy's Brand Trash","steam_id":76561198328346670,"connected_time":1981000000000,"state":"active","ping":44},{"user_id":305,"name":"RandomRainbow","steam_id":76561199107573588,"connected_time":1787000000000,"state":"active","ping":46},{"user_id":298,"name":"slowdance","steam_id":76561198097427947,"connected_time":1946000000000,"state":"active","ping":143},{"user_id":310,"name":"Res","steam_id":76561198167207112,"connected_time":1661000000000,"state":"active","ping":75},{"user_id":300,"name":"Prime","steam_id":76561198158782028,"connected_time":1896000000000,"state":"active","ping":45},{"user_id":279,"name":"Epifiny","steam_id":76561198027958086,"connected_time":3339000000000,"state":"active","ping":76},{"user_id":245,"name":"Soy King","steam_id":76561198263025614,"connected_time":5232000000000,"state":"active","ping":110},{"user_id":322,"name":"Oxygen User","steam_id":76561199111975528,"connected_time":1113000000000,"state":"active","ping":101},{"user_id":302,"name":"corned beef","steam_id":76561199366782761,"connected_time":1833000000000,"state":"active","ping":152},{"user_id":291,"name":"Styx","steam_id":76561198158334494,"connected_time":2328000000000,"state":"active","ping":57},{"user_id":319,"name":"El_Frio7","steam_id":76561198170529562,"connected_time":1348000000000,"state":"active","ping":80},{"user_id":328,"name":"pinky","steam_id":76561199109784776,"connected_time":460000000000,"state":"active","ping":54},{"user_id":330,"name":"Kiss Master","steam_id":76561198289572271,"connected_time":151000000000,"state":"active","ping":79},{"user_id":281,"name":"Admiral Catradora","steam_id":76561198017271944,"connected_time":3317000000000,"state":"active","ping":76},{"user_id":332,"name":"Jerk Tryhard (roleplay)","steam_id":76561199470538309,"connected_time":70000000000,"state":"active","ping":53},{"user_id":312,"name":"totoro","steam_id":76561198210420871,"connected_time":1617000000000,"state":"active","ping":45},{"user_id":327,"name":"rickyrickyricky","steam_id":76561198041765918,"connected_time":639000000000,"state":"active","ping":83},{"user_id":309,"name":"mkl","steam_id":76561197986401685,"connected_time":1692000000000,"state":"active","ping":83},{"user_id":264,"name":"(1)U SUX","steam_id":76561198167031395,"connected_time":4313000000000,"state":"active","ping":90},{"user_id":329,"name":"Clean Lines","steam_id":76561197960691518,"connected_time":410000000000,"state":"active","ping":59},{"user_id":278,"name":"jarrettconsult","steam_id":76561198249998262,"connected_time":3436000000000,"state":"active","ping":86},{"user_id":331,"name":"ThyLocalCrusader","steam_id":76561198116112218,"connected_time":146000000000,"state":"active","ping":43},{"user_id":317,"name":"Aurélien Tchouaméni","steam_id":76561199499931123,"connected_time":1467000000000,"state":"active","ping":54},{"user_id":325,"name":"u sux","steam_id":76561198112297509,"connected_time":1074000000000,"state":"active","ping":71}]},{"server_id":403,"name":"Uncletopia | Chicago | 4 | All Maps","name_short":"chi-4","host":"chi-1.us.uncletopia.com","port":27045,"enabled":true,"region":"us-central","cc":"us","latitude":41.881832,"longitude":-87.62318,"reserved":0,"last_update":"0001-01-01T00:00:00Z","name_a2s":"Uncletopia | Chicago | 4 | All Maps","protocol":17,"map":"pl_upward","folder":"tf","game":"Team Fortress","app_id":440,"player_count":24,"max_players":24,"Bots":0,"server_type":"Dedicated","server_os":"Linux","password":true,"vac":true,"version":"7961495","steam_id":85568392924515193,"keywords":["nocrits","nodmgspread","payload","uncletopia"],"game_id":440,"stv_port":27046,"stv_name":"Uncletopia | Chicago | 4 | All Maps | STV","players":[{"user_id":191,"name":"jxh300","steam_id":76561199196579894,"connected_time":1098000000000,"state":"active","ping":68},{"user_id":158,"name":"forg","steam_id":76561199160422863,"connected_time":2804000000000,"state":"active","ping":132},{"user_id":180,"name":"tiredfisherman69","steam_id":76561199228963816,"connected_time":1571000000000,"state":"active","ping":97},{"user_id":173,"name":"tony soprano (ultra instinct)","steam_id":76561198058469527,"connected_time":2247000000000,"state":"active","ping":62},{"user_id":185,"name":"Level 1 Crook","steam_id":76561198441098132,"connected_time":1317000000000,"state":"active","ping":92},{"user_id":174,"name":"TheRatBoi","steam_id":76561199123032506,"connected_time":2246000000000,"state":"active","ping":64},{"user_id":199,"name":"weed lesbian","steam_id":76561198042263805,"connected_time":624000000000,"state":"active","ping":89},{"user_id":182,"name":"og biden pack cart","steam_id":76561198253731826,"connected_time":1461000000000,"state":"active","ping":57},{"user_id":200,"name":"WitheringLeo","steam_id":76561198046722918,"connected_time":617000000000,"state":"active","ping":91},{"user_id":198,"name":"Jester","steam_id":76561198153102922,"connected_time":697000000000,"state":"active","ping":75},{"user_id":203,"name":"YOU FEEL YOUR HEARTBREAK","steam_id":76561198072179483,"connected_time":263000000000,"state":"active","ping":92},{"user_id":150,"name":"MrKokonut","steam_id":76561198879575825,"connected_time":3127000000000,"state":"active","ping":58},{"user_id":179,"name":"mom_kisser","steam_id":76561198060296782,"connected_time":1630000000000,"state":"active","ping":102},{"user_id":181,"name":"Sinta","steam_id":76561198098398841,"connected_time":1558000000000,"state":"active","ping":62},{"user_id":202,"name":"gIBBY","steam_id":76561198080099598,"connected_time":499000000000,"state":"active","ping":60},{"user_id":171,"name":"anonion","steam_id":76561198056477584,"connected_time":2341000000000,"state":"active","ping":89},{"user_id":165,"name":"thistletown","steam_id":76561198404858264,"connected_time":2671000000000,"state":"active","ping":74},{"user_id":104,"name":"WARIO CHEESE","steam_id":76561198083276946,"connected_time":6964000000000,"state":"active","ping":278},{"user_id":204,"name":"Gene Takovic","steam_id":76561198120442624,"connected_time":220000000000,"state":"active","ping":89},{"user_id":192,"name":"{ᴛʀ_ᴄᴇʀᴘ} shullers","steam_id":76561198889997809,"connected_time":1038000000000,"state":"active","ping":91},{"user_id":201,"name":"PGT diceroller521","steam_id":76561198100048412,"connected_time":577000000000,"state":"active","ping":67},{"user_id":155,"name":"Rock Kickass","steam_id":76561198450510841,"connected_time":2950000000000,"state":"active","ping":124},{"user_id":205,"name":"melomelo11","steam_id":76561198796593720,"connected_time":175000000000,"state":"active","ping":49},{"user_id":170,"name":"alextruckman97","steam_id":76561198066867150,"connected_time":2438000000000,"state":"active","ping":68}]},{"server_id":36,"name":"Uncletopia | Chicago | 5 | All Maps","name_short":"chi-5","host":"chi-2.us.uncletopia.com","port":27015,"enabled":true,"region":"us-central","cc":"us","latitude":41.881832,"longitude":-87.62318,"reserved":0,"last_update":"0001-01-01T00:00:00Z","name_a2s":"Uncletopia | Chicago | 5 | All Maps","protocol":17,"map":"koth_viaduct","folder":"tf","game":"Team Fortress","app_id":440,"player_count":0,"max_players":24,"Bots":0,"server_type":"Dedicated","server_os":"Linux","password":true,"vac":true,"version":"7961495","steam_id":85568392924866362,"keywords":["cp","nocrits","nodmgspread","uncletopia"],"game_id":440,"stv_port":27016,"stv_name":"Uncletopia | Chicago | 5 | All Maps | STV","players":null},{"server_id":37,"name":"Uncletopia | Chicago | 6 | All Maps","name_short":"chi-6","host":"chi-2.us.uncletopia.com","port":27025,"enabled":true,"region":"us-central","cc":"us","latitude":41.881832,"longitude":-87.62318,"reserved":0,"last_update":"0001-01-01T00:00:00Z","name_a2s":"Uncletopia | Chicago | 6 | All Maps","protocol":17,"map":"koth_cascade","folder":"tf","game":"Team Fortress","app_id":440,"player_count":24,"max_players":24,"Bots":0,"server_type":"Dedicated","server_os":"Linux","password":true,"vac":true,"version":"7961495","steam_id":85568392924866363,"keywords":["cp","nocrits","nodmgspread","uncletopia"],"game_id":440,"stv_port":27026,"stv_name":"Uncletopia | Chicago | 6 | All Maps | STV","players":[{"user_id":493,"name":"Trash Eater","steam_id":76561199368799793,"connected_time":491000000000,"state":"active","ping":55},{"user_id":494,"name":"The_Stomach_Stone_Surgeon","steam_id":76561198044643725,"connected_time":491000000000,"state":"active","ping":69},{"user_id":367,"name":"chen","steam_id":76561198064872330,"connected_time":7650000000000,"state":"active","ping":74},{"user_id":499,"name":"[DEEP] the being of power","steam_id":76561198839503937,"connected_time":183000000000,"state":"active","ping":79},{"user_id":485,"name":"caberknight tf2  (f2p-ish)","steam_id":76561199273882768,"connected_time":742000000000,"state":"active","ping":68},{"user_id":475,"name":"MillerWhite","steam_id":76561198076060357,"connected_time":1121000000000,"state":"active","ping":84},{"user_id":486,"name":"Hawkborne","steam_id":76561198107249245,"connected_time":721000000000,"state":"active","ping":81},{"user_id":497,"name":"9gon Danmar33","steam_id":76561198056453091,"connected_time":298000000000,"state":"active","ping":53},{"user_id":422,"name":"cixcin","steam_id":76561199215821942,"connected_time":4113000000000,"state":"active","ping":71},{"user_id":423,"name":"MrMind","steam_id":76561199321657653,"connected_time":4111000000000,"state":"active","ping":98},{"user_id":482,"name":"MikeLovesRabbit","steam_id":76561197997742625,"connected_time":771000000000,"state":"active","ping":67},{"user_id":464,"name":"gulch","steam_id":76561199227946025,"connected_time":1576000000000,"state":"active","ping":71},{"user_id":492,"name":"9gon ∞","steam_id":76561198150627999,"connected_time":500000000000,"state":"active","ping":78},{"user_id":481,"name":"rept","steam_id":76561198022100969,"connected_time":805000000000,"state":"active","ping":46},{"user_id":432,"name":"Hindmost","steam_id":76561199081837220,"connected_time":3704000000000,"state":"active","ping":84},{"user_id":465,"name":"Jrock","steam_id":76561198045715996,"connected_time":1575000000000,"state":"active","ping":89},{"user_id":498,"name":"fresco","steam_id":76561199101199477,"connected_time":270000000000,"state":"active","ping":66},{"user_id":374,"name":"Ikalpo","steam_id":76561198044686915,"connected_time":7500000000000,"state":"active","ping":103},{"user_id":495,"name":"Cute Little Femboy :3","steam_id":76561199280564132,"connected_time":488000000000,"state":"active","ping":38},{"user_id":496,"name":"wack","steam_id":76561198875042939,"connected_time":487000000000,"state":"active","ping":98},{"user_id":474,"name":"Pan Wizard","steam_id":76561198031939694,"connected_time":1308000000000,"state":"active","ping":79},{"user_id":469,"name":"kaputon","steam_id":76561198146299782,"connected_time":1524000000000,"state":"active","ping":62},{"user_id":484,"name":"shoss4814","steam_id":76561199497598118,"connected_time":745000000000,"state":"active","ping":55},{"user_id":488,"name":"princess fern \u003c3333","steam_id":76561198881792140,"connected_time":716000000000,"state":"active","ping":84}]},{"server_id":38,"name":"Uncletopia | Chicago | 7 | Stopwatch","name_short":"chi-7","host":"chi-2.us.uncletopia.com","port":27035,"enabled":true,"region":"us-central","cc":"us","latitude":41.881832,"longitude":-87.62318,"reserved":0,"last_update":"0001-01-01T00:00:00Z","name_a2s":"Uncletopia | Chicago | 7 | Stopwatch","protocol":17,"map":"workshop/koth_ashville_final.ugc2130459942","folder":"tf","game":"Team Fortress","app_id":440,"player_count":0,"max_players":24,"Bots":0,"server_type":"Dedicated","server_os":"Linux","password":true,"vac":true,"version":"7961495","steam_id":85568392924866364,"keywords":["cp","nocrits","nodmgspread","uncletopia"],"game_id":440,"stv_port":27036,"stv_name":"Uncletopia | Chicago | 7 | Stopwatch | STV","players":null},{"server_id":39,"name":"Uncletopia | Chicago | 8 | Community","name_short":"chi-8","host":"chi-2.us.uncletopia.com","port":27045,"enabled":true,"region":"us-central","cc":"us","latitude":41.881832,"longitude":-87.62318,"reserved":0,"last_update":"0001-01-01T00:00:00Z","name_a2s":"Uncletopia | Chicago | 8 | Community","protocol":17,"map":"pl_pier","folder":"tf","game":"Team Fortress","app_id":440,"player_count":0,"max_players":24,"Bots":0,"server_type":"Dedicated","server_os":"Linux","password":true,"vac":true,"version":"7961495","steam_id":85568392924866365,"keywords":["nocrits","nodmgspread","payload","uncletopia"],"game_id":440,"stv_port":27046,"stv_name":"Uncletopia | Chicago | 8 | Community | STV","players":null},{"server_id":8,"name":"Uncletopia | Dallas | 1 | All Maps","name_short":"dal-1","host":"dal-1.us.uncletopia.com","port":27015,"enabled":true,"region":"us-central","cc":"us","latitude":32.779167,"longitude":-96.80889,"reserved":0,"last_update":"0001-01-01T00:00:00Z","name_a2s":"Uncletopia | Dallas | 1 | All Maps","protocol":17,"map":"pl_barnblitz","folder":"tf","game":"Team Fortress","app_id":440,"player_count":24,"max_players":24,"Bots":0,"server_type":"Dedicated","server_os":"Linux","password":true,"vac":true,"version":"7961495","steam_id":85568392924469986,"keywords":["nocrits","nodmgspread","payload","uncletopia"],"game_id":440,"stv_port":27016,"stv_name":"Uncletopia | Dallas | 1 | All Maps | STV","players":[{"user_id":297,"name":"President Saget :)","steam_id":76561198071709455,"connected_time":2821000000000,"state":"active","ping":79},{"user_id":307,"name":"The friendly pixel","steam_id":76561198396728899,"connected_time":2263000000000,"state":"active","ping":91},{"user_id":335,"name":"room temp IQ","steam_id":76561198018724712,"connected_time":330000000000,"state":"active","ping":43},{"user_id":326,"name":"Ifrit","steam_id":76561198044730782,"connected_time":793000000000,"state":"active","ping":67},{"user_id":303,"name":"Chunk Stuffer","steam_id":76561198856508573,"connected_time":2434000000000,"state":"active","ping":37},{"user_id":305,"name":"Philo","steam_id":76561198061873341,"connected_time":2372000000000,"state":"active","ping":93},{"user_id":317,"name":"Boxpipe","steam_id":76561197964501915,"connected_time":1714000000000,"state":"active","ping":74},{"user_id":336,"name":"Stiffy Magnum","steam_id":76561198000036722,"connected_time":164000000000,"state":"active","ping":128},{"user_id":330,"name":"Drilly22","steam_id":76561198068838338,"connected_time":471000000000,"state":"active","ping":72},{"user_id":280,"name":"moe","steam_id":76561198929586245,"connected_time":3334000000000,"state":"active","ping":70},{"user_id":319,"name":"Harley [Ramiel]","steam_id":76561198079510840,"connected_time":1183000000000,"state":"active","ping":91},{"user_id":321,"name":"Lancerland","steam_id":76561198130497320,"connected_time":1090000000000,"state":"active","ping":83},{"user_id":325,"name":"Wolffkran","steam_id":76561198003018041,"connected_time":927000000000,"state":"active","ping":123},{"user_id":337,"name":"flaccid","steam_id":76561198299241777,"connected_time":163000000000,"state":"active","ping":96},{"user_id":331,"name":"Dabbledornk","steam_id":76561198065241300,"connected_time":461000000000,"state":"active","ping":82},{"user_id":285,"name":"Al'","steam_id":76561198105420574,"connected_time":3125000000000,"state":"active","ping":75},{"user_id":249,"name":"master_minion","steam_id":76561198170693990,"connected_time":4669000000000,"state":"active","ping":85},{"user_id":327,"name":"Selment","steam_id":76561198026489601,"connected_time":644000000000,"state":"active","ping":61},{"user_id":314,"name":"Based Hadrian","steam_id":76561197989062069,"connected_time":2036000000000,"state":"active","ping":65},{"user_id":293,"name":"Lucas","steam_id":76561198399704604,"connected_time":2929000000000,"state":"active","ping":102},{"user_id":309,"name":"PK_Lawnmower","steam_id":76561198145324531,"connected_time":2240000000000,"state":"active","ping":98},{"user_id":333,"name":"Bean Boy","steam_id":76561198279184347,"connected_time":450000000000,"state":"active","ping":74},{"user_id":322,"name":"Brandon32204","steam_id":76561198031665291,"connected_time":1087000000000,"state":"active","ping":73},{"user_id":334,"name":"Prsm","steam_id":76561198053344995,"connected_time":449000000000,"state":"active","ping":76}]},{"server_id":108,"name":"Uncletopia | Dallas | 2 | All Maps","name_short":"dal-2","host":"dal-1.us.uncletopia.com","port":27025,"enabled":true,"region":"us-central","cc":"us","latitude":32.779167,"longitude":-96.80889,"reserved":0,"last_update":"0001-01-01T00:00:00Z","name_a2s":"Uncletopia | Dallas | 2 | All Maps","protocol":17,"map":"cp_process_final","folder":"tf","game":"Team Fortress","app_id":440,"player_count":24,"max_players":24,"Bots":0,"server_type":"Dedicated","server_os":"Linux","password":true,"vac":true,"version":"7961495","steam_id":85568392924469988,"keywords":["cp","nocrits","nodmgspread","uncletopia"],"game_id":440,"stv_port":27026,"stv_name":"Uncletopia | Dallas | 2 | All Maps | STV","players":[{"user_id":294,"name":"Drained","steam_id":76561198081974528,"connected_time":1448000000000,"state":"active","ping":70},{"user_id":280,"name":"Artincendies","steam_id":76561198242373456,"connected_time":2115000000000,"state":"active","ping":62},{"user_id":281,"name":"anchor","steam_id":76561198053338019,"connected_time":2031000000000,"state":"active","ping":75},{"user_id":290,"name":"Karma","steam_id":76561198320530905,"connected_time":1637000000000,"state":"active","ping":49},{"user_id":256,"name":"PsychoGhoul","steam_id":76561198105201552,"connected_time":3454000000000,"state":"active","ping":85},{"user_id":304,"name":"leaving lunar orbit","steam_id":76561199085974120,"connected_time":648000000000,"state":"active","ping":85},{"user_id":297,"name":"Blue Banana","steam_id":76561198100077411,"connected_time":1270000000000,"state":"active","ping":75},{"user_id":259,"name":"Luky","steam_id":76561198970778850,"connected_time":3258000000000,"state":"active","ping":73},{"user_id":279,"name":"Squagol","steam_id":76561197987486159,"connected_time":2160000000000,"state":"active","ping":67},{"user_id":309,"name":"The Potato Romancer","steam_id":76561198204197648,"connected_time":26000000000,"state":"active","ping":84},{"user_id":305,"name":"Your Dad™","steam_id":76561198254739340,"connected_time":603000000000,"state":"active","ping":75},{"user_id":298,"name":"gary","steam_id":76561197991793693,"connected_time":1241000000000,"state":"active","ping":104},{"user_id":306,"name":"Mugen","steam_id":76561198411174773,"connected_time":535000000000,"state":"active","ping":81},{"user_id":274,"name":"RC","steam_id":76561198048127881,"connected_time":2432000000000,"state":"active","ping":59},{"user_id":292,"name":"gay porn","steam_id":76561198102454261,"connected_time":1620000000000,"state":"active","ping":80},{"user_id":301,"name":"smetc","steam_id":76561198240696986,"connected_time":969000000000,"state":"active","ping":84},{"user_id":191,"name":"HUESO","steam_id":76561198276383681,"connected_time":7477000000000,"state":"active","ping":82},{"user_id":257,"name":"Zorlovo","steam_id":76561198006443283,"connected_time":3435000000000,"state":"active","ping":86},{"user_id":302,"name":"dansal","steam_id":76561197997042510,"connected_time":817000000000,"state":"active","ping":60},{"user_id":307,"name":"Schnabel","steam_id":76561198226159564,"connected_time":390000000000,"state":"active","ping":83},{"user_id":285,"name":"Degree","steam_id":76561198059812393,"connected_time":1952000000000,"state":"active","ping":99},{"user_id":287,"name":"Yoloman64","steam_id":76561199046752039,"connected_time":1799000000000,"state":"active","ping":83},{"user_id":308,"name":"The_Dominator47","steam_id":76561198170443759,"connected_time":87000000000,"state":"active","ping":92},{"user_id":296,"name":"Starlotte","steam_id":76561198204734477,"connected_time":1313000000000,"state":"active","ping":96}]},{"server_id":404,"name":"Uncletopia | Dallas | 3 | All Maps","name_short":"dal-3","host":"dal-1.us.uncletopia.com","port":27035,"enabled":true,"region":"us-central","cc":"us","latitude":32.779167,"longitude":-96.80889,"reserved":0,"last_update":"0001-01-01T00:00:00Z","name_a2s":"Uncletopia | Dallas | 3 | All Maps","protocol":17,"map":"pl_swiftwater_final1","folder":"tf","game":"Team Fortress","app_id":440,"player_count":24,"max_players":24,"Bots":0,"server_type":"Dedicated","server_os":"Linux","password":true,"vac":true,"version":"7961495","steam_id":85568392924515219,"keywords":["nocrits","nodmgspread","payload","uncletopia"],"game_id":440,"stv_port":27036,"stv_name":"Uncletopia | Dallas | 3 | All Maps | STV","players":[{"user_id":34,"name":"Anyar","steam_id":76561198160174097,"connected_time":2430000000000,"state":"active","ping":55},{"user_id":53,"name":"Kip_skunky","steam_id":76561198084721531,"connected_time":303000000000,"state":"active","ping":64},{"user_id":43,"name":"AnimeHjonker989","steam_id":76561199122139727,"connected_time":954000000000,"state":"active","ping":63},{"user_id":27,"name":"Sup m8","steam_id":76561198081659121,"connected_time":4403000000000,"state":"active","ping":38},{"user_id":32,"name":"TrenchcoatCraig","steam_id":76561198295599533,"connected_time":2807000000000,"state":"active","ping":74},{"user_id":48,"name":"TheSmolPopato","steam_id":76561199076606348,"connected_time":725000000000,"state":"active","ping":79},{"user_id":49,"name":"Aerobro","steam_id":76561198033530996,"connected_time":650000000000,"state":"active","ping":73},{"user_id":44,"name":"Joe For Mayor","steam_id":76561198399003970,"connected_time":933000000000,"state":"active","ping":74},{"user_id":56,"name":"Juicemelon","steam_id":76561199123714017,"connected_time":147000000000,"state":"active","ping":101},{"user_id":41,"name":"Herdex","steam_id":76561198092575778,"connected_time":1190000000000,"state":"active","ping":106},{"user_id":45,"name":"Soapbar","steam_id":76561198081714169,"connected_time":915000000000,"state":"active","ping":93},{"user_id":46,"name":"Zaid","steam_id":76561199142840666,"connected_time":774000000000,"state":"active","ping":147},{"user_id":47,"name":"captengreen789","steam_id":76561199210416968,"connected_time":738000000000,"state":"active","ping":70},{"user_id":54,"name":"Scut","steam_id":76561198973734291,"connected_time":285000000000,"state":"active","ping":90},{"user_id":52,"name":"Ciaphas Cain","steam_id":76561198185598330,"connected_time":399000000000,"state":"active","ping":99},{"user_id":55,"name":"Huntpk","steam_id":76561198340591674,"connected_time":264000000000,"state":"active","ping":67},{"user_id":63,"name":"yalu","steam_id":76561198224811504,"connected_time":61000000000,"state":"active","ping":61},{"user_id":58,"name":"Morbus","steam_id":76561198101461171,"connected_time":116000000000,"state":"active","ping":71},{"user_id":59,"name":"Kduck","steam_id":76561198092171095,"connected_time":105000000000,"state":"active","ping":81},{"user_id":60,"name":"Balloon","steam_id":76561198068498829,"connected_time":97000000000,"state":"active","ping":77},{"user_id":66,"name":"ECCO","steam_id":76561198002821513,"connected_time":23000000000,"state":"active","ping":116},{"user_id":62,"name":"maximusbabaximus","steam_id":76561198419378913,"connected_time":81000000000,"state":"active","ping":101},{"user_id":64,"name":"Jeramosa","steam_id":76561198811000094,"connected_time":46000000000,"state":"spawning","ping":68},{"user_id":65,"name":"TrueChaos","steam_id":76561198280651661,"connected_time":42000000000,"state":"active","ping":96}]},{"server_id":405,"name":"Uncletopia | Dallas | 4 | Community","name_short":"dal-4","host":"dal-1.us.uncletopia.com","port":27045,"enabled":true,"region":"us-central","cc":"us","latitude":32.779167,"longitude":-96.80889,"reserved":0,"last_update":"0001-01-01T00:00:00Z","name_a2s":"Uncletopia | Dallas | 4 | Community","protocol":17,"map":"workshop/pl_barnblitz_pro7.ugc582280235","folder":"tf","game":"Team Fortress","app_id":440,"player_count":0,"max_players":24,"Bots":0,"server_type":"Dedicated","server_os":"Linux","password":true,"vac":true,"version":"7961495","steam_id":85568392924515220,"keywords":["nocrits","nodmgspread","payload","uncletopia"],"game_id":440,"stv_port":27046,"stv_name":"Uncletopia | Dallas | 4 | Community | STV","players":null},{"server_id":5,"name":"Uncletopia | Frankfurt | 1 | All Maps","name_short":"frk-1","host":"frk-1.de.uncletopia.com","port":27015,"enabled":true,"region":"eu","cc":"de","latitude":50.110924,"longitude":8.682127,"reserved":0,"last_update":"0001-01-01T00:00:00Z","name_a2s":"Uncletopia | Frankfurt | 1 | All Maps","protocol":17,"map":"koth_cascade","folder":"tf","game":"Team Fortress","app_id":440,"player_count":0,"max_players":24,"Bots":0,"server_type":"Dedicated","server_os":"Linux","password":true,"vac":true,"version":"7961495","steam_id":85568392924469989,"keywords":["cp","nocrits","nodmgspread","uncletopia"],"game_id":440,"stv_port":27016,"stv_name":"Uncletopia | Frankfurt | 1 | All Maps | STV","players":null},{"server_id":110,"name":"Uncletopia | Frankfurt | 2 | All Maps","name_short":"frk-2","host":"frk-1.de.uncletopia.com","port":27025,"enabled":true,"region":"eu","cc":"de","latitude":50.110924,"longitude":8.682127,"reserved":0,"last_update":"0001-01-01T00:00:00Z","name_a2s":"Uncletopia | Frankfurt | 2 | All Maps","protocol":17,"map":"pl_snowycoast","folder":"tf","game":"Team Fortress","app_id":440,"player_count":0,"max_players":24,"Bots":0,"server_type":"Dedicated","server_os":"Linux","password":true,"vac":true,"version":"7961495","steam_id":85568392924469990,"keywords":["nocrits","nodmgspread","payload","uncletopia"],"game_id":440,"stv_port":27026,"stv_name":"Uncletopia | Frankfurt | 2 | All Maps | STV","players":null},{"server_id":308,"name":"Uncletopia | Frankfurt | 3 | All Maps","name_short":"frk-3","host":"frk-1.de.uncletopia.com","port":27035,"enabled":true,"region":"eu","cc":"de","latitude":50.110924,"longitude":8.682127,"reserved":0,"last_update":"0001-01-01T00:00:00Z","name_a2s":"Uncletopia | Frankfurt | 3 | All Maps","protocol":17,"map":"koth_highpass","folder":"tf","game":"Team Fortress","app_id":440,"player_count":0,"max_players":24,"Bots":0,"server_type":"Dedicated","server_os":"Linux","password":true,"vac":true,"version":"7961495","steam_id":85568392924504274,"keywords":["cp","nocrits","nodmgspread","uncletopia"],"game_id":440,"stv_port":27036,"stv_name":"Uncletopia | Frankfurt | 3 | All Maps | STV","players":null},{"server_id":309,"name":"Uncletopia | Frankfurt | 4 | All Maps","name_short":"frk-4","host":"frk-1.de.uncletopia.com","port":27045,"enabled":true,"region":"eu","cc":"de","latitude":50.110924,"longitude":8.682127,"reserved":0,"last_update":"0001-01-01T00:00:00Z","name_a2s":"Uncletopia | Frankfurt | 4 | All Maps","protocol":17,"map":"pl_barnblitz","folder":"tf","game":"Team Fortress","app_id":440,"player_count":0,"max_players":24,"Bots":0,"server_type":"Dedicated","server_os":"Linux","password":true,"vac":true,"version":"7961495","steam_id":85568392924504275,"keywords":["nocrits","nodmgspread","payload","uncletopia"],"game_id":440,"stv_port":27046,"stv_name":"Uncletopia | Frankfurt | 4 | All Maps | STV","players":null},{"server_id":310,"name":"Uncletopia | Frankfurt | 5 | All Maps","name_short":"frk-5","host":"frk-1.de.uncletopia.com","port":27055,"enabled":true,"region":"eu","cc":"de","latitude":50.110924,"longitude":8.682127,"reserved":0,"last_update":"0001-01-01T00:00:00Z","name_a2s":"Uncletopia | Frankfurt | 5 | All Maps","protocol":17,"map":"pl_badwater","folder":"tf","game":"Team Fortress","app_id":440,"player_count":24,"max_players":24,"Bots":0,"server_type":"Dedicated","server_os":"Linux","password":true,"vac":true,"version":"7961495","steam_id":85568392924504277,"keywords":["nocrits","nodmgspread","payload","uncletopia"],"game_id":440,"stv_port":27056,"stv_name":"Uncletopia | Frankfurt | 5 | All Maps | STV","players":[{"user_id":449,"name":"frenchie","steam_id":76561198178298931,"connected_time":395000000000,"state":"active","ping":51},{"user_id":457,"name":"scarecrowshelper","steam_id":76561198072260553,"connected_time":165000000000,"state":"active","ping":49},{"user_id":441,"name":"joachym","steam_id":76561198428579761,"connected_time":837000000000,"state":"active","ping":63},{"user_id":447,"name":"Jeff","steam_id":76561198426044127,"connected_time":617000000000,"state":"active","ping":47},{"user_id":442,"name":"volkiano","steam_id":76561198319802031,"connected_time":835000000000,"state":"active","ping":60},{"user_id":451,"name":"splarvis","steam_id":76561198007792525,"connected_time":253000000000,"state":"active","ping":53},{"user_id":444,"name":"stunner10","steam_id":76561198119230998,"connected_time":776000000000,"state":"active","ping":73},{"user_id":454,"name":"KittyKate ❤","steam_id":76561198116340817,"connected_time":208000000000,"state":"active","ping":65},{"user_id":419,"name":"Fidacha","steam_id":76561198003060881,"connected_time":2508000000000,"state":"active","ping":60},{"user_id":460,"name":"GoatLord1","steam_id":76561198157964544,"connected_time":117000000000,"state":"active","ping":68},{"user_id":375,"name":"speedy-heavy","steam_id":76561198124991468,"connected_time":5806000000000,"state":"active","ping":65},{"user_id":452,"name":"Mr_Pulse_","steam_id":76561198095001602,"connected_time":247000000000,"state":"active","ping":84},{"user_id":453,"name":"JosepXXL","steam_id":76561198407124695,"connected_time":229000000000,"state":"active","ping":94},{"user_id":429,"name":"STARRI","steam_id":76561198245784188,"connected_time":1486000000000,"state":"active","ping":59},{"user_id":417,"name":"tone","steam_id":76561197975301462,"connected_time":2733000000000,"state":"active","ping":73},{"user_id":430,"name":"EnragementGame","steam_id":76561198280376215,"connected_time":1481000000000,"state":"active","ping":138},{"user_id":455,"name":"BuzzBees ❤","steam_id":76561198101502273,"connected_time":195000000000,"state":"active","ping":63},{"user_id":456,"name":"Tattletails","steam_id":76561198055690341,"connected_time":175000000000,"state":"active","ping":73},{"user_id":433,"name":"Durin sein Vater","steam_id":76561198021246713,"connected_time":1390000000000,"state":"active","ping":39},{"user_id":420,"name":"Gioni","steam_id":76561198395912581,"connected_time":2454000000000,"state":"active","ping":111},{"user_id":434,"name":"Carl Gustav Jung","steam_id":76561198284558039,"connected_time":1340000000000,"state":"active","ping":73},{"user_id":436,"name":"Tea Follet","steam_id":76561198852408734,"connected_time":1309000000000,"state":"active","ping":71},{"user_id":458,"name":". . .","steam_id":76561198184360615,"connected_time":163000000000,"state":"active","ping":91},{"user_id":459,"name":"amjugan","steam_id":76561198018488216,"connected_time":147000000000,"state":"active","ping":145}]},{"server_id":311,"name":"Uncletopia | Frankfurt | 6 | All Maps","name_short":"frk-6","host":"frk-1.de.uncletopia.com","port":27065,"enabled":true,"region":"eu","cc":"de","latitude":50.110924,"longitude":8.682127,"reserved":0,"last_update":"0001-01-01T00:00:00Z","name_a2s":"Uncletopia | Frankfurt | 6 | All Maps","protocol":17,"map":"plr_pipeline","folder":"tf","game":"Team Fortress","app_id":440,"player_count":0,"max_players":24,"Bots":0,"server_type":"Dedicated","server_os":"Linux","password":true,"vac":true,"version":"7961495","steam_id":85568392924504278,"keywords":["nocrits","nodmgspread","payload","uncletopia"],"game_id":440,"stv_port":27066,"stv_name":"Uncletopia | Frankfurt | 6 | All Maps | STV","players":null},{"server_id":23,"name":"Uncletopia | Frankfurt | 7 | Stopwatch","name_short":"frk-7","host":"frk-1.de.uncletopia.com","port":27075,"enabled":true,"region":"eu","cc":"de","latitude":50.110924,"longitude":8.682127,"reserved":0,"last_update":"0001-01-01T00:00:00Z","name_a2s":"Uncletopia | Frankfurt | 7 | Stopwatch","protocol":17,"map":"workshop/koth_bagel_rc6.ugc2514036946","folder":"tf","game":"Team Fortress","app_id":440,"player_count":0,"max_players":24,"Bots":0,"server_type":"Dedicated","server_os":"Linux","password":true,"vac":true,"version":"7961495","steam_id":85568392924742827,"keywords":["cp","nocrits","nodmgspread","uncletopia"],"game_id":440,"stv_port":27076,"stv_name":"Uncletopia | Frankfurt | 7 | Stopwatch | STV","players":null},{"server_id":24,"name":"Uncletopia | Frankfurt | 8 | Community","name_short":"frk-8","host":"frk-1.de.uncletopia.com","port":27085,"enabled":true,"region":"eu","cc":"de","latitude":50.110924,"longitude":8.682127,"reserved":0,"last_update":"0001-01-01T00:00:00Z","name_a2s":"Uncletopia | Frankfurt | 8 | Community","protocol":17,"map":"workshop/koth_kemptown_rc1.ugc767410655","folder":"tf","game":"Team Fortress","app_id":440,"player_count":0,"max_players":24,"Bots":0,"server_type":"Dedicated","server_os":"Linux","password":true,"vac":true,"version":"7961495","steam_id":85568392924742828,"keywords":["cp","nocrits","nodmgspread","uncletopia"],"game_id":440,"stv_port":27086,"stv_name":"Uncletopia | Frankfurt | 8 | Community | STV","players":null},{"server_id":202,"name":"Uncletopia | Hong Kong | 1 | All Maps","name_short":"hgk-1","host":"hgk-1.hk.uncletopia.com","port":27015,"enabled":true,"region":"asia","cc":"hk","latitude":22.302711,"longitude":114.177216,"reserved":0,"last_update":"0001-01-01T00:00:00Z","name_a2s":"Uncletopia | Hong Kong | 1 | All Maps","protocol":17,"map":"pl_frontier_final","folder":"tf","game":"Team Fortress","app_id":440,"player_count":0,"max_players":24,"Bots":0,"server_type":"Dedicated","server_os":"Linux","password":true,"vac":true,"version":"7961495","steam_id":85568392924494504,"keywords":["nocrits","nodmgspread","payload","uncletopia"],"game_id":440,"stv_port":27016,"stv_name":"Uncletopia | Hong Kong | 1 | All Maps | STV","players":null},{"server_id":1,"name":"Uncletopia | Los Angeles | 1 | All Maps","name_short":"lax-1","host":"lax-1.us.uncletopia.com","port":27015,"enabled":true,"region":"us-west","cc":"us","latitude":33.94279,"longitude":-118.41004,"reserved":0,"last_update":"0001-01-01T00:00:00Z","name_a2s":"Uncletopia | Los Angeles | 1 | All Maps","protocol":17,"map":"pl_pier","folder":"tf","game":"Team Fortress","app_id":440,"player_count":24,"max_players":24,"Bots":0,"server_type":"Dedicated","server_os":"Linux","password":true,"vac":true,"version":"7961495","steam_id":85568392924469991,"keywords":["nocrits","nodmgspread","payload","uncletopia"],"game_id":440,"stv_port":27016,"stv_name":"Uncletopia | Los Angeles | 1 | All Maps | STV","players":[{"user_id":10,"name":"TheDoctorIsIn","steam_id":76561198322058639,"connected_time":5002000000000,"state":"active","ping":94},{"user_id":32,"name":"Buswolley","steam_id":76561197995205571,"connected_time":623000000000,"state":"active","ping":56},{"user_id":33,"name":":skull:","steam_id":76561199122005388,"connected_time":520000000000,"state":"active","ping":59},{"user_id":15,"name":"ishfulness","steam_id":76561197999655436,"connected_time":2723000000000,"state":"active","ping":84},{"user_id":22,"name":"Youngblood5780","steam_id":76561198113934410,"connected_time":1505000000000,"state":"active","ping":63},{"user_id":20,"name":"Soupy Meal","steam_id":76561199056842761,"connected_time":2139000000000,"state":"active","ping":52},{"user_id":26,"name":"Goblin","steam_id":76561198866700540,"connected_time":1015000000000,"state":"active","ping":121},{"user_id":23,"name":"Mr lazy pants 72","steam_id":76561198396412589,"connected_time":1098000000000,"state":"active","ping":96},{"user_id":49,"name":"Rabblerouser","steam_id":76561198127930963,"connected_time":69000000000,"state":"active","ping":125},{"user_id":25,"name":"ACK","steam_id":76561198130390689,"connected_time":1020000000000,"state":"active","ping":69},{"user_id":27,"name":"Witch Vomit","steam_id":76561199079587227,"connected_time":1013000000000,"state":"active","ping":63},{"user_id":28,"name":"Leviathan","steam_id":76561198437699814,"connected_time":895000000000,"state":"active","ping":67},{"user_id":34,"name":"garbungus","steam_id":76561199435510075,"connected_time":488000000000,"state":"active","ping":136},{"user_id":30,"name":"knatspray","steam_id":76561198832507482,"connected_time":772000000000,"state":"active","ping":83},{"user_id":35,"name":"Odd Life","steam_id":76561198244979998,"connected_time":470000000000,"state":"active","ping":54},{"user_id":36,"name":"Indominus","steam_id":76561198400988707,"connected_time":444000000000,"state":"active","ping":123},{"user_id":38,"name":"Joh Bags","steam_id":76561198097004438,"connected_time":385000000000,"state":"active","ping":67},{"user_id":40,"name":"Slope115117","steam_id":76561199028794627,"connected_time":335000000000,"state":"active","ping":62},{"user_id":48,"name":"Master Of Whales","steam_id":76561198349104889,"connected_time":91000000000,"state":"active","ping":56},{"user_id":42,"name":"new ZAland","steam_id":76561198433114405,"connected_time":330000000000,"state":"active","ping":83},{"user_id":47,"name":"Keamy","steam_id":76561199471434875,"connected_time":159000000000,"state":"active","ping":74},{"user_id":44,"name":"Username","steam_id":76561198198918781,"connected_time":312000000000,"state":"active","ping":69},{"user_id":45,"name":"SlendyTroller","steam_id":76561198258707411,"connected_time":279000000000,"state":"active","ping":186},{"user_id":46,"name":"krootonitron","steam_id":76561198114113037,"connected_time":276000000000,"state":"active","ping":52}]},{"server_id":112,"name":"Uncletopia | Los Angeles | 2 | All Maps","name_short":"lax-2","host":"lax-1.us.uncletopia.com","port":27025,"enabled":true,"region":"us-west","cc":"us","latitude":33.94279,"longitude":-118.41004,"reserved":0,"last_update":"0001-01-01T00:00:00Z","name_a2s":"Uncletopia | Los Angeles | 2 | All Maps","protocol":17,"map":"pl_frontier_final","folder":"tf","game":"Team Fortress","app_id":440,"player_count":24,"max_players":24,"Bots":0,"server_type":"Dedicated","server_os":"Linux","password":true,"vac":true,"version":"7961495","steam_id":85568392924469992,"keywords":["nocrits","nodmgspread","payload","uncletopia"],"game_id":440,"stv_port":27026,"stv_name":"Uncletopia | Los Angeles | 2 | All Maps | STV","players":[{"user_id":160,"name":"Scampy","steam_id":76561198001506924,"connected_time":1799000000000,"state":"active","ping":83},{"user_id":164,"name":"Mud Goblin","steam_id":76561198839118505,"connected_time":1705000000000,"state":"active","ping":71},{"user_id":157,"name":"MeatShield 2000","steam_id":76561199375192850,"connected_time":2022000000000,"state":"active","ping":101},{"user_id":135,"name":"Shinyeet","steam_id":76561198397300743,"connected_time":3144000000000,"state":"active","ping":75},{"user_id":165,"name":"Gabe","steam_id":76561198081153719,"connected_time":1696000000000,"state":"active","ping":66},{"user_id":174,"name":"Nato #ClashGG","steam_id":76561198161062837,"connected_time":1317000000000,"state":"active","ping":52},{"user_id":155,"name":"Midnight-ag","steam_id":76561198115714484,"connected_time":2164000000000,"state":"active","ping":91},{"user_id":182,"name":"Underscorn","steam_id":76561198374209415,"connected_time":369000000000,"state":"active","ping":89},{"user_id":180,"name":"kn0n2999","steam_id":76561198249172818,"connected_time":472000000000,"state":"active","ping":66},{"user_id":181,"name":"thumb","steam_id":76561198353762582,"connected_time":457000000000,"state":"active","ping":68},{"user_id":145,"name":"dP | I'm in a Wookie Suit","steam_id":76561198083307644,"connected_time":2511000000000,"state":"active","ping":80},{"user_id":159,"name":"Magician","steam_id":76561198011734385,"connected_time":1962000000000,"state":"active","ping":53},{"user_id":179,"name":"bengineer","steam_id":76561198171912174,"connected_time":570000000000,"state":"active","ping":73},{"user_id":166,"name":"I Like Cheese","steam_id":76561198006265659,"connected_time":1688000000000,"state":"active","ping":130},{"user_id":167,"name":"Who","steam_id":76561198013049671,"connected_time":1619000000000,"state":"active","ping":54},{"user_id":183,"name":"jugo","steam_id":76561197995428542,"connected_time":19000000000,"state":"active","ping":67},{"user_id":163,"name":"Johni3FireFly","steam_id":76561198089760607,"connected_time":1769000000000,"state":"active","ping":54},{"user_id":173,"name":"darkelaine227","steam_id":76561198097330521,"connected_time":1452000000000,"state":"active","ping":100},{"user_id":177,"name":"badass","steam_id":76561198404271005,"connected_time":637000000000,"state":"active","ping":55},{"user_id":121,"name":"nella","steam_id":76561198079349621,"connected_time":4299000000000,"state":"active","ping":50},{"user_id":176,"name":"Szaint","steam_id":76561198165050614,"connected_time":1074000000000,"state":"active","ping":65},{"user_id":151,"name":"therealTracer","steam_id":76561198388896904,"connected_time":2291000000000,"state":"active","ping":109},{"user_id":175,"name":"CAMPERZz_","steam_id":76561198297784458,"connected_time":1312000000000,"state":"active","ping":45},{"user_id":172,"name":"soltuno","steam_id":76561198074430565,"connected_time":1540000000000,"state":"active","ping":70}]},{"server_id":324,"name":"Uncletopia | Los Angeles | 3 | All Maps","name_short":"lax-3","host":"lax-1.us.uncletopia.com","port":27035,"enabled":true,"region":"us-west","cc":"us","latitude":33.94279,"longitude":-118.41004,"reserved":0,"last_update":"0001-01-01T00:00:00Z","name_a2s":"Uncletopia | Los Angeles | 3 | All Maps","protocol":17,"map":"pl_snowycoast","folder":"tf","game":"Team Fortress","app_id":440,"player_count":0,"max_players":24,"Bots":0,"server_type":"Dedicated","server_os":"Linux","password":true,"vac":true,"version":"7961495","steam_id":85568392924510198,"keywords":["nocrits","nodmgspread","payload","uncletopia"],"game_id":440,"stv_port":27036,"stv_name":"Uncletopia | Los Angeles | 3 | All Maps | STV","players":null},{"server_id":25,"name":"Uncletopia | Los Angeles | 4 | Stopwatch","name_short":"lax-4","host":"lax-1.us.uncletopia.com","port":27045,"enabled":true,"region":"us-west","cc":"us","latitude":33.94279,"longitude":-118.41004,"reserved":0,"last_update":"0001-01-01T00:00:00Z","name_a2s":"Uncletopia | Los Angeles | 4 | Stopwatch","protocol":17,"map":"workshop/koth_ramjam_rc1.ugc459778887","folder":"tf","game":"Team Fortress","app_id":440,"player_count":0,"max_players":24,"Bots":0,"server_type":"Dedicated","server_os":"Linux","password":true,"vac":true,"version":"7961495","steam_id":85568392924510199,"keywords":["cp","nocrits","nodmgspread","uncletopia"],"game_id":440,"stv_port":27046,"stv_name":"Uncletopia | Los Angeles | 4 | Stopwatch | STV","players":null},{"server_id":11,"name":"Uncletopia | London | 1 | All Maps","name_short":"lon-1","host":"lon-1.uk.uncletopia.com","port":27015,"enabled":true,"region":"eu","cc":"gb","latitude":51.509865,"longitude":-0.118092,"reserved":0,"last_update":"0001-01-01T00:00:00Z","name_a2s":"Uncletopia | London | 1 | All Maps","protocol":17,"map":"pl_hoodoo_final","folder":"tf","game":"Team Fortress","app_id":440,"player_count":22,"max_players":24,"Bots":0,"server_type":"Dedicated","server_os":"Linux","password":true,"vac":true,"version":"7961495","steam_id":85568392924367362,"keywords":["nocrits","nodmgspread","payload","uncletopia"],"game_id":440,"stv_port":27016,"stv_name":"Uncletopia | London | 1 | All Maps | STV","players":[{"user_id":655,"name":"WASD","steam_id":76561198278640702,"connected_time":213000000000,"state":"active","ping":83},{"user_id":658,"name":"Hitotsume","steam_id":76561198129157178,"connected_time":107000000000,"state":"active","ping":91},{"user_id":637,"name":"Mammut","steam_id":76561198056773933,"connected_time":926000000000,"state":"active","ping":51},{"user_id":644,"name":"Tichy☆","steam_id":76561198026218934,"connected_time":513000000000,"state":"active","ping":64},{"user_id":645,"name":"Zerwee","steam_id":76561198181368101,"connected_time":497000000000,"state":"active","ping":61},{"user_id":614,"name":"snus","steam_id":76561198046716430,"connected_time":4689000000000,"state":"active","ping":59},{"user_id":632,"name":"Deformed Gollum","steam_id":76561198155563589,"connected_time":1562000000000,"state":"active","ping":50},{"user_id":660,"name":"Glad","steam_id":76561198093397695,"connected_time":62000000000,"state":"active","ping":89},{"user_id":650,"name":"caramelldancin'","steam_id":76561198193357946,"connected_time":289000000000,"state":"active","ping":105},{"user_id":646,"name":"fikafika","steam_id":76561198037517223,"connected_time":478000000000,"state":"active","ping":83},{"user_id":654,"name":"[10thAL] Ballix","steam_id":76561198217495645,"connected_time":230000000000,"state":"active","ping":45},{"user_id":656,"name":"vug","steam_id":76561198042227249,"connected_time":132000000000,"state":"active","ping":44},{"user_id":651,"name":"Keke","steam_id":76561198042032908,"connected_time":289000000000,"state":"active","ping":76},{"user_id":621,"name":"TuniaaAAH","steam_id":76561198141592642,"connected_time":3836000000000,"state":"active","ping":47},{"user_id":577,"name":"dec","steam_id":76561198009660168,"connected_time":9068000000000,"state":"active","ping":54},{"user_id":552,"name":"Sherlock Bond","steam_id":76561198042045955,"connected_time":13170000000000,"state":"active","ping":51},{"user_id":652,"name":"ScampSixteen","steam_id":76561198021771000,"connected_time":254000000000,"state":"active","ping":51},{"user_id":606,"name":"Mega","steam_id":76561197970389664,"connected_time":5170000000000,"state":"active","ping":47},{"user_id":657,"name":"non_ai","steam_id":76561198270951938,"connected_time":119000000000,"state":"active","ping":111},{"user_id":661,"name":"Smokey Boi","steam_id":76561198018739392,"connected_time":58000000000,"state":"active","ping":76},{"user_id":629,"name":"BigFudge","steam_id":76561199403590127,"connected_time":2263000000000,"state":"active","ping":69},{"user_id":636,"name":"Level 1 Noob","steam_id":76561198088586340,"connected_time":1093000000000,"state":"active","ping":51}]},{"server_id":114,"name":"Uncletopia | London | 2 | All Maps","name_short":"lon-2","host":"lon-1.uk.uncletopia.com","port":27025,"enabled":true,"region":"eu","cc":"gb","latitude":51.509865,"longitude":-0.118092,"reserved":0,"last_update":"0001-01-01T00:00:00Z","name_a2s":"Uncletopia | London | 2 | All Maps","protocol":17,"map":"pl_swiftwater_final1","folder":"tf","game":"Team Fortress","app_id":440,"player_count":24,"max_players":24,"Bots":0,"server_type":"Dedicated","server_os":"Linux","password":true,"vac":true,"version":"7961495","steam_id":85568392924470941,"keywords":["nocrits","nodmgspread","payload","uncletopia"],"game_id":440,"stv_port":27026,"stv_name":"Uncletopia | London | 2 | All Maps | STV","players":[{"user_id":900,"name":"Lewy","steam_id":76561198051795513,"connected_time":931000000000,"state":"active","ping":83},{"user_id":880,"name":"Yelowchy","steam_id":76561198199416121,"connected_time":1963000000000,"state":"active","ping":74},{"user_id":842,"name":"stomach bug (new jump mechanic)","steam_id":76561198963378933,"connected_time":4333000000000,"state":"active","ping":41},{"user_id":837,"name":"Lilliputt (escaped convict)","steam_id":76561198090146457,"connected_time":4385000000000,"state":"active","ping":33},{"user_id":869,"name":"Finem Belli","steam_id":76561198227177976,"connected_time":2421000000000,"state":"active","ping":45},{"user_id":870,"name":"noquieronitengo","steam_id":76561198108020034,"connected_time":2407000000000,"state":"active","ping":78},{"user_id":838,"name":"ywyw","steam_id":76561198088624259,"connected_time":4377000000000,"state":"active","ping":62},{"user_id":904,"name":"Szymi Burger Dowóz","steam_id":76561198039000112,"connected_time":657000000000,"state":"active","ping":86},{"user_id":853,"name":"Jonno","steam_id":76561198023443744,"connected_time":4170000000000,"state":"active","ping":46},{"user_id":888,"name":"tone'","steam_id":76561198055552635,"connected_time":1450000000000,"state":"active","ping":59},{"user_id":886,"name":"Boxtrot","steam_id":76561198026321441,"connected_time":1541000000000,"state":"active","ping":75},{"user_id":901,"name":"remi, she wrote.","steam_id":76561198044045655,"connected_time":895000000000,"state":"active","ping":90},{"user_id":879,"name":"QameI","steam_id":76561198251229496,"connected_time":2176000000000,"state":"active","ping":71},{"user_id":903,"name":"jalones al pecho","steam_id":76561198112986842,"connected_time":799000000000,"state":"active","ping":62},{"user_id":841,"name":"AkioTohru","steam_id":76561198197606282,"connected_time":4339000000000,"state":"active","ping":35},{"user_id":843,"name":"nebuden","steam_id":76561198307037169,"connected_time":4328000000000,"state":"active","ping":56},{"user_id":856,"name":"stun","steam_id":76561198276681691,"connected_time":3759000000000,"state":"active","ping":47},{"user_id":881,"name":"epic anal cum","steam_id":76561198077421906,"connected_time":1962000000000,"state":"active","ping":52},{"user_id":890,"name":"abdpocoyo","steam_id":76561198094321481,"connected_time":1389000000000,"state":"active","ping":64},{"user_id":902,"name":"Proud Jojo Fan #TF2SP","steam_id":76561198847327216,"connected_time":871000000000,"state":"active","ping":74},{"user_id":860,"name":"Brian","steam_id":76561198077756206,"connected_time":3152000000000,"state":"active","ping":39},{"user_id":892,"name":"CEO of Racism","steam_id":76561198042317958,"connected_time":1236000000000,"state":"active","ping":74},{"user_id":906,"name":"_420_StopItDudeCmon","steam_id":76561197997146481,"connected_time":490000000000,"state":"active","ping":48},{"user_id":878,"name":"NovaEngineer","steam_id":76561199187304864,"connected_time":2261000000000,"state":"active","ping":66}]},{"server_id":320,"name":"Uncletopia | London | 3 | All Maps","name_short":"lon-3","host":"lon-1.uk.uncletopia.com","port":27035,"enabled":true,"region":"eu","cc":"gb","latitude":51.509865,"longitude":-0.118092,"reserved":0,"last_update":"0001-01-01T00:00:00Z","name_a2s":"Uncletopia | London | 3 | All Maps","protocol":17,"map":"cp_dustbowl","folder":"tf","game":"Team Fortress","app_id":440,"player_count":17,"max_players":24,"Bots":0,"server_type":"Dedicated","server_os":"Linux","password":true,"vac":true,"version":"7961495","steam_id":85568392924510192,"keywords":["cp","nocrits","nodmgspread","uncletopia"],"game_id":440,"stv_port":27036,"stv_name":"Uncletopia | London | 3 | All Maps | STV","players":[{"user_id":623,"name":"M.C.Mcmuffins","steam_id":76561198068225535,"connected_time":3275000000000,"state":"active","ping":53},{"user_id":618,"name":"Michał","steam_id":76561198320346362,"connected_time":3937000000000,"state":"active","ping":73},{"user_id":678,"name":"BELADIT","steam_id":76561198011911501,"connected_time":124000000000,"state":"active","ping":76},{"user_id":680,"name":"yuhboiZ #savetf2","steam_id":76561198192643775,"connected_time":3000000000,"state":"spawning","ping":222},{"user_id":665,"name":"Fifibat","steam_id":76561198132981027,"connected_time":961000000000,"state":"active","ping":99},{"user_id":627,"name":"Worms","steam_id":76561198040442214,"connected_time":3172000000000,"state":"active","ping":44},{"user_id":670,"name":"Mabert","steam_id":76561198436058407,"connected_time":683000000000,"state":"active","ping":76},{"user_id":667,"name":"Ascended Noob","steam_id":76561198079411460,"connected_time":835000000000,"state":"active","ping":53},{"user_id":677,"name":"$TA$ LXVE","steam_id":76561199277727142,"connected_time":158000000000,"state":"active","ping":108},{"user_id":672,"name":"kid bean","steam_id":76561198063328792,"connected_time":604000000000,"state":"active","ping":99},{"user_id":635,"name":"_Context_","steam_id":76561199163359312,"connected_time":2908000000000,"state":"active","ping":63},{"user_id":679,"name":"-CLAN- moose","steam_id":76561198117853826,"connected_time":94000000000,"state":"active","ping":184},{"user_id":673,"name":"Moistie!!","steam_id":76561198989752113,"connected_time":583000000000,"state":"active","ping":49},{"user_id":653,"name":"Economic crisis","steam_id":76561198063562843,"connected_time":1668000000000,"state":"active","ping":70},{"user_id":655,"name":"Sakeung","steam_id":76561198868149996,"connected_time":1649000000000,"state":"active","ping":70},{"user_id":656,"name":"SparkyDoodles - Artist","steam_id":76561198060128235,"connected_time":1616000000000,"state":"active","ping":51},{"user_id":659,"name":"Oak","steam_id":76561198027681311,"connected_time":1595000000000,"state":"active","ping":74}]},{"server_id":321,"name":"Uncletopia | London | 4 | All Maps","name_short":"lon-4","host":"lon-1.uk.uncletopia.com","port":27045,"enabled":true,"region":"eu","cc":"gb","latitude":51.509865,"longitude":-0.118092,"reserved":0,"last_update":"0001-01-01T00:00:00Z","name_a2s":"Uncletopia | London | 4 | All Maps","protocol":17,"map":"pl_badwater","folder":"tf","game":"Team Fortress","app_id":440,"player_count":22,"max_players":24,"Bots":0,"server_type":"Dedicated","server_os":"Linux","password":true,"vac":true,"version":"7961495","steam_id":85568392924510193,"keywords":["nocrits","nodmgspread","payload","uncletopia"],"game_id":440,"stv_port":27046,"stv_name":"Uncletopia | London | 4 | All Maps | STV","players":[{"user_id":578,"name":"★Lily","steam_id":76561198014774371,"connected_time":316000000000,"state":"active","ping":59},{"user_id":541,"name":"bsnaxfiblo2","steam_id":76561198051053852,"connected_time":4746000000000,"state":"active","ping":49},{"user_id":580,"name":"jerkwaterberg","steam_id":76561198134165667,"connected_time":46000000000,"state":"active","ping":51},{"user_id":581,"name":"Vel0city","steam_id":76561198049687798,"connected_time":43000000000,"state":"active","ping":56},{"user_id":576,"name":"please do not the cat","steam_id":76561198089003514,"connected_time":576000000000,"state":"active","ping":58},{"user_id":454,"name":"Bobirulez","steam_id":76561198009125458,"connected_time":11751000000000,"state":"active","ping":75},{"user_id":559,"name":"Suetolog","steam_id":76561199053090212,"connected_time":2793000000000,"state":"active","ping":62},{"user_id":567,"name":"Not Sussy Tanuki","steam_id":76561198137289375,"connected_time":1375000000000,"state":"active","ping":103},{"user_id":544,"name":"rob","steam_id":76561198122211848,"connected_time":4355000000000,"state":"active","ping":89},{"user_id":545,"name":"Lukullu","steam_id":76561198269414258,"connected_time":4237000000000,"state":"active","ping":83},{"user_id":570,"name":"piosjoredeyo","steam_id":76561198878384950,"connected_time":1088000000000,"state":"active","ping":96},{"user_id":568,"name":"tf2 botkick simulator","steam_id":76561198001581446,"connected_time":1269000000000,"state":"active","ping":96},{"user_id":533,"name":"I am on the TF2 Scoreboard...","steam_id":76561198043850884,"connected_time":5291000000000,"state":"active","ping":67},{"user_id":501,"name":"Just Navlis (on the scoreboard)","steam_id":76561198090479609,"connected_time":7948000000000,"state":"active","ping":56},{"user_id":571,"name":"CiVillain","steam_id":76561198059617732,"connected_time":1076000000000,"state":"active","ping":70},{"user_id":556,"name":"BenteBent","steam_id":76561198297920637,"connected_time":2967000000000,"state":"active","ping":37},{"user_id":557,"name":"[SpA]Scatterbrain","steam_id":76561197998639769,"connected_time":2872000000000,"state":"active","ping":47},{"user_id":436,"name":"ASSEMBLE FROYO BROS","steam_id":76561198116223995,"connected_time":13003000000000,"state":"active","ping":57},{"user_id":579,"name":"Bun","steam_id":76561197989239999,"connected_time":133000000000,"state":"active","ping":59},{"user_id":566,"name":"Sabour","steam_id":76561197963965445,"connected_time":1897000000000,"state":"active","ping":69},{"user_id":538,"name":"Damn D. Aniel","steam_id":76561198106597458,"connected_time":4822000000000,"state":"active","ping":59},{"user_id":510,"name":"Mega Man Legends 3","steam_id":76561198014110199,"connected_time":7041000000000,"state":"active","ping":32}]},{"server_id":21,"name":"Uncletopia | London | 5 | All Maps","name_short":"lon-5","host":"lon-1.uk.uncletopia.com","port":27055,"enabled":true,"region":"eu","cc":"gb","latitude":51.509865,"longitude":-0.118092,"reserved":0,"last_update":"0001-01-01T00:00:00Z","name_a2s":"Uncletopia | London | 5 | All Maps","protocol":17,"map":"koth_lakeside_final","folder":"tf","game":"Team Fortress","app_id":440,"player_count":0,"max_players":24,"Bots":0,"server_type":"Dedicated","server_os":"Linux","password":true,"vac":true,"version":"7961495","steam_id":85568392924742829,"keywords":["cp","nocrits","nodmgspread","uncletopia"],"game_id":440,"stv_port":27056,"stv_name":"Uncletopia | London | 5 | All Maps | STV","players":null},{"server_id":22,"name":"Uncletopia | London | 6 | All Maps","name_short":"lon-6","host":"lon-1.uk.uncletopia.com","port":27065,"enabled":true,"region":"eu","cc":"gb","latitude":51.509865,"longitude":-0.118092,"reserved":0,"last_update":"0001-01-01T00:00:00Z","name_a2s":"Uncletopia | London | 6 | All Maps","protocol":17,"map":"cp_steel","folder":"tf","game":"Team Fortress","app_id":440,"player_count":12,"max_players":24,"Bots":0,"server_type":"Dedicated","server_os":"Linux","password":true,"vac":true,"version":"7961495","steam_id":85568392924742830,"keywords":["cp","nocrits","nodmgspread","uncletopia"],"game_id":440,"stv_port":27066,"stv_name":"Uncletopia | London | 6 | All Maps | STV","players":[{"user_id":406,"name":"Kheprii","steam_id":76561198095899274,"connected_time":77000000000,"state":"active","ping":134},{"user_id":378,"name":"Coca162","steam_id":76561198230656540,"connected_time":2800000000000,"state":"active","ping":45},{"user_id":400,"name":"shadowness☼","steam_id":76561198176790002,"connected_time":844000000000,"state":"active","ping":64},{"user_id":405,"name":"chum","steam_id":76561198324048855,"connected_time":281000000000,"state":"active","ping":51},{"user_id":402,"name":"Donac Dum","steam_id":76561198064089294,"connected_time":599000000000,"state":"active","ping":51},{"user_id":399,"name":"bitkomet","steam_id":76561198058232147,"connected_time":1060000000000,"state":"active","ping":77},{"user_id":372,"name":"Imperial City Guard","steam_id":76561198083355845,"connected_time":3462000000000,"state":"active","ping":50},{"user_id":385,"name":"morbius (a lenda da marvel)","steam_id":76561198156198125,"connected_time":2039000000000,"state":"active","ping":83},{"user_id":365,"name":"Biggest birrrd","steam_id":76561198069066522,"connected_time":3896000000000,"state":"active","ping":61},{"user_id":397,"name":"U ALREADY KNOW","steam_id":76561198204858259,"connected_time":1791000000000,"state":"active","ping":86},{"user_id":396,"name":"UM DEUS","steam_id":76561198308414395,"connected_time":1900000000000,"state":"active","ping":88},{"user_id":354,"name":"Sonnakai","steam_id":76561198051688749,"connected_time":4875000000000,"state":"active","ping":44}]},{"server_id":40,"name":"Uncletopia | London | 7 | Stopwatch","name_short":"lon-7","host":"lon-1.uk.uncletopia.com","port":27075,"enabled":true,"region":"eu","cc":"gb","latitude":51.509865,"longitude":-0.118092,"reserved":0,"last_update":"0001-01-01T00:00:00Z","name_a2s":"Uncletopia | London | 7 | Stopwatch","protocol":17,"map":"workshop/koth_product_final.ugc454272353","folder":"tf","game":"Team Fortress","app_id":440,"player_count":0,"max_players":24,"Bots":0,"server_type":"Dedicated","server_os":"Linux","password":true,"vac":true,"version":"7961495","steam_id":85568392924964314,"keywords":["cp","nocrits","nodmgspread","uncletopia"],"game_id":440,"stv_port":27076,"stv_name":"Uncletopia | London | 7 | Stopwatch | STV","players":null},{"server_id":41,"name":"Uncletopia | London | 8 | Community","name_short":"lon-8","host":"lon-1.uk.uncletopia.com","port":27085,"enabled":true,"region":"eu","cc":"gb","latitude":51.509865,"longitude":-0.118092,"reserved":0,"last_update":"0001-01-01T00:00:00Z","name_a2s":"Uncletopia | London | 8 | Community","protocol":17,"map":"workshop/koth_trenchfoot_b1a.ugc731436616","folder":"tf","game":"Team Fortress","app_id":440,"player_count":0,"max_players":24,"Bots":0,"server_type":"Dedicated","server_os":"Linux","password":true,"vac":true,"version":"7961495","steam_id":85568392924964315,"keywords":["cp","nocrits","nodmgspread","uncletopia"],"game_id":440,"stv_port":27086,"stv_name":"Uncletopia | London | 8 | Community | STV","players":null},{"server_id":300,"name":"Uncletopia | Montréal | 1 | One Thousand Uncles","name_short":"mtl-1","host":"mtl-1.ca.uncletopia.com","port":27015,"enabled":true,"region":"us-east","cc":"ca","latitude":45.50889,"longitude":-73.56167,"reserved":0,"last_update":"0001-01-01T00:00:00Z","name_a2s":"","protocol":0,"map":"","folder":"","game":"","app_id":0,"player_count":6,"max_players":0,"Bots":0,"server_type":"","server_os":"","password":false,"vac":false,"version":"","steam_id":0,"keywords":null,"game_id":0,"stv_port":0,"stv_name":"","players":[{"user_id":198,"name":"Jade Jetts [She/They]","steam_id":76561198206130076,"connected_time":775000000000,"state":"active","ping":117},{"user_id":196,"name":"JustNeo","steam_id":76561199086288085,"connected_time":1227000000000,"state":"active","ping":73},{"user_id":195,"name":"BIGGEST MAC","steam_id":76561198847517098,"connected_time":1256000000000,"state":"active","ping":72},{"user_id":199,"name":"DrMisteryous2","steam_id":76561198336307012,"connected_time":294000000000,"state":"active","ping":174},{"user_id":171,"name":"concrete_car","steam_id":76561198388207363,"connected_time":2604000000000,"state":"active","ping":61},{"user_id":177,"name":"BinaryBitGamer[They/Them]","steam_id":76561198140761006,"connected_time":1453000000000,"state":"active","ping":61}]},{"server_id":301,"name":"Uncletopia | Montréal | 2 | One Thousand Uncles","name_short":"mtl-2","host":"mtl-1.ca.uncletopia.com","port":27025,"enabled":true,"region":"us-east","cc":"ca","latitude":45.50889,"longitude":-73.56167,"reserved":0,"last_update":"0001-01-01T00:00:00Z","name_a2s":"","protocol":0,"map":"","folder":"","game":"","app_id":0,"player_count":0,"max_players":0,"Bots":0,"server_type":"","server_os":"","password":false,"vac":false,"version":"","steam_id":0,"keywords":null,"game_id":0,"stv_port":0,"stv_name":"","players":null},{"server_id":302,"name":"Uncletopia | Montréal | 3 | One Thousand Uncles","name_short":"mtl-3","host":"mtl-1.ca.uncletopia.com","port":27035,"enabled":true,"region":"us-east","cc":"ca","latitude":45.50889,"longitude":-73.56167,"reserved":0,"last_update":"0001-01-01T00:00:00Z","name_a2s":"","protocol":0,"map":"","folder":"","game":"","app_id":0,"player_count":0,"max_players":0,"Bots":0,"server_type":"","server_os":"","password":false,"vac":false,"version":"","steam_id":0,"keywords":null,"game_id":0,"stv_port":0,"stv_name":"","players":null},{"server_id":13,"name":"Uncletopia | New York City | 1 | All Maps","name_short":"nyc-1","host":"nyc-1.us.uncletopia.com","port":27015,"enabled":true,"region":"us-east","cc":"us","latitude":40.73061,"longitude":-73.93524,"reserved":0,"last_update":"0001-01-01T00:00:00Z","name_a2s":"Uncletopia | New York City | 1 | All Maps","protocol":17,"map":"cp_dustbowl","folder":"tf","game":"Team Fortress","app_id":440,"player_count":23,"max_players":24,"Bots":0,"server_type":"Dedicated","server_os":"Linux","password":true,"vac":true,"version":"7961495","steam_id":85568392924469993,"keywords":["cp","nocrits","nodmgspread","uncletopia"],"game_id":440,"stv_port":27016,"stv_name":"Uncletopia | New York City | 1 | All Maps | STV","players":[{"user_id":208,"name":"Dapopotato","steam_id":76561198159484147,"connected_time":1672000000000,"state":"active","ping":65},{"user_id":227,"name":"Mads Mikkelsen","steam_id":76561198083482001,"connected_time":738000000000,"state":"active","ping":126},{"user_id":154,"name":"penis atomizer 9000 🏳️?","steam_id":76561198864841966,"connected_time":6016000000000,"state":"active","ping":92},{"user_id":228,"name":"PoopBob","steam_id":76561198066733892,"connected_time":736000000000,"state":"active","ping":65},{"user_id":226,"name":"Pox4Dinner","steam_id":76561198036958101,"connected_time":781000000000,"state":"active","ping":62},{"user_id":210,"name":"Dann1526","steam_id":76561199121864838,"connected_time":1628000000000,"state":"active","ping":47},{"user_id":156,"name":"ThatGamingKiwi","steam_id":76561199170522237,"connected_time":5886000000000,"state":"active","ping":80},{"user_id":221,"name":"One Confused Proton","steam_id":76561199372053610,"connected_time":1001000000000,"state":"active","ping":89},{"user_id":233,"name":"Xavi","steam_id":76561198337783795,"connected_time":150000000000,"state":"active","ping":43},{"user_id":209,"name":"el wiwi","steam_id":76561198857304367,"connected_time":1644000000000,"state":"active","ping":73},{"user_id":212,"name":"JunThePanda","steam_id":76561198144029002,"connected_time":1577000000000,"state":"active","ping":88},{"user_id":234,"name":"Cartroner","steam_id":76561198041060296,"connected_time":16000000000,"state":"spawning","ping":59},{"user_id":215,"name":"kikikikoboy","steam_id":76561198073380271,"connected_time":1350000000000,"state":"active","ping":69},{"user_id":213,"name":"Argo","steam_id":76561198353725622,"connected_time":1550000000000,"state":"active","ping":69},{"user_id":231,"name":"KIKI CURBSTOMP","steam_id":76561198262064871,"connected_time":573000000000,"state":"active","ping":45},{"user_id":217,"name":"Halley Rubicon","steam_id":76561198118948585,"connected_time":1233000000000,"state":"active","ping":53},{"user_id":232,"name":"mocolata","steam_id":76561198023757872,"connected_time":551000000000,"state":"active","ping":73},{"user_id":230,"name":"Oatmeal","steam_id":76561199099745868,"connected_time":677000000000,"state":"active","ping":44},{"user_id":220,"name":"the scamper","steam_id":76561199153963849,"connected_time":1064000000000,"state":"active","ping":78},{"user_id":222,"name":"Meiji","steam_id":76561198971753591,"connected_time":971000000000,"state":"active","ping":61},{"user_id":224,"name":"Quincy99","steam_id":76561198381841894,"connected_time":966000000000,"state":"active","ping":74},{"user_id":225,"name":"Peepster","steam_id":76561198297854733,"connected_time":930000000000,"state":"active","ping":75},{"user_id":100,"name":"The Guy","steam_id":76561198799183693,"connected_time":9150000000000,"state":"active","ping":89}]},{"server_id":14,"name":"Uncletopia | New York City | 2 | All Maps","name_short":"nyc-2","host":"nyc-1.us.uncletopia.com","port":27025,"enabled":true,"region":"us-east","cc":"us","latitude":40.73061,"longitude":-73.93524,"reserved":0,"last_update":"0001-01-01T00:00:00Z","name_a2s":"Uncletopia | New York City | 2 | All Maps","protocol":17,"map":"ctf_turbine","folder":"tf","game":"Team Fortress","app_id":440,"player_count":24,"max_players":24,"Bots":0,"server_type":"Dedicated","server_os":"Linux","password":true,"vac":true,"version":"7961495","steam_id":85568392924469994,"keywords":["ctf","nocrits","nodmgspread","uncletopia"],"game_id":440,"stv_port":27026,"stv_name":"Uncletopia | New York City | 2 | All Maps | STV","players":[{"user_id":111,"name":"Big Bill Haywood","steam_id":76561198142290733,"connected_time":408000000000,"state":"active","ping":53},{"user_id":112,"name":"Boy Smoocher","steam_id":76561199200969139,"connected_time":390000000000,"state":"active","ping":128},{"user_id":102,"name":"LowEndTheory","steam_id":76561198058209274,"connected_time":1274000000000,"state":"active","ping":65},{"user_id":69,"name":"Canadian","steam_id":76561199104281653,"connected_time":4070000000000,"state":"active","ping":55},{"user_id":106,"name":"MiKE","steam_id":76561198073082983,"connected_time":1026000000000,"state":"active","ping":61},{"user_id":60,"name":"Mint Jelly","steam_id":76561197991286751,"connected_time":4657000000000,"state":"active","ping":60},{"user_id":113,"name":"AgentEpsilon","steam_id":76561198043705715,"connected_time":382000000000,"state":"active","ping":60},{"user_id":101,"name":"Nobody","steam_id":76561198286486517,"connected_time":1509000000000,"state":"active","ping":72},{"user_id":104,"name":"creamteam Goonston","steam_id":76561198123103931,"connected_time":1207000000000,"state":"active","ping":66},{"user_id":56,"name":"MintHaggis","steam_id":76561198006674825,"connected_time":4993000000000,"state":"active","ping":77},{"user_id":115,"name":"Skiddy","steam_id":76561198125942665,"connected_time":322000000000,"state":"active","ping":109},{"user_id":77,"name":"Walmart Employee","steam_id":76561198840373909,"connected_time":3010000000000,"state":"active","ping":95},{"user_id":114,"name":"King Sans","steam_id":76561198294198517,"connected_time":350000000000,"state":"active","ping":45},{"user_id":68,"name":"Haveltherock27","steam_id":76561199219844391,"connected_time":4133000000000,"state":"active","ping":74},{"user_id":73,"name":"Just a baby","steam_id":76561198018660838,"connected_time":3600000000000,"state":"active","ping":90},{"user_id":96,"name":"bouncyhousin","steam_id":76561198852902827,"connected_time":1677000000000,"state":"active","ping":71},{"user_id":118,"name":"Sebarko(Idk how to TF2)","steam_id":76561198853473934,"connected_time":230000000000,"state":"active","ping":80},{"user_id":119,"name":"kino","steam_id":76561198270926835,"connected_time":192000000000,"state":"active","ping":99},{"user_id":48,"name":"Great","steam_id":76561198895516433,"connected_time":5218000000000,"state":"active","ping":55},{"user_id":91,"name":"Frank The Fragger","steam_id":76561198088767519,"connected_time":2007000000000,"state":"active","ping":86},{"user_id":70,"name":".jpg","steam_id":76561198137237377,"connected_time":4021000000000,"state":"active","ping":57},{"user_id":107,"name":"Chris P. Bacon","steam_id":76561198000851038,"connected_time":980000000000,"state":"active","ping":53},{"user_id":117,"name":"JaxsonBOOM","steam_id":76561198206566367,"connected_time":280000000000,"state":"active","ping":58},{"user_id":72,"name":"Hobomunculus","steam_id":76561198210739144,"connected_time":3731000000000,"state":"active","ping":101}]},{"server_id":15,"name":"Uncletopia | New York City | 3 | Stopwatch","name_short":"nyc-3","host":"nyc-1.us.uncletopia.com","port":27035,"enabled":true,"region":"us-east","cc":"us","latitude":40.73061,"longitude":-73.93524,"reserved":0,"last_update":"0001-01-01T00:00:00Z","name_a2s":"Uncletopia | New York City | 3 | Stopwatch","protocol":17,"map":"pl_snowycoast","folder":"tf","game":"Team Fortress","app_id":440,"player_count":0,"max_players":24,"Bots":0,"server_type":"Dedicated","server_os":"Linux","password":true,"vac":true,"version":"7961495","steam_id":85568392924742820,"keywords":["nocrits","nodmgspread","payload","uncletopia"],"game_id":440,"stv_port":27036,"stv_name":"Uncletopia | New York City | 3 | Stopwatch | STV","players":null},{"server_id":16,"name":"Uncletopia | New York City | 4 | Community","name_short":"nyc-4","host":"nyc-1.us.uncletopia.com","port":27045,"enabled":true,"region":"us-east","cc":"us","latitude":40.73061,"longitude":-73.93524,"reserved":0,"last_update":"0001-01-01T00:00:00Z","name_a2s":"Uncletopia | New York City | 4 | Community","protocol":17,"map":"workshop/pl_eruption_b9a.ugc2807898013","folder":"tf","game":"Team Fortress","app_id":440,"player_count":1,"max_players":24,"Bots":0,"server_type":"Dedicated","server_os":"Linux","password":true,"vac":true,"version":"7961495","steam_id":85568392924742821,"keywords":["nocrits","nodmgspread","payload","uncletopia"],"game_id":440,"stv_port":27046,"stv_name":"Uncletopia | New York City | 4 | Community | STV","players":[{"user_id":9,"name":"Hummbirb","steam_id":76561198327686110,"connected_time":10000000000,"state":"spawning","ping":108}]},{"server_id":142,"name":"Uncletopia | São Paulo | 1 | All Maps","name_short":"sao-1","host":"sao-1.br.uncletopia.com","port":27015,"enabled":true,"region":"sa","cc":"br","latitude":-23.533773,"longitude":-46.62529,"reserved":0,"last_update":"0001-01-01T00:00:00Z","name_a2s":"Uncletopia | São Paulo | 1 | All Maps","protocol":17,"map":"cp_sunshine","folder":"tf","game":"Team Fortress","app_id":440,"player_count":2,"max_players":24,"Bots":0,"server_type":"Dedicated","server_os":"Linux","password":true,"vac":true,"version":"7961495","steam_id":85568392924469996,"keywords":["cp","nocrits","nodmgspread","uncletopia"],"game_id":440,"stv_port":27016,"stv_name":"Uncletopia | São Paulo | 1 | All Maps | STV","players":[{"user_id":9,"name":"LouLowRuschel","steam_id":76561198423325380,"connected_time":1207000000000,"state":"active","ping":54},{"user_id":10,"name":"Miel","steam_id":76561199442213560,"connected_time":1187000000000,"state":"active","ping":34}]},{"server_id":143,"name":"Uncletopia | São Paulo | 2 | Community","name_short":"sao-2","host":"sao-2.br.uncletopia.com","port":27015,"enabled":true,"region":"sa","cc":"br","latitude":-23.533773,"longitude":-46.62529,"reserved":0,"last_update":"0001-01-01T00:00:00Z","name_a2s":"Uncletopia | São Paulo | 2 | Community","protocol":17,"map":"pl_badwater","folder":"tf","game":"Team Fortress","app_id":440,"player_count":0,"max_players":24,"Bots":0,"server_type":"Dedicated","server_os":"Linux","password":true,"vac":true,"version":"7961495","steam_id":85568392924485349,"keywords":["nocrits","nodmgspread","payload","uncletopia"],"game_id":440,"stv_port":27016,"stv_name":"Uncletopia | São Paulo | 2 | Community | STV","players":null},{"server_id":7,"name":"Uncletopia | Seattle | 1 | All Maps","name_short":"sea-1","host":"sea-1.us.uncletopia.com","port":27015,"enabled":true,"region":"us-west","cc":"us","latitude":47.608013,"longitude":-122.33517,"reserved":0,"last_update":"0001-01-01T00:00:00Z","name_a2s":"Uncletopia | Seattle | 1 | All Maps","protocol":17,"map":"pl_hoodoo_final","folder":"tf","game":"Team Fortress","app_id":440,"player_count":24,"max_players":24,"Bots":0,"server_type":"Dedicated","server_os":"Linux","password":true,"vac":true,"version":"7961495","steam_id":85568392924469997,"keywords":["nocrits","nodmgspread","payload","uncletopia"],"game_id":440,"stv_port":27016,"stv_name":"Uncletopia | Seattle | 1 | All Maps | STV","players":[{"user_id":387,"name":"Smashing93","steam_id":76561199058453316,"connected_time":59000000000,"state":"active","ping":116},{"user_id":356,"name":"zinnk","steam_id":76561198092081825,"connected_time":2034000000000,"state":"active","ping":55},{"user_id":382,"name":"superbug3003","steam_id":76561198311447642,"connected_time":152000000000,"state":"active","ping":126},{"user_id":378,"name":"› Noir","steam_id":76561197977418994,"connected_time":251000000000,"state":"active","ping":59},{"user_id":327,"name":"Shazzy","steam_id":76561198145460523,"connected_time":4112000000000,"state":"active","ping":39},{"user_id":336,"name":"my monitor is off","steam_id":76561198074499537,"connected_time":3539000000000,"state":"active","ping":71},{"user_id":346,"name":"BlazedBunny","steam_id":76561198243610560,"connected_time":3086000000000,"state":"active","ping":79},{"user_id":368,"name":"Vincent Van Bro","steam_id":76561197966919802,"connected_time":893000000000,"state":"active","ping":43},{"user_id":338,"name":"Mr8bittripper","steam_id":76561198133894229,"connected_time":3395000000000,"state":"active","ping":48},{"user_id":363,"name":"CHIEF_JUSTICE_FUCKASS","steam_id":76561199261675844,"connected_time":1256000000000,"state":"active","ping":44},{"user_id":358,"name":"=Silver=","steam_id":76561198292307127,"connected_time":1325000000000,"state":"active","ping":70},{"user_id":360,"name":"gloobern","steam_id":76561198341190679,"connected_time":1312000000000,"state":"active","ping":48},{"user_id":380,"name":"byte_sized","steam_id":76561198155560837,"connected_time":177000000000,"state":"active","ping":105},{"user_id":348,"name":"Nightshade","steam_id":76561199011017814,"connected_time":2761000000000,"state":"active","ping":71},{"user_id":383,"name":"io_est","steam_id":76561198079538952,"connected_time":148000000000,"state":"active","ping":46},{"user_id":384,"name":"Jeffery","steam_id":76561198352805460,"connected_time":139000000000,"state":"active","ping":73},{"user_id":377,"name":"Lazy Broadcasts","steam_id":76561198132871394,"connected_time":272000000000,"state":"active","ping":61},{"user_id":321,"name":"you just got dyked on","steam_id":76561198018977723,"connected_time":4743000000000,"state":"active","ping":52},{"user_id":372,"name":"Grill Skills","steam_id":76561198053575147,"connected_time":524000000000,"state":"active","ping":54},{"user_id":369,"name":"MrYadaization","steam_id":76561198050770818,"connected_time":891000000000,"state":"active","ping":58},{"user_id":376,"name":"ShackerJack","steam_id":76561198118017448,"connected_time":337000000000,"state":"active","ping":59},{"user_id":386,"name":"Vroooooooooooooooom","steam_id":76561198139913628,"connected_time":87000000000,"state":"active","ping":117},{"user_id":388,"name":"P.C. Baby","steam_id":76561198067011379,"connected_time":1000000000,"state":"spawning","ping":53},{"user_id":379,"name":"Seriously Bruh","steam_id":76561198070408485,"connected_time":222000000000,"state":"active","ping":57}]},{"server_id":119,"name":"Uncletopia | Seattle | 2 | All Maps","name_short":"sea-2","host":"sea-1.us.uncletopia.com","port":27025,"enabled":true,"region":"us-west","cc":"us","latitude":47.608013,"longitude":-122.33517,"reserved":0,"last_update":"0001-01-01T00:00:00Z","name_a2s":"Uncletopia | Seattle | 2 | All Maps","protocol":17,"map":"koth_viaduct","folder":"tf","game":"Team Fortress","app_id":440,"player_count":0,"max_players":24,"Bots":0,"server_type":"Dedicated","server_os":"Linux","password":true,"vac":true,"version":"7961495","steam_id":85568392924469998,"keywords":["cp","nocrits","nodmgspread","uncletopia"],"game_id":440,"stv_port":27026,"stv_name":"Uncletopia | Seattle | 2 | All Maps | STV","players":null},{"server_id":406,"name":"Uncletopia | Seattle | 3 | Stopwatch","name_short":"sea-3","host":"sea-1.us.uncletopia.com","port":27035,"enabled":true,"region":"us-west","cc":"us","latitude":47.608013,"longitude":-122.33517,"reserved":0,"last_update":"0001-01-01T00:00:00Z","name_a2s":"Uncletopia | Seattle | 3 | Stopwatch","protocol":17,"map":"cp_snakewater_final1","folder":"tf","game":"Team Fortress","app_id":440,"player_count":0,"max_players":24,"Bots":0,"server_type":"Dedicated","server_os":"Linux","password":true,"vac":true,"version":"7961495","steam_id":85568392924515217,"keywords":["cp","nocrits","nodmgspread","uncletopia"],"game_id":440,"stv_port":27036,"stv_name":"Uncletopia | Seattle | 3 | Stopwatch | STV","players":null},{"server_id":17,"name":"Uncletopia | San Francisco | 1 | All Maps","name_short":"sfo-1","host":"sfo-1.us.uncletopia.com","port":27015,"enabled":true,"region":"us-west","cc":"us","latitude":37.77397,"longitude":-122.4313,"reserved":0,"last_update":"0001-01-01T00:00:00Z","name_a2s":"Uncletopia | San Francisco | 1 | All Maps","protocol":17,"map":"ctf_2fort","folder":"tf","game":"Team Fortress","app_id":440,"player_count":0,"max_players":24,"Bots":0,"server_type":"Dedicated","server_os":"Linux","password":true,"vac":true,"version":"7961495","steam_id":85568392924469999,"keywords":["ctf","nocrits","nodmgspread","uncletopia"],"game_id":440,"stv_port":27016,"stv_name":"Uncletopia | San Francisco | 1 | All Maps | STV","players":null},{"server_id":18,"name":"Uncletopia | San Francisco | 2 | All Maps","name_short":"sfo-2","host":"sfo-1.us.uncletopia.com","port":27025,"enabled":true,"region":"us-west","cc":"us","latitude":37.77397,"longitude":-122.4313,"reserved":0,"last_update":"0001-01-01T00:00:00Z","name_a2s":"Uncletopia | San Francisco | 2 | All Maps","protocol":17,"map":"pl_barnblitz","folder":"tf","game":"Team Fortress","app_id":440,"player_count":0,"max_players":24,"Bots":0,"server_type":"Dedicated","server_os":"Linux","password":true,"vac":true,"version":"7961495","steam_id":85568392924470000,"keywords":["nocrits","nodmgspread","payload","uncletopia"],"game_id":440,"stv_port":27026,"stv_name":"Uncletopia | San Francisco | 2 | All Maps | STV","players":null},{"server_id":19,"name":"Uncletopia | San Francisco | 3 | Stopwatch","name_short":"sfo-3","host":"sfo-1.us.uncletopia.com","port":27035,"enabled":true,"region":"us-west","cc":"us","latitude":37.77397,"longitude":-122.4313,"reserved":0,"last_update":"0001-01-01T00:00:00Z","name_a2s":"Uncletopia | San Francisco | 3 | Stopwatch","protocol":17,"map":"pl_pier","folder":"tf","game":"Team Fortress","app_id":440,"player_count":0,"max_players":24,"Bots":0,"server_type":"Dedicated","server_os":"Linux","password":true,"vac":true,"version":"7961495","steam_id":85568392924742824,"keywords":["nocrits","nodmgspread","payload","uncletopia"],"game_id":440,"stv_port":27036,"stv_name":"Uncletopia | San Francisco | 3 | Stopwatch | STV","players":null},{"server_id":20,"name":"Uncletopia | San Francisco | 4 | Community","name_short":"sfo-4","host":"sfo-1.us.uncletopia.com","port":27045,"enabled":true,"region":"us-west","cc":"us","latitude":37.77397,"longitude":-122.4313,"reserved":0,"last_update":"0001-01-01T00:00:00Z","name_a2s":"Uncletopia | San Francisco | 4 | Community","protocol":17,"map":"pl_pier","folder":"tf","game":"Team Fortress","app_id":440,"player_count":0,"max_players":24,"Bots":0,"server_type":"Dedicated","server_os":"Linux","password":true,"vac":true,"version":"7961495","steam_id":85568392924742826,"keywords":["nocrits","nodmgspread","payload","uncletopia"],"game_id":440,"stv_port":27046,"stv_name":"Uncletopia | San Francisco | 4 | Community | STV","players":null},{"server_id":141,"name":"Uncletopia | Sydney | 1 | All Maps","name_short":"syd-1","host":"syd-1.au.uncletopia.com","port":27015,"enabled":true,"region":"au","cc":"au","latitude":-33.865143,"longitude":151.2099,"reserved":0,"last_update":"0001-01-01T00:00:00Z","name_a2s":"Uncletopia | Sydney | 1 | All Maps","protocol":17,"map":"koth_viaduct","folder":"tf","game":"Team Fortress","app_id":440,"player_count":0,"max_players":24,"Bots":0,"server_type":"Dedicated","server_os":"Linux","password":true,"vac":true,"version":"7961495","steam_id":85568392924470001,"keywords":["cp","nocrits","nodmgspread","uncletopia"],"game_id":440,"stv_port":27016,"stv_name":"Uncletopia | Sydney | 1 | All Maps | STV","players":null},{"server_id":123,"name":"Uncletopia | Sydney | 2 | All Maps","name_short":"syd-2","host":"syd-1.au.uncletopia.com","port":27025,"enabled":true,"region":"au","cc":"au","latitude":-33.865143,"longitude":151.2099,"reserved":0,"last_update":"0001-01-01T00:00:00Z","name_a2s":"Uncletopia | Sydney | 2 | All Maps","protocol":17,"map":"koth_lakeside_final","folder":"tf","game":"Team Fortress","app_id":440,"player_count":0,"max_players":24,"Bots":0,"server_type":"Dedicated","server_os":"Linux","password":true,"vac":true,"version":"7961495","steam_id":85568392924470002,"keywords":["cp","nocrits","nodmgspread","uncletopia"],"game_id":440,"stv_port":27026,"stv_name":"Uncletopia | Sydney | 2 | All Maps | STV","players":null},{"server_id":395,"name":"Uncletopia | Sydney | 3 | All Maps","name_short":"syd-3","host":"syd-1.au.uncletopia.com","port":27035,"enabled":true,"region":"au","cc":"au","latitude":-33.865143,"longitude":151.2099,"reserved":0,"last_update":"0001-01-01T00:00:00Z","name_a2s":"Uncletopia | Sydney | 3 | All Maps","protocol":17,"map":"pl_frontier_final","folder":"tf","game":"Team Fortress","app_id":440,"player_count":0,"max_players":24,"Bots":0,"server_type":"Dedicated","server_os":"Linux","password":true,"vac":true,"version":"7961495","steam_id":85568392925194467,"keywords":["nocrits","nodmgspread","payload","uncletopia"],"game_id":440,"stv_port":27036,"stv_name":"Uncletopia | Sydney | 3 | All Maps | STV","players":null},{"server_id":396,"name":"Uncletopia | Sydney | 4 | All Maps","name_short":"syd-4","host":"syd-1.au.uncletopia.com","port":27045,"enabled":true,"region":"au","cc":"au","latitude":-33.865143,"longitude":151.2099,"reserved":0,"last_update":"0001-01-01T00:00:00Z","name_a2s":"Uncletopia | Sydney | 4 | All Maps","protocol":17,"map":"cp_process_final","folder":"tf","game":"Team Fortress","app_id":440,"player_count":0,"max_players":24,"Bots":0,"server_type":"Dedicated","server_os":"Linux","password":true,"vac":true,"version":"7961495","steam_id":85568392925397958,"keywords":["cp","nocrits","nodmgspread","uncletopia"],"game_id":440,"stv_port":27046,"stv_name":"Uncletopia | Sydney | 4 | All Maps | STV","players":null},{"server_id":58,"name":"Uncletopia | Sydney | 5 | Stopwatch","name_short":"syd-5","host":"syd-1.au.uncletopia.com","port":27055,"enabled":true,"region":"au","cc":"au","latitude":-33.865143,"longitude":151.2099,"reserved":0,"last_update":"0001-01-01T00:00:00Z","name_a2s":"Uncletopia | Sydney | 5 | Stopwatch","protocol":17,"map":"pl_frontier_final","folder":"tf","game":"Team Fortress","app_id":440,"player_count":0,"max_players":24,"Bots":0,"server_type":"Dedicated","server_os":"Linux","password":true,"vac":true,"version":"7961495","steam_id":85568392925397959,"keywords":["nocrits","nodmgspread","payload","uncletopia"],"game_id":440,"stv_port":27056,"stv_name":"Uncletopia | Sydney | 5 | Stopwatch | STV","players":null},{"server_id":59,"name":"Uncletopia | Sydney | 6 | Community","name_short":"syd-6","host":"syd-1.au.uncletopia.com","port":27065,"enabled":true,"region":"au","cc":"au","latitude":-33.865143,"longitude":151.2099,"reserved":0,"last_update":"0001-01-01T00:00:00Z","name_a2s":"Uncletopia | Sydney | 6 | Community","protocol":17,"map":"workshop/rd_asteroid_redux_b1.ugc2154902912","folder":"tf","game":"Team Fortress","app_id":440,"player_count":0,"max_players":24,"Bots":0,"server_type":"Dedicated","server_os":"Linux","password":true,"vac":true,"version":"7961495","steam_id":85568392925397960,"keywords":["beta","nocrits","nodmgspread","rd","uncletopia"],"game_id":440,"stv_port":27066,"stv_name":"Uncletopia | Sydney | 6 | Community | STV","players":null},{"server_id":49,"name":"Uncletopia | Warsaw | 1 | One Thousand Uncles","name_short":"waw-1","host":"waw-1.pl.uncletopia.com","port":27015,"enabled":true,"region":"eu","cc":"pl","latitude":52.2297,"longitude":21.017532,"reserved":0,"last_update":"0001-01-01T00:00:00Z","name_a2s":"Uncletopia | Warsaw | 1 | One Thousand Uncles","protocol":17,"map":"cp_mercenarypark","folder":"tf","game":"Team Fortress","app_id":440,"player_count":19,"max_players":32,"Bots":16,"server_type":"Dedicated","server_os":"Linux","password":true,"vac":true,"version":"7961495","steam_id":85568392925397850,"keywords":["alltalk","bots","cp","danepve","increased_maxplayers","nocrits","norespawntime","uncletopia"],"game_id":440,"stv_port":0,"stv_name":"","players":[{"user_id":385,"name":"WolfyGamer21","steam_id":76561199148811704,"connected_time":90000000000,"state":"active","ping":149},{"user_id":319,"name":"blackman.vbhop.2004","steam_id":76561198268384872,"connected_time":8343000000000,"state":"active","ping":88},{"user_id":320,"name":"Scout","steam_id":76561198992898803,"connected_time":7910000000000,"state":"active","ping":67}]},{"server_id":50,"name":"Uncletopia | Warsaw | 2 | One Thousand Uncles","name_short":"waw-2","host":"waw-1.pl.uncletopia.com","port":27025,"enabled":true,"region":"eu","cc":"pl","latitude":52.2297,"longitude":21.017532,"reserved":0,"last_update":"0001-01-01T00:00:00Z","name_a2s":"Uncletopia | Warsaw | 2 | One Thousand Uncles","protocol":17,"map":"pl_barnblitz","folder":"tf","game":"Team Fortress","app_id":440,"player_count":20,"max_players":32,"Bots":16,"server_type":"Dedicated","server_os":"Linux","password":true,"vac":true,"version":"7961495","steam_id":85568392925397851,"keywords":["alltalk","bots","danepve","increased_maxplayers","nocrits","norespawntime","payload","uncletopia"],"game_id":440,"stv_port":0,"stv_name":"","players":[{"user_id":154,"name":"Mischail","steam_id":76561198016127010,"connected_time":1767000000000,"state":"active","ping":88},{"user_id":135,"name":"meriones","steam_id":76561198034234373,"connected_time":2868000000000,"state":"active","ping":67},{"user_id":155,"name":"unstable","steam_id":76561198969620854,"connected_time":378000000000,"state":"active","ping":214},{"user_id":157,"name":"[ЗАХАР САХАР] 2013?!?","steam_id":76561199385796098,"connected_time":3000000000,"state":"spawning","ping":72}]},{"server_id":51,"name":"Uncletopia | Warsaw | 3 | All Maps","name_short":"waw-3","host":"waw-1.pl.uncletopia.com","port":27035,"enabled":true,"region":"eu","cc":"pl","latitude":52.2297,"longitude":21.017532,"reserved":0,"last_update":"0001-01-01T00:00:00Z","name_a2s":"Uncletopia | Warsaw | 3 | All Maps","protocol":17,"map":"koth_cascade","folder":"tf","game":"Team Fortress","app_id":440,"player_count":0,"max_players":24,"Bots":0,"server_type":"Dedicated","server_os":"Linux","password":true,"vac":true,"version":"7961495","steam_id":85568392925397852,"keywords":["cp","nocrits","nodmgspread","uncletopia"],"game_id":440,"stv_port":27036,"stv_name":"Uncletopia | Warsaw | 3 | All Maps | STV","players":null},{"server_id":52,"name":"Uncletopia | Warsaw | 4 | All Maps","name_short":"waw-4","host":"waw-1.pl.uncletopia.com","port":27045,"enabled":true,"region":"eu","cc":"pl","latitude":52.2297,"longitude":21.017532,"reserved":0,"last_update":"0001-01-01T00:00:00Z","name_a2s":"Uncletopia | Warsaw | 4 | All Maps","protocol":17,"map":"koth_highpass","folder":"tf","game":"Team Fortress","app_id":440,"player_count":0,"max_players":24,"Bots":0,"server_type":"Dedicated","server_os":"Linux","password":true,"vac":true,"version":"7961495","steam_id":85568392925397853,"keywords":["cp","nocrits","nodmgspread","uncletopia"],"game_id":440,"stv_port":27046,"stv_name":"Uncletopia | Warsaw | 4 | All Maps | STV","players":null},{"server_id":53,"name":"Uncletopia | Warsaw | 5 | Stopwatch","name_short":"waw-5","host":"waw-1.pl.uncletopia.com","port":27055,"enabled":true,"region":"eu","cc":"pl","latitude":52.2297,"longitude":21.017532,"reserved":0,"last_update":"0001-01-01T00:00:00Z","name_a2s":"Uncletopia | Warsaw | 5 | Stopwatch","protocol":17,"map":"workshop/pl_vigil_rc10.ugc1266210012","folder":"tf","game":"Team Fortress","app_id":440,"player_count":0,"max_players":24,"Bots":0,"server_type":"Dedicated","server_os":"Linux","password":true,"vac":true,"version":"7961495","steam_id":85568392925397854,"keywords":["nocrits","nodmgspread","payload","uncletopia"],"game_id":440,"stv_port":27056,"stv_name":"Uncletopia | Warsaw | 5 | Stopwatch | STV","players":null},{"server_id":54,"name":"Uncletopia | Warsaw | 6 | Community","name_short":"waw-6","host":"waw-1.pl.uncletopia.com","port":27065,"enabled":true,"region":"eu","cc":"pl","latitude":52.2297,"longitude":21.017532,"reserved":0,"last_update":"0001-01-01T00:00:00Z","name_a2s":"Uncletopia | Warsaw | 6 | Community","protocol":17,"map":"workshop/koth_slaughter_rc1.ugc1712845210","folder":"tf","game":"Team Fortress","app_id":440,"player_count":0,"max_players":24,"Bots":0,"server_type":"Dedicated","server_os":"Linux","password":true,"vac":true,"version":"7961495","steam_id":85568392925397856,"keywords":["cp","nocrits","nodmgspread","uncletopia"],"game_id":440,"stv_port":27066,"stv_name":"Uncletopia | Warsaw | 6 | Community | STV","players":null}]}