{"status":true,"message":"","result":[{"server_id":9,"name":"Uncletopia | Atlanta | 1 | All Maps","name_short":"atl-1","host":"atl-1.us.uncletopia.com","port":27015,"enabled":true,"region":"us-east","cc":"us","latitude":33.753746,"longitude":-84.38633,"reserved":0,"last_update":"0001-01-01T00:00:00Z","name_a2s":"Uncletopia | Atlanta | 1 | All Maps","protocol":17,"map":"cp_altitude","folder":"tf","game":"Team Fortress","app_id":440,"player_count":24,"max_players":24,"Bots":0,"server_type":"Dedicated","server_os":"Linux","password":true,"vac":true,"version":"7757534","steam_id":85568392924469982,"keywords":["cp","nocrits","nodmgspread","uncletopia"],"game_id":440,"stv_port":27016,"stv_name":"Uncletopia | Atlanta | 1 | All Maps | STV","players":[{"user_id":566,"name":"Chance","steam_id":76561198360789770,"connected_time":873000000000,"state":"active","ping":62},{"user_id":567,"name":"‚ô•Bunny‚ô•Slut‚ô•","steam_id":76561198206376851,"connected_time":822000000000,"state":"active","ping":105},{"user_id":568,"name":"Johaun","steam_id":76561198296328253,"connected_time":822000000000,"state":"active","ping":62},{"user_id":549,"name":"DuckMann","steam_id":76561198197058638,"connected_time":3403000000000,"state":"active","ping":45},{"user_id":551,"name":"bogginwater","steam_id":76561198155547142,"connected_time":2444000000000,"state":"active","ping":64},{"user_id":426,"name":"Albino Jellyfish","steam_id":76561198208561097,"connected_time":14969000000000,"state":"active","ping":65},{"user_id":512,"name":"Frost ‚ô•","steam_id":76561198168870617,"connected_time":6817000000000,"state":"active","ping":72},{"user_id":540,"name":"BIG HOG","steam_id":76561198079923652,"connected_time":4320000000000,"state":"active","ping":65},{"user_id":574,"name":"The mook","steam_id":76561198963551905,"connected_time":418000000000,"state":"active","ping":62},{"user_id":569,"name":"gods eepiest medic","steam_id":76561198326987939,"connected_time":806000000000,"state":"active","ping":71},{"user_id":570,"name":"The Pope","steam_id":76561198313560302,"connected_time":798000000000,"state":"active","ping":41},{"user_id":573,"name":"Rallo","steam_id":76561198324357861,"connected_time":629000000000,"state":"active","ping":40},{"user_id":539,"name":"lil hog","steam_id":76561199230929836,"connected_time":4443000000000,"state":"active","ping":80},{"user_id":571,"name":"Aircraft Carrier Princess","steam_id":76561198348354629,"connected_time":741000000000,"state":"active","ping":110},{"user_id":572,"name":"Rain","steam_id":76561198074827140,"connected_time":683000000000,"state":"active","ping":89},{"user_id":485,"name":"xX_HimboSwallower_Xx","steam_id":76561198016029965,"connected_time":9594000000000,"state":"active","ping":70},{"user_id":561,"name":"atl1icyy","steam_id":76561198968001329,"connected_time":1372000000000,"state":"active","ping":45},{"user_id":550,"name":"Nox(She/They)","steam_id":76561198141950842,"connected_time":3338000000000,"state":"active","ping":47},{"user_id":560,"name":"Jabawakai","steam_id":76561198088881254,"connected_time":1443000000000,"state":"active","ping":71},{"user_id":543,"name":"T Jit","steam_id":76561197993371179,"connected_time":4285000000000,"state":"active","ping":50},{"user_id":521,"name":"Scrumlet","steam_id":76561198339806643,"connected_time":5789000000000,"state":"active","ping":78},{"user_id":558,"name":"Onyx","steam_id":76561198275349640,"connected_time":1921000000000,"state":"active","ping":164},{"user_id":523,"name":"PinkLemonade","steam_id":76561198799286228,"connected_time":5775000000000,"state":"active","ping":69},{"user_id":565,"name":"Uganda Knuckles lll","steam_id":76561199121276474,"connected_time":1103000000000,"state":"active","ping":82}]},{"server_id":104,"name":"Uncletopia | Atlanta | 2 | All Maps","name_short":"atl-2","host":"atl-1.us.uncletopia.com","port":27025,"enabled":true,"region":"us-east","cc":"us","latitude":33.753746,"longitude":-84.38633,"reserved":0,"last_update":"0001-01-01T00:00:00Z","name_a2s":"Uncletopia | Atlanta | 2 | All Maps","protocol":17,"map":"cp_steel","folder":"tf","game":"Team Fortress","app_id":440,"player_count":23,"max_players":24,"Bots":0,"server_type":"Dedicated","server_os":"Linux","password":true,"vac":true,"version":"7757534","steam_id":85568392924469983,"keywords":["cp","nocrits","nodmgspread","uncletopia"],"game_id":440,"stv_port":27026,"stv_name":"Uncletopia | Atlanta | 2 | All Maps | STV","players":[{"user_id":524,"name":"Lucki's Fat Belly","steam_id":76561198237789592,"connected_time":1086000000000,"state":"active","ping":63},{"user_id":543,"name":"SgtHotLead","steam_id":76561197995477998,"connected_time":24000000000,"state":"active","ping":127},{"user_id":491,"name":"troll","steam_id":76561198040890252,"connected_time":3274000000000,"state":"active","ping":53},{"user_id":497,"name":"proud owner of a large tongue","steam_id":76561198106690989,"connected_time":3101000000000,"state":"active","ping":75},{"user_id":493,"name":"Pascal","steam_id":76561198902657591,"connected_time":3209000000000,"state":"active","ping":52},{"user_id":514,"name":"Antwan","steam_id":76561198246200638,"connected_time":2271000000000,"state":"active","ping":61},{"user_id":516,"name":"rainingmudkips","steam_id":76561198018010854,"connected_time":1666000000000,"state":"active","ping":91},{"user_id":530,"name":"The Chrisind","steam_id":76561198024980467,"connected_time":709000000000,"state":"active","ping":61},{"user_id":526,"name":"Hashbrowncow","steam_id":76561198272021902,"connected_time":887000000000,"state":"active","ping":97},{"user_id":527,"name":"fire_01.bin","steam_id":76561198076598729,"connected_time":885000000000,"state":"active","ping":63},{"user_id":541,"name":"The Free Cobb","steam_id":76561198041974007,"connected_time":314000000000,"state":"active","ping":91},{"user_id":528,"name":"weed","steam_id":76561199128192017,"connected_time":821000000000,"state":"active","ping":129},{"user_id":521,"name":"You dad","steam_id":76561198044013623,"connected_time":1365000000000,"state":"active","ping":52},{"user_id":498,"name":"steggy","steam_id":76561198000564263,"connected_time":3048000000000,"state":"active","ping":47},{"user_id":532,"name":"moocifer45","steam_id":76561198274748359,"connected_time":669000000000,"state":"active","ping":96},{"user_id":533,"name":"whiteranger_2000","steam_id":76561198819569856,"connected_time":658000000000,"state":"active","ping":101},{"user_id":510,"name":"YUNG LOAF","steam_id":76561198237338018,"connected_time":2424000000000,"state":"active","ping":70},{"user_id":534,"name":"schteewpid rat","steam_id":76561199262600666,"connected_time":656000000000,"state":"active","ping":69},{"user_id":542,"name":"Darkdrake","steam_id":76561198107200600,"connected_time":119000000000,"state":"active","ping":58},{"user_id":535,"name":"Panda","steam_id":76561199064165517,"connected_time":654000000000,"state":"active","ping":70},{"user_id":540,"name":"java","steam_id":76561198030276792,"connected_time":386000000000,"state":"active","ping":46},{"user_id":523,"name":"Draco6257","steam_id":76561199147322448,"connected_time":1296000000000,"state":"active","ping":55},{"user_id":537,"name":"Poe","steam_id":76561198145039862,"connected_time":644000000000,"state":"active","ping":80}]},{"server_id":400,"name":"Uncletopia | Atlanta | 3 | Community","name_short":"atl-3","host":"atl-1.us.uncletopia.com","port":27035,"enabled":true,"region":"us-east","cc":"us","latitude":33.753746,"longitude":-84.38633,"reserved":0,"last_update":"0001-01-01T00:00:00Z","name_a2s":"Uncletopia | Atlanta | 3 | Community","protocol":17,"map":"workshop/pl_cashworks_final1.ugc2904065412","folder":"tf","game":"Team Fortress","app_id":440,"player_count":0,"max_players":24,"Bots":0,"server_type":"Dedicated","server_os":"Linux","password":true,"vac":true,"version":"7757534","steam_id":85568392924515187,"keywords":["nocrits","nodmgspread","payload","uncletopia"],"game_id":440,"stv_port":27036,"stv_name":"Uncletopia | Atlanta | 3 | Community | STV","players":null},{"server_id":401,"name":"Uncletopia | Atlanta | 4 | No Payload","name_short":"atl-4","host":"atl-1.us.uncletopia.com","port":27045,"enabled":true,"region":"us-east","cc":"us","latitude":33.753746,"longitude":-84.38633,"reserved":0,"last_update":"0001-01-01T00:00:00Z","name_a2s":"","protocol":0,"map":"","folder":"","game":"","app_id":0,"player_count":0,"max_players":0,"Bots":0,"server_type":"","server_os":"","password":false,"vac":false,"version":"","steam_id":0,"keywords":null,"game_id":0,"stv_port":0,"stv_name":"","players":null},{"server_id":2,"name":"Uncletopia | Chicago | 1 | All Maps","name_short":"chi-1","host":"chi-1.us.uncletopia.com","port":27015,"enabled":true,"region":"us-central","cc":"us","latitude":41.881832,"longitude":-87.62318,"reserved":0,"last_update":"0001-01-01T00:00:00Z","name_a2s":"Uncletopia | Chicago | 1 | All Maps","protocol":17,"map":"pl_badwater","folder":"tf","game":"Team Fortress","app_id":440,"player_count":24,"max_players":24,"Bots":0,"server_type":"Dedicated","server_os":"Linux","password":true,"vac":true,"version":"7757534","steam_id":85568392924469984,"keywords":["nocrits","nodmgspread","payload","uncletopia"],"game_id":440,"stv_port":27016,"stv_name":"Uncletopia | Chicago | 1 | All Maps | STV","players":[{"user_id":785,"name":"ScreamCram","steam_id":76561199114068524,"connected_time":797000000000,"state":"active","ping":69},{"user_id":781,"name":"Totally not a Furry","steam_id":76561199117686820,"connected_time":1474000000000,"state":"active","ping":88},{"user_id":779,"name":"Velvet Reverb","steam_id":76561198017691029,"connected_time":1952000000000,"state":"active","ping":62},{"user_id":738,"name":"Adam (Cursed Confetti Creature)","steam_id":76561198317690197,"connected_time":6093000000000,"state":"active","ping":47},{"user_id":759,"name":"+]3D[+ Kirbs","steam_id":76561198368039510,"connected_time":4005000000000,"state":"active","ping":83},{"user_id":773,"name":"Regular Dog","steam_id":76561198042898614,"connected_time":2825000000000,"state":"active","ping":54},{"user_id":782,"name":"Puuung","steam_id":76561199186072324,"connected_time":1290000000000,"state":"active","ping":62},{"user_id":768,"name":"[UHS] K24A4 2.4","steam_id":76561199072970627,"connected_time":3081000000000,"state":"active","ping":48},{"user_id":772,"name":"Discourse","steam_id":76561198984286678,"connected_time":2903000000000,"state":"active","ping":53},{"user_id":721,"name":"Spazz","steam_id":76561198036167494,"connected_time":7121000000000,"state":"active","ping":38},{"user_id":761,"name":"Achtan","steam_id":76561198078189844,"connected_time":3964000000000,"state":"active","ping":60},{"user_id":728,"name":"Doublebagel47","steam_id":76561198832021744,"connected_time":6360000000000,"state":"active","ping":76},{"user_id":765,"name":"Rashi","steam_id":76561198390962022,"connected_time":3130000000000,"state":"active","ping":89},{"user_id":747,"name":"HumFreY","steam_id":76561198076639682,"connected_time":5077000000000,"state":"active","ping":75},{"user_id":658,"name":"Sage","steam_id":76561198143101697,"connected_time":10716000000000,"state":"active","ping":99},{"user_id":643,"name":"Praise_to_the_Flashlight!","steam_id":76561199001728789,"connected_time":11447000000000,"state":"active","ping":62},{"user_id":775,"name":"Mixomin","steam_id":76561198295061570,"connected_time":2586000000000,"state":"active","ping":64},{"user_id":755,"name":"Kapitan Bomba","steam_id":76561199102087660,"connected_time":4262000000000,"state":"active","ping":70},{"user_id":769,"name":"Ademar","steam_id":76561199391802581,"connected_time":3037000000000,"state":"active","ping":56},{"user_id":784,"name":"Prof. Leafeon","steam_id":76561198123549027,"connected_time":813000000000,"state":"active","ping":67},{"user_id":767,"name":"BurnN8or101","steam_id":76561198132668224,"connected_time":3106000000000,"state":"active","ping":64},{"user_id":786,"name":"C Papi","steam_id":76561198027779564,"connected_time":30000000000,"state":"active","ping":60},{"user_id":783,"name":"trappy (soggy)","steam_id":76561198402801140,"connected_time":844000000000,"state":"active","ping":57},{"user_id":744,"name":"AYAYA!!!","steam_id":76561198992102180,"connected_time":5214000000000,"state":"active","ping":47}]},{"server_id":106,"name":"Uncletopia | Chicago | 2 | All Maps","name_short":"chi-2","host":"chi-1.us.uncletopia.com","port":27025,"enabled":true,"region":"us-central","cc":"us","latitude":41.881832,"longitude":-87.62318,"reserved":0,"last_update":"0001-01-01T00:00:00Z","name_a2s":"Uncletopia | Chicago | 2 | All Maps","protocol":17,"map":"pl_snowycoast","folder":"tf","game":"Team Fortress","app_id":440,"player_count":24,"max_players":24,"Bots":0,"server_type":"Dedicated","server_os":"Linux","password":true,"vac":true,"version":"7757534","steam_id":85568392924469985,"keywords":["nocrits","nodmgspread","payload","uncletopia"],"game_id":440,"stv_port":27026,"stv_name":"Uncletopia | Chicago | 2 | All Maps | STV","players":[{"user_id":943,"name":"Rear Admiral Crunch","steam_id":76561198020007558,"connected_time":446000000000,"state":"active","ping":63},{"user_id":941,"name":"HeisenBurger","steam_id":76561198040632080,"connected_time":495000000000,"state":"active","ping":52},{"user_id":951,"name":"Sorrow","steam_id":76561198050225563,"connected_time":349000000000,"state":"active","ping":70},{"user_id":942,"name":"Argi","steam_id":76561198061535721,"connected_time":483000000000,"state":"active","ping":70},{"user_id":939,"name":"illegal alien","steam_id":76561198840484105,"connected_time":583000000000,"state":"active","ping":81},{"user_id":860,"name":"TheGrassMan (He/Him)","steam_id":76561198118984048,"connected_time":5026000000000,"state":"active","ping":53},{"user_id":946,"name":"giveit5","steam_id":76561198030815437,"connected_time":411000000000,"state":"active","ping":92},{"user_id":932,"name":"Rudy","steam_id":76561198013456828,"connected_time":1165000000000,"state":"active","ping":73},{"user_id":913,"name":"amablehughes","steam_id":76561199007131236,"connected_time":1628000000000,"state":"active","ping":75},{"user_id":944,"name":"Lord GabeN","steam_id":76561198140862723,"connected_time":443000000000,"state":"active","ping":59},{"user_id":945,"name":"Whore","steam_id":76561197978362230,"connected_time":418000000000,"state":"active","ping":90},{"user_id":900,"name":"Goober Gaming","steam_id":76561198095550617,"connected_time":2422000000000,"state":"active","ping":138},{"user_id":927,"name":"WhiteRabbit","steam_id":76561198027579538,"connected_time":1319000000000,"state":"active","ping":66},{"user_id":947,"name":"Venk","steam_id":76561198251131422,"connected_time":399000000000,"state":"active","ping":70},{"user_id":866,"name":"Nen","steam_id":76561198893347370,"connected_time":3968000000000,"state":"active","ping":111},{"user_id":948,"name":"john","steam_id":76561198850447852,"connected_time":383000000000,"state":"active","ping":72},{"user_id":929,"name":"Jones","steam_id":76561198046037216,"connected_time":1296000000000,"state":"active","ping":90},{"user_id":954,"name":"FANGSTARKILLER","steam_id":76561199387254994,"connected_time":146000000000,"state":"active","ping":71},{"user_id":930,"name":"Petrivus","steam_id":76561198202152453,"connected_time":1283000000000,"state":"active","ping":113},{"user_id":937,"name":"Chhaam","steam_id":76561198058508132,"connected_time":694000000000,"state":"active","ping":60},{"user_id":938,"name":"SCOTLAND FOREVER","steam_id":76561199151371479,"connected_time":679000000000,"state":"active","ping":73},{"user_id":925,"name":"Casual Costanza","steam_id":76561198024409325,"connected_time":1419000000000,"state":"active","ping":65},{"user_id":949,"name":"CHIKN","steam_id":76561198277792665,"connected_time":364000000000,"state":"active","ping":108},{"user_id":956,"name":"eredyn lft","steam_id":76561198868116439,"connected_time":68000000000,"state":"active","ping":46}]},{"server_id":402,"name":"Uncletopia | Chicago | 3 | All Maps","name_short":"chi-3","host":"chi-1.us.uncletopia.com","port":27035,"enabled":true,"region":"us-central","cc":"us","latitude":41.881832,"longitude":-87.62318,"reserved":0,"last_update":"0001-01-01T00:00:00Z","name_a2s":"Uncletopia | Chicago | 3 | All Maps","protocol":17,"map":"pl_borneo","folder":"tf","game":"Team Fortress","app_id":440,"player_count":24,"max_players":24,"Bots":0,"server_type":"Dedicated","server_os":"Linux","password":true,"vac":true,"version":"7757534","steam_id":85568392924515191,"keywords":["nocrits","nodmgspread","payload","uncletopia"],"game_id":440,"stv_port":27036,"stv_name":"Uncletopia | Chicago | 3 | All Maps | STV","players":[{"user_id":480,"name":"munch","steam_id":76561198086615208,"connected_time":1564000000000,"state":"active","ping":58},{"user_id":500,"name":"doggo man","steam_id":76561199388026093,"connected_time":1143000000000,"state":"active","ping":101},{"user_id":485,"name":"GatoSeiko","steam_id":76561198001001360,"connected_time":1431000000000,"state":"active","ping":171},{"user_id":505,"name":"Zicky Nee","steam_id":76561198042601111,"connected_time":177000000000,"state":"active","ping":88},{"user_id":467,"name":"thecal","steam_id":76561198307893384,"connected_time":3223000000000,"state":"active","ping":48},{"user_id":484,"name":"-=Bits=-Dinkleberg","steam_id":76561198080367616,"connected_time":1455000000000,"state":"active","ping":73},{"user_id":462,"name":"PurplePond","steam_id":76561199062421006,"connected_time":3678000000000,"state":"active","ping":56},{"user_id":486,"name":"weewa","steam_id":76561198064876090,"connected_time":1422000000000,"state":"active","ping":68},{"user_id":487,"name":"meps","steam_id":76561198080430008,"connected_time":1416000000000,"state":"active","ping":75},{"user_id":493,"name":"SiphonFIre","steam_id":76561198305327992,"connected_time":1346000000000,"state":"active","ping":75},{"user_id":477,"name":"Captain Bug","steam_id":76561198137763878,"connected_time":1665000000000,"state":"active","ping":86},{"user_id":504,"name":"Toottoot","steam_id":76561197992404836,"connected_time":528000000000,"state":"active","ping":49},{"user_id":496,"name":"Shoehorn Jim","steam_id":76561198310004779,"connected_time":1314000000000,"state":"active","ping":68},{"user_id":501,"name":"Filthy Acts at Reasonable Price","steam_id":76561198354615890,"connected_time":1126000000000,"state":"active","ping":56},{"user_id":502,"name":"Streetwise","steam_id":76561197971684268,"connected_time":1126000000000,"state":"active","ping":84},{"user_id":464,"name":"Christmas Ham","steam_id":76561198119601623,"connected_time":3272000000000,"state":"active","ping":142},{"user_id":503,"name":"Schlebecke","steam_id":76561199044752122,"connected_time":1117000000000,"state":"active","ping":57},{"user_id":492,"name":"Mr. Mime","steam_id":76561199197676776,"connected_time":1349000000000,"state":"active","ping":61},{"user_id":426,"name":"dog-shaped dog","steam_id":76561198286166220,"connected_time":6980000000000,"state":"active","ping":71},{"user_id":494,"name":"redredgreengreen","steam_id":76561198035660801,"connected_time":1332000000000,"state":"active","ping":140},{"user_id":423,"name":"bary","steam_id":76561197988317087,"connected_time":7159000000000,"state":"active","ping":61},{"user_id":495,"name":"Fiendish Frog","steam_id":76561198029478821,"connected_time":1330000000000,"state":"active","ping":73},{"user_id":497,"name":"Rose","steam_id":76561198955581861,"connected_time":1309000000000,"state":"active","ping":102},{"user_id":466,"name":"i really like this dog :)","steam_id":76561198882404753,"connected_time":3243000000000,"state":"active","ping":76}]},{"server_id":403,"name":"Uncletopia | Chicago | 4 | All Maps","name_short":"chi-4","host":"chi-1.us.uncletopia.com","port":27045,"enabled":true,"region":"us-central","cc":"us","latitude":41.881832,"longitude":-87.62318,"reserved":0,"last_update":"0001-01-01T00:00:00Z","name_a2s":"Uncletopia | Chicago | 4 | All Maps","protocol":17,"map":"koth_viaduct","folder":"tf","game":"Team Fortress","app_id":440,"player_count":22,"max_players":24,"Bots":0,"server_type":"Dedicated","server_os":"Linux","password":true,"vac":true,"version":"7757534","steam_id":85568392924515193,"keywords":["cp","nocrits","nodmgspread","uncletopia"],"game_id":440,"stv_port":27046,"stv_name":"Uncletopia | Chicago | 4 | All Maps | STV","players":[{"user_id":683,"name":"Achy_Blitz","steam_id":76561198090433209,"connected_time":952000000000,"state":"active","ping":95},{"user_id":644,"name":"eggo","steam_id":76561198028147388,"connected_time":3608000000000,"state":"active","ping":79},{"user_id":686,"name":"GaiBerd","steam_id":76561198177100634,"connected_time":682000000000,"state":"active","ping":58},{"user_id":684,"name":"Dr Smeggman","steam_id":76561197966614845,"connected_time":756000000000,"state":"active","ping":133},{"user_id":656,"name":"TheEmeraldDuck","steam_id":76561197999692032,"connected_time":2888000000000,"state":"active","ping":65},{"user_id":669,"name":"[S]Mr. X [No Monitor]","steam_id":76561197963746035,"connected_time":1821000000000,"state":"active","ping":103},{"user_id":670,"name":"Whos Mans Is Dis","steam_id":76561198370978056,"connected_time":1817000000000,"state":"active","ping":71},{"user_id":685,"name":"Magnus Rex","steam_id":76561197987091236,"connected_time":741000000000,"state":"active","ping":77},{"user_id":673,"name":"Peter Popoff","steam_id":76561198027171160,"connected_time":1754000000000,"state":"active","ping":46},{"user_id":648,"name":"photon","steam_id":76561198046548039,"connected_time":3548000000000,"state":"active","ping":67},{"user_id":690,"name":"avg. sized tobacco","steam_id":76561198118455606,"connected_time":257000000000,"state":"active","ping":72},{"user_id":674,"name":"Dive(z)","steam_id":76561198140843225,"connected_time":1753000000000,"state":"active","ping":109},{"user_id":687,"name":"[PFF] Giacomo","steam_id":76561198058560798,"connected_time":620000000000,"state":"active","ping":59},{"user_id":695,"name":"Ragnoratsu","steam_id":76561198189688723,"connected_time":103000000000,"state":"active","ping":46},{"user_id":646,"name":"moist priest","steam_id":76561198066823778,"connected_time":3601000000000,"state":"active","ping":85},{"user_id":688,"name":"Bob Th","steam_id":76561198856284930,"connected_time":523000000000,"state":"active","ping":77},{"user_id":649,"name":"Mono","steam_id":76561198108284925,"connected_time":3540000000000,"state":"active","ping":117},{"user_id":641,"name":"Nuwrox1","steam_id":76561198406951007,"connected_time":3934000000000,"state":"active","ping":63},{"user_id":676,"name":"Viokik","steam_id":76561198408846602,"connected_time":1726000000000,"state":"active","ping":71},{"user_id":650,"name":"derdds","steam_id":76561198034339940,"connected_time":3456000000000,"state":"active","ping":59},{"user_id":677,"name":"monsterkill4567","steam_id":76561198272986367,"connected_time":1719000000000,"state":"active","ping":112},{"user_id":692,"name":"dingding2","steam_id":76561198278895127,"connected_time":200000000000,"state":"active","ping":49}]},{"server_id":36,"name":"Uncletopia | Chicago | 5 | All Maps","name_short":"chi-5","host":"chi-2.us.uncletopia.com","port":27015,"enabled":true,"region":"us-central","cc":"us","latitude":41.881832,"longitude":-87.62318,"reserved":0,"last_update":"0001-01-01T00:00:00Z","name_a2s":"Uncletopia | Chicago | 5 | All Maps","protocol":17,"map":"pl_barnblitz","folder":"tf","game":"Team Fortress","app_id":440,"player_count":24,"max_players":24,"Bots":0,"server_type":"Dedicated","server_os":"Linux","password":true,"vac":true,"version":"7757534","steam_id":85568392924866362,"keywords":["nocrits","nodmgspread","payload","uncletopia"],"game_id":440,"stv_port":27016,"stv_name":"Uncletopia | Chicago | 5 | All Maps | STV","players":[{"user_id":366,"name":"RURU","steam_id":76561198039758987,"connected_time":2128000000000,"state":"active","ping":96},{"user_id":232,"name":"ZofoJackson","steam_id":76561197998366861,"connected_time":13214000000000,"state":"active","ping":61},{"user_id":346,"name":"Red Villag","steam_id":76561198194701438,"connected_time":3985000000000,"state":"active","ping":68},{"user_id":380,"name":"The Law","steam_id":76561198202209948,"connected_time":560000000000,"state":"active","ping":49},{"user_id":367,"name":"N√©oGothiqueüïØ","steam_id":76561198003467269,"connected_time":1739000000000,"state":"active","ping":73},{"user_id":369,"name":"Apricot","steam_id":76561198355699935,"connected_time":1570000000000,"state":"active","ping":67},{"user_id":381,"name":"Hasbug","steam_id":76561198306085208,"connected_time":525000000000,"state":"active","ping":79},{"user_id":377,"name":"Shorts","steam_id":76561198025009692,"connected_time":787000000000,"state":"active","ping":83},{"user_id":382,"name":"jimmyfnaf172198yay","steam_id":76561198311446636,"connected_time":514000000000,"state":"active","ping":61},{"user_id":388,"name":"turnip","steam_id":76561197999375941,"connected_time":47000000000,"state":"active","ping":79},{"user_id":383,"name":"FrostSnail","steam_id":76561197989859175,"connected_time":493000000000,"state":"active","ping":149},{"user_id":357,"name":"Punkin","steam_id":76561198334301755,"connected_time":2726000000000,"state":"active","ping":83},{"user_id":368,"name":"Weebmcgee","steam_id":76561198081231557,"connected_time":1701000000000,"state":"active","ping":67},{"user_id":376,"name":"lcy13vv","steam_id":76561197995997446,"connected_time":844000000000,"state":"active","ping":57},{"user_id":379,"name":"Coppell","steam_id":76561197964293703,"connected_time":667000000000,"state":"active","ping":85},{"user_id":384,"name":"15pounds","steam_id":76561198179606183,"connected_time":485000000000,"state":"active","ping":71},{"user_id":378,"name":"Kaits","steam_id":76561199021082993,"connected_time":743000000000,"state":"active","ping":60},{"user_id":387,"name":"Dark Lord","steam_id":76561198044199150,"connected_time":118000000000,"state":"active","ping":85},{"user_id":373,"name":"Exotic","steam_id":76561198094518524,"connected_time":1477000000000,"state":"active","ping":47},{"user_id":334,"name":"Bad Medic Buddy","steam_id":76561198093222632,"connected_time":5200000000000,"state":"active","ping":84},{"user_id":386,"name":"Sorrelyn","steam_id":76561198040851062,"connected_time":445000000000,"state":"active","ping":65},{"user_id":353,"name":"coxen","steam_id":76561198095125557,"connected_time":3625000000000,"state":"active","ping":67},{"user_id":317,"name":"StraySheep","steam_id":76561198256003811,"connected_time":6486000000000,"state":"active","ping":74}]},{"server_id":37,"name":"Uncletopia | Chicago | 6 | All Maps","name_short":"chi-6","host":"chi-2.us.uncletopia.com","port":27025,"enabled":true,"region":"us-central","cc":"us","latitude":41.881832,"longitude":-87.62318,"reserved":0,"last_update":"0001-01-01T00:00:00Z","name_a2s":"Uncletopia | Chicago | 6 | All Maps","protocol":17,"map":"pl_swiftwater_final1","folder":"tf","game":"Team Fortress","app_id":440,"player_count":24,"max_players":24,"Bots":0,"server_type":"Dedicated","server_os":"Linux","password":true,"vac":true,"version":"7757534","steam_id":85568392924866363,"keywords":["nocrits","nodmgspread","payload","uncletopia"],"game_id":440,"stv_port":27026,"stv_name":"Uncletopia | Chicago | 6 | All Maps | STV","players":[{"user_id":330,"name":"bojack from the show bojack hor","steam_id":76561198053006712,"connected_time":2796000000000,"state":"active","ping":61},{"user_id":334,"name":"flameboy50","steam_id":76561198258638052,"connected_time":2600000000000,"state":"active","ping":102},{"user_id":351,"name":"Hindmost","steam_id":76561199081837220,"connected_time":755000000000,"state":"active","ping":90},{"user_id":352,"name":"The local hobo","steam_id":76561198289650060,"connected_time":655000000000,"state":"active","ping":84},{"user_id":343,"name":"Randumb","steam_id":76561199083286636,"connected_time":1053000000000,"state":"active","ping":84},{"user_id":329,"name":"LORD CANTI","steam_id":76561198254479725,"connected_time":2817000000000,"state":"active","ping":49},{"user_id":337,"name":"bredinstead","steam_id":76561199156464551,"connected_time":1582000000000,"state":"active","ping":69},{"user_id":323,"name":"JJc","steam_id":76561198021164742,"connected_time":2973000000000,"state":"active","ping":51},{"user_id":354,"name":"Magiclama","steam_id":76561199438818425,"connected_time":223000000000,"state":"active","ping":139},{"user_id":305,"name":"Daniel","steam_id":76561198986620510,"connected_time":3410000000000,"state":"active","ping":83},{"user_id":341,"name":"Kubloo","steam_id":76561198067391168,"connected_time":1123000000000,"state":"active","ping":71},{"user_id":333,"name":"Dire_vVolf","steam_id":76561198052509176,"connected_time":2710000000000,"state":"active","ping":55},{"user_id":339,"name":"William Knifeman","steam_id":76561198272975107,"connected_time":1545000000000,"state":"active","ping":82},{"user_id":349,"name":"awesomebrololo","steam_id":76561198374283489,"connected_time":872000000000,"state":"active","ping":131},{"user_id":312,"name":"Hyper","steam_id":76561198976760150,"connected_time":3305000000000,"state":"active","ping":107},{"user_id":353,"name":"bit","steam_id":76561198993740818,"connected_time":341000000000,"state":"active","ping":65},{"user_id":335,"name":"Robo Intern","steam_id":76561199067098696,"connected_time":2134000000000,"state":"active","ping":90},{"user_id":345,"name":"ChefMike","steam_id":76561198414034069,"connected_time":1044000000000,"state":"active","ping":67},{"user_id":348,"name":"chaychaypae","steam_id":76561198357563566,"connected_time":996000000000,"state":"active","ping":101},{"user_id":314,"name":"THE WALL","steam_id":76561199084320480,"connected_time":3277000000000,"state":"active","ping":110},{"user_id":278,"name":"Bow_","steam_id":76561198109608134,"connected_time":5690000000000,"state":"active","ping":69},{"user_id":324,"name":"Vault 202","steam_id":76561198064848434,"connected_time":2964000000000,"state":"active","ping":75},{"user_id":327,"name":"bananalover5","steam_id":76561199143854578,"connected_time":2946000000000,"state":"active","ping":121},{"user_id":328,"name":"The Juice","steam_id":76561198065307144,"connected_time":2943000000000,"state":"active","ping":74}]},{"server_id":38,"name":"Uncletopia | Chicago | 7 | Stopwatch Beta","name_short":"chi-7","host":"chi-2.us.uncletopia.com","port":27035,"enabled":true,"region":"us-central","cc":"us","latitude":41.881832,"longitude":-87.62318,"reserved":0,"last_update":"0001-01-01T00:00:00Z","name_a2s":"Uncletopia | Chicago | 7 | Stopwatch Beta","protocol":17,"map":"koth_lakeside_final","folder":"tf","game":"Team Fortress","app_id":440,"player_count":6,"max_players":24,"Bots":0,"server_type":"Dedicated","server_os":"Linux","password":true,"vac":true,"version":"7757534","steam_id":85568392924866364,"keywords":["cp","nocrits","nodmgspread","uncletopia"],"game_id":440,"stv_port":27036,"stv_name":"Uncletopia | Chicago | 7 | Stopwatch Beta | STV","players":[{"user_id":273,"name":"Mimely","steam_id":76561198005644619,"connected_time":937000000000,"state":"connecting","ping":122},{"user_id":276,"name":"Guns Blazing","steam_id":76561198379461118,"connected_time":9000000000,"state":"connecting","ping":80},{"user_id":274,"name":"teqnok","steam_id":76561199226621264,"connected_time":872000000000,"state":"connecting","ping":103},{"user_id":277,"name":"Yosh","steam_id":76561198027078899,"connected_time":7000000000,"state":"connecting","ping":356},{"user_id":204,"name":"internetmoneyscam.com","steam_id":76561198294873192,"connected_time":5944000000000,"state":"connecting","ping":78},{"user_id":212,"name":"Spike Bones","steam_id":76561198234926120,"connected_time":5507000000000,"state":"connecting","ping":93}]},{"server_id":39,"name":"Uncletopia | Chicago | 8 | Community","name_short":"chi-8","host":"chi-2.us.uncletopia.com","port":27045,"enabled":true,"region":"us-central","cc":"us","latitude":41.881832,"longitude":-87.62318,"reserved":0,"last_update":"0001-01-01T00:00:00Z","name_a2s":"Uncletopia | Chicago | 8 | Community","protocol":17,"map":"workshop/cp_croissant_final.ugc458840209","folder":"tf","game":"Team Fortress","app_id":440,"player_count":24,"max_players":24,"Bots":0,"server_type":"Dedicated","server_os":"Linux","password":true,"vac":true,"version":"7757534","steam_id":85568392924866365,"keywords":["cp","nocrits","nodmgspread","uncletopia"],"game_id":440,"stv_port":27046,"stv_name":"Uncletopia | Chicago | 8 | Community | STV","players":[{"user_id":285,"name":"Lifial","steam_id":76561198271885819,"connected_time":3415000000000,"state":"active","ping":74},{"user_id":278,"name":"Leaderofthe00fkins","steam_id":76561198281999872,"connected_time":4111000000000,"state":"active","ping":103},{"user_id":204,"name":"NUt","steam_id":76561198031007966,"connected_time":10019000000000,"state":"active","ping":77},{"user_id":302,"name":"Dawwg","steam_id":76561198174156277,"connected_time":2292000000000,"state":"active","ping":92},{"user_id":299,"name":"Amoxicilina","steam_id":76561198168486429,"connected_time":2342000000000,"state":"active","ping":124},{"user_id":239,"name":"DeckofDragons","steam_id":76561198057398213,"connected_time":6790000000000,"state":"active","ping":80},{"user_id":314,"name":"Sunflower","steam_id":76561198081223793,"connected_time":1435000000000,"state":"active","ping":52},{"user_id":286,"name":"Misha","steam_id":76561198066174041,"connected_time":3243000000000,"state":"active","ping":66},{"user_id":300,"name":"SiltyStar85","steam_id":76561198309175923,"connected_time":2313000000000,"state":"active","ping":88},{"user_id":319,"name":"lilywinder01","steam_id":76561199480621798,"connected_time":744000000000,"state":"active","ping":115},{"user_id":325,"name":"Purple","steam_id":76561198046490319,"connected_time":496000000000,"state":"active","ping":44},{"user_id":284,"name":"S.N.A.F.U.","steam_id":76561197980128424,"connected_time":3777000000000,"state":"active","ping":67},{"user_id":323,"name":"JACOB","steam_id":76561198211874895,"connected_time":532000000000,"state":"active","ping":75},{"user_id":206,"name":"TheSquirrelofHuscurl","steam_id":76561198073379623,"connected_time":9590000000000,"state":"active","ping":96},{"user_id":327,"name":"Gun Spy","steam_id":76561198140587647,"connected_time":346000000000,"state":"active","ping":62},{"user_id":328,"name":"Aeris","steam_id":76561198287271028,"connected_time":301000000000,"state":"active","ping":60},{"user_id":329,"name":"XBOX 360","steam_id":76561198066590783,"connected_time":280000000000,"state":"active","ping":72},{"user_id":293,"name":"Marc Antony","steam_id":76561198011366517,"connected_time":3052000000000,"state":"active","ping":58},{"user_id":332,"name":"Eoka Gaming","steam_id":76561198315596929,"connected_time":153000000000,"state":"active","ping":64},{"user_id":318,"name":"Protobear","steam_id":76561198090013038,"connected_time":850000000000,"state":"active","ping":112},{"user_id":313,"name":".9 lg","steam_id":76561198092238353,"connected_time":1523000000000,"state":"active","ping":70},{"user_id":330,"name":"‚ùäStannis the Mannis","steam_id":76561198028352234,"connected_time":268000000000,"state":"active","ping":70},{"user_id":320,"name":"Robin","steam_id":76561198121165149,"connected_time":553000000000,"state":"active","ping":46},{"user_id":331,"name":"GreekGoat_Coffee","steam_id":76561198129331088,"connected_time":186000000000,"state":"active","ping":47}]},{"server_id":8,"name":"Uncletopia | Dallas | 1 | All Maps","name_short":"dal-1","host":"dal-1.us.uncletopia.com","port":27015,"enabled":true,"region":"us-central","cc":"us","latitude":32.779167,"longitude":-96.80889,"reserved":0,"last_update":"0001-01-01T00:00:00Z","name_a2s":"Uncletopia | Dallas | 1 | All Maps","protocol":17,"map":"pl_snowycoast","folder":"tf","game":"Team Fortress","app_id":440,"player_count":24,"max_players":24,"Bots":0,"server_type":"Dedicated","server_os":"Linux","password":true,"vac":true,"version":"7757534","steam_id":85568392924469986,"keywords":["nocrits","nodmgspread","payload","uncletopia"],"game_id":440,"stv_port":27016,"stv_name":"Uncletopia | Dallas | 1 | All Maps | STV","players":[{"user_id":485,"name":"aidan long","steam_id":76561198073022833,"connected_time":248000000000,"state":"active","ping":46},{"user_id":471,"name":"Sagertooth","steam_id":76561198060863894,"connected_time":908000000000,"state":"active","ping":60},{"user_id":487,"name":"fish lover woman fearer","steam_id":76561198241061928,"connected_time":54000000000,"state":"active","ping":74},{"user_id":429,"name":"Ironaka","steam_id":76561198029993183,"connected_time":4513000000000,"state":"active","ping":94},{"user_id":469,"name":"brewkey","steam_id":76561198057896324,"connected_time":921000000000,"state":"active","ping":49},{"user_id":419,"name":"Ballista","steam_id":76561197983182562,"connected_time":5365000000000,"state":"active","ping":53},{"user_id":454,"name":"Femboy Gaming","steam_id":76561199011612192,"connected_time":3035000000000,"state":"active","ping":91},{"user_id":478,"name":"Orca?","steam_id":76561198164341099,"connected_time":765000000000,"state":"active","ping":83},{"user_id":472,"name":"double tap 2.0","steam_id":76561198062146253,"connected_time":902000000000,"state":"active","ping":106},{"user_id":473,"name":"FluttyPutty","steam_id":76561198218446556,"connected_time":894000000000,"state":"active","ping":66},{"user_id":466,"name":"TechnoBear2099","steam_id":76561198238863596,"connected_time":1817000000000,"state":"active","ping":45},{"user_id":455,"name":"sebjzy ‚ô•","steam_id":76561198009959034,"connected_time":3034000000000,"state":"active","ping":59},{"user_id":458,"name":"Donnie Blasto","steam_id":76561198043432005,"connected_time":2954000000000,"state":"active","ping":76},{"user_id":426,"name":"barker bill","steam_id":76561198018451994,"connected_time":5151000000000,"state":"active","ping":58},{"user_id":450,"name":"Big Man","steam_id":76561198353366625,"connected_time":3353000000000,"state":"active","ping":87},{"user_id":462,"name":"Serene Salamander","steam_id":76561198001094770,"connected_time":1881000000000,"state":"active","ping":94},{"user_id":486,"name":"296cherry","steam_id":76561198097859258,"connected_time":225000000000,"state":"active","ping":54},{"user_id":445,"name":"Jerome","steam_id":76561198054796296,"connected_time":3947000000000,"state":"active","ping":75},{"user_id":483,"name":"owen","steam_id":76561198121517871,"connected_time":517000000000,"state":"active","ping":52},{"user_id":440,"name":"Jolo25","steam_id":76561198390795573,"connected_time":4364000000000,"state":"active","ping":63},{"user_id":476,"name":"you're (balls)","steam_id":76561198163331797,"connected_time":845000000000,"state":"active","ping":59},{"user_id":480,"name":"YASAI JUICE","steam_id":76561198131971992,"connected_time":646000000000,"state":"active","ping":59},{"user_id":461,"name":"Trolley","steam_id":76561198106695948,"connected_time":1886000000000,"state":"active","ping":71},{"user_id":470,"name":"Gossamer","steam_id":76561198046948498,"connected_time":921000000000,"state":"active","ping":80}]},{"server_id":108,"name":"Uncletopia | Dallas | 2 | All Maps","name_short":"dal-2","host":"dal-1.us.uncletopia.com","port":27025,"enabled":true,"region":"us-central","cc":"us","latitude":32.779167,"longitude":-96.80889,"reserved":0,"last_update":"0001-01-01T00:00:00Z","name_a2s":"Uncletopia | Dallas | 2 | All Maps","protocol":17,"map":"pl_borneo","folder":"tf","game":"Team Fortress","app_id":440,"player_count":21,"max_players":24,"Bots":0,"server_type":"Dedicated","server_os":"Linux","password":true,"vac":true,"version":"7757534","steam_id":85568392924469988,"keywords":["nocrits","nodmgspread","payload","uncletopia"],"game_id":440,"stv_port":27026,"stv_name":"Uncletopia | Dallas | 2 | All Maps | STV","players":[{"user_id":338,"name":"GLG MUTT","steam_id":76561198147785541,"connected_time":4699000000000,"state":"active","ping":55},{"user_id":363,"name":"UnkownGamerLOL","steam_id":76561198225902368,"connected_time":2114000000000,"state":"active","ping":72},{"user_id":329,"name":"‚ù§ Ashley ‚ù§","steam_id":76561198056428303,"connected_time":5395000000000,"state":"active","ping":74},{"user_id":375,"name":"moe5x","steam_id":76561198316877833,"connected_time":1289000000000,"state":"active","ping":77},{"user_id":394,"name":"Cris Patt (real)","steam_id":76561199362872879,"connected_time":10000000000,"state":"active","ping":64},{"user_id":337,"name":"GLG.Liz","steam_id":76561198021957956,"connected_time":4701000000000,"state":"active","ping":44},{"user_id":302,"name":"gamers aren't real","steam_id":76561198113748347,"connected_time":8439000000000,"state":"active","ping":60},{"user_id":362,"name":"VixianUwU „ÉÉ ‚ù§","steam_id":76561198948815060,"connected_time":2366000000000,"state":"active","ping":73},{"user_id":392,"name":"Moonflower ‚ú¶","steam_id":76561198191782483,"connected_time":69000000000,"state":"active","ping":43},{"user_id":395,"name":"\u003c blank \u003e","steam_id":76561198131245396,"connected_time":3000000000,"state":"spawning","ping":61},{"user_id":374,"name":"zzzz","steam_id":76561198858517912,"connected_time":1482000000000,"state":"active","ping":81},{"user_id":391,"name":"Average Xbox Controller Enjoyer","steam_id":76561199026721822,"connected_time":158000000000,"state":"active","ping":90},{"user_id":330,"name":"Dr. drippenstein","steam_id":76561198209380493,"connected_time":5392000000000,"state":"active","ping":75},{"user_id":371,"name":"Playboy Carti","steam_id":76561198305836153,"connected_time":1603000000000,"state":"active","ping":69},{"user_id":393,"name":"basil","steam_id":76561198075758026,"connected_time":57000000000,"state":"active","ping":86},{"user_id":377,"name":"Crunchy Cheesy Wasp Wrap","steam_id":76561198004429020,"connected_time":1138000000000,"state":"active","ping":56},{"user_id":379,"name":"nnobi","steam_id":76561198878729277,"connected_time":1112000000000,"state":"active","ping":75},{"user_id":361,"name":"rep","steam_id":76561198070164185,"connected_time":2472000000000,"state":"active","ping":70},{"user_id":328,"name":"momb","steam_id":76561198142234038,"connected_time":5656000000000,"state":"active","ping":76},{"user_id":381,"name":"rjsly","steam_id":76561198036573271,"connected_time":1086000000000,"state":"active","ping":85},{"user_id":365,"name":"wizard","steam_id":76561197974871380,"connected_time":2043000000000,"state":"active","ping":95}]},{"server_id":5,"name":"Uncletopia | Frankfurt | 1 | All Maps","name_short":"frk-1","host":"frk-1.de.uncletopia.com","port":27015,"enabled":true,"region":"eu","cc":"de","latitude":50.110924,"longitude":8.682127,"reserved":0,"last_update":"0001-01-01T00:00:00Z","name_a2s":"Uncletopia | Frankfurt | 1 | All Maps","protocol":17,"map":"koth_highpass","folder":"tf","game":"Team Fortress","app_id":440,"player_count":0,"max_players":24,"Bots":0,"server_type":"Dedicated","server_os":"Linux","password":true,"vac":true,"version":"7757534","steam_id":85568392924469989,"keywords":["cp","nocrits","nodmgspread","uncletopia"],"game_id":440,"stv_port":27016,"stv_name":"Uncletopia | Frankfurt | 1 | All Maps | STV","players":null},{"server_id":110,"name":"Uncletopia | Frankfurt | 2 | All Maps","name_short":"frk-2","host":"frk-1.de.uncletopia.com","port":27025,"enabled":true,"region":"eu","cc":"de","latitude":50.110924,"longitude":8.682127,"reserved":0,"last_update":"0001-01-01T00:00:00Z","name_a2s":"Uncletopia | Frankfurt | 2 | All Maps","protocol":17,"map":"koth_cascade","folder":"tf","game":"Team Fortress","app_id":440,"player_count":0,"max_players":24,"Bots":0,"server_type":"Dedicated","server_os":"Linux","password":true,"vac":true,"version":"7757534","steam_id":85568392924469990,"keywords":["cp","nocrits","nodmgspread","uncletopia"],"game_id":440,"stv_port":27026,"stv_name":"Uncletopia | Frankfurt | 2 | All Maps | STV","players":null},{"server_id":308,"name":"Uncletopia | Frankfurt | 3 | All Maps","name_short":"frk-3","host":"frk-1.de.uncletopia.com","port":27035,"enabled":true,"region":"eu","cc":"de","latitude":50.110924,"longitude":8.682127,"reserved":0,"last_update":"0001-01-01T00:00:00Z","name_a2s":"Uncletopia | Frankfurt | 3 | All Maps","protocol":17,"map":"pl_barnblitz","folder":"tf","game":"Team Fortress","app_id":440,"player_count":0,"max_players":24,"Bots":0,"server_type":"Dedicated","server_os":"Linux","password":true,"vac":true,"version":"7757534","steam_id":85568392924504274,"keywords":["nocrits","nodmgspread","payload","uncletopia"],"game_id":440,"stv_port":27036,"stv_name":"Uncletopia | Frankfurt | 3 | All Maps | STV","players":null},{"server_id":309,"name":"Uncletopia | Frankfurt | 4 | All Maps","name_short":"frk-4","host":"frk-1.de.uncletopia.com","port":27045,"enabled":true,"region":"eu","cc":"de","latitude":50.110924,"longitude":8.682127,"reserved":0,"last_update":"0001-01-01T00:00:00Z","name_a2s":"Uncletopia | Frankfurt | 4 | All Maps","protocol":17,"map":"pl_barnblitz","folder":"tf","game":"Team Fortress","app_id":440,"player_count":0,"max_players":24,"Bots":0,"server_type":"Dedicated","server_os":"Linux","password":true,"vac":true,"version":"7757534","steam_id":85568392924504275,"keywords":["nocrits","nodmgspread","payload","uncletopia"],"game_id":440,"stv_port":27046,"stv_name":"Uncletopia | Frankfurt | 4 | All Maps | STV","players":null},{"server_id":310,"name":"Uncletopia | Frankfurt | 5 | All Maps","name_short":"frk-5","host":"frk-1.de.uncletopia.com","port":27055,"enabled":true,"region":"eu","cc":"de","latitude":50.110924,"longitude":8.682127,"reserved":0,"last_update":"0001-01-01T00:00:00Z","name_a2s":"Uncletopia | Frankfurt | 5 | All Maps","protocol":17,"map":"koth_cascade","folder":"tf","game":"Team Fortress","app_id":440,"player_count":0,"max_players":24,"Bots":0,"server_type":"Dedicated","server_os":"Linux","password":true,"vac":true,"version":"7757534","steam_id":85568392924504277,"keywords":["cp","nocrits","nodmgspread","uncletopia"],"game_id":440,"stv_port":27056,"stv_name":"Uncletopia | Frankfurt | 5 | All Maps | STV","players":null},{"server_id":311,"name":"Uncletopia | Frankfurt | 6 | All Maps","name_short":"frk-6","host":"frk-1.de.uncletopia.com","port":27065,"enabled":true,"region":"eu","cc":"de","latitude":50.110924,"longitude":8.682127,"reserved":0,"last_update":"0001-01-01T00:00:00Z","name_a2s":"Uncletopia | Frankfurt | 6 | All Maps","protocol":17,"map":"cp_dustbowl","folder":"tf","game":"Team Fortress","app_id":440,"player_count":0,"max_players":24,"Bots":0,"server_type":"Dedicated","server_os":"Linux","password":true,"vac":true,"version":"7757534","steam_id":85568392924504278,"keywords":["cp","nocrits","nodmgspread","uncletopia"],"game_id":440,"stv_port":27066,"stv_name":"Uncletopia | Frankfurt | 6 | All Maps | STV","players":null},{"server_id":23,"name":"Uncletopia | Frankfurt | 7 | Stopwatch Beta","name_short":"frk-7","host":"frk-1.de.uncletopia.com","port":27075,"enabled":true,"region":"eu","cc":"de","latitude":50.110924,"longitude":8.682127,"reserved":0,"last_update":"0001-01-01T00:00:00Z","name_a2s":"Uncletopia | Frankfurt | 7 | Stopwatch Beta","protocol":17,"map":"workshop/koth_bagel_rc6.ugc2514036946","folder":"tf","game":"Team Fortress","app_id":440,"player_count":0,"max_players":24,"Bots":0,"server_type":"Dedicated","server_os":"Linux","password":true,"vac":true,"version":"7757534","steam_id":85568392924742827,"keywords":["cp","nocrits","nodmgspread","uncletopia"],"game_id":440,"stv_port":27076,"stv_name":"Uncletopia | Frankfurt | 7 | Stopwatch Beta | STV","players":null},{"server_id":24,"name":"Uncletopia | Frankfurt | 8 | Community","name_short":"frk-8","host":"frk-1.de.uncletopia.com","port":27085,"enabled":true,"region":"eu","cc":"de","latitude":50.110924,"longitude":8.682127,"reserved":0,"last_update":"0001-01-01T00:00:00Z","name_a2s":"Uncletopia | Frankfurt | 8 | Community","protocol":17,"map":"workshop/cp_hazyfort_rc6.ugc1365963729","folder":"tf","game":"Team Fortress","app_id":440,"player_count":0,"max_players":24,"Bots":0,"server_type":"Dedicated","server_os":"Linux","password":true,"vac":true,"version":"7757534","steam_id":85568392924742828,"keywords":["cp","nocrits","nodmgspread","uncletopia"],"game_id":440,"stv_port":27086,"stv_name":"Uncletopia | Frankfurt | 8 | Community | STV","players":null},{"server_id":202,"name":"Uncletopia | Hong Kong | 1 | All Maps","name_short":"hgk-1","host":"hgk-1.hk.uncletopia.com","port":27015,"enabled":true,"region":"asia","cc":"hk","latitude":22.302711,"longitude":114.177216,"reserved":0,"last_update":"0001-01-01T00:00:00Z","name_a2s":"Uncletopia | Hong Kong | 1 | All Maps","protocol":17,"map":"cp_altitude","folder":"tf","game":"Team Fortress","app_id":440,"player_count":0,"max_players":24,"Bots":0,"server_type":"Dedicated","server_os":"Linux","password":true,"vac":true,"version":"7757534","steam_id":85568392924494504,"keywords":["cp","nocrits","nodmgspread","uncletopia"],"game_id":440,"stv_port":27016,"stv_name":"Uncletopia | Hong Kong | 1 | All Maps | STV","players":null},{"server_id":1,"name":"Uncletopia | Los Angeles | 1 | All Maps","name_short":"lax-1","host":"lax-1.us.uncletopia.com","port":27015,"enabled":true,"region":"us-west","cc":"us","latitude":33.94279,"longitude":-118.41004,"reserved":0,"last_update":"0001-01-01T00:00:00Z","name_a2s":"Uncletopia | Los Angeles | 1 | All Maps","protocol":17,"map":"pl_borneo","folder":"tf","game":"Team Fortress","app_id":440,"player_count":24,"max_players":24,"Bots":0,"server_type":"Dedicated","server_os":"Linux","password":true,"vac":true,"version":"7757534","steam_id":85568392924469991,"keywords":["nocrits","nodmgspread","payload","uncletopia"],"game_id":440,"stv_port":27016,"stv_name":"Uncletopia | Los Angeles | 1 | All Maps | STV","players":[{"user_id":368,"name":"Sol","steam_id":76561198121500201,"connected_time":5898000000000,"state":"active","ping":46},{"user_id":427,"name":"Thordude","steam_id":76561199087162916,"connected_time":601000000000,"state":"active","ping":76},{"user_id":423,"name":"BTS l LazyPurple","steam_id":76561198045964573,"connected_time":917000000000,"state":"active","ping":45},{"user_id":411,"name":"zzzz","steam_id":76561199413388036,"connected_time":2243000000000,"state":"active","ping":60},{"user_id":401,"name":"Shamrock Shake Oct.10.2020 @8pm","steam_id":76561198833313201,"connected_time":4371000000000,"state":"active","ping":55},{"user_id":420,"name":"Level 1 Crook","steam_id":76561198441098132,"connected_time":1023000000000,"state":"active","ping":103},{"user_id":405,"name":"Thunder","steam_id":76561198097721532,"connected_time":3398000000000,"state":"active","ping":47},{"user_id":388,"name":"tN|SpiritofLight","steam_id":76561197967936643,"connected_time":4672000000000,"state":"active","ping":64},{"user_id":421,"name":"charm","steam_id":76561198126751384,"connected_time":987000000000,"state":"active","ping":90},{"user_id":406,"name":"Loki!","steam_id":76561198089201861,"connected_time":3191000000000,"state":"active","ping":83},{"user_id":395,"name":"LAN!!K^","steam_id":76561199229169363,"connected_time":4563000000000,"state":"active","ping":113},{"user_id":422,"name":"summerlis","steam_id":76561198165324438,"connected_time":984000000000,"state":"active","ping":32},{"user_id":407,"name":"`o2","steam_id":76561197992030936,"connected_time":3120000000000,"state":"active","ping":91},{"user_id":408,"name":"Scoron","steam_id":76561198062099305,"connected_time":3119000000000,"state":"active","ping":67},{"user_id":424,"name":"portal2trollin","steam_id":76561198046869828,"connected_time":883000000000,"state":"active","ping":103},{"user_id":390,"name":"A Skilled Player","steam_id":76561198075619480,"connected_time":4660000000000,"state":"active","ping":50},{"user_id":391,"name":"Sports Anime Protagonist","steam_id":76561198112635823,"connected_time":4606000000000,"state":"active","ping":120},{"user_id":419,"name":"HeroOfTime","steam_id":76561199096218001,"connected_time":1046000000000,"state":"active","ping":54},{"user_id":416,"name":"werolat","steam_id":76561197960544784,"connected_time":1816000000000,"state":"active","ping":66},{"user_id":426,"name":"Pan-Demonica","steam_id":76561198294350105,"connected_time":702000000000,"state":"active","ping":98},{"user_id":396,"name":"cactus eater","steam_id":76561199107499844,"connected_time":4553000000000,"state":"active","ping":59},{"user_id":413,"name":"Vanest","steam_id":76561199165805859,"connected_time":1909000000000,"state":"active","ping":147},{"user_id":399,"name":"Kyu","steam_id":76561199190192198,"connected_time":4488000000000,"state":"active","ping":122},{"user_id":429,"name":"Furious George","steam_id":76561198405111646,"connected_time":224000000000,"state":"active","ping":55}]},{"server_id":112,"name":"Uncletopia | Los Angeles | 2 | All Maps","name_short":"lax-2","host":"lax-1.us.uncletopia.com","port":27025,"enabled":true,"region":"us-west","cc":"us","latitude":33.94279,"longitude":-118.41004,"reserved":0,"last_update":"0001-01-01T00:00:00Z","name_a2s":"Uncletopia | Los Angeles | 2 | All Maps","protocol":17,"map":"cp_sunshine","folder":"tf","game":"Team Fortress","app_id":440,"player_count":24,"max_players":24,"Bots":0,"server_type":"Dedicated","server_os":"Linux","password":true,"vac":true,"version":"7757534","steam_id":85568392924469992,"keywords":["cp","nocrits","nodmgspread","uncletopia"],"game_id":440,"stv_port":27026,"stv_name":"Uncletopia | Los Angeles | 2 | All Maps | STV","players":[{"user_id":196,"name":"Fractured_Mango","steam_id":76561199013113268,"connected_time":1603000000000,"state":"active","ping":72},{"user_id":199,"name":"+ layze +","steam_id":76561199014818099,"connected_time":1036000000000,"state":"active","ping":61},{"user_id":188,"name":"Jovo","steam_id":76561197993265970,"connected_time":2666000000000,"state":"active","ping":117},{"user_id":200,"name":"Joe","steam_id":76561198284468330,"connected_time":941000000000,"state":"active","ping":120},{"user_id":182,"name":"Notation","steam_id":76561198119509319,"connected_time":2737000000000,"state":"active","ping":93},{"user_id":148,"name":"Lucerne‚òÖFlower","steam_id":76561198264105406,"connected_time":5456000000000,"state":"active","ping":101},{"user_id":201,"name":"sheep on da linux","steam_id":76561198076781979,"connected_time":932000000000,"state":"active","ping":55},{"user_id":138,"name":"CFGU || RAWRWAFL","steam_id":76561198032118386,"connected_time":5542000000000,"state":"active","ping":106},{"user_id":210,"name":"skull emoji","steam_id":76561198330367530,"connected_time":582000000000,"state":"active","ping":58},{"user_id":156,"name":"Cat in a Tub","steam_id":76561198170443243,"connected_time":4466000000000,"state":"active","ping":58},{"user_id":195,"name":"kr1tsurf3r","steam_id":76561198076402476,"connected_time":1658000000000,"state":"active","ping":70},{"user_id":202,"name":"GlizzLord","steam_id":76561198321010427,"connected_time":862000000000,"state":"active","ping":66},{"user_id":173,"name":"Renz","steam_id":76561198118995036,"connected_time":2916000000000,"state":"active","ping":102},{"user_id":204,"name":"the cock strangler","steam_id":76561198161368766,"connected_time":780000000000,"state":"active","ping":62},{"user_id":205,"name":"Inax","steam_id":76561198398677744,"connected_time":775000000000,"state":"active","ping":144},{"user_id":206,"name":"MechanizedContortion","steam_id":76561199146092247,"connected_time":746000000000,"state":"active","ping":48},{"user_id":207,"name":"·ªÄrr‚àÖr„Ç∑","steam_id":76561199277920604,"connected_time":727000000000,"state":"active","ping":88},{"user_id":212,"name":"BionicApe","steam_id":76561198154637711,"connected_time":498000000000,"state":"active","ping":78},{"user_id":209,"name":"selvhat","steam_id":76561198114225509,"connected_time":674000000000,"state":"active","ping":51},{"user_id":211,"name":"Frogzilla","steam_id":76561198077657538,"connected_time":579000000000,"state":"active","ping":119},{"user_id":187,"name":"SomeRandomBetaFish","steam_id":76561198827731399,"connected_time":2688000000000,"state":"active","ping":118},{"user_id":167,"name":"Matisguy","steam_id":76561199020903681,"connected_time":3843000000000,"state":"active","ping":91},{"user_id":213,"name":"lil homie gay ass","steam_id":76561198044804626,"connected_time":471000000000,"state":"active","ping":102},{"user_id":137,"name":"Giselle","steam_id":76561198162593640,"connected_time":5633000000000,"state":"active","ping":96}]},{"server_id":324,"name":"Uncletopia | Los Angeles | 3 | All Maps","name_short":"lax-3","host":"lax-1.us.uncletopia.com","port":27035,"enabled":true,"region":"us-west","cc":"us","latitude":33.94279,"longitude":-118.41004,"reserved":0,"last_update":"0001-01-01T00:00:00Z","name_a2s":"Uncletopia | Los Angeles | 3 | All Maps","protocol":17,"map":"koth_harvest_final","folder":"tf","game":"Team Fortress","app_id":440,"player_count":24,"max_players":24,"Bots":0,"server_type":"Dedicated","server_os":"Linux","password":true,"vac":true,"version":"7757534","steam_id":85568392924510198,"keywords":["cp","nocrits","nodmgspread","uncletopia"],"game_id":440,"stv_port":27036,"stv_name":"Uncletopia | Los Angeles | 3 | All Maps | STV","players":[{"user_id":259,"name":"MasterGeek.MX","steam_id":76561198063355220,"connected_time":436000000000,"state":"active","ping":126},{"user_id":260,"name":"Surfing Garchomp","steam_id":76561199107236884,"connected_time":422000000000,"state":"active","ping":95},{"user_id":261,"name":"stupid","steam_id":76561198353762582,"connected_time":413000000000,"state":"active","ping":69},{"user_id":231,"name":"Andreshatesmondays","steam_id":76561198889349797,"connected_time":1567000000000,"state":"active","ping":42},{"user_id":249,"name":"RabidSoda","steam_id":76561198115416316,"connected_time":1053000000000,"state":"active","ping":86},{"user_id":232,"name":"nothowon","steam_id":76561198937601452,"connected_time":1552000000000,"state":"active","ping":101},{"user_id":213,"name":"Professor Blank","steam_id":76561198147157854,"connected_time":3279000000000,"state":"active","ping":112},{"user_id":267,"name":"Lemmers235","steam_id":76561199192668922,"connected_time":119000000000,"state":"active","ping":106},{"user_id":255,"name":"Jazpy","steam_id":76561198036872545,"connected_time":815000000000,"state":"active","ping":77},{"user_id":256,"name":"Scorpianswag","steam_id":76561198260651036,"connected_time":788000000000,"state":"active","ping":43},{"user_id":263,"name":"strange laughing","steam_id":76561198072533679,"connected_time":385000000000,"state":"active","ping":81},{"user_id":252,"name":"cheems","steam_id":76561198155843685,"connected_time":937000000000,"state":"active","ping":45},{"user_id":264,"name":"VicLoL","steam_id":76561198045580784,"connected_time":366000000000,"state":"active","ping":55},{"user_id":216,"name":"dannyboi","steam_id":76561198110836301,"connected_time":3229000000000,"state":"active","ping":114},{"user_id":258,"name":"-The_Under_Miner-","steam_id":76561199195735972,"connected_time":719000000000,"state":"active","ping":62},{"user_id":234,"name":"Crazy Hungarian","steam_id":76561198025498172,"connected_time":1539000000000,"state":"active","ping":71},{"user_id":269,"name":"BajaBlast76","steam_id":76561198144272437,"connected_time":41000000000,"state":"spawning","ping":49},{"user_id":217,"name":"Ajax101","steam_id":76561198141202881,"connected_time":3228000000000,"state":"active","ping":112},{"user_id":265,"name":"FutureSlyty","steam_id":76561198377973894,"connected_time":243000000000,"state":"active","ping":86},{"user_id":248,"name":"Reyloko","steam_id":76561198172480913,"connected_time":1136000000000,"state":"active","ping":106},{"user_id":246,"name":"glue","steam_id":76561198382076026,"connected_time":1198000000000,"state":"active","ping":54},{"user_id":227,"name":"derpesore","steam_id":76561198372731674,"connected_time":2016000000000,"state":"active","ping":140},{"user_id":251,"name":"personguy","steam_id":76561198880445878,"connected_time":1010000000000,"state":"active","ping":86},{"user_id":266,"name":"svnten710","steam_id":76561199050006326,"connected_time":214000000000,"state":"active","ping":57}]},{"server_id":25,"name":"Uncletopia | Los Angeles | 4 | Stopwatch Beta","name_short":"lax-4","host":"lax-1.us.uncletopia.com","port":27045,"enabled":true,"region":"us-west","cc":"us","latitude":33.94279,"longitude":-118.41004,"reserved":0,"last_update":"0001-01-01T00:00:00Z","name_a2s":"Uncletopia | Los Angeles | 4 | Stopwatch Beta","protocol":17,"map":"pl_upward","folder":"tf","game":"Team Fortress","app_id":440,"player_count":0,"max_players":24,"Bots":0,"server_type":"Dedicated","server_os":"Linux","password":true,"vac":true,"version":"7757534","steam_id":85568392924510199,"keywords":["nocrits","nodmgspread","payload","uncletopia"],"game_id":440,"stv_port":27046,"stv_name":"Uncletopia | Los Angeles | 4 | Stopwatch Beta | STV","players":null},{"server_id":11,"name":"Uncletopia | London | 1 | All Maps","name_short":"lon-1","host":"lon-1.uk.uncletopia.com","port":27015,"enabled":true,"region":"eu","cc":"gb","latitude":51.509865,"longitude":-0.118092,"reserved":0,"last_update":"0001-01-01T00:00:00Z","name_a2s":"Uncletopia | London | 1 | All Maps","protocol":17,"map":"cp_dustbowl","folder":"tf","game":"Team Fortress","app_id":440,"player_count":0,"max_players":24,"Bots":0,"server_type":"Dedicated","server_os":"Linux","password":true,"vac":true,"version":"7757534","steam_id":85568392924367362,"keywords":["cp","nocrits","nodmgspread","uncletopia"],"game_id":440,"stv_port":27016,"stv_name":"Uncletopia | London | 1 | All Maps | STV","players":null},{"server_id":114,"name":"Uncletopia | London | 2 | All Maps","name_short":"lon-2","host":"lon-1.uk.uncletopia.com","port":27025,"enabled":true,"region":"eu","cc":"gb","latitude":51.509865,"longitude":-0.118092,"reserved":0,"last_update":"0001-01-01T00:00:00Z","name_a2s":"Uncletopia | London | 2 | All Maps","protocol":17,"map":"koth_cascade","folder":"tf","game":"Team Fortress","app_id":440,"player_count":0,"max_players":24,"Bots":0,"server_type":"Dedicated","server_os":"Linux","password":true,"vac":true,"version":"7757534","steam_id":85568392924470941,"keywords":["cp","nocrits","nodmgspread","uncletopia"],"game_id":440,"stv_port":27026,"stv_name":"Uncletopia | London | 2 | All Maps | STV","players":null},{"server_id":320,"name":"Uncletopia | London | 3 | All Maps","name_short":"lon-3","host":"lon-1.uk.uncletopia.com","port":27035,"enabled":true,"region":"eu","cc":"gb","latitude":51.509865,"longitude":-0.118092,"reserved":0,"last_update":"0001-01-01T00:00:00Z","name_a2s":"Uncletopia | London | 3 | All Maps","protocol":17,"map":"ctf_turbine","folder":"tf","game":"Team Fortress","app_id":440,"player_count":6,"max_players":24,"Bots":0,"server_type":"Dedicated","server_os":"Linux","password":true,"vac":true,"version":"7757534","steam_id":85568392924510192,"keywords":["ctf","nocrits","nodmgspread","uncletopia"],"game_id":440,"stv_port":27036,"stv_name":"Uncletopia | London | 3 | All Maps | STV","players":[{"user_id":484,"name":"luis_rodrigues","steam_id":76561198012768802,"connected_time":54000000000,"state":"active","ping":76},{"user_id":475,"name":"ja","steam_id":76561199228540618,"connected_time":2896000000000,"state":"active","ping":82},{"user_id":483,"name":"dragonlightining","steam_id":76561199105923298,"connected_time":1085000000000,"state":"active","ping":189},{"user_id":480,"name":"worm","steam_id":76561198296497176,"connected_time":1498000000000,"state":"active","ping":43},{"user_id":473,"name":"Coach McFish","steam_id":76561198210456405,"connected_time":3304000000000,"state":"active","ping":163},{"user_id":470,"name":"I Bleed Butter","steam_id":76561198130814770,"connected_time":3435000000000,"state":"active","ping":60}]},{"server_id":321,"name":"Uncletopia | London | 4 | All Maps","name_short":"lon-4","host":"lon-1.uk.uncletopia.com","port":27045,"enabled":true,"region":"eu","cc":"gb","latitude":51.509865,"longitude":-0.118092,"reserved":0,"last_update":"0001-01-01T00:00:00Z","name_a2s":"Uncletopia | London | 4 | All Maps","protocol":17,"map":"koth_lakeside_final","folder":"tf","game":"Team Fortress","app_id":440,"player_count":0,"max_players":24,"Bots":0,"server_type":"Dedicated","server_os":"Linux","password":true,"vac":true,"version":"7757534","steam_id":85568392924510193,"keywords":["cp","nocrits","nodmgspread","uncletopia"],"game_id":440,"stv_port":27046,"stv_name":"Uncletopia | London | 4 | All Maps | STV","players":null},{"server_id":21,"name":"Uncletopia | London | 5 | All Maps","name_short":"lon-5","host":"lon-1.uk.uncletopia.com","port":27055,"enabled":true,"region":"eu","cc":"gb","latitude":51.509865,"longitude":-0.118092,"reserved":0,"last_update":"0001-01-01T00:00:00Z","name_a2s":"Uncletopia | London | 5 | All Maps","protocol":17,"map":"cp_sunshine","folder":"tf","game":"Team Fortress","app_id":440,"player_count":0,"max_players":24,"Bots":0,"server_type":"Dedicated","server_os":"Linux","password":true,"vac":true,"version":"7757534","steam_id":85568392924742829,"keywords":["cp","nocrits","nodmgspread","uncletopia"],"game_id":440,"stv_port":27056,"stv_name":"Uncletopia | London | 5 | All Maps | STV","players":null},{"server_id":22,"name":"Uncletopia | London | 6 | All Maps","name_short":"lon-6","host":"lon-1.uk.uncletopia.com","port":27065,"enabled":true,"region":"eu","cc":"gb","latitude":51.509865,"longitude":-0.118092,"reserved":0,"last_update":"0001-01-01T00:00:00Z","name_a2s":"Uncletopia | London | 6 | All Maps","protocol":17,"map":"koth_cascade","folder":"tf","game":"Team Fortress","app_id":440,"player_count":0,"max_players":24,"Bots":0,"server_type":"Dedicated","server_os":"Linux","password":true,"vac":true,"version":"7757534","steam_id":85568392924742830,"keywords":["cp","nocrits","nodmgspread","uncletopia"],"game_id":440,"stv_port":27066,"stv_name":"Uncletopia | London | 6 | All Maps | STV","players":null},{"server_id":40,"name":"Uncletopia | London | 7 | No Payload","name_short":"lon-7","host":"lon-1.uk.uncletopia.com","port":27075,"enabled":true,"region":"eu","cc":"gb","latitude":51.509865,"longitude":-0.118092,"reserved":0,"last_update":"0001-01-01T00:00:00Z","name_a2s":"Uncletopia | London | 7 | No Payload","protocol":17,"map":"cp_foundry","folder":"tf","game":"Team Fortress","app_id":440,"player_count":0,"max_players":24,"Bots":0,"server_type":"Dedicated","server_os":"Linux","password":true,"vac":true,"version":"7757534","steam_id":85568392924964314,"keywords":["cp","nocrits","nodmgspread","uncletopia"],"game_id":440,"stv_port":27076,"stv_name":"Uncletopia | London | 7 | No Payload | STV","players":null},{"server_id":41,"name":"Uncletopia | London | 8 | Community","name_short":"lon-8","host":"lon-1.uk.uncletopia.com","port":27085,"enabled":true,"region":"eu","cc":"gb","latitude":51.509865,"longitude":-0.118092,"reserved":0,"last_update":"0001-01-01T00:00:00Z","name_a2s":"Uncletopia | London | 8 | Community","protocol":17,"map":"pl_barnblitz","folder":"tf","game":"Team Fortress","app_id":440,"player_count":0,"max_players":24,"Bots":0,"server_type":"Dedicated","server_os":"Linux","password":true,"vac":true,"version":"7757534","steam_id":85568392924964315,"keywords":["nocrits","nodmgspread","payload","uncletopia"],"game_id":440,"stv_port":27086,"stv_name":"Uncletopia | London | 8 | Community | STV","players":null},{"server_id":300,"name":"Uncletopia | Montr√©al | 1 | All Maps","name_short":"mtl-1","host":"mtl-1.ca.uncletopia.com","port":27015,"enabled":true,"region":"us-east","cc":"ca","latitude":45.50889,"longitude":-73.56167,"reserved":0,"last_update":"0001-01-01T00:00:00Z","name_a2s":"Uncletopia | Montr√©al | 1 | All Maps","protocol":17,"map":"pl_barnblitz","folder":"tf","game":"Team Fortress","app_id":440,"player_count":11,"max_players":24,"Bots":0,"server_type":"Dedicated","server_os":"Linux","password":true,"vac":true,"version":"7757534","steam_id":85568392924500087,"keywords":["nocrits","nodmgspread","payload","uncletopia"],"game_id":440,"stv_port":27016,"stv_name":"Uncletopia | Montr√©al | 1 | All Maps | STV","players":[{"user_id":295,"name":"Mr Twitchy","steam_id":76561197995985499,"connected_time":161000000000,"state":"active","ping":130},{"user_id":245,"name":"he_who_grills","steam_id":76561198039626676,"connected_time":3721000000000,"state":"active","ping":41},{"user_id":282,"name":"Person","steam_id":76561198093244204,"connected_time":1393000000000,"state":"active","ping":73},{"user_id":289,"name":"hopeless","steam_id":76561198305056374,"connected_time":961000000000,"state":"active","ping":62},{"user_id":273,"name":"sap.","steam_id":76561198850974155,"connected_time":2321000000000,"state":"active","ping":69},{"user_id":275,"name":"faxxy","steam_id":76561198079621240,"connected_time":2109000000000,"state":"active","ping":56},{"user_id":276,"name":"watchfull","steam_id":76561198433266742,"connected_time":2107000000000,"state":"active","ping":125},{"user_id":234,"name":"xXBigWingmanFanXx","steam_id":76561198067904392,"connected_time":5158000000000,"state":"active","ping":46},{"user_id":291,"name":"DustIsHere„ÉÑ","steam_id":76561199105602325,"connected_time":500000000000,"state":"active","ping":117},{"user_id":290,"name":"Slacker","steam_id":76561198133123977,"connected_time":905000000000,"state":"active","ping":111},{"user_id":278,"name":"surrender to the void","steam_id":76561198055494039,"connected_time":1979000000000,"state":"active","ping":66}]},{"server_id":301,"name":"Uncletopia | Montr√©al | 2 | All Maps","name_short":"mtl-2","host":"mtl-1.ca.uncletopia.com","port":27025,"enabled":true,"region":"us-east","cc":"ca","latitude":45.50889,"longitude":-73.56167,"reserved":0,"last_update":"0001-01-01T00:00:00Z","name_a2s":"Uncletopia | Montr√©al | 2 | All Maps","protocol":17,"map":"pl_badwater","folder":"tf","game":"Team Fortress","app_id":440,"player_count":23,"max_players":24,"Bots":0,"server_type":"Dedicated","server_os":"Linux","password":true,"vac":true,"version":"7757534","steam_id":85568392924500088,"keywords":["nocrits","nodmgspread","payload","uncletopia"],"game_id":440,"stv_port":27026,"stv_name":"Uncletopia | Montr√©al | 2 | All Maps | STV","players":[{"user_id":194,"name":"renovaatio","steam_id":76561197998700468,"connected_time":617000000000,"state":"active","ping":52},{"user_id":196,"name":"Plain Toast","steam_id":76561198451580251,"connected_time":418000000000,"state":"active","ping":74},{"user_id":179,"name":"MakutaArty1987","steam_id":76561199048865492,"connected_time":1862000000000,"state":"active","ping":59},{"user_id":131,"name":"BallBreaker","steam_id":76561198237263498,"connected_time":6633000000000,"state":"active","ping":113},{"user_id":169,"name":"r0ck","steam_id":76561198141716764,"connected_time":2969000000000,"state":"active","ping":47},{"user_id":185,"name":"starulan","steam_id":76561198006975014,"connected_time":1581000000000,"state":"active","ping":57},{"user_id":156,"name":"Wilhelmktx","steam_id":76561198158102295,"connected_time":4091000000000,"state":"active","ping":62},{"user_id":170,"name":"Strew","steam_id":76561198004433145,"connected_time":2930000000000,"state":"active","ping":46},{"user_id":108,"name":"Drsausage69","steam_id":76561198309230782,"connected_time":8799000000000,"state":"active","ping":107},{"user_id":152,"name":"Jill the Owl","steam_id":76561197999210583,"connected_time":4885000000000,"state":"active","ping":64},{"user_id":157,"name":"Razz","steam_id":76561198158027533,"connected_time":4078000000000,"state":"active","ping":59},{"user_id":195,"name":"Furrio","steam_id":76561198174104607,"connected_time":463000000000,"state":"active","ping":83},{"user_id":180,"name":"vertical orientation correction","steam_id":76561198007464245,"connected_time":1846000000000,"state":"active","ping":87},{"user_id":172,"name":"Hugo_Testicles","steam_id":76561199318142492,"connected_time":2837000000000,"state":"active","ping":91},{"user_id":201,"name":"Zeek","steam_id":76561197987204351,"connected_time":74000000000,"state":"active","ping":48},{"user_id":192,"name":"senkyetsu","steam_id":76561198405788214,"connected_time":718000000000,"state":"active","ping":75},{"user_id":134,"name":"2cats_2curious","steam_id":76561198027143149,"connected_time":6352000000000,"state":"active","ping":58},{"user_id":173,"name":"doja dog","steam_id":76561199013396916,"connected_time":2816000000000,"state":"active","ping":55},{"user_id":197,"name":"DD_440","steam_id":76561199135978082,"connected_time":381000000000,"state":"active","ping":57},{"user_id":183,"name":"sora","steam_id":76561198094256973,"connected_time":1798000000000,"state":"active","ping":106},{"user_id":198,"name":"Raydn","steam_id":76561198418414338,"connected_time":209000000000,"state":"active","ping":87},{"user_id":199,"name":"aversa","steam_id":76561198840460101,"connected_time":171000000000,"state":"active","ping":57},{"user_id":200,"name":"THIRDPIERCE","steam_id":76561198405366314,"connected_time":169000000000,"state":"active","ping":103}]},{"server_id":302,"name":"Uncletopia | Montr√©al | 3 | All Maps","name_short":"mtl-3","host":"mtl-1.ca.uncletopia.com","port":27035,"enabled":true,"region":"us-east","cc":"ca","latitude":45.50889,"longitude":-73.56167,"reserved":0,"last_update":"0001-01-01T00:00:00Z","name_a2s":"Uncletopia | Montr√©al | 3 | All Maps","protocol":17,"map":"pl_snowycoast","folder":"tf","game":"Team Fortress","app_id":440,"player_count":0,"max_players":24,"Bots":0,"server_type":"Dedicated","server_os":"Linux","password":true,"vac":true,"version":"7757534","steam_id":85568392924500089,"keywords":["nocrits","nodmgspread","payload","uncletopia"],"game_id":440,"stv_port":27036,"stv_name":"Uncletopia | Montr√©al | 3 | All Maps | STV","players":null},{"server_id":303,"name":"Uncletopia | Montr√©al | 4 | No Payload","name_short":"mtl-4","host":"mtl-1.ca.uncletopia.com","port":27045,"enabled":true,"region":"us-east","cc":"ca","latitude":45.50889,"longitude":-73.56167,"reserved":0,"last_update":"0001-01-01T00:00:00Z","name_a2s":"Uncletopia | Montr√©al | 4 | No Payload","protocol":17,"map":"koth_harvest_final","folder":"tf","game":"Team Fortress","app_id":440,"player_count":24,"max_players":24,"Bots":0,"server_type":"Dedicated","server_os":"Linux","password":true,"vac":true,"version":"7757534","steam_id":85568392924500090,"keywords":["cp","nocrits","nodmgspread","uncletopia"],"game_id":440,"stv_port":27046,"stv_name":"Uncletopia | Montr√©al | 4 | No Payload | STV","players":[{"user_id":205,"name":"Bzamo","steam_id":76561198039883392,"connected_time":409000000000,"state":"active","ping":50},{"user_id":175,"name":"Fribas","steam_id":76561198138502813,"connected_time":2679000000000,"state":"active","ping":75},{"user_id":114,"name":"Pizza Steve","steam_id":76561198053755166,"connected_time":8094000000000,"state":"active","ping":70},{"user_id":198,"name":"DufsterYT","steam_id":76561199122486848,"connected_time":825000000000,"state":"active","ping":72},{"user_id":190,"name":"jumbert","steam_id":76561198355231658,"connected_time":1284000000000,"state":"active","ping":102},{"user_id":199,"name":"Hate of War","steam_id":76561199178358956,"connected_time":705000000000,"state":"active","ping":141},{"user_id":193,"name":"Kickpuncher","steam_id":76561198121528357,"connected_time":1015000000000,"state":"active","ping":78},{"user_id":131,"name":"MetalKidDoc","steam_id":76561198108741986,"connected_time":6870000000000,"state":"active","ping":87},{"user_id":194,"name":"canid","steam_id":76561198103496593,"connected_time":913000000000,"state":"active","ping":66},{"user_id":206,"name":"that wasnt funny pal","steam_id":76561198837926595,"connected_time":377000000000,"state":"active","ping":125},{"user_id":195,"name":"corncakecoolcat","steam_id":76561198090716968,"connected_time":908000000000,"state":"active","ping":69},{"user_id":170,"name":"Dededoo","steam_id":76561198279033471,"connected_time":3289000000000,"state":"active","ping":113},{"user_id":19,"name":"Fairy WeedMother","steam_id":76561198831382303,"connected_time":13869000000000,"state":"active","ping":88},{"user_id":196,"name":"cake","steam_id":76561198406252824,"connected_time":871000000000,"state":"active","ping":120},{"user_id":149,"name":"Dusaro","steam_id":76561198022303683,"connected_time":5611000000000,"state":"active","ping":75},{"user_id":197,"name":"DaMultiversalist","steam_id":76561198239552412,"connected_time":851000000000,"state":"active","ping":88},{"user_id":200,"name":"CutieMorph","steam_id":76561198209597772,"connected_time":701000000000,"state":"active","ping":99},{"user_id":202,"name":"silly little feller","steam_id":76561198041975003,"connected_time":618000000000,"state":"active","ping":77},{"user_id":176,"name":"griff928","steam_id":76561198149614679,"connected_time":2539000000000,"state":"active","ping":70},{"user_id":203,"name":"Jack and Diane's Divorce Papers","steam_id":76561198381923138,"connected_time":581000000000,"state":"active","ping":96},{"user_id":204,"name":"easymoneysniper","steam_id":76561198254503165,"connected_time":507000000000,"state":"active","ping":130},{"user_id":207,"name":"Bert","steam_id":76561198073902241,"connected_time":372000000000,"state":"active","ping":70},{"user_id":177,"name":"Tonester","steam_id":76561198850185511,"connected_time":2467000000000,"state":"active","ping":52},{"user_id":208,"name":"emseaeye","steam_id":76561198161499803,"connected_time":190000000000,"state":"active","ping":47}]},{"server_id":13,"name":"Uncletopia | New York City | 1 | All Maps","name_short":"nyc-1","host":"nyc-1.us.uncletopia.com","port":27015,"enabled":true,"region":"us-east","cc":"us","latitude":40.73061,"longitude":-73.93524,"reserved":0,"last_update":"0001-01-01T00:00:00Z","name_a2s":"Uncletopia | New York City | 1 | All Maps","protocol":17,"map":"pl_frontier_final","folder":"tf","game":"Team Fortress","app_id":440,"player_count":24,"max_players":24,"Bots":0,"server_type":"Dedicated","server_os":"Linux","password":true,"vac":true,"version":"7757534","steam_id":85568392924469993,"keywords":["nocrits","nodmgspread","payload","uncletopia"],"game_id":440,"stv_port":27016,"stv_name":"Uncletopia | New York City | 1 | All Maps | STV","players":[{"user_id":572,"name":"Lily","steam_id":76561198348941784,"connected_time":80000000000,"state":"active","ping":85},{"user_id":574,"name":"HeavenHearst","steam_id":76561198066083947,"connected_time":39000000000,"state":"spawning","ping":57},{"user_id":567,"name":"Adjim","steam_id":76561198179532535,"connected_time":839000000000,"state":"active","ping":55},{"user_id":543,"name":"WitheringLeo","steam_id":76561198046722918,"connected_time":2979000000000,"state":"active","ping":60},{"user_id":536,"name":"J.R Prime","steam_id":76561198967753173,"connected_time":3097000000000,"state":"active","ping":62},{"user_id":532,"name":"Aegis","steam_id":76561198272052750,"connected_time":3877000000000,"state":"active","ping":63},{"user_id":566,"name":"Porcupine's Revenge!","steam_id":76561199121615234,"connected_time":986000000000,"state":"active","ping":52},{"user_id":556,"name":"Vivid Hut 64","steam_id":76561198170050059,"connected_time":2068000000000,"state":"active","ping":55},{"user_id":573,"name":"heimdall","steam_id":76561198069380992,"connected_time":80000000000,"state":"active","ping":96},{"user_id":544,"name":"BasicPeaches","steam_id":76561198190890150,"connected_time":2975000000000,"state":"active","ping":64},{"user_id":553,"name":"SomeFlamingo","steam_id":76561198869299841,"connected_time":2358000000000,"state":"active","ping":55},{"user_id":515,"name":"Mochi","steam_id":76561199151314140,"connected_time":4874000000000,"state":"active","ping":39},{"user_id":548,"name":"roo the observer","steam_id":76561198120684348,"connected_time":2538000000000,"state":"active","ping":70},{"user_id":558,"name":"The magic doo bus","steam_id":76561198243387974,"connected_time":1831000000000,"state":"active","ping":86},{"user_id":484,"name":"cheers2x","steam_id":76561198366299848,"connected_time":8320000000000,"state":"active","ping":61},{"user_id":533,"name":"Doc{MDW}","steam_id":76561198075049640,"connected_time":3787000000000,"state":"active","ping":102},{"user_id":512,"name":"Bootes","steam_id":76561197968255551,"connected_time":5248000000000,"state":"active","ping":47},{"user_id":539,"name":"CyberZayne","steam_id":76561198002351356,"connected_time":3077000000000,"state":"active","ping":101},{"user_id":541,"name":"Pixeled","steam_id":76561198088917077,"connected_time":3058000000000,"state":"active","ping":89},{"user_id":575,"name":"Ducky[WADZ]","steam_id":76561198060341245,"connected_time":25000000000,"state":"active","ping":156},{"user_id":559,"name":"dr. weed (i prescribe weed)","steam_id":76561198124311404,"connected_time":1830000000000,"state":"active","ping":70},{"user_id":560,"name":"Subtract","steam_id":76561198255596276,"connected_time":1573000000000,"state":"active","ping":172},{"user_id":568,"name":"Windup Monkey in a Human Suit","steam_id":76561198119501444,"connected_time":584000000000,"state":"active","ping":85},{"user_id":571,"name":"∆ê’å—¥∆≥","steam_id":76561198099470277,"connected_time":123000000000,"state":"active","ping":90}]},{"server_id":14,"name":"Uncletopia | New York City | 2 | All Maps","name_short":"nyc-2","host":"nyc-1.us.uncletopia.com","port":27025,"enabled":true,"region":"us-east","cc":"us","latitude":40.73061,"longitude":-73.93524,"reserved":0,"last_update":"0001-01-01T00:00:00Z","name_a2s":"Uncletopia | New York City | 2 | All Maps","protocol":17,"map":"pl_pier","folder":"tf","game":"Team Fortress","app_id":440,"player_count":17,"max_players":24,"Bots":0,"server_type":"Dedicated","server_os":"Linux","password":true,"vac":true,"version":"7757534","steam_id":85568392924469994,"keywords":["nocrits","nodmgspread","payload","uncletopia"],"game_id":440,"stv_port":27026,"stv_name":"Uncletopia | New York City | 2 | All Maps | STV","players":[{"user_id":881,"name":"Fusion","steam_id":76561199161175949,"connected_time":203000000000,"state":"active","ping":73},{"user_id":724,"name":"Á≤æÊ∂≤Blev BlevÁ≤æÊ∂≤","steam_id":76561198208972565,"connected_time":12581000000000,"state":"active","ping":77},{"user_id":886,"name":"Pasta","steam_id":76561198170042173,"connected_time":121000000000,"state":"active","ping":107},{"user_id":885,"name":"Junkan","steam_id":76561198127676420,"connected_time":141000000000,"state":"active","ping":60},{"user_id":856,"name":"Jin","steam_id":76561198119873148,"connected_time":2433000000000,"state":"active","ping":84},{"user_id":889,"name":"sky_guy","steam_id":76561198058668342,"connected_time":63000000000,"state":"active","ping":49},{"user_id":880,"name":"Bj√∂rk","steam_id":76561197972682826,"connected_time":268000000000,"state":"active","ping":55},{"user_id":890,"name":"Femtofarad","steam_id":76561198308583053,"connected_time":28000000000,"state":"spawning","ping":48},{"user_id":858,"name":"Sabaman55","steam_id":76561198212267979,"connected_time":2263000000000,"state":"active","ping":57},{"user_id":807,"name":"Heropon","steam_id":76561198105224481,"connected_time":6014000000000,"state":"active","ping":67},{"user_id":882,"name":"Funee","steam_id":76561198041048289,"connected_time":184000000000,"state":"active","ping":45},{"user_id":878,"name":"Ak","steam_id":76561199333659458,"connected_time":603000000000,"state":"active","ping":64},{"user_id":871,"name":"peace dog","steam_id":76561198267988522,"connected_time":1623000000000,"state":"active","ping":58},{"user_id":801,"name":"coc barbarian","steam_id":76561199115908170,"connected_time":6989000000000,"state":"active","ping":76},{"user_id":883,"name":"ECCO","steam_id":76561198002821513,"connected_time":179000000000,"state":"active","ping":69},{"user_id":718,"name":"unsafequeen","steam_id":76561199088126900,"connected_time":12903000000000,"state":"active","ping":91}]},{"server_id":15,"name":"Uncletopia | New York City | 3 | Stopwatch Beta","name_short":"nyc-3","host":"nyc-1.us.uncletopia.com","port":27035,"enabled":true,"region":"us-east","cc":"us","latitude":40.73061,"longitude":-73.93524,"reserved":0,"last_update":"0001-01-01T00:00:00Z","name_a2s":"Uncletopia | New York City | 3 | Stopwatch Beta","protocol":17,"map":"cp_sunshine","folder":"tf","game":"Team Fortress","app_id":440,"player_count":21,"max_players":24,"Bots":0,"server_type":"Dedicated","server_os":"Linux","password":true,"vac":true,"version":"7757534","steam_id":85568392924742820,"keywords":["cp","nocrits","nodmgspread","uncletopia"],"game_id":440,"stv_port":27036,"stv_name":"Uncletopia | New York City | 3 | Stopwatch Beta | STV","players":[{"user_id":237,"name":"sonikku","steam_id":76561198409299137,"connected_time":1281000000000,"state":"active","ping":60},{"user_id":224,"name":"Murdoll","steam_id":76561198347654596,"connected_time":1743000000000,"state":"active","ping":64},{"user_id":266,"name":"nerb","steam_id":76561198038080028,"connected_time":166000000000,"state":"active","ping":65},{"user_id":261,"name":"Lorenzo","steam_id":76561198857749738,"connected_time":510000000000,"state":"active","ping":78},{"user_id":248,"name":"Hugal","steam_id":76561198026864436,"connected_time":1062000000000,"state":"active","ping":143},{"user_id":254,"name":"Mike","steam_id":76561198317064997,"connected_time":869000000000,"state":"active","ping":60},{"user_id":249,"name":"Dancing Blossom","steam_id":76561198095073635,"connected_time":1053000000000,"state":"active","ping":158},{"user_id":244,"name":"Who Am I?","steam_id":76561198098141967,"connected_time":1165000000000,"state":"active","ping":126},{"user_id":255,"name":"Ceiling Man","steam_id":76561198003959902,"connected_time":848000000000,"state":"active","ping":40},{"user_id":241,"name":"InsertNameHere","steam_id":76561199237340935,"connected_time":1196000000000,"state":"active","ping":114},{"user_id":223,"name":"Big Chungus","steam_id":76561197976104604,"connected_time":1831000000000,"state":"active","ping":90},{"user_id":236,"name":"·ïï(‚åê‚ñ†_‚ñ†)·ïó ‚ô™‚ô¨","steam_id":76561197965022076,"connected_time":1336000000000,"state":"active","ping":45},{"user_id":257,"name":"Aristotle Voulton","steam_id":76561198100174923,"connected_time":682000000000,"state":"active","ping":84},{"user_id":220,"name":"Prof. Oli","steam_id":76561198980241587,"connected_time":1891000000000,"state":"active","ping":55},{"user_id":208,"name":"Positive0","steam_id":76561198035780181,"connected_time":2576000000000,"state":"active","ping":96},{"user_id":260,"name":"PJL725","steam_id":76561198241220274,"connected_time":581000000000,"state":"active","ping":66},{"user_id":262,"name":"Maxley","steam_id":76561198148602225,"connected_time":476000000000,"state":"active","ping":81},{"user_id":207,"name":"professional swag haver","steam_id":76561198143132686,"connected_time":2668000000000,"state":"active","ping":105},{"user_id":247,"name":"Loleo","steam_id":76561198348132374,"connected_time":1133000000000,"state":"active","ping":103},{"user_id":253,"name":"Joakt","steam_id":76561199171401911,"connected_time":898000000000,"state":"active","ping":67},{"user_id":202,"name":"wolfgrey139","steam_id":76561199206554751,"connected_time":3312000000000,"state":"active","ping":59}]},{"server_id":16,"name":"Uncletopia | New York City | 4 | Community","name_short":"nyc-4","host":"nyc-1.us.uncletopia.com","port":27045,"enabled":true,"region":"us-east","cc":"us","latitude":40.73061,"longitude":-73.93524,"reserved":0,"last_update":"0001-01-01T00:00:00Z","name_a2s":"Uncletopia | New York City | 4 | Community","protocol":17,"map":"workshop/cp_glassworks_rc6a.ugc454118349","folder":"tf","game":"Team Fortress","app_id":440,"player_count":24,"max_players":24,"Bots":0,"server_type":"Dedicated","server_os":"Linux","password":true,"vac":true,"version":"7757534","steam_id":85568392924742821,"keywords":["cp","nocrits","nodmgspread","uncletopia"],"game_id":440,"stv_port":27046,"stv_name":"Uncletopia | New York City | 4 | Community | STV","players":[{"user_id":383,"name":"BowlzingShoes","steam_id":76561199127110073,"connected_time":561000000000,"state":"active","ping":81},{"user_id":384,"name":"gorf?","steam_id":76561198142286417,"connected_time":535000000000,"state":"active","ping":73},{"user_id":385,"name":"picnic blanket","steam_id":76561198308186037,"connected_time":510000000000,"state":"active","ping":67},{"user_id":394,"name":"Zetelica","steam_id":76561199005527389,"connected_time":158000000000,"state":"active","ping":134},{"user_id":387,"name":"mmrabet","steam_id":76561198073032124,"connected_time":309000000000,"state":"active","ping":64},{"user_id":332,"name":"Super D Duper","steam_id":76561198078203677,"connected_time":2842000000000,"state":"active","ping":51},{"user_id":357,"name":"Sgt. Satire","steam_id":76561198104193483,"connected_time":1779000000000,"state":"active","ping":126},{"user_id":335,"name":"Professor Piper","steam_id":76561198156041205,"connected_time":2810000000000,"state":"active","ping":56},{"user_id":352,"name":"xiphoidar","steam_id":76561198146044049,"connected_time":1927000000000,"state":"active","ping":60},{"user_id":388,"name":"Patch","steam_id":76561198144241582,"connected_time":284000000000,"state":"active","ping":66},{"user_id":397,"name":"ldshwt","steam_id":76561198090364357,"connected_time":82000000000,"state":"active","ping":122},{"user_id":354,"name":"epicgameslauncherplaer878","steam_id":76561198360279519,"connected_time":1876000000000,"state":"active","ping":194},{"user_id":399,"name":"Packet [ :P","steam_id":76561197963257621,"connected_time":13000000000,"state":"spawning","ping":147},{"user_id":395,"name":"Poison Duck","steam_id":76561198103155890,"connected_time":154000000000,"state":"active","ping":79},{"user_id":368,"name":"*Gage*","steam_id":76561197975233869,"connected_time":1410000000000,"state":"active","ping":96},{"user_id":391,"name":"lionel messi","steam_id":76561198138455706,"connected_time":256000000000,"state":"active","ping":91},{"user_id":392,"name":"Doctor no.","steam_id":76561198109624821,"connected_time":221000000000,"state":"active","ping":83},{"user_id":350,"name":"TotalDarkness","steam_id":76561198358350005,"connected_time":2119000000000,"state":"active","ping":102},{"user_id":393,"name":"Fork","steam_id":76561198166054521,"connected_time":217000000000,"state":"active","ping":84},{"user_id":376,"name":"Bee","steam_id":76561198074681324,"connected_time":1271000000000,"state":"active","ping":45},{"user_id":359,"name":"Chin","steam_id":76561198247426906,"connected_time":1748000000000,"state":"active","ping":63},{"user_id":396,"name":"Asanez3","steam_id":76561198037381436,"connected_time":119000000000,"state":"active","ping":55},{"user_id":398,"name":"ainzle!","steam_id":76561199374714397,"connected_time":70000000000,"state":"active","ping":95},{"user_id":374,"name":"drA G gagonite","steam_id":76561198151407214,"connected_time":1332000000000,"state":"active","ping":80}]},{"server_id":142,"name":"Uncletopia | S√£o Paulo | 1 | All Maps","name_short":"sao-1","host":"sao-1.br.uncletopia.com","port":27015,"enabled":true,"region":"sa","cc":"br","latitude":-23.533773,"longitude":-46.62529,"reserved":0,"last_update":"0001-01-01T00:00:00Z","name_a2s":"Uncletopia | S√£o Paulo | 1 | All Maps","protocol":17,"map":"cp_sunshine","folder":"tf","game":"Team Fortress","app_id":440,"player_count":0,"max_players":24,"Bots":0,"server_type":"Dedicated","server_os":"Linux","password":true,"vac":true,"version":"7757534","steam_id":85568392924469996,"keywords":["cp","nocrits","nodmgspread","uncletopia"],"game_id":440,"stv_port":27016,"stv_name":"Uncletopia | S√£o Paulo | 1 | All Maps | STV","players":null},{"server_id":143,"name":"Uncletopia | S√£o Paulo | 2 | All Maps","name_short":"sao-2","host":"sao-2.br.uncletopia.com","port":27015,"enabled":true,"region":"sa","cc":"br","latitude":-23.533773,"longitude":-46.62529,"reserved":0,"last_update":"0001-01-01T00:00:00Z","name_a2s":"Uncletopia | S√£o Paulo | 2 | All Maps","protocol":17,"map":"koth_highpass","folder":"tf","game":"Team Fortress","app_id":440,"player_count":0,"max_players":24,"Bots":0,"server_type":"Dedicated","server_os":"Linux","password":true,"vac":true,"version":"7757534","steam_id":85568392924485349,"keywords":["cp","nocrits","nodmgspread","uncletopia"],"game_id":440,"stv_port":27016,"stv_name":"Uncletopia | S√£o Paulo | 2 | All Maps | STV","players":null},{"server_id":7,"name":"Uncletopia | Seattle | 1 | All Maps","name_short":"sea-1","host":"sea-1.us.uncletopia.com","port":27015,"enabled":true,"region":"us-west","cc":"us","latitude":47.608013,"longitude":-122.33517,"reserved":0,"last_update":"0001-01-01T00:00:00Z","name_a2s":"Uncletopia | Seattle | 1 | All Maps","protocol":17,"map":"cp_mercenarypark","folder":"tf","game":"Team Fortress","app_id":440,"player_count":24,"max_players":24,"Bots":0,"server_type":"Dedicated","server_os":"Linux","password":true,"vac":true,"version":"7757534","steam_id":85568392924469997,"keywords":["cp","nocrits","nodmgspread","uncletopia"],"game_id":440,"stv_port":27016,"stv_name":"Uncletopia | Seattle | 1 | All Maps | STV","players":[{"user_id":518,"name":"gummygeek","steam_id":76561198244543486,"connected_time":4683000000000,"state":"active","ping":63},{"user_id":542,"name":"lili ezili","steam_id":76561199391478575,"connected_time":2679000000000,"state":"active","ping":71},{"user_id":575,"name":"TROY","steam_id":76561197983852176,"connected_time":231000000000,"state":"active","ping":63},{"user_id":561,"name":"Reb","steam_id":76561198144756713,"connected_time":1039000000000,"state":"active","ping":73},{"user_id":530,"name":"purple‚Ñ¢ | they/she","steam_id":76561198057459725,"connected_time":3673000000000,"state":"active","ping":61},{"user_id":570,"name":"BLU3","steam_id":76561198059652670,"connected_time":903000000000,"state":"active","ping":46},{"user_id":553,"name":"wet animal","steam_id":76561198041983633,"connected_time":2190000000000,"state":"active","ping":51},{"user_id":463,"name":"viciousbeatmaker","steam_id":76561198086876652,"connected_time":9016000000000,"state":"active","ping":102},{"user_id":578,"name":"Saikyo","steam_id":76561198212461467,"connected_time":21000000000,"state":"active","ping":181},{"user_id":571,"name":"‚ô•haunti","steam_id":76561199235580556,"connected_time":698000000000,"state":"active","ping":45},{"user_id":567,"name":"resting neutral face","steam_id":76561197999259502,"connected_time":924000000000,"state":"active","ping":60},{"user_id":547,"name":"gnoblin","steam_id":76561198314221897,"connected_time":2308000000000,"state":"active","ping":52},{"user_id":556,"name":"ORANGE","steam_id":76561198000401769,"connected_time":1724000000000,"state":"active","ping":45},{"user_id":558,"name":"soda","steam_id":76561198105924953,"connected_time":1390000000000,"state":"active","ping":77},{"user_id":576,"name":"THE_DARK_TRICKSTER","steam_id":76561198870649125,"connected_time":53000000000,"state":"active","ping":89},{"user_id":565,"name":"Oh No! It's Twister!","steam_id":76561198016791916,"connected_time":1002000000000,"state":"active","ping":84},{"user_id":447,"name":"rat gets the cheese","steam_id":76561198031234032,"connected_time":10857000000000,"state":"active","ping":99},{"user_id":560,"name":"Cam(era)","steam_id":76561198285054047,"connected_time":1041000000000,"state":"active","ping":81},{"user_id":557,"name":"HaphazardHazel","steam_id":76561198316812693,"connected_time":1638000000000,"state":"active","ping":134},{"user_id":566,"name":"O Dog","steam_id":76561198133498912,"connected_time":953000000000,"state":"active","ping":77},{"user_id":532,"name":"Coyote","steam_id":76561198428625600,"connected_time":3552000000000,"state":"active","ping":77},{"user_id":573,"name":"exephur","steam_id":76561198135763234,"connected_time":306000000000,"state":"active","ping":67},{"user_id":545,"name":"makeshift_burrito","steam_id":76561198042510825,"connected_time":2644000000000,"state":"active","ping":70},{"user_id":559,"name":"camp3r","steam_id":76561197992870439,"connected_time":1367000000000,"state":"active","ping":33}]},{"server_id":119,"name":"Uncletopia | Seattle | 2 | All Maps","name_short":"sea-2","host":"sea-1.us.uncletopia.com","port":27025,"enabled":true,"region":"us-west","cc":"us","latitude":47.608013,"longitude":-122.33517,"reserved":0,"last_update":"0001-01-01T00:00:00Z","name_a2s":"Uncletopia | Seattle | 2 | All Maps","protocol":17,"map":"cp_dustbowl","folder":"tf","game":"Team Fortress","app_id":440,"player_count":24,"max_players":24,"Bots":0,"server_type":"Dedicated","server_os":"Linux","password":true,"vac":true,"version":"7757534","steam_id":85568392924469998,"keywords":["cp","nocrits","nodmgspread","uncletopia"],"game_id":440,"stv_port":27026,"stv_name":"Uncletopia | Seattle | 2 | All Maps | STV","players":[{"user_id":648,"name":"MyMonkeyBaby","steam_id":76561198046896670,"connected_time":1716000000000,"state":"active","ping":59},{"user_id":656,"name":"The_Skull_boy","steam_id":76561198227692664,"connected_time":964000000000,"state":"active","ping":99},{"user_id":605,"name":"Resident Thrussy Lender","steam_id":76561198071790583,"connected_time":4260000000000,"state":"active","ping":101},{"user_id":667,"name":"Kandalf","steam_id":76561198414842616,"connected_time":745000000000,"state":"active","ping":67},{"user_id":672,"name":"gloobern","steam_id":76561198341190679,"connected_time":569000000000,"state":"active","ping":65},{"user_id":642,"name":"Fedoras are awesome","steam_id":76561198040418719,"connected_time":2371000000000,"state":"active","ping":92},{"user_id":659,"name":"aoka","steam_id":76561198838294547,"connected_time":841000000000,"state":"active","ping":57},{"user_id":650,"name":"Mister Fister","steam_id":76561199059653595,"connected_time":1411000000000,"state":"active","ping":52},{"user_id":590,"name":"the forbidden one","steam_id":76561198844273999,"connected_time":5018000000000,"state":"active","ping":45},{"user_id":604,"name":"joe rippa","steam_id":76561198170402666,"connected_time":4447000000000,"state":"active","ping":68},{"user_id":660,"name":"dep","steam_id":76561198044106812,"connected_time":838000000000,"state":"active","ping":110},{"user_id":653,"name":"Shopkeeper","steam_id":76561198105888756,"connected_time":1062000000000,"state":"active","ping":62},{"user_id":661,"name":"Wheaties","steam_id":76561198060909578,"connected_time":825000000000,"state":"active","ping":60},{"user_id":676,"name":"Rude Dog","steam_id":76561197980385816,"connected_time":333000000000,"state":"active","ping":55},{"user_id":662,"name":"NovaScotianDuckRetriever","steam_id":76561198061867269,"connected_time":823000000000,"state":"active","ping":39},{"user_id":675,"name":"KentYardAssociate","steam_id":76561198290499758,"connected_time":481000000000,"state":"active","ping":140},{"user_id":664,"name":"Moychel","steam_id":76561198135551500,"connected_time":783000000000,"state":"active","ping":91},{"user_id":637,"name":"Cheese Fiend","steam_id":76561198053602591,"connected_time":2777000000000,"state":"active","ping":102},{"user_id":677,"name":"Snippykeegan","steam_id":76561198274529343,"connected_time":82000000000,"state":"spawning","ping":116},{"user_id":669,"name":"cornshot","steam_id":76561198043496387,"connected_time":738000000000,"state":"active","ping":68},{"user_id":632,"name":"Wizahd","steam_id":76561198025225644,"connected_time":2968000000000,"state":"active","ping":56},{"user_id":671,"name":"hart","steam_id":76561198046073848,"connected_time":706000000000,"state":"active","ping":46},{"user_id":621,"name":"YahYeeterson","steam_id":76561198120480906,"connected_time":3567000000000,"state":"active","ping":70},{"user_id":622,"name":"Mom","steam_id":76561198207936000,"connected_time":3563000000000,"state":"active","ping":60}]},{"server_id":406,"name":"Uncletopia | Seattle | 3 | Stopwatch Beta","name_short":"sea-3","host":"sea-1.us.uncletopia.com","port":27035,"enabled":true,"region":"us-west","cc":"us","latitude":47.608013,"longitude":-122.33517,"reserved":0,"last_update":"0001-01-01T00:00:00Z","name_a2s":"Uncletopia | Seattle | 3 | Stopwatch Beta","protocol":17,"map":"workshop/pl_badwater_pro_v12.ugc2142942074","folder":"tf","game":"Team Fortress","app_id":440,"player_count":0,"max_players":24,"Bots":0,"server_type":"Dedicated","server_os":"Linux","password":true,"vac":true,"version":"7757534","steam_id":85568392924515217,"keywords":["nocrits","nodmgspread","payload","uncletopia"],"game_id":440,"stv_port":27036,"stv_name":"Uncletopia | Seattle | 3 | Stopwatch Beta | STV","players":null},{"server_id":17,"name":"Uncletopia | San Francisco | 1 | All Maps","name_short":"sfo-1","host":"sfo-1.us.uncletopia.com","port":27015,"enabled":true,"region":"us-west","cc":"us","latitude":37.77397,"longitude":-122.4313,"reserved":0,"last_update":"0001-01-01T00:00:00Z","name_a2s":"Uncletopia | San Francisco | 1 | All Maps","protocol":17,"map":"pl_barnblitz","folder":"tf","game":"Team Fortress","app_id":440,"player_count":22,"max_players":24,"Bots":0,"server_type":"Dedicated","server_os":"Linux","password":true,"vac":true,"version":"7757534","steam_id":85568392924469999,"keywords":["nocrits","nodmgspread","payload","uncletopia"],"game_id":440,"stv_port":27016,"stv_name":"Uncletopia | San Francisco | 1 | All Maps | STV","players":[{"user_id":269,"name":"chiri","steam_id":76561198052373634,"connected_time":1216000000000,"state":"active","ping":79},{"user_id":238,"name":"MegumiTame","steam_id":76561198450280686,"connected_time":4541000000000,"state":"active","ping":70},{"user_id":276,"name":"URL_p","steam_id":76561198133873203,"connected_time":1022000000000,"state":"active","ping":103},{"user_id":270,"name":"wamuu","steam_id":76561198303508324,"connected_time":1187000000000,"state":"active","ping":102},{"user_id":264,"name":"Spaceman","steam_id":76561198349305249,"connected_time":1763000000000,"state":"active","ping":72},{"user_id":279,"name":"Webs","steam_id":76561198041705007,"connected_time":41000000000,"state":"spawning","ping":164},{"user_id":265,"name":"ForAPessimistImPrettyOptimistic","steam_id":76561198170128009,"connected_time":1467000000000,"state":"active","ping":57},{"user_id":280,"name":"Apoc","steam_id":76561198376855927,"connected_time":10000000000,"state":"spawning","ping":74},{"user_id":259,"name":"Robot Gorilla","steam_id":76561198085033336,"connected_time":1990000000000,"state":"active","ping":35},{"user_id":232,"name":"TheCrimsonAssassin","steam_id":76561198281332259,"connected_time":4905000000000,"state":"active","ping":121},{"user_id":246,"name":"Yume","steam_id":76561198018060136,"connected_time":3500000000000,"state":"active","ping":99},{"user_id":261,"name":"p4lly","steam_id":76561198078400787,"connected_time":1934000000000,"state":"active","ping":119},{"user_id":251,"name":"bottom pride burger","steam_id":76561198322247602,"connected_time":2916000000000,"state":"active","ping":57},{"user_id":242,"name":"Saturn","steam_id":76561198109064967,"connected_time":4304000000000,"state":"active","ping":87},{"user_id":257,"name":"Amogous Supreme","steam_id":76561198025476774,"connected_time":2463000000000,"state":"active","ping":55},{"user_id":248,"name":"Shadow_e","steam_id":76561199466053424,"connected_time":3421000000000,"state":"active","ping":64},{"user_id":277,"name":"Stapler","steam_id":76561198099295077,"connected_time":727000000000,"state":"active","ping":47},{"user_id":272,"name":"Puskinti","steam_id":76561198032120688,"connected_time":1173000000000,"state":"active","ping":76},{"user_id":278,"name":"Project_Counter","steam_id":76561198152786076,"connected_time":611000000000,"state":"active","ping":89},{"user_id":273,"name":"walterslittlekitten2014","steam_id":76561198127211709,"connected_time":1171000000000,"state":"active","ping":112},{"user_id":275,"name":"the private","steam_id":76561198232500756,"connected_time":1106000000000,"state":"active","ping":92},{"user_id":236,"name":"Just a Good Friend","steam_id":76561198140052403,"connected_time":4656000000000,"state":"active","ping":38}]},{"server_id":18,"name":"Uncletopia | San Francisco | 2 | All Maps","name_short":"sfo-2","host":"sfo-1.us.uncletopia.com","port":27025,"enabled":true,"region":"us-west","cc":"us","latitude":37.77397,"longitude":-122.4313,"reserved":0,"last_update":"0001-01-01T00:00:00Z","name_a2s":"Uncletopia | San Francisco | 2 | All Maps","protocol":17,"map":"pl_pier","folder":"tf","game":"Team Fortress","app_id":440,"player_count":24,"max_players":24,"Bots":0,"server_type":"Dedicated","server_os":"Linux","password":true,"vac":true,"version":"7757534","steam_id":85568392924470000,"keywords":["nocrits","nodmgspread","payload","uncletopia"],"game_id":440,"stv_port":27026,"stv_name":"Uncletopia | San Francisco | 2 | All Maps | STV","players":[{"user_id":375,"name":"[DATS‚û°] Sugar Meowth","steam_id":76561197995251793,"connected_time":2079000000000,"state":"active","ping":62},{"user_id":398,"name":"Dongus","steam_id":76561197979056451,"connected_time":710000000000,"state":"active","ping":66},{"user_id":401,"name":"Thexx ‚ù§","steam_id":76561198113823050,"connected_time":536000000000,"state":"active","ping":89},{"user_id":399,"name":"PikeTree","steam_id":76561199252528662,"connected_time":703000000000,"state":"active","ping":97},{"user_id":397,"name":"Bastee1021","steam_id":76561199456141163,"connected_time":780000000000,"state":"active","ping":82},{"user_id":388,"name":"bobbymcbobington","steam_id":76561199089411172,"connected_time":1365000000000,"state":"active","ping":158},{"user_id":360,"name":"PROTOX","steam_id":76561199390197396,"connected_time":2609000000000,"state":"active","ping":76},{"user_id":402,"name":"Major_Pippy","steam_id":76561198004482878,"connected_time":123000000000,"state":"active","ping":60},{"user_id":404,"name":"AMATIC","steam_id":76561198016877316,"connected_time":87000000000,"state":"active","ping":60},{"user_id":405,"name":"Jerry","steam_id":76561198847369985,"connected_time":40000000000,"state":"spawning","ping":90},{"user_id":400,"name":"O_x","steam_id":76561198289696924,"connected_time":690000000000,"state":"active","ping":45},{"user_id":403,"name":"Walrus King","steam_id":76561199112727345,"connected_time":115000000000,"state":"active","ping":51},{"user_id":377,"name":"big fish","steam_id":76561198186479818,"connected_time":1995000000000,"state":"active","ping":75},{"user_id":393,"name":"A Shiny Meat Bicycle","steam_id":76561198358757709,"connected_time":1222000000000,"state":"active","ping":132},{"user_id":406,"name":"kentuckyfriedsocks","steam_id":76561198311122883,"connected_time":28000000000,"state":"active","ping":118},{"user_id":313,"name":"t","steam_id":76561198175988929,"connected_time":6016000000000,"state":"active","ping":71},{"user_id":354,"name":"Stewartsaurus","steam_id":76561198173175137,"connected_time":3351000000000,"state":"active","ping":77},{"user_id":367,"name":"BBL Sponsor","steam_id":76561199093733603,"connected_time":2395000000000,"state":"active","ping":60},{"user_id":376,"name":"booger","steam_id":76561198333832807,"connected_time":2074000000000,"state":"active","ping":102},{"user_id":336,"name":"Kaluka","steam_id":76561198036861445,"connected_time":5060000000000,"state":"active","ping":107},{"user_id":385,"name":"MantisToboggan","steam_id":76561197969447887,"connected_time":1611000000000,"state":"active","ping":90},{"user_id":369,"name":"BreadQuest","steam_id":76561198082425960,"connected_time":2368000000000,"state":"active","ping":62},{"user_id":391,"name":"DOUBLE XP WEEKEND","steam_id":76561198078626283,"connected_time":1316000000000,"state":"active","ping":60},{"user_id":379,"name":"Geight","steam_id":76561197991645292,"connected_time":1809000000000,"state":"active","ping":80}]},{"server_id":19,"name":"Uncletopia | San Francisco | 3 | Stopwatch Beta","name_short":"sfo-3","host":"sfo-1.us.uncletopia.com","port":27035,"enabled":true,"region":"us-west","cc":"us","latitude":37.77397,"longitude":-122.4313,"reserved":0,"last_update":"0001-01-01T00:00:00Z","name_a2s":"Uncletopia | San Francisco | 3 | Stopwatch Beta","protocol":17,"map":"cp_sunshine","folder":"tf","game":"Team Fortress","app_id":440,"player_count":8,"max_players":24,"Bots":0,"server_type":"Dedicated","server_os":"Linux","password":true,"vac":true,"version":"7757534","steam_id":85568392924742824,"keywords":["cp","nocrits","nodmgspread","uncletopia"],"game_id":440,"stv_port":27036,"stv_name":"Uncletopia | San Francisco | 3 | Stopwatch Beta | STV","players":[{"user_id":183,"name":"2008 toyota corolla","steam_id":76561198162688146,"connected_time":2578000000000,"state":"active","ping":58},{"user_id":198,"name":"Oats'N'Scrotes","steam_id":76561199477175179,"connected_time":234000000000,"state":"active","ping":80},{"user_id":199,"name":"Xylaite ÓÄî","steam_id":76561198210402325,"connected_time":165000000000,"state":"active","ping":60},{"user_id":185,"name":"SODA!!!!!!!!","steam_id":76561198837570484,"connected_time":2526000000000,"state":"active","ping":55},{"user_id":200,"name":"John Wick's puppy","steam_id":76561198064662875,"connected_time":153000000000,"state":"active","ping":49},{"user_id":173,"name":"Buswolley","steam_id":76561197995205571,"connected_time":3481000000000,"state":"active","ping":55},{"user_id":182,"name":"hoOmIN","steam_id":76561198334947079,"connected_time":2748000000000,"state":"active","ping":45},{"user_id":188,"name":"sshrimpiee","steam_id":76561198258240744,"connected_time":2469000000000,"state":"active","ping":71}]},{"server_id":20,"name":"Uncletopia | San Francisco | 4 | Community","name_short":"sfo-4","host":"sfo-1.us.uncletopia.com","port":27045,"enabled":true,"region":"us-west","cc":"us","latitude":37.77397,"longitude":-122.4313,"reserved":0,"last_update":"0001-01-01T00:00:00Z","name_a2s":"Uncletopia | San Francisco | 4 | Community","protocol":17,"map":"workshop/cp_overgrown_rc7b.ugc503939302","folder":"tf","game":"Team Fortress","app_id":440,"player_count":3,"max_players":24,"Bots":0,"server_type":"Dedicated","server_os":"Linux","password":true,"vac":true,"version":"7757534","steam_id":85568392924742826,"keywords":["cp","nocrits","nodmgspread","uncletopia"],"game_id":440,"stv_port":27046,"stv_name":"Uncletopia | San Francisco | 4 | Community | STV","players":[{"user_id":155,"name":"John Coltrane","steam_id":76561198037789297,"connected_time":44000000000,"state":"spawning","ping":307},{"user_id":153,"name":"bobletoob","steam_id":76561199184464900,"connected_time":585000000000,"state":"active","ping":64},{"user_id":154,"name":"SilverDeath","steam_id":76561198379797326,"connected_time":461000000000,"state":"active","ping":59}]},{"server_id":141,"name":"Uncletopia | Sydney | 1 | All Maps","name_short":"syd-1","host":"syd-1.au.uncletopia.com","port":27015,"enabled":true,"region":"au","cc":"au","latitude":-33.865143,"longitude":151.2099,"reserved":0,"last_update":"0001-01-01T00:00:00Z","name_a2s":"Uncletopia | Sydney | 1 | All Maps","protocol":17,"map":"koth_cascade","folder":"tf","game":"Team Fortress","app_id":440,"player_count":24,"max_players":24,"Bots":0,"server_type":"Dedicated","server_os":"Linux","password":true,"vac":true,"version":"7757534","steam_id":85568392924470001,"keywords":["cp","nocrits","nodmgspread","uncletopia"],"game_id":440,"stv_port":27016,"stv_name":"Uncletopia | Sydney | 1 | All Maps | STV","players":[{"user_id":322,"name":"K√∂gar","steam_id":76561198215752965,"connected_time":3712000000000,"state":"active","ping":75},{"user_id":375,"name":"plr_jack","steam_id":76561199124321542,"connected_time":253000000000,"state":"active","ping":78},{"user_id":319,"name":"TwilightJericho","steam_id":76561198044875117,"connected_time":4099000000000,"state":"active","ping":61},{"user_id":349,"name":"itsjustmarvin77","steam_id":76561199375656301,"connected_time":1072000000000,"state":"active","ping":73},{"user_id":316,"name":"electro599","steam_id":76561198058148858,"connected_time":4175000000000,"state":"active","ping":52},{"user_id":294,"name":"Zoey","steam_id":76561198126153554,"connected_time":5768000000000,"state":"active","ping":76},{"user_id":335,"name":"nulwoyde","steam_id":76561198260357417,"connected_time":1988000000000,"state":"active","ping":52},{"user_id":326,"name":"neapolitan","steam_id":76561198154909553,"connected_time":3271000000000,"state":"active","ping":144},{"user_id":336,"name":"YeahJJ","steam_id":76561198838332365,"connected_time":1838000000000,"state":"active","ping":86},{"user_id":337,"name":"The_Green_Jelly","steam_id":76561198381061704,"connected_time":1807000000000,"state":"active","ping":88},{"user_id":339,"name":"droning fish","steam_id":76561198192891594,"connected_time":1620000000000,"state":"active","ping":41},{"user_id":340,"name":"dick detective","steam_id":76561198809859001,"connected_time":1617000000000,"state":"active","ping":46},{"user_id":341,"name":"SEN tteokbokki","steam_id":76561198245972000,"connected_time":1601000000000,"state":"active","ping":46},{"user_id":345,"name":"gun","steam_id":76561198121814345,"connected_time":1529000000000,"state":"active","ping":55},{"user_id":343,"name":"Layzer","steam_id":76561198991467547,"connected_time":1593000000000,"state":"active","ping":45},{"user_id":354,"name":"Patadam","steam_id":76561198143786902,"connected_time":796000000000,"state":"active","ping":64},{"user_id":309,"name":"Steve","steam_id":76561198047967434,"connected_time":5002000000000,"state":"active","ping":73},{"user_id":348,"name":"Poison_Kouki","steam_id":76561198150364859,"connected_time":1089000000000,"state":"active","ping":62},{"user_id":384,"name":"Lord Oink","steam_id":76561198125237921,"connected_time":114000000000,"state":"active","ping":39},{"user_id":389,"name":"Lincoln2603","steam_id":76561198170236666,"connected_time":0,"state":"spawning","ping":0},{"user_id":358,"name":"Fauntleroy","steam_id":76561198116935982,"connected_time":732000000000,"state":"active","ping":69},{"user_id":359,"name":"Sky","steam_id":76561198041979829,"connected_time":664000000000,"state":"active","ping":65},{"user_id":363,"name":"famous drama queen","steam_id":76561199371081414,"connected_time":555000000000,"state":"active","ping":72},{"user_id":383,"name":"Zort","steam_id":76561198056414289,"connected_time":141000000000,"state":"active","ping":66}]},{"server_id":123,"name":"Uncletopia | Sydney | 2 | All Maps","name_short":"syd-2","host":"syd-1.au.uncletopia.com","port":27025,"enabled":true,"region":"au","cc":"au","latitude":-33.865143,"longitude":151.2099,"reserved":0,"last_update":"0001-01-01T00:00:00Z","name_a2s":"Uncletopia | Sydney | 2 | All Maps","protocol":17,"map":"pl_upward","folder":"tf","game":"Team Fortress","app_id":440,"player_count":1,"max_players":24,"Bots":0,"server_type":"Dedicated","server_os":"Linux","password":true,"vac":true,"version":"7757534","steam_id":85568392924470002,"keywords":["nocrits","nodmgspread","payload","uncletopia"],"game_id":440,"stv_port":27026,"stv_name":"Uncletopia | Sydney | 2 | All Maps | STV","players":[{"user_id":18,"name":"Doc Choc","steam_id":76561198361892328,"connected_time":153000000000,"state":"active","ping":73}]},{"server_id":395,"name":"Uncletopia | Sydney | 3 | All Maps","name_short":"syd-3","host":"syd-1.au.uncletopia.com","port":27035,"enabled":true,"region":"au","cc":"au","latitude":-33.865143,"longitude":151.2099,"reserved":0,"last_update":"0001-01-01T00:00:00Z","name_a2s":"Uncletopia | Sydney | 3 | All Maps","protocol":17,"map":"pl_borneo","folder":"tf","game":"Team Fortress","app_id":440,"player_count":0,"max_players":24,"Bots":0,"server_type":"Dedicated","server_os":"Linux","password":true,"vac":true,"version":"7757534","steam_id":85568392925194467,"keywords":["nocrits","nodmgspread","payload","uncletopia"],"game_id":440,"stv_port":27036,"stv_name":"Uncletopia | Sydney | 3 | All Maps | STV","players":null},{"server_id":396,"name":"Uncletopia | Sydney | 4 | All Maps","name_short":"syd-4","host":"syd-1.au.uncletopia.com","port":27045,"enabled":true,"region":"au","cc":"au","latitude":-33.865143,"longitude":151.2099,"reserved":0,"last_update":"0001-01-01T00:00:00Z","name_a2s":"Uncletopia | Sydney | 4 | All Maps","protocol":17,"map":"koth_highpass","folder":"tf","game":"Team Fortress","app_id":440,"player_count":0,"max_players":24,"Bots":0,"server_type":"Dedicated","server_os":"Linux","password":true,"vac":true,"version":"7757534","steam_id":85568392925397958,"keywords":["cp","nocrits","nodmgspread","uncletopia"],"game_id":440,"stv_port":27046,"stv_name":"Uncletopia | Sydney | 4 | All Maps | STV","players":null},{"server_id":58,"name":"Uncletopia | Sydney | 5 | Stopwatch Beta","name_short":"syd-5","host":"syd-1.au.uncletopia.com","port":27055,"enabled":true,"region":"au","cc":"au","latitude":-33.865143,"longitude":151.2099,"reserved":0,"last_update":"0001-01-01T00:00:00Z","name_a2s":"Uncletopia | Sydney | 5 | Stopwatch Beta","protocol":17,"map":"workshop/cp_reckoner_rc6.ugc674719999","folder":"tf","game":"Team Fortress","app_id":440,"player_count":0,"max_players":24,"Bots":0,"server_type":"Dedicated","server_os":"Linux","password":true,"vac":true,"version":"7757534","steam_id":85568392925397959,"keywords":["cp","nocrits","nodmgspread","uncletopia"],"game_id":440,"stv_port":27056,"stv_name":"Uncletopia | Sydney | 5 | Stopwatch Beta | STV","players":null},{"server_id":59,"name":"Uncletopia | Sydney | 6 | Community","name_short":"syd-6","host":"syd-1.au.uncletopia.com","port":27065,"enabled":true,"region":"au","cc":"au","latitude":-33.865143,"longitude":151.2099,"reserved":0,"last_update":"0001-01-01T00:00:00Z","name_a2s":"Uncletopia | Sydney | 6 | Community","protocol":17,"map":"workshop/pl_emerge_rc2.ugc888027758","folder":"tf","game":"Team Fortress","app_id":440,"player_count":0,"max_players":24,"Bots":0,"server_type":"Dedicated","server_os":"Linux","password":true,"vac":true,"version":"7757534","steam_id":85568392925397960,"keywords":["nocrits","nodmgspread","payload","uncletopia"],"game_id":440,"stv_port":27066,"stv_name":"Uncletopia | Sydney | 6 | Community | STV","players":null},{"server_id":49,"name":"Uncletopia | Warsaw | 1 | All Maps","name_short":"waw-1","host":"waw-1.pl.uncletopia.com","port":27015,"enabled":true,"region":"eu","cc":"pl","latitude":52.2297,"longitude":21.017532,"reserved":0,"last_update":"0001-01-01T00:00:00Z","name_a2s":"","protocol":0,"map":"","folder":"","game":"","app_id":0,"player_count":0,"max_players":0,"Bots":0,"server_type":"","server_os":"","password":false,"vac":false,"version":"","steam_id":0,"keywords":null,"game_id":0,"stv_port":0,"stv_name":"","players":null},{"server_id":50,"name":"Uncletopia | Warsaw | 2 | All Maps","name_short":"waw-2","host":"waw-1.pl.uncletopia.com","port":27025,"enabled":true,"region":"eu","cc":"pl","latitude":52.2297,"longitude":21.017532,"reserved":0,"last_update":"0001-01-01T00:00:00Z","name_a2s":"Uncletopia | Warsaw | 2 | All Maps","protocol":17,"map":"koth_viaduct","folder":"tf","game":"Team Fortress","app_id":440,"player_count":0,"max_players":24,"Bots":0,"server_type":"Dedicated","server_os":"Linux","password":true,"vac":true,"version":"7757534","steam_id":85568392925397851,"keywords":["cp","nocrits","nodmgspread","uncletopia"],"game_id":440,"stv_port":27026,"stv_name":"Uncletopia | Warsaw | 2 | All Maps | STV","players":null},{"server_id":51,"name":"Uncletopia | Warsaw | 3 | All Maps","name_short":"waw-3","host":"waw-1.pl.uncletopia.com","port":27035,"enabled":true,"region":"eu","cc":"pl","latitude":52.2297,"longitude":21.017532,"reserved":0,"last_update":"0001-01-01T00:00:00Z","name_a2s":"Uncletopia | Warsaw | 3 | All Maps","protocol":17,"map":"pl_barnblitz","folder":"tf","game":"Team Fortress","app_id":440,"player_count":0,"max_players":24,"Bots":0,"server_type":"Dedicated","server_os":"Linux","password":true,"vac":true,"version":"7757534","steam_id":85568392925397852,"keywords":["nocrits","nodmgspread","payload","uncletopia"],"game_id":440,"stv_port":27036,"stv_name":"Uncletopia | Warsaw | 3 | All Maps | STV","players":null},{"server_id":52,"name":"Uncletopia | Warsaw | 4 | All Maps","name_short":"waw-4","host":"waw-1.pl.uncletopia.com","port":27045,"enabled":true,"region":"eu","cc":"pl","latitude":52.2297,"longitude":21.017532,"reserved":0,"last_update":"0001-01-01T00:00:00Z","name_a2s":"Uncletopia | Warsaw | 4 | All Maps","protocol":17,"map":"koth_lakeside_final","folder":"tf","game":"Team Fortress","app_id":440,"player_count":0,"max_players":24,"Bots":0,"server_type":"Dedicated","server_os":"Linux","password":true,"vac":true,"version":"7757534","steam_id":85568392925397853,"keywords":["cp","nocrits","nodmgspread","uncletopia"],"game_id":440,"stv_port":27046,"stv_name":"Uncletopia | Warsaw | 4 | All Maps | STV","players":null},{"server_id":53,"name":"Uncletopia | Warsaw | 5 | Stopwatch Beta","name_short":"waw-5","host":"waw-1.pl.uncletopia.com","port":27055,"enabled":true,"region":"eu","cc":"pl","latitude":52.2297,"longitude":21.017532,"reserved":0,"last_update":"0001-01-01T00:00:00Z","name_a2s":"Uncletopia | Warsaw | 5 | Stopwatch Beta","protocol":17,"map":"pl_borneo","folder":"tf","game":"Team Fortress","app_id":440,"player_count":0,"max_players":24,"Bots":0,"server_type":"Dedicated","server_os":"Linux","password":true,"vac":true,"version":"7757534","steam_id":85568392925397854,"keywords":["nocrits","nodmgspread","payload","uncletopia"],"game_id":440,"stv_port":27056,"stv_name":"Uncletopia | Warsaw | 5 | Stopwatch Beta | STV","players":null},{"server_id":54,"name":"Uncletopia | Warsaw | 6 | Community","name_short":"waw-6","host":"waw-1.pl.uncletopia.com","port":27065,"enabled":true,"region":"eu","cc":"pl","latitude":52.2297,"longitude":21.017532,"reserved":0,"last_update":"0001-01-01T00:00:00Z","name_a2s":"Uncletopia | Warsaw | 6 | Community","protocol":17,"map":"koth_lakeside_final","folder":"tf","game":"Team Fortress","app_id":440,"player_count":0,"max_players":24,"Bots":0,"server_type":"Dedicated","server_os":"Linux","password":true,"vac":true,"version":"7757534","steam_id":85568392925397856,"keywords":["cp","nocrits","nodmgspread","uncletopia"],"game_id":440,"stv_port":27066,"stv_name":"Uncletopia | Warsaw | 6 | Community | STV","players":null}]}