{"status":true,"message":"","result":[{"server_id":9,"name":"Uncletopia | Atlanta | 1 | All Maps","name_short":"atl-1","host":"atl-1.us.uncletopia.com","port":27015,"enabled":true,"region":"us-east","cc":"us","latitude":33.753746,"longitude":-84.38633,"reserved":0,"last_update":"0001-01-01T00:00:00Z","name_a2s":"Uncletopia | Atlanta | 1 | All Maps","protocol":17,"map":"cp_process_final","folder":"tf","game":"Team Fortress","app_id":440,"player_count":24,"max_players":24,"Bots":0,"server_type":"Dedicated","server_os":"Linux","password":true,"vac":true,"version":"7757534","steam_id":85568392924469982,"keywords":["cp","nocrits","nodmgspread","uncletopia"],"game_id":440,"stv_port":27016,"stv_name":"Uncletopia | Atlanta | 1 | All Maps | STV","players":[{"user_id":134,"name":"SCATTER","steam_id":76561198405168492,"connected_time":1740000000000,"state":"active","ping":94},{"user_id":102,"name":"Diesel","steam_id":76561198448815852,"connected_time":5207000000000,"state":"active","ping":109},{"user_id":137,"name":"melancholy","steam_id":76561198024301465,"connected_time":1268000000000,"state":"active","ping":42},{"user_id":152,"name":"JestinJester","steam_id":76561198411846094,"connected_time":136000000000,"state":"active","ping":70},{"user_id":109,"name":"ratie","steam_id":76561198059399661,"connected_time":3939000000000,"state":"active","ping":88},{"user_id":49,"name":"Bali","steam_id":76561198038693845,"connected_time":10422000000000,"state":"active","ping":79},{"user_id":126,"name":"üî•üêá","steam_id":76561198357456014,"connected_time":2815000000000,"state":"active","ping":99},{"user_id":136,"name":"ATL1 | Bandi","steam_id":76561198432036026,"connected_time":1285000000000,"state":"active","ping":46},{"user_id":153,"name":"rlty","steam_id":76561198009395055,"connected_time":35000000000,"state":"active","ping":65},{"user_id":149,"name":"pelt","steam_id":76561197993593754,"connected_time":590000000000,"state":"active","ping":60},{"user_id":145,"name":"Blitzy","steam_id":76561198149472890,"connected_time":682000000000,"state":"active","ping":117},{"user_id":28,"name":"That70sDog","steam_id":76561198119396142,"connected_time":11390000000000,"state":"active","ping":77},{"user_id":124,"name":"Insert_User_","steam_id":76561199229663997,"connected_time":2925000000000,"state":"active","ping":76},{"user_id":146,"name":"kodoku","steam_id":76561198077902438,"connected_time":680000000000,"state":"active","ping":58},{"user_id":116,"name":"Infinity","steam_id":76561199134919099,"connected_time":3541000000000,"state":"active","ping":79},{"user_id":138,"name":"goober","steam_id":76561199195104977,"connected_time":1265000000000,"state":"active","ping":61},{"user_id":103,"name":"ATL1 | on my hunting trip","steam_id":76561198315341646,"connected_time":5188000000000,"state":"active","ping":73},{"user_id":80,"name":"puffy","steam_id":76561198411347037,"connected_time":7736000000000,"state":"active","ping":64},{"user_id":147,"name":"cheeks","steam_id":76561197993371179,"connected_time":679000000000,"state":"active","ping":47},{"user_id":70,"name":"dairy","steam_id":76561198117033273,"connected_time":8497000000000,"state":"active","ping":138},{"user_id":148,"name":"DiscoTraveler","steam_id":76561199240168088,"connected_time":651000000000,"state":"active","ping":69},{"user_id":140,"name":"IPlayGamez","steam_id":76561198041387508,"connected_time":1241000000000,"state":"active","ping":53},{"user_id":151,"name":"why the wig?","steam_id":76561199084109885,"connected_time":474000000000,"state":"active","ping":59},{"user_id":141,"name":"Crime Grandma","steam_id":76561198035012018,"connected_time":1220000000000,"state":"active","ping":67}]},{"server_id":400,"name":"Uncletopia | Atlanta | 3 | Community","name_short":"atl-3","host":"atl-1.us.uncletopia.com","port":27035,"enabled":true,"region":"us-east","cc":"us","latitude":33.753746,"longitude":-84.38633,"reserved":0,"last_update":"0001-01-01T00:00:00Z","name_a2s":"Uncletopia | Atlanta | 3 | Community","protocol":17,"map":"workshop/cp_glacier_rc6.ugc2905735376","folder":"tf","game":"Team Fortress","app_id":440,"player_count":0,"max_players":24,"Bots":0,"server_type":"Dedicated","server_os":"Linux","password":true,"vac":true,"version":"7757534","steam_id":85568392924515187,"keywords":["cp","nocrits","nodmgspread","uncletopia"],"game_id":440,"stv_port":27036,"stv_name":"Uncletopia | Atlanta | 3 | Community | STV","players":null},{"server_id":401,"name":"Uncletopia | Atlanta | 4 | No Payload","name_short":"atl-4","host":"atl-1.us.uncletopia.com","port":27045,"enabled":true,"region":"us-east","cc":"us","latitude":33.753746,"longitude":-84.38633,"reserved":0,"last_update":"0001-01-01T00:00:00Z","name_a2s":"","protocol":0,"map":"","folder":"","game":"","app_id":0,"player_count":0,"max_players":0,"Bots":0,"server_type":"","server_os":"","password":false,"vac":false,"version":"","steam_id":0,"keywords":null,"game_id":0,"stv_port":0,"stv_name":"","players":null},{"server_id":2,"name":"Uncletopia | Chicago | 1 | All Maps","name_short":"chi-1","host":"chi-1.us.uncletopia.com","port":27015,"enabled":true,"region":"us-central","cc":"us","latitude":41.881832,"longitude":-87.62318,"reserved":0,"last_update":"0001-01-01T00:00:00Z","name_a2s":"Uncletopia | Chicago | 1 | All Maps","protocol":17,"map":"plr_hightower","folder":"tf","game":"Team Fortress","app_id":440,"player_count":24,"max_players":24,"Bots":0,"server_type":"Dedicated","server_os":"Linux","password":true,"vac":true,"version":"7757534","steam_id":85568392924469984,"keywords":["nocrits","nodmgspread","payload","uncletopia"],"game_id":440,"stv_port":27016,"stv_name":"Uncletopia | Chicago | 1 | All Maps | STV","players":[{"user_id":376,"name":"trans girl","steam_id":76561198106849547,"connected_time":3247000000000,"state":"active","ping":47},{"user_id":362,"name":"mel","steam_id":76561198215559840,"connected_time":4474000000000,"state":"active","ping":61},{"user_id":369,"name":"bepis","steam_id":76561199097866312,"connected_time":3592000000000,"state":"active","ping":118},{"user_id":415,"name":"snail","steam_id":76561198312155722,"connected_time":763000000000,"state":"active","ping":171},{"user_id":401,"name":"Ham Mann","steam_id":76561199104461744,"connected_time":1692000000000,"state":"active","ping":85},{"user_id":406,"name":"lost in spaaaaace","steam_id":76561199085974120,"connected_time":1437000000000,"state":"active","ping":72},{"user_id":414,"name":"rontu","steam_id":76561199072955534,"connected_time":803000000000,"state":"active","ping":46},{"user_id":427,"name":"Alpha Goose","steam_id":76561198038927852,"connected_time":20000000000,"state":"spawning","ping":50},{"user_id":416,"name":"Sloppy John (Extra Sauce)","steam_id":76561198359703432,"connected_time":670000000000,"state":"active","ping":91},{"user_id":387,"name":"chaos","steam_id":76561198055462404,"connected_time":2851000000000,"state":"active","ping":77},{"user_id":426,"name":"fudo myoo","steam_id":76561198456258164,"connected_time":45000000000,"state":"active","ping":73},{"user_id":386,"name":"Samus","steam_id":76561198121933439,"connected_time":2862000000000,"state":"active","ping":107},{"user_id":413,"name":"TeeTree","steam_id":76561198862307874,"connected_time":805000000000,"state":"active","ping":60},{"user_id":398,"name":"Hylic","steam_id":76561199051314589,"connected_time":1807000000000,"state":"active","ping":75},{"user_id":402,"name":"girlpeen supreme","steam_id":76561198031242903,"connected_time":1650000000000,"state":"active","ping":63},{"user_id":417,"name":"wokky bin laddn","steam_id":76561198265200834,"connected_time":661000000000,"state":"active","ping":75},{"user_id":408,"name":"Pourpel","steam_id":76561198059125470,"connected_time":1215000000000,"state":"active","ping":72},{"user_id":425,"name":"OneTrueCorvid","steam_id":76561199012953221,"connected_time":238000000000,"state":"active","ping":88},{"user_id":424,"name":"floppy muppet","steam_id":76561198003076261,"connected_time":317000000000,"state":"active","ping":77},{"user_id":391,"name":"Mr.YoYo","steam_id":76561198988717854,"connected_time":2802000000000,"state":"active","ping":72},{"user_id":407,"name":"the lesbianist pyroshark","steam_id":76561198374227766,"connected_time":1413000000000,"state":"active","ping":74},{"user_id":420,"name":"bur","steam_id":76561198004231658,"connected_time":575000000000,"state":"active","ping":54},{"user_id":421,"name":"thatguy_luigi","steam_id":76561198968055462,"connected_time":564000000000,"state":"active","ping":67},{"user_id":423,"name":"wall hax","steam_id":76561198069065342,"connected_time":483000000000,"state":"active","ping":84}]},{"server_id":106,"name":"Uncletopia | Chicago | 2 | All Maps","name_short":"chi-2","host":"chi-1.us.uncletopia.com","port":27025,"enabled":true,"region":"us-central","cc":"us","latitude":41.881832,"longitude":-87.62318,"reserved":0,"last_update":"0001-01-01T00:00:00Z","name_a2s":"Uncletopia | Chicago | 2 | All Maps","protocol":17,"map":"pl_pier","folder":"tf","game":"Team Fortress","app_id":440,"player_count":24,"max_players":24,"Bots":0,"server_type":"Dedicated","server_os":"Linux","password":true,"vac":true,"version":"7757534","steam_id":85568392924469985,"keywords":["nocrits","nodmgspread","payload","uncletopia"],"game_id":440,"stv_port":27026,"stv_name":"Uncletopia | Chicago | 2 | All Maps | STV","players":[{"user_id":207,"name":"Brown_Dream","steam_id":76561198975766145,"connected_time":3859000000000,"state":"active","ping":78},{"user_id":181,"name":"Stormz64","steam_id":76561198239036482,"connected_time":5234000000000,"state":"active","ping":56},{"user_id":117,"name":"Ajax","steam_id":76561197962240140,"connected_time":10279000000000,"state":"active","ping":70},{"user_id":238,"name":"StatesideSnake","steam_id":76561198272957048,"connected_time":1940000000000,"state":"active","ping":87},{"user_id":201,"name":"Soris","steam_id":76561198103635251,"connected_time":4169000000000,"state":"active","ping":69},{"user_id":242,"name":"Crisis","steam_id":76561198074315349,"connected_time":1699000000000,"state":"active","ping":46},{"user_id":232,"name":"Finchy22","steam_id":76561198063355600,"connected_time":2149000000000,"state":"active","ping":61},{"user_id":250,"name":"MancalaMadMan","steam_id":76561198347324053,"connected_time":859000000000,"state":"active","ping":118},{"user_id":244,"name":"StarCopper","steam_id":76561198024890295,"connected_time":1285000000000,"state":"active","ping":85},{"user_id":251,"name":"magotago","steam_id":76561198013650292,"connected_time":857000000000,"state":"active","ping":115},{"user_id":243,"name":"Daddys Home","steam_id":76561198034702011,"connected_time":1373000000000,"state":"active","ping":78},{"user_id":235,"name":"Spymemes","steam_id":76561198403552512,"connected_time":2086000000000,"state":"active","ping":65},{"user_id":209,"name":"alolan duntski","steam_id":76561198038826744,"connected_time":3469000000000,"state":"active","ping":50},{"user_id":252,"name":"--_Cook_--","steam_id":76561198080855748,"connected_time":334000000000,"state":"active","ping":47},{"user_id":234,"name":"Squash","steam_id":76561198376453255,"connected_time":2146000000000,"state":"active","ping":63},{"user_id":248,"name":"The Drunk Clown","steam_id":76561197986850426,"connected_time":896000000000,"state":"active","ping":73},{"user_id":212,"name":"Dispenser (Twan)","steam_id":76561197991064908,"connected_time":3147000000000,"state":"active","ping":62},{"user_id":196,"name":"pizza steve","steam_id":76561198811554257,"connected_time":4740000000000,"state":"active","ping":50},{"user_id":225,"name":"Petal","steam_id":76561199103766971,"connected_time":2638000000000,"state":"active","ping":64},{"user_id":204,"name":"CHARLIE","steam_id":76561199061380038,"connected_time":4084000000000,"state":"active","ping":160},{"user_id":247,"name":"Bear Who BLOWS!!!","steam_id":76561198063970639,"connected_time":1258000000000,"state":"active","ping":69},{"user_id":240,"name":"Dragus","steam_id":76561198032967285,"connected_time":1865000000000,"state":"active","ping":51},{"user_id":237,"name":"Hu Yuu Hai Ding","steam_id":76561198254210743,"connected_time":2082000000000,"state":"active","ping":146},{"user_id":148,"name":"Ringo x Seiran","steam_id":76561198357437908,"connected_time":7891000000000,"state":"active","ping":62}]},{"server_id":402,"name":"Uncletopia | Chicago | 3 | All Maps","name_short":"chi-3","host":"chi-1.us.uncletopia.com","port":27035,"enabled":true,"region":"us-central","cc":"us","latitude":41.881832,"longitude":-87.62318,"reserved":0,"last_update":"0001-01-01T00:00:00Z","name_a2s":"Uncletopia | Chicago | 3 | All Maps","protocol":17,"map":"pl_frontier_final","folder":"tf","game":"Team Fortress","app_id":440,"player_count":0,"max_players":24,"Bots":0,"server_type":"Dedicated","server_os":"Linux","password":true,"vac":true,"version":"7757534","steam_id":85568392924515191,"keywords":["nocrits","nodmgspread","payload","uncletopia"],"game_id":440,"stv_port":27036,"stv_name":"Uncletopia | Chicago | 3 | All Maps | STV","players":null},{"server_id":403,"name":"Uncletopia | Chicago | 4 | All Maps","name_short":"chi-4","host":"chi-1.us.uncletopia.com","port":27045,"enabled":true,"region":"us-central","cc":"us","latitude":41.881832,"longitude":-87.62318,"reserved":0,"last_update":"0001-01-01T00:00:00Z","name_a2s":"Uncletopia | Chicago | 4 | All Maps","protocol":17,"map":"koth_cascade","folder":"tf","game":"Team Fortress","app_id":440,"player_count":0,"max_players":24,"Bots":0,"server_type":"Dedicated","server_os":"Linux","password":true,"vac":true,"version":"7757534","steam_id":85568392924515193,"keywords":["cp","nocrits","nodmgspread","uncletopia"],"game_id":440,"stv_port":27046,"stv_name":"Uncletopia | Chicago | 4 | All Maps | STV","players":null},{"server_id":36,"name":"Uncletopia | Chicago | 5 | All Maps","name_short":"chi-5","host":"chi-2.us.uncletopia.com","port":27015,"enabled":true,"region":"us-central","cc":"us","latitude":41.881832,"longitude":-87.62318,"reserved":0,"last_update":"0001-01-01T00:00:00Z","name_a2s":"Uncletopia | Chicago | 5 | All Maps","protocol":17,"map":"pl_badwater","folder":"tf","game":"Team Fortress","app_id":440,"player_count":24,"max_players":24,"Bots":0,"server_type":"Dedicated","server_os":"Linux","password":true,"vac":true,"version":"7757534","steam_id":85568392924866362,"keywords":["nocrits","nodmgspread","payload","uncletopia"],"game_id":440,"stv_port":27016,"stv_name":"Uncletopia | Chicago | 5 | All Maps | STV","players":[{"user_id":91,"name":"Ragveida","steam_id":76561199156968587,"connected_time":826000000000,"state":"active","ping":53},{"user_id":93,"name":"Doubting Dave","steam_id":76561198066410749,"connected_time":685000000000,"state":"active","ping":84},{"user_id":75,"name":"Indigolake","steam_id":76561198202215807,"connected_time":1483000000000,"state":"active","ping":85},{"user_id":54,"name":"Flat Eric","steam_id":76561198114922735,"connected_time":2561000000000,"state":"active","ping":70},{"user_id":68,"name":"tasty","steam_id":76561198083839061,"connected_time":2085000000000,"state":"active","ping":65},{"user_id":96,"name":"Give Me Chicken","steam_id":76561199376462977,"connected_time":612000000000,"state":"active","ping":85},{"user_id":97,"name":"threethree","steam_id":76561198177354155,"connected_time":577000000000,"state":"active","ping":55},{"user_id":107,"name":"Training Arc","steam_id":76561198038832034,"connected_time":63000000000,"state":"active","ping":104},{"user_id":98,"name":"BasicPeaches","steam_id":76561198190890150,"connected_time":537000000000,"state":"active","ping":79},{"user_id":80,"name":"Error 4 Oh Four","steam_id":76561198121637567,"connected_time":1401000000000,"state":"active","ping":77},{"user_id":86,"name":"dP | I'm in a Wookie Suit","steam_id":76561198083307644,"connected_time":1159000000000,"state":"active","ping":101},{"user_id":106,"name":"Krysys","steam_id":76561198059740403,"connected_time":254000000000,"state":"active","ping":62},{"user_id":103,"name":"Enron Hubbard","steam_id":76561198012951411,"connected_time":414000000000,"state":"active","ping":55},{"user_id":63,"name":"Alexhcgar„ÉÖ","steam_id":76561198085706389,"connected_time":2495000000000,"state":"active","ping":113},{"user_id":73,"name":"joethefool","steam_id":76561199015436319,"connected_time":1857000000000,"state":"active","ping":217},{"user_id":78,"name":"Pretty Boy Swag","steam_id":76561198083463877,"connected_time":1458000000000,"state":"active","ping":56},{"user_id":100,"name":"battle clown","steam_id":76561198045788371,"connected_time":495000000000,"state":"active","ping":67},{"user_id":101,"name":"Try Gardening","steam_id":76561198120311340,"connected_time":476000000000,"state":"active","ping":51},{"user_id":33,"name":"Soda","steam_id":76561198219209367,"connected_time":3792000000000,"state":"active","ping":87},{"user_id":41,"name":"suckmycock47","steam_id":76561198063099828,"connected_time":3655000000000,"state":"active","ping":53},{"user_id":102,"name":"watchfull","steam_id":76561198433266742,"connected_time":435000000000,"state":"active","ping":103},{"user_id":104,"name":"chinese dark food technology","steam_id":76561198039909187,"connected_time":317000000000,"state":"active","ping":58},{"user_id":105,"name":"Wengatang","steam_id":76561198021747059,"connected_time":307000000000,"state":"active","ping":59},{"user_id":89,"name":"robo gushy","steam_id":76561198060334743,"connected_time":899000000000,"state":"active","ping":58}]},{"server_id":37,"name":"Uncletopia | Chicago | 6 | All Maps","name_short":"chi-6","host":"chi-2.us.uncletopia.com","port":27025,"enabled":true,"region":"us-central","cc":"us","latitude":41.881832,"longitude":-87.62318,"reserved":0,"last_update":"0001-01-01T00:00:00Z","name_a2s":"Uncletopia | Chicago | 6 | All Maps","protocol":17,"map":"cp_dustbowl","folder":"tf","game":"Team Fortress","app_id":440,"player_count":0,"max_players":24,"Bots":0,"server_type":"Dedicated","server_os":"Linux","password":true,"vac":true,"version":"7757534","steam_id":85568392924866363,"keywords":["cp","nocrits","nodmgspread","uncletopia"],"game_id":440,"stv_port":27026,"stv_name":"Uncletopia | Chicago | 6 | All Maps | STV","players":null},{"server_id":38,"name":"Uncletopia | Chicago | 7 | Stopwatch Beta","name_short":"chi-7","host":"chi-2.us.uncletopia.com","port":27035,"enabled":true,"region":"us-central","cc":"us","latitude":41.881832,"longitude":-87.62318,"reserved":0,"last_update":"0001-01-01T00:00:00Z","name_a2s":"Uncletopia | Chicago | 7 | Stopwatch Beta","protocol":17,"map":"koth_viaduct","folder":"tf","game":"Team Fortress","app_id":440,"player_count":0,"max_players":24,"Bots":0,"server_type":"Dedicated","server_os":"Linux","password":true,"vac":true,"version":"7757534","steam_id":85568392924866364,"keywords":["cp","nocrits","nodmgspread","uncletopia"],"game_id":440,"stv_port":27036,"stv_name":"Uncletopia | Chicago | 7 | Stopwatch Beta | STV","players":null},{"server_id":39,"name":"Uncletopia | Chicago | 8 | Community","name_short":"chi-8","host":"chi-2.us.uncletopia.com","port":27045,"enabled":true,"region":"us-central","cc":"us","latitude":41.881832,"longitude":-87.62318,"reserved":0,"last_update":"0001-01-01T00:00:00Z","name_a2s":"Uncletopia | Chicago | 8 | Community","protocol":17,"map":"koth_lakeside_final","folder":"tf","game":"Team Fortress","app_id":440,"player_count":0,"max_players":24,"Bots":0,"server_type":"Dedicated","server_os":"Linux","password":true,"vac":true,"version":"7757534","steam_id":85568392924866365,"keywords":["cp","nocrits","nodmgspread","uncletopia"],"game_id":440,"stv_port":27046,"stv_name":"Uncletopia | Chicago | 8 | Community | STV","players":null},{"server_id":8,"name":"Uncletopia | Dallas | 1 | All Maps","name_short":"dal-1","host":"dal-1.us.uncletopia.com","port":27015,"enabled":true,"region":"us-central","cc":"us","latitude":32.779167,"longitude":-96.80889,"reserved":0,"last_update":"0001-01-01T00:00:00Z","name_a2s":"Uncletopia | Dallas | 1 | All Maps","protocol":17,"map":"pl_borneo","folder":"tf","game":"Team Fortress","app_id":440,"player_count":24,"max_players":24,"Bots":0,"server_type":"Dedicated","server_os":"Linux","password":true,"vac":true,"version":"7757534","steam_id":85568392924469986,"keywords":["nocrits","nodmgspread","payload","uncletopia"],"game_id":440,"stv_port":27016,"stv_name":"Uncletopia | Dallas | 1 | All Maps | STV","players":[{"user_id":128,"name":"GatoSeiko","steam_id":76561198001001360,"connected_time":470000000000,"state":"active","ping":167},{"user_id":108,"name":"Crylec","steam_id":76561198092755279,"connected_time":2137000000000,"state":"active","ping":61},{"user_id":122,"name":"finger","steam_id":76561198068558572,"connected_time":757000000000,"state":"active","ping":62},{"user_id":131,"name":"PhaserLazer","steam_id":76561198407341298,"connected_time":199000000000,"state":"active","ping":46},{"user_id":101,"name":"jooce","steam_id":76561198129069834,"connected_time":2442000000000,"state":"active","ping":106},{"user_id":126,"name":"gunther","steam_id":76561198118755292,"connected_time":496000000000,"state":"active","ping":86},{"user_id":27,"name":"Lolxdloldx","steam_id":76561198136887125,"connected_time":7466000000000,"state":"active","ping":80},{"user_id":82,"name":"Riske","steam_id":76561198115840568,"connected_time":3747000000000,"state":"active","ping":89},{"user_id":125,"name":"‚òºBarracuda‚òº","steam_id":76561198013022083,"connected_time":649000000000,"state":"active","ping":59},{"user_id":102,"name":"Stu_Strib","steam_id":76561197970588300,"connected_time":2408000000000,"state":"active","ping":45},{"user_id":129,"name":"Tyler\u0026Fingers","steam_id":76561198085154485,"connected_time":469000000000,"state":"active","ping":91},{"user_id":123,"name":"Scoron","steam_id":76561198062099305,"connected_time":748000000000,"state":"active","ping":90},{"user_id":119,"name":"adam0o0","steam_id":76561198052250279,"connected_time":775000000000,"state":"active","ping":71},{"user_id":127,"name":"JazzMuted","steam_id":76561197974184265,"connected_time":492000000000,"state":"active","ping":78},{"user_id":98,"name":"Bo","steam_id":76561198023975550,"connected_time":2470000000000,"state":"active","ping":163},{"user_id":120,"name":"Slippery","steam_id":76561199469441947,"connected_time":774000000000,"state":"active","ping":76},{"user_id":124,"name":"d-.-b","steam_id":76561198041907345,"connected_time":727000000000,"state":"active","ping":75},{"user_id":111,"name":"supernova1241","steam_id":76561198325215872,"connected_time":1695000000000,"state":"active","ping":92},{"user_id":107,"name":"techturkey","steam_id":76561199154637989,"connected_time":2165000000000,"state":"active","ping":159},{"user_id":41,"name":"Doc{MDW}","steam_id":76561198075049640,"connected_time":6993000000000,"state":"active","ping":76},{"user_id":130,"name":"sammy308","steam_id":76561198842892733,"connected_time":431000000000,"state":"active","ping":95},{"user_id":113,"name":"yolginmo","steam_id":76561198157985901,"connected_time":1553000000000,"state":"active","ping":112},{"user_id":117,"name":"Agent BSoD","steam_id":76561198050346368,"connected_time":1490000000000,"state":"active","ping":103},{"user_id":61,"name":"[√òWQJ√ò]chubacaalatake","steam_id":76561198136201697,"connected_time":5415000000000,"state":"active","ping":111}]},{"server_id":108,"name":"Uncletopia | Dallas | 2 | All Maps","name_short":"dal-2","host":"dal-1.us.uncletopia.com","port":27025,"enabled":true,"region":"us-central","cc":"us","latitude":32.779167,"longitude":-96.80889,"reserved":0,"last_update":"0001-01-01T00:00:00Z","name_a2s":"Uncletopia | Dallas | 2 | All Maps","protocol":17,"map":"cp_altitude","folder":"tf","game":"Team Fortress","app_id":440,"player_count":0,"max_players":24,"Bots":0,"server_type":"Dedicated","server_os":"Linux","password":true,"vac":true,"version":"7757534","steam_id":85568392924469988,"keywords":["cp","nocrits","nodmgspread","uncletopia"],"game_id":440,"stv_port":27026,"stv_name":"Uncletopia | Dallas | 2 | All Maps | STV","players":null},{"server_id":5,"name":"Uncletopia | Frankfurt | 1 | All Maps","name_short":"frk-1","host":"frk-1.de.uncletopia.com","port":27015,"enabled":true,"region":"eu","cc":"de","latitude":50.110924,"longitude":8.682127,"reserved":0,"last_update":"0001-01-01T00:00:00Z","name_a2s":"Uncletopia | Frankfurt | 1 | All Maps","protocol":17,"map":"pl_pier","folder":"tf","game":"Team Fortress","app_id":440,"player_count":24,"max_players":24,"Bots":0,"server_type":"Dedicated","server_os":"Linux","password":true,"vac":true,"version":"7757534","steam_id":85568392924469989,"keywords":["nocrits","nodmgspread","payload","uncletopia"],"game_id":440,"stv_port":27016,"stv_name":"Uncletopia | Frankfurt | 1 | All Maps | STV","players":[{"user_id":394,"name":"player","steam_id":76561198054474684,"connected_time":8492000000000,"state":"active","ping":74},{"user_id":516,"name":"FWDTRKR","steam_id":76561198060369427,"connected_time":1342000000000,"state":"active","ping":132},{"user_id":496,"name":"EdSuedi","steam_id":76561199387956486,"connected_time":3748000000000,"state":"active","ping":54},{"user_id":497,"name":"rizook","steam_id":76561198055010039,"connected_time":3396000000000,"state":"active","ping":67},{"user_id":509,"name":"Piox","steam_id":76561198125689157,"connected_time":2550000000000,"state":"active","ping":89},{"user_id":508,"name":"amby","steam_id":76561198126634202,"connected_time":2803000000000,"state":"active","ping":75},{"user_id":533,"name":"fl1p","steam_id":76561198148565659,"connected_time":179000000000,"state":"active","ping":75},{"user_id":518,"name":"OutOfRage","steam_id":76561198211205791,"connected_time":1240000000000,"state":"active","ping":46},{"user_id":466,"name":"Grandpa Dingelberg","steam_id":76561198072166743,"connected_time":6107000000000,"state":"active","ping":199},{"user_id":538,"name":"Slimeby","steam_id":76561198353438688,"connected_time":18000000000,"state":"spawning","ping":167},{"user_id":502,"name":"100t","steam_id":76561198043601838,"connected_time":3316000000000,"state":"active","ping":60},{"user_id":514,"name":"Kylul_","steam_id":76561198042981061,"connected_time":1353000000000,"state":"active","ping":59},{"user_id":515,"name":"Kvicha Kvaratskhelia","steam_id":76561198179339326,"connected_time":1351000000000,"state":"active","ping":76},{"user_id":529,"name":"Svilar","steam_id":76561198828348612,"connected_time":207000000000,"state":"active","ping":137},{"user_id":525,"name":"wouris","steam_id":76561198876188003,"connected_time":292000000000,"state":"active","ping":56},{"user_id":531,"name":"i make you my b*tch","steam_id":76561198190583242,"connected_time":203000000000,"state":"active","ping":83},{"user_id":532,"name":"Borat","steam_id":76561198122226417,"connected_time":191000000000,"state":"active","ping":58},{"user_id":526,"name":"Koleisus","steam_id":76561198045374646,"connected_time":238000000000,"state":"active","ping":62},{"user_id":530,"name":"lvl. 50 honkler","steam_id":76561198061688660,"connected_time":206000000000,"state":"active","ping":101},{"user_id":528,"name":"ghost","steam_id":76561198189940229,"connected_time":221000000000,"state":"active","ping":65},{"user_id":519,"name":"giclure :;","steam_id":76561197986362828,"connected_time":1061000000000,"state":"active","ping":55},{"user_id":537,"name":"Naomi ‚òÖ","steam_id":76561198060307235,"connected_time":80000000000,"state":"active","ping":76},{"user_id":536,"name":"Diggity","steam_id":76561198297157085,"connected_time":132000000000,"state":"active","ping":49},{"user_id":521,"name":"Dragul","steam_id":76561198032885938,"connected_time":841000000000,"state":"active","ping":61}]},{"server_id":110,"name":"Uncletopia | Frankfurt | 2 | All Maps","name_short":"frk-2","host":"frk-1.de.uncletopia.com","port":27025,"enabled":true,"region":"eu","cc":"de","latitude":50.110924,"longitude":8.682127,"reserved":0,"last_update":"0001-01-01T00:00:00Z","name_a2s":"Uncletopia | Frankfurt | 2 | All Maps","protocol":17,"map":"pl_barnblitz","folder":"tf","game":"Team Fortress","app_id":440,"player_count":24,"max_players":24,"Bots":0,"server_type":"Dedicated","server_os":"Linux","password":true,"vac":true,"version":"7757534","steam_id":85568392924469990,"keywords":["nocrits","nodmgspread","payload","uncletopia"],"game_id":440,"stv_port":27026,"stv_name":"Uncletopia | Frankfurt | 2 | All Maps | STV","players":[{"user_id":408,"name":"toiletshitter","steam_id":76561198052088053,"connected_time":1105000000000,"state":"active","ping":66},{"user_id":409,"name":"BluDiamynt","steam_id":76561198894231340,"connected_time":841000000000,"state":"active","ping":68},{"user_id":406,"name":"Memphis (‚ôÇ)","steam_id":76561198045039038,"connected_time":1160000000000,"state":"active","ping":74},{"user_id":410,"name":"JO√ÉO MIGUEL","steam_id":76561198066297489,"connected_time":753000000000,"state":"active","ping":77},{"user_id":436,"name":"DaBumo","steam_id":76561198156781075,"connected_time":222000000000,"state":"active","ping":67},{"user_id":412,"name":"Kati","steam_id":76561198007231088,"connected_time":745000000000,"state":"active","ping":61},{"user_id":413,"name":"nairolf","steam_id":76561198007055352,"connected_time":744000000000,"state":"active","ping":49},{"user_id":433,"name":"Charles Darwin","steam_id":76561197973496139,"connected_time":356000000000,"state":"active","ping":61},{"user_id":415,"name":"Osmo","steam_id":76561199286764992,"connected_time":646000000000,"state":"active","ping":74},{"user_id":416,"name":"the","steam_id":76561198293567489,"connected_time":639000000000,"state":"active","ping":72},{"user_id":417,"name":"walking plane","steam_id":76561198146779559,"connected_time":624000000000,"state":"active","ping":75},{"user_id":418,"name":"ldshwt","steam_id":76561198090364357,"connected_time":595000000000,"state":"active","ping":45},{"user_id":419,"name":"The Paint Rain","steam_id":76561198075105319,"connected_time":587000000000,"state":"active","ping":59},{"user_id":435,"name":"meatsoupcube","steam_id":76561198276802249,"connected_time":263000000000,"state":"active","ping":69},{"user_id":422,"name":"Caliban","steam_id":76561197999696839,"connected_time":572000000000,"state":"active","ping":102},{"user_id":423,"name":"Slice :)","steam_id":76561198081699492,"connected_time":570000000000,"state":"active","ping":72},{"user_id":424,"name":"bruh","steam_id":76561197993922244,"connected_time":541000000000,"state":"active","ping":52},{"user_id":425,"name":"Ane≈•√°k","steam_id":76561198159294906,"connected_time":538000000000,"state":"active","ping":60},{"user_id":426,"name":"Tort","steam_id":76561198329646769,"connected_time":535000000000,"state":"active","ping":69},{"user_id":427,"name":"Tfuj Stary","steam_id":76561198126681452,"connected_time":528000000000,"state":"active","ping":86},{"user_id":428,"name":"Ates164","steam_id":76561199123074978,"connected_time":519000000000,"state":"active","ping":56},{"user_id":429,"name":"ricorno","steam_id":76561199441603388,"connected_time":510000000000,"state":"active","ping":88},{"user_id":430,"name":"Foreskin Gamer","steam_id":76561198283106341,"connected_time":481000000000,"state":"active","ping":56},{"user_id":431,"name":"TylowStar","steam_id":76561198357107806,"connected_time":476000000000,"state":"active","ping":62}]},{"server_id":308,"name":"Uncletopia | Frankfurt | 3 | All Maps","name_short":"frk-3","host":"frk-1.de.uncletopia.com","port":27035,"enabled":true,"region":"eu","cc":"de","latitude":50.110924,"longitude":8.682127,"reserved":0,"last_update":"0001-01-01T00:00:00Z","name_a2s":"Uncletopia | Frankfurt | 3 | All Maps","protocol":17,"map":"pl_thundermountain","folder":"tf","game":"Team Fortress","app_id":440,"player_count":24,"max_players":24,"Bots":0,"server_type":"Dedicated","server_os":"Linux","password":true,"vac":true,"version":"7757534","steam_id":85568392924504274,"keywords":["nocrits","nodmgspread","payload","uncletopia"],"game_id":440,"stv_port":27036,"stv_name":"Uncletopia | Frankfurt | 3 | All Maps | STV","players":[{"user_id":224,"name":"hoodbob thugpants","steam_id":76561198023211417,"connected_time":1457000000000,"state":"active","ping":61},{"user_id":201,"name":"Rops","steam_id":76561198031608011,"connected_time":2941000000000,"state":"active","ping":82},{"user_id":210,"name":"Carrot","steam_id":76561198119340863,"connected_time":2450000000000,"state":"active","ping":53},{"user_id":236,"name":"hound","steam_id":76561199079170942,"connected_time":213000000000,"state":"active","ping":108},{"user_id":179,"name":"Qwerty","steam_id":76561198023525894,"connected_time":5234000000000,"state":"active","ping":88},{"user_id":217,"name":"Cane","steam_id":76561197976831215,"connected_time":1850000000000,"state":"active","ping":97},{"user_id":232,"name":"M0rph","steam_id":76561198127339176,"connected_time":1234000000000,"state":"active","ping":58},{"user_id":181,"name":"mmlock","steam_id":76561198069516191,"connected_time":5073000000000,"state":"active","ping":45},{"user_id":237,"name":"Grumtsior","steam_id":76561198043563111,"connected_time":191000000000,"state":"active","ping":72},{"user_id":214,"name":"EEEEEH","steam_id":76561198126717413,"connected_time":2195000000000,"state":"active","ping":82},{"user_id":218,"name":"Mr.Schnittlauch","steam_id":76561198295868113,"connected_time":1834000000000,"state":"active","ping":66},{"user_id":219,"name":"Symberzite #SaveTF2","steam_id":76561198028581774,"connected_time":1834000000000,"state":"active","ping":89},{"user_id":228,"name":"tek-9","steam_id":76561198107220903,"connected_time":1393000000000,"state":"active","ping":45},{"user_id":240,"name":"‚ú™ m_br3","steam_id":76561198044981990,"connected_time":43000000000,"state":"active","ping":75},{"user_id":225,"name":"Dolcelatte","steam_id":76561198038501770,"connected_time":1441000000000,"state":"active","ping":60},{"user_id":204,"name":"AverageJohn","steam_id":76561198085507990,"connected_time":2910000000000,"state":"active","ping":89},{"user_id":239,"name":"Dr. Cox","steam_id":76561198246629218,"connected_time":88000000000,"state":"active","ping":126},{"user_id":161,"name":"Mr.Fosty","steam_id":76561198045212783,"connected_time":5789000000000,"state":"active","ping":81},{"user_id":238,"name":"ChickyCoop","steam_id":76561199072983488,"connected_time":191000000000,"state":"active","ping":79},{"user_id":196,"name":"Gordon Birdman","steam_id":76561198013382324,"connected_time":3694000000000,"state":"active","ping":76},{"user_id":220,"name":"fumo?","steam_id":76561198148074472,"connected_time":1805000000000,"state":"active","ping":45},{"user_id":234,"name":"Michaelllllll","steam_id":76561198007792525,"connected_time":1190000000000,"state":"active","ping":57},{"user_id":223,"name":"silly","steam_id":76561198147277460,"connected_time":1776000000000,"state":"active","ping":60},{"user_id":199,"name":"BFF Dzerky","steam_id":76561199022604955,"connected_time":3475000000000,"state":"active","ping":88}]},{"server_id":309,"name":"Uncletopia | Frankfurt | 4 | All Maps","name_short":"frk-4","host":"frk-1.de.uncletopia.com","port":27045,"enabled":true,"region":"eu","cc":"de","latitude":50.110924,"longitude":8.682127,"reserved":0,"last_update":"0001-01-01T00:00:00Z","name_a2s":"Uncletopia | Frankfurt | 4 | All Maps","protocol":17,"map":"pl_frontier_final","folder":"tf","game":"Team Fortress","app_id":440,"player_count":24,"max_players":24,"Bots":0,"server_type":"Dedicated","server_os":"Linux","password":true,"vac":true,"version":"7757534","steam_id":85568392924504275,"keywords":["nocrits","nodmgspread","payload","uncletopia"],"game_id":440,"stv_port":27046,"stv_name":"Uncletopia | Frankfurt | 4 | All Maps | STV","players":[{"user_id":427,"name":"Rashid Besythe","steam_id":76561198081477129,"connected_time":608000000000,"state":"active","ping":74},{"user_id":374,"name":"Kenpachi","steam_id":76561198365750503,"connected_time":4698000000000,"state":"active","ping":59},{"user_id":360,"name":"canoksun","steam_id":76561198165664707,"connected_time":4932000000000,"state":"active","ping":88},{"user_id":385,"name":"Yachox","steam_id":76561198158259745,"connected_time":4040000000000,"state":"active","ping":89},{"user_id":397,"name":"Homeless man with a home","steam_id":76561198274105878,"connected_time":3043000000000,"state":"active","ping":65},{"user_id":425,"name":"WolfmanCZ","steam_id":76561199157141414,"connected_time":1127000000000,"state":"active","ping":73},{"user_id":428,"name":"I AM THE ONE WHO BUILDS","steam_id":76561199438413886,"connected_time":208000000000,"state":"active","ping":255},{"user_id":409,"name":"cringe incarnate","steam_id":76561198086987479,"connected_time":1954000000000,"state":"active","ping":92},{"user_id":348,"name":"rz-/Atomic Punch","steam_id":76561199195508541,"connected_time":5139000000000,"state":"active","ping":76},{"user_id":408,"name":"mpk02","steam_id":76561198056572735,"connected_time":1955000000000,"state":"active","ping":55},{"user_id":386,"name":"BROOMSTER","steam_id":76561198344833818,"connected_time":3998000000000,"state":"active","ping":78},{"user_id":401,"name":"Pkheym","steam_id":76561198197642178,"connected_time":2275000000000,"state":"active","ping":83},{"user_id":419,"name":"Chikapu_Xek","steam_id":76561198428023493,"connected_time":1278000000000,"state":"active","ping":74},{"user_id":422,"name":"Ixsus\u003c3","steam_id":76561198094756869,"connected_time":1147000000000,"state":"active","ping":58},{"user_id":416,"name":"Syd","steam_id":76561198020515027,"connected_time":1545000000000,"state":"active","ping":73},{"user_id":426,"name":"bAdmon","steam_id":76561197961785793,"connected_time":618000000000,"state":"active","ping":60},{"user_id":424,"name":"JustKarell","steam_id":76561199043504078,"connected_time":1141000000000,"state":"active","ping":105},{"user_id":357,"name":"Ged","steam_id":76561198079288943,"connected_time":4996000000000,"state":"active","ping":109},{"user_id":404,"name":"ruskie (fake)","steam_id":76561199106215999,"connected_time":2232000000000,"state":"active","ping":123},{"user_id":429,"name":"Spraxinator","steam_id":76561199083563607,"connected_time":159000000000,"state":"active","ping":193},{"user_id":405,"name":"TheFirstGlueBender","steam_id":76561199387319886,"connected_time":2217000000000,"state":"active","ping":57},{"user_id":415,"name":"Travis Bickle","steam_id":76561198116072862,"connected_time":1604000000000,"state":"active","ping":60},{"user_id":412,"name":"jge","steam_id":76561198123186387,"connected_time":1886000000000,"state":"active","ping":51},{"user_id":395,"name":"Ich stinke","steam_id":76561198065076046,"connected_time":3460000000000,"state":"active","ping":54}]},{"server_id":310,"name":"Uncletopia | Frankfurt | 5 | All Maps","name_short":"frk-5","host":"frk-1.de.uncletopia.com","port":27055,"enabled":true,"region":"eu","cc":"de","latitude":50.110924,"longitude":8.682127,"reserved":0,"last_update":"0001-01-01T00:00:00Z","name_a2s":"Uncletopia | Frankfurt | 5 | All Maps","protocol":17,"map":"pl_barnblitz","folder":"tf","game":"Team Fortress","app_id":440,"player_count":21,"max_players":24,"Bots":0,"server_type":"Dedicated","server_os":"Linux","password":true,"vac":true,"version":"7757534","steam_id":85568392924504277,"keywords":["nocrits","nodmgspread","payload","uncletopia"],"game_id":440,"stv_port":27056,"stv_name":"Uncletopia | Frankfurt | 5 | All Maps | STV","players":[{"user_id":216,"name":"Reiyo the Interloper","steam_id":76561198155092485,"connected_time":373000000000,"state":"active","ping":52},{"user_id":204,"name":"YuraGreek","steam_id":76561198050182252,"connected_time":1718000000000,"state":"active","ping":75},{"user_id":202,"name":".apo","steam_id":76561198003042239,"connected_time":1780000000000,"state":"active","ping":45},{"user_id":211,"name":"Dodoshka","steam_id":76561198093464840,"connected_time":960000000000,"state":"active","ping":97},{"user_id":217,"name":"fifamirek","steam_id":76561198160567190,"connected_time":369000000000,"state":"active","ping":52},{"user_id":186,"name":"Piek","steam_id":76561199212421275,"connected_time":2543000000000,"state":"active","ping":56},{"user_id":219,"name":"Vi","steam_id":76561198036546142,"connected_time":36000000000,"state":"active","ping":45},{"user_id":220,"name":"Jeg","steam_id":76561197994059603,"connected_time":28000000000,"state":"connecting","ping":66},{"user_id":162,"name":"jo bidn' | ETLARTORM","steam_id":76561198869576262,"connected_time":3818000000000,"state":"spawning","ping":377},{"user_id":200,"name":"Kedy","steam_id":76561198308990457,"connected_time":1835000000000,"state":"active","ping":103},{"user_id":184,"name":"fallingpencil","steam_id":76561199230233148,"connected_time":2647000000000,"state":"active","ping":84},{"user_id":210,"name":"Ramming2","steam_id":76561198115928110,"connected_time":1152000000000,"state":"active","ping":75},{"user_id":185,"name":"DOMINOS","steam_id":76561198334591211,"connected_time":2610000000000,"state":"active","ping":83},{"user_id":218,"name":"1sec no za","steam_id":76561198798657045,"connected_time":274000000000,"state":"active","ping":67},{"user_id":180,"name":"Optimist 50","steam_id":76561198039631442,"connected_time":2719000000000,"state":"active","ping":81},{"user_id":208,"name":"MEDiUM","steam_id":76561198112328561,"connected_time":1363000000000,"state":"active","ping":72},{"user_id":199,"name":"spooks","steam_id":76561198048205059,"connected_time":1973000000000,"state":"active","ping":89},{"user_id":134,"name":"Seeker","steam_id":76561198873052772,"connected_time":6376000000000,"state":"active","ping":59},{"user_id":190,"name":"GuSkand","steam_id":76561198043775605,"connected_time":2423000000000,"state":"active","ping":77},{"user_id":181,"name":"LivEssense","steam_id":76561198052476979,"connected_time":2709000000000,"state":"active","ping":75},{"user_id":167,"name":"I'm past the point of insanity","steam_id":76561198800954471,"connected_time":3744000000000,"state":"active","ping":92}]},{"server_id":311,"name":"Uncletopia | Frankfurt | 6 | All Maps","name_short":"frk-6","host":"frk-1.de.uncletopia.com","port":27065,"enabled":true,"region":"eu","cc":"de","latitude":50.110924,"longitude":8.682127,"reserved":0,"last_update":"0001-01-01T00:00:00Z","name_a2s":"Uncletopia | Frankfurt | 6 | All Maps","protocol":17,"map":"pl_borneo","folder":"tf","game":"Team Fortress","app_id":440,"player_count":24,"max_players":24,"Bots":0,"server_type":"Dedicated","server_os":"Linux","password":true,"vac":true,"version":"7757534","steam_id":85568392924504278,"keywords":["nocrits","nodmgspread","payload","uncletopia"],"game_id":440,"stv_port":27066,"stv_name":"Uncletopia | Frankfurt | 6 | All Maps | STV","players":[{"user_id":436,"name":"Spajro","steam_id":76561198257383813,"connected_time":742000000000,"state":"active","ping":48},{"user_id":440,"name":"Flex","steam_id":76561197970482191,"connected_time":0,"state":"spawning","ping":18},{"user_id":437,"name":"he's not even good xd","steam_id":76561198148115584,"connected_time":274000000000,"state":"active","ping":75},{"user_id":383,"name":"Talkkari","steam_id":76561198025327723,"connected_time":3068000000000,"state":"active","ping":64},{"user_id":377,"name":"BŒ£NZOIC","steam_id":76561198875665995,"connected_time":3413000000000,"state":"active","ping":69},{"user_id":432,"name":"Thors","steam_id":76561197968739075,"connected_time":923000000000,"state":"active","ping":52},{"user_id":433,"name":"Elfie","steam_id":76561198206802255,"connected_time":892000000000,"state":"active","ping":82},{"user_id":418,"name":"Telivan","steam_id":76561198026048940,"connected_time":2149000000000,"state":"active","ping":65},{"user_id":435,"name":"Dispenser (Lopata)","steam_id":76561198820264239,"connected_time":749000000000,"state":"active","ping":84},{"user_id":424,"name":"TryX","steam_id":76561199356781475,"connected_time":1898000000000,"state":"active","ping":69},{"user_id":389,"name":"Caro-Kann","steam_id":76561198065506317,"connected_time":2892000000000,"state":"active","ping":73},{"user_id":425,"name":"KNARRER","steam_id":76561199130777953,"connected_time":1762000000000,"state":"active","ping":55},{"user_id":434,"name":"dddd","steam_id":76561198120894372,"connected_time":804000000000,"state":"active","ping":98},{"user_id":393,"name":"Bumblebee","steam_id":76561198033551105,"connected_time":2849000000000,"state":"active","ping":65},{"user_id":394,"name":"Catangerine","steam_id":76561198043832867,"connected_time":2844000000000,"state":"active","ping":53},{"user_id":398,"name":"halo 3 rat","steam_id":76561198439007717,"connected_time":2783000000000,"state":"active","ping":81},{"user_id":396,"name":"TJ1212","steam_id":76561199013575313,"connected_time":2823000000000,"state":"active","ping":64},{"user_id":427,"name":"mr paladin","steam_id":76561198267612598,"connected_time":1662000000000,"state":"active","ping":91},{"user_id":428,"name":"[P-roc] Cmm Bert","steam_id":76561198016658674,"connected_time":1378000000000,"state":"active","ping":65},{"user_id":439,"name":"trite","steam_id":76561197983765323,"connected_time":63000000000,"state":"active","ping":73},{"user_id":401,"name":"s a i","steam_id":76561197970379754,"connected_time":2770000000000,"state":"active","ping":57},{"user_id":402,"name":"***** ***","steam_id":76561198048037379,"connected_time":2740000000000,"state":"active","ping":78},{"user_id":403,"name":"GrzMik","steam_id":76561198061951968,"connected_time":2735000000000,"state":"active","ping":94},{"user_id":430,"name":"gah dayum","steam_id":76561198099200059,"connected_time":993000000000,"state":"active","ping":48}]},{"server_id":23,"name":"Uncletopia | Frankfurt | 7 | Stopwatch Beta","name_short":"frk-7","host":"frk-1.de.uncletopia.com","port":27075,"enabled":true,"region":"eu","cc":"de","latitude":50.110924,"longitude":8.682127,"reserved":0,"last_update":"0001-01-01T00:00:00Z","name_a2s":"Uncletopia | Frankfurt | 7 | Stopwatch Beta","protocol":17,"map":"workshop/koth_bagel_rc6.ugc2514036946","folder":"tf","game":"Team Fortress","app_id":440,"player_count":0,"max_players":24,"Bots":0,"server_type":"Dedicated","server_os":"Linux","password":true,"vac":true,"version":"7757534","steam_id":85568392924742827,"keywords":["cp","nocrits","nodmgspread","uncletopia"],"game_id":440,"stv_port":27076,"stv_name":"Uncletopia | Frankfurt | 7 | Stopwatch Beta | STV","players":null},{"server_id":24,"name":"Uncletopia | Frankfurt | 8 | Community","name_short":"frk-8","host":"frk-1.de.uncletopia.com","port":27085,"enabled":true,"region":"eu","cc":"de","latitude":50.110924,"longitude":8.682127,"reserved":0,"last_update":"0001-01-01T00:00:00Z","name_a2s":"Uncletopia | Frankfurt | 8 | Community","protocol":17,"map":"workshop/cp_bruhstbowl_b5.ugc2878604990","folder":"tf","game":"Team Fortress","app_id":440,"player_count":24,"max_players":24,"Bots":0,"server_type":"Dedicated","server_os":"Linux","password":true,"vac":true,"version":"7757534","steam_id":85568392924742828,"keywords":["cp","nocrits","nodmgspread","uncletopia"],"game_id":440,"stv_port":27086,"stv_name":"Uncletopia | Frankfurt | 8 | Community | STV","players":[{"user_id":78,"name":"Jedi doggo","steam_id":76561198360026202,"connected_time":346000000000,"state":"active","ping":80},{"user_id":36,"name":"TSx* Bargal","steam_id":76561198040266872,"connected_time":2372000000000,"state":"active","ping":70},{"user_id":75,"name":"randompixel","steam_id":76561198003941207,"connected_time":437000000000,"state":"active","ping":70},{"user_id":34,"name":"TSx* Osa__PL","steam_id":76561198027016799,"connected_time":2450000000000,"state":"active","ping":72},{"user_id":37,"name":"TSx* Naxer","steam_id":76561198011986779,"connected_time":2210000000000,"state":"active","ping":66},{"user_id":38,"name":"TSx* {Demon-Angel}","steam_id":76561198151486463,"connected_time":2185000000000,"state":"active","ping":77},{"user_id":69,"name":"burger","steam_id":76561198071674964,"connected_time":695000000000,"state":"active","ping":66},{"user_id":56,"name":"Magic","steam_id":76561198401602586,"connected_time":1324000000000,"state":"active","ping":74},{"user_id":76,"name":"rob","steam_id":76561198122211848,"connected_time":396000000000,"state":"active","ping":100},{"user_id":63,"name":"Kiwimpediment","steam_id":76561198322781400,"connected_time":1067000000000,"state":"active","ping":170},{"user_id":73,"name":"TSx* EmperoT","steam_id":76561198018656942,"connected_time":501000000000,"state":"active","ping":79},{"user_id":74,"name":"akakez","steam_id":76561198095432821,"connected_time":489000000000,"state":"active","ping":119},{"user_id":48,"name":"Lordware","steam_id":76561198022011299,"connected_time":1506000000000,"state":"active","ping":89},{"user_id":51,"name":"Spootnak","steam_id":76561198049052518,"connected_time":1455000000000,"state":"active","ping":66},{"user_id":59,"name":"Mats S√∂derlund","steam_id":76561198106133548,"connected_time":1254000000000,"state":"active","ping":66},{"user_id":70,"name":"CRAZY VIKING","steam_id":76561198061440669,"connected_time":575000000000,"state":"active","ping":71},{"user_id":72,"name":"Mr.killer","steam_id":76561198290584189,"connected_time":532000000000,"state":"active","ping":100},{"user_id":60,"name":"I.C. Wiener","steam_id":76561197999912254,"connected_time":1234000000000,"state":"active","ping":86},{"user_id":61,"name":"Eing","steam_id":76561198253125820,"connected_time":1179000000000,"state":"active","ping":81},{"user_id":64,"name":"skittish maiden","steam_id":76561198096856475,"connected_time":1002000000000,"state":"active","ping":46},{"user_id":65,"name":"Marmaduke","steam_id":76561198039788483,"connected_time":1001000000000,"state":"active","ping":49},{"user_id":66,"name":"Ach Wheesht","steam_id":76561197996993222,"connected_time":942000000000,"state":"active","ping":66},{"user_id":82,"name":"Daniel","steam_id":76561198328543549,"connected_time":11000000000,"state":"spawning","ping":137},{"user_id":81,"name":"Yessirskiii","steam_id":76561198179324075,"connected_time":54000000000,"state":"active","ping":75}]},{"server_id":202,"name":"Uncletopia | Hong Kong | 1 | All Maps","name_short":"hgk-1","host":"hgk-1.hk.uncletopia.com","port":27015,"enabled":true,"region":"asia","cc":"hk","latitude":22.302711,"longitude":114.177216,"reserved":0,"last_update":"0001-01-01T00:00:00Z","name_a2s":"Uncletopia | Hong Kong | 1 | All Maps","protocol":17,"map":"pl_badwater","folder":"tf","game":"Team Fortress","app_id":440,"player_count":0,"max_players":24,"Bots":0,"server_type":"Dedicated","server_os":"Linux","password":true,"vac":true,"version":"7757534","steam_id":85568392924494504,"keywords":["nocrits","nodmgspread","payload","uncletopia"],"game_id":440,"stv_port":27016,"stv_name":"Uncletopia | Hong Kong | 1 | All Maps | STV","players":null},{"server_id":1,"name":"Uncletopia | Los Angeles | 1 | All Maps","name_short":"lax-1","host":"lax-1.us.uncletopia.com","port":27015,"enabled":true,"region":"us-west","cc":"us","latitude":33.94279,"longitude":-118.41004,"reserved":0,"last_update":"0001-01-01T00:00:00Z","name_a2s":"Uncletopia | Los Angeles | 1 | All Maps","protocol":17,"map":"koth_highpass","folder":"tf","game":"Team Fortress","app_id":440,"player_count":1,"max_players":24,"Bots":0,"server_type":"Dedicated","server_os":"Linux","password":true,"vac":true,"version":"7757534","steam_id":85568392924469991,"keywords":["cp","nocrits","nodmgspread","uncletopia"],"game_id":440,"stv_port":27016,"stv_name":"Uncletopia | Los Angeles | 1 | All Maps | STV","players":[{"user_id":11,"name":"Nick the melon","steam_id":76561198798907871,"connected_time":344000000000,"state":"active","ping":56}]},{"server_id":112,"name":"Uncletopia | Los Angeles | 2 | All Maps","name_short":"lax-2","host":"lax-1.us.uncletopia.com","port":27025,"enabled":true,"region":"us-west","cc":"us","latitude":33.94279,"longitude":-118.41004,"reserved":0,"last_update":"0001-01-01T00:00:00Z","name_a2s":"Uncletopia | Los Angeles | 2 | All Maps","protocol":17,"map":"cp_badlands","folder":"tf","game":"Team Fortress","app_id":440,"player_count":22,"max_players":24,"Bots":0,"server_type":"Dedicated","server_os":"Linux","password":true,"vac":true,"version":"7757534","steam_id":85568392924469992,"keywords":["cp","nocrits","nodmgspread","uncletopia"],"game_id":440,"stv_port":27026,"stv_name":"Uncletopia | Los Angeles | 2 | All Maps | STV","players":[{"user_id":276,"name":"McLovin","steam_id":76561198114934503,"connected_time":293000000000,"state":"active","ping":76},{"user_id":277,"name":"Yimberly","steam_id":76561199206923109,"connected_time":291000000000,"state":"active","ping":79},{"user_id":257,"name":"Bullterriergaming","steam_id":76561199031506356,"connected_time":1073000000000,"state":"active","ping":61},{"user_id":271,"name":"‚§£RASCAL","steam_id":76561198269038647,"connected_time":520000000000,"state":"active","ping":60},{"user_id":229,"name":"Giselle","steam_id":76561198162593640,"connected_time":3358000000000,"state":"active","ping":102},{"user_id":250,"name":"Gdawg","steam_id":76561198139937261,"connected_time":1658000000000,"state":"active","ping":85},{"user_id":258,"name":"Bee_Pirate","steam_id":76561199000599111,"connected_time":995000000000,"state":"active","ping":109},{"user_id":259,"name":"EmptyB33R","steam_id":76561198993166528,"connected_time":987000000000,"state":"active","ping":117},{"user_id":234,"name":"Pudsla","steam_id":76561198258974036,"connected_time":2874000000000,"state":"active","ping":58},{"user_id":272,"name":"All Tomorrow's Parties","steam_id":76561197995936212,"connected_time":438000000000,"state":"active","ping":76},{"user_id":263,"name":"DerpyFlapjack31","steam_id":76561198386322393,"connected_time":798000000000,"state":"active","ping":95},{"user_id":264,"name":"Tinyangel124","steam_id":76561199387234901,"connected_time":792000000000,"state":"active","ping":91},{"user_id":265,"name":"corbthejay","steam_id":76561199367361119,"connected_time":774000000000,"state":"active","ping":97},{"user_id":266,"name":"Sahalanthro","steam_id":76561199073298722,"connected_time":731000000000,"state":"active","ping":44},{"user_id":267,"name":"forg","steam_id":76561199475739960,"connected_time":680000000000,"state":"active","ping":70},{"user_id":274,"name":"‚ô•ur :3 medic gf‚ô• (51ref/hr)","steam_id":76561198816778484,"connected_time":402000000000,"state":"active","ping":89},{"user_id":286,"name":"icm2008","steam_id":76561199277408836,"connected_time":109000000000,"state":"spawning","ping":109},{"user_id":281,"name":"Wacks","steam_id":76561198079476100,"connected_time":225000000000,"state":"active","ping":58},{"user_id":282,"name":"Aibroc","steam_id":76561199164997748,"connected_time":216000000000,"state":"active","ping":56},{"user_id":212,"name":"aqua","steam_id":76561199407709552,"connected_time":4691000000000,"state":"active","ping":103},{"user_id":284,"name":"Satori Komeiji","steam_id":76561198158211423,"connected_time":165000000000,"state":"active","ping":46},{"user_id":287,"name":"Mr pompken","steam_id":76561198860335871,"connected_time":109000000000,"state":"active","ping":57}]},{"server_id":324,"name":"Uncletopia | Los Angeles | 3 | All Maps","name_short":"lax-3","host":"lax-1.us.uncletopia.com","port":27035,"enabled":true,"region":"us-west","cc":"us","latitude":33.94279,"longitude":-118.41004,"reserved":0,"last_update":"0001-01-01T00:00:00Z","name_a2s":"Uncletopia | Los Angeles | 3 | All Maps","protocol":17,"map":"cp_altitude","folder":"tf","game":"Team Fortress","app_id":440,"player_count":0,"max_players":24,"Bots":0,"server_type":"Dedicated","server_os":"Linux","password":true,"vac":true,"version":"7757534","steam_id":85568392924510198,"keywords":["cp","nocrits","nodmgspread","uncletopia"],"game_id":440,"stv_port":27036,"stv_name":"Uncletopia | Los Angeles | 3 | All Maps | STV","players":null},{"server_id":25,"name":"Uncletopia | Los Angeles | 4 | Stopwatch Beta","name_short":"lax-4","host":"lax-1.us.uncletopia.com","port":27045,"enabled":true,"region":"us-west","cc":"us","latitude":33.94279,"longitude":-118.41004,"reserved":0,"last_update":"0001-01-01T00:00:00Z","name_a2s":"Uncletopia | Los Angeles | 4 | Stopwatch Beta","protocol":17,"map":"cp_dustbowl","folder":"tf","game":"Team Fortress","app_id":440,"player_count":0,"max_players":24,"Bots":0,"server_type":"Dedicated","server_os":"Linux","password":true,"vac":true,"version":"7757534","steam_id":85568392924510199,"keywords":["cp","nocrits","nodmgspread","uncletopia"],"game_id":440,"stv_port":27046,"stv_name":"Uncletopia | Los Angeles | 4 | Stopwatch Beta | STV","players":null},{"server_id":11,"name":"Uncletopia | London | 1 | All Maps","name_short":"lon-1","host":"lon-1.uk.uncletopia.com","port":27015,"enabled":true,"region":"eu","cc":"gb","latitude":51.509865,"longitude":-0.118092,"reserved":0,"last_update":"0001-01-01T00:00:00Z","name_a2s":"Uncletopia | London | 1 | All Maps","protocol":17,"map":"pl_barnblitz","folder":"tf","game":"Team Fortress","app_id":440,"player_count":24,"max_players":24,"Bots":0,"server_type":"Dedicated","server_os":"Linux","password":true,"vac":true,"version":"7757534","steam_id":85568392924367362,"keywords":["nocrits","nodmgspread","payload","uncletopia"],"game_id":440,"stv_port":27016,"stv_name":"Uncletopia | London | 1 | All Maps | STV","players":[{"user_id":736,"name":"—Ç–æ–ª—è","steam_id":76561199098518615,"connected_time":1903000000000,"state":"active","ping":101},{"user_id":746,"name":"AnonTron","steam_id":76561199031895493,"connected_time":206000000000,"state":"active","ping":154},{"user_id":724,"name":"Croy","steam_id":76561197972552579,"connected_time":2726000000000,"state":"active","ping":45},{"user_id":713,"name":"Aaron","steam_id":76561197990046953,"connected_time":3590000000000,"state":"active","ping":67},{"user_id":743,"name":"Mapavri","steam_id":76561198370196400,"connected_time":729000000000,"state":"active","ping":89},{"user_id":681,"name":"kelpie","steam_id":76561198128327529,"connected_time":5581000000000,"state":"active","ping":57},{"user_id":717,"name":"British Disapproval","steam_id":76561198001375260,"connected_time":3336000000000,"state":"active","ping":60},{"user_id":691,"name":"Gry","steam_id":76561198053961616,"connected_time":5014000000000,"state":"active","ping":49},{"user_id":688,"name":"JOHN GAMING (based)","steam_id":76561199085822219,"connected_time":5156000000000,"state":"active","ping":90},{"user_id":671,"name":"walking sentry","steam_id":76561199225363633,"connected_time":5911000000000,"state":"active","ping":53},{"user_id":716,"name":"Koli","steam_id":76561197992428783,"connected_time":3386000000000,"state":"active","ping":60},{"user_id":732,"name":"Joseph Stalin","steam_id":76561198033199746,"connected_time":2077000000000,"state":"active","ping":45},{"user_id":735,"name":"Laam","steam_id":76561198050031998,"connected_time":1977000000000,"state":"active","ping":47},{"user_id":726,"name":"Teleporter (jessie)","steam_id":76561198063093802,"connected_time":2477000000000,"state":"active","ping":47},{"user_id":733,"name":"hello kitty gaming","steam_id":76561197972008326,"connected_time":2077000000000,"state":"active","ping":75},{"user_id":631,"name":"Hasty Fool","steam_id":76561199474081953,"connected_time":7915000000000,"state":"active","ping":120},{"user_id":744,"name":"Kwizine","steam_id":76561198147999400,"connected_time":712000000000,"state":"active","ping":64},{"user_id":745,"name":"Robs","steam_id":76561198078355830,"connected_time":540000000000,"state":"active","ping":68},{"user_id":739,"name":"Dinnerfood53","steam_id":76561198236015392,"connected_time":1477000000000,"state":"active","ping":121},{"user_id":709,"name":"PavlosPaok04","steam_id":76561199076069361,"connected_time":3859000000000,"state":"active","ping":69},{"user_id":737,"name":"Slash (Pyro enjoyer)","steam_id":76561199047081427,"connected_time":1859000000000,"state":"active","ping":80},{"user_id":677,"name":"twitch.tv/vision515","steam_id":76561198065293729,"connected_time":5837000000000,"state":"active","ping":158},{"user_id":742,"name":"Nebunuliii","steam_id":76561198953360954,"connected_time":753000000000,"state":"active","ping":86},{"user_id":653,"name":"‚ô• ‚ô• Sp3ll soo SeXy ÊÆ∫Êâã#1","steam_id":76561197970593737,"connected_time":6787000000000,"state":"active","ping":76}]},{"server_id":114,"name":"Uncletopia | London | 2 | All Maps","name_short":"lon-2","host":"lon-1.uk.uncletopia.com","port":27025,"enabled":true,"region":"eu","cc":"gb","latitude":51.509865,"longitude":-0.118092,"reserved":0,"last_update":"0001-01-01T00:00:00Z","name_a2s":"Uncletopia | London | 2 | All Maps","protocol":17,"map":"pl_upward","folder":"tf","game":"Team Fortress","app_id":440,"player_count":24,"max_players":24,"Bots":0,"server_type":"Dedicated","server_os":"Linux","password":true,"vac":true,"version":"7757534","steam_id":85568392924470941,"keywords":["nocrits","nodmgspread","payload","uncletopia"],"game_id":440,"stv_port":27026,"stv_name":"Uncletopia | London | 2 | All Maps | STV","players":[{"user_id":466,"name":"KLAMA  ‚ù§","steam_id":76561198351549661,"connected_time":1239000000000,"state":"active","ping":93},{"user_id":368,"name":"Bonca","steam_id":76561198137503531,"connected_time":5295000000000,"state":"active","ping":73},{"user_id":445,"name":"Dispenser","steam_id":76561198130195469,"connected_time":1809000000000,"state":"active","ping":86},{"user_id":478,"name":"fire","steam_id":76561198063674613,"connected_time":498000000000,"state":"active","ping":60},{"user_id":479,"name":"lowcostfish.co.uk","steam_id":76561198126022039,"connected_time":491000000000,"state":"active","ping":51},{"user_id":388,"name":"Wire  Bash","steam_id":76561198033268371,"connected_time":4117000000000,"state":"active","ping":58},{"user_id":430,"name":"ejch","steam_id":76561198050434553,"connected_time":2411000000000,"state":"active","ping":43},{"user_id":472,"name":"Meth","steam_id":76561199300394949,"connected_time":816000000000,"state":"active","ping":62},{"user_id":486,"name":"Doctor Glizzy","steam_id":76561198315474018,"connected_time":186000000000,"state":"active","ping":65},{"user_id":458,"name":"demonio fleur","steam_id":76561198059782462,"connected_time":1418000000000,"state":"active","ping":61},{"user_id":488,"name":"Oppai","steam_id":76561199475745176,"connected_time":24000000000,"state":"active","ping":66},{"user_id":369,"name":"IceDreamer","steam_id":76561197997569989,"connected_time":5292000000000,"state":"active","ping":45},{"user_id":477,"name":"I AM DOT","steam_id":76561198354118090,"connected_time":541000000000,"state":"active","ping":85},{"user_id":470,"name":"LightBulbGlue #SaveTF2","steam_id":76561198329573529,"connected_time":1019000000000,"state":"active","ping":159},{"user_id":480,"name":"da number one gamer","steam_id":76561199049633351,"connected_time":478000000000,"state":"active","ping":84},{"user_id":469,"name":"ricky pee pee","steam_id":76561198152620745,"connected_time":1138000000000,"state":"active","ping":63},{"user_id":459,"name":"tired","steam_id":76561198046838168,"connected_time":1404000000000,"state":"active","ping":60},{"user_id":429,"name":"$n√òw","steam_id":76561198238781028,"connected_time":2439000000000,"state":"active","ping":105},{"user_id":481,"name":"Akiron","steam_id":76561199267799044,"connected_time":468000000000,"state":"active","ping":99},{"user_id":476,"name":"the joy of recycling","steam_id":76561198415564349,"connected_time":694000000000,"state":"active","ping":60},{"user_id":487,"name":"duster cat","steam_id":76561198832231975,"connected_time":150000000000,"state":"active","ping":90},{"user_id":482,"name":"robsan","steam_id":76561198137375391,"connected_time":467000000000,"state":"active","ping":77},{"user_id":485,"name":"dongus","steam_id":76561198042774930,"connected_time":270000000000,"state":"active","ping":67},{"user_id":453,"name":"Senior","steam_id":76561198065014164,"connected_time":1557000000000,"state":"active","ping":45}]},{"server_id":320,"name":"Uncletopia | London | 3 | All Maps","name_short":"lon-3","host":"lon-1.uk.uncletopia.com","port":27035,"enabled":true,"region":"eu","cc":"gb","latitude":51.509865,"longitude":-0.118092,"reserved":0,"last_update":"0001-01-01T00:00:00Z","name_a2s":"Uncletopia | London | 3 | All Maps","protocol":17,"map":"cp_mossrock","folder":"tf","game":"Team Fortress","app_id":440,"player_count":23,"max_players":24,"Bots":0,"server_type":"Dedicated","server_os":"Linux","password":true,"vac":true,"version":"7757534","steam_id":85568392924510192,"keywords":["cp","nocrits","nodmgspread","uncletopia"],"game_id":440,"stv_port":27036,"stv_name":"Uncletopia | London | 3 | All Maps | STV","players":[{"user_id":226,"name":"Dr. Uberschwein","steam_id":76561198111367431,"connected_time":905000000000,"state":"active","ping":100},{"user_id":205,"name":"Baba Sraka","steam_id":76561198128292318,"connected_time":1370000000000,"state":"active","ping":139},{"user_id":195,"name":"Jovy Kujoh","steam_id":76561198410598772,"connected_time":1829000000000,"state":"active","ping":56},{"user_id":210,"name":"CODSWOLOP","steam_id":76561199114598660,"connected_time":1267000000000,"state":"active","ping":143},{"user_id":216,"name":"Raulca25","steam_id":76561199068256964,"connected_time":1055000000000,"state":"active","ping":78},{"user_id":190,"name":"Wuffington","steam_id":76561198033762881,"connected_time":2406000000000,"state":"active","ping":49},{"user_id":229,"name":"threat detection system","steam_id":76561199026097466,"connected_time":496000000000,"state":"active","ping":73},{"user_id":185,"name":"Topia","steam_id":76561198163571788,"connected_time":2599000000000,"state":"active","ping":91},{"user_id":208,"name":"Luna","steam_id":76561199140738350,"connected_time":1334000000000,"state":"active","ping":57},{"user_id":211,"name":"GIBus_Scout30","steam_id":76561199272782484,"connected_time":1244000000000,"state":"active","ping":74},{"user_id":230,"name":"sam-","steam_id":76561198013770973,"connected_time":429000000000,"state":"active","ping":69},{"user_id":233,"name":"nina levin","steam_id":76561197998546201,"connected_time":164000000000,"state":"active","ping":162},{"user_id":215,"name":"Hetmanych","steam_id":76561198870926865,"connected_time":1070000000000,"state":"active","ping":36},{"user_id":231,"name":"Mandele","steam_id":76561199183213205,"connected_time":414000000000,"state":"active","ping":98},{"user_id":219,"name":"DerpFamous","steam_id":76561198046167888,"connected_time":1010000000000,"state":"active","ping":123},{"user_id":220,"name":"joelttyjoel","steam_id":76561198035036816,"connected_time":1000000000000,"state":"active","ping":72},{"user_id":191,"name":"Moobin","steam_id":76561198099999156,"connected_time":2321000000000,"state":"active","ping":70},{"user_id":228,"name":"Mean Green Peen","steam_id":76561198228455736,"connected_time":772000000000,"state":"active","ping":53},{"user_id":232,"name":"DribSitoop","steam_id":76561198020597104,"connected_time":411000000000,"state":"active","ping":75},{"user_id":225,"name":"gertrude's new hip replacement","steam_id":76561198209333517,"connected_time":935000000000,"state":"active","ping":119},{"user_id":179,"name":"trans takeover 2024","steam_id":76561198262910410,"connected_time":2900000000000,"state":"active","ping":116},{"user_id":227,"name":"Arcader","steam_id":76561198109860110,"connected_time":795000000000,"state":"active","ping":71},{"user_id":235,"name":"Milca_11","steam_id":76561198848650365,"connected_time":83000000000,"state":"active","ping":107}]},{"server_id":321,"name":"Uncletopia | London | 4 | All Maps","name_short":"lon-4","host":"lon-1.uk.uncletopia.com","port":27045,"enabled":true,"region":"eu","cc":"gb","latitude":51.509865,"longitude":-0.118092,"reserved":0,"last_update":"0001-01-01T00:00:00Z","name_a2s":"Uncletopia | London | 4 | All Maps","protocol":17,"map":"koth_lakeside_final","folder":"tf","game":"Team Fortress","app_id":440,"player_count":0,"max_players":24,"Bots":0,"server_type":"Dedicated","server_os":"Linux","password":true,"vac":true,"version":"7757534","steam_id":85568392924510193,"keywords":["cp","nocrits","nodmgspread","uncletopia"],"game_id":440,"stv_port":27046,"stv_name":"Uncletopia | London | 4 | All Maps | STV","players":null},{"server_id":21,"name":"Uncletopia | London | 5 | All Maps","name_short":"lon-5","host":"lon-1.uk.uncletopia.com","port":27055,"enabled":true,"region":"eu","cc":"gb","latitude":51.509865,"longitude":-0.118092,"reserved":0,"last_update":"0001-01-01T00:00:00Z","name_a2s":"Uncletopia | London | 5 | All Maps","protocol":17,"map":"pl_upward","folder":"tf","game":"Team Fortress","app_id":440,"player_count":24,"max_players":24,"Bots":0,"server_type":"Dedicated","server_os":"Linux","password":true,"vac":true,"version":"7757534","steam_id":85568392924742829,"keywords":["nocrits","nodmgspread","payload","uncletopia"],"game_id":440,"stv_port":27056,"stv_name":"Uncletopia | London | 5 | All Maps | STV","players":[{"user_id":11,"name":"MeBandae","steam_id":76561198910770432,"connected_time":342000000000,"state":"active","ping":73},{"user_id":8,"name":"big tiddy goth gf","steam_id":76561198097507847,"connected_time":545000000000,"state":"active","ping":77},{"user_id":9,"name":"Looking for Goth with tiddies!?","steam_id":76561198067204908,"connected_time":537000000000,"state":"active","ping":58},{"user_id":10,"name":"big tiddy goth bf","steam_id":76561198170609049,"connected_time":480000000000,"state":"active","ping":89},{"user_id":12,"name":"Cerulean","steam_id":76561199139643353,"connected_time":316000000000,"state":"active","ping":79},{"user_id":13,"name":"alienndrago #saveTF2","steam_id":76561198815566591,"connected_time":282000000000,"state":"active","ping":55},{"user_id":14,"name":"FM","steam_id":76561198157757852,"connected_time":250000000000,"state":"active","ping":82},{"user_id":15,"name":"Dave The Sloth","steam_id":76561199135831355,"connected_time":237000000000,"state":"active","ping":56},{"user_id":16,"name":"Striker","steam_id":76561198100173021,"connected_time":235000000000,"state":"active","ping":62},{"user_id":17,"name":"Dooble donk man look at me donk","steam_id":76561198225523596,"connected_time":230000000000,"state":"active","ping":68},{"user_id":18,"name":"Archimus","steam_id":76561198097378176,"connected_time":211000000000,"state":"active","ping":58},{"user_id":19,"name":"Combat Wombat","steam_id":76561197994720068,"connected_time":208000000000,"state":"active","ping":66},{"user_id":21,"name":"Akero","steam_id":76561198857883916,"connected_time":199000000000,"state":"active","ping":78},{"user_id":22,"name":"Dark_Prelate","steam_id":76561199065671442,"connected_time":178000000000,"state":"active","ping":60},{"user_id":26,"name":"Wardruna96","steam_id":76561199057083828,"connected_time":122000000000,"state":"active","ping":75},{"user_id":25,"name":"Fbafroguy","steam_id":76561199113010473,"connected_time":154000000000,"state":"active","ping":485},{"user_id":27,"name":"Yony","steam_id":76561199070569941,"connected_time":105000000000,"state":"active","ping":63},{"user_id":28,"name":"MaKo","steam_id":76561199013535305,"connected_time":93000000000,"state":"active","ping":69},{"user_id":29,"name":"JunketsGM","steam_id":76561199122728626,"connected_time":89000000000,"state":"active","ping":63},{"user_id":30,"name":"r2d2.(/Àå…ëÀêr.tuÀêÀàdiÀêtuÀê/)","steam_id":76561198201235703,"connected_time":85000000000,"state":"active","ping":67},{"user_id":31,"name":"Bad Medic","steam_id":76561198117539276,"connected_time":72000000000,"state":"active","ping":94},{"user_id":32,"name":"Hexagon","steam_id":76561198151205758,"connected_time":51000000000,"state":"active","ping":56},{"user_id":33,"name":"Somb","steam_id":76561198101672735,"connected_time":36000000000,"state":"spawning","ping":89},{"user_id":34,"name":"secure shell gaming","steam_id":76561198845044956,"connected_time":25000000000,"state":"active","ping":77}]},{"server_id":22,"name":"Uncletopia | London | 6 | All Maps","name_short":"lon-6","host":"lon-1.uk.uncletopia.com","port":27065,"enabled":true,"region":"eu","cc":"gb","latitude":51.509865,"longitude":-0.118092,"reserved":0,"last_update":"0001-01-01T00:00:00Z","name_a2s":"Uncletopia | London | 6 | All Maps","protocol":17,"map":"koth_highpass","folder":"tf","game":"Team Fortress","app_id":440,"player_count":0,"max_players":24,"Bots":0,"server_type":"Dedicated","server_os":"Linux","password":true,"vac":true,"version":"7757534","steam_id":85568392924742830,"keywords":["cp","nocrits","nodmgspread","uncletopia"],"game_id":440,"stv_port":27066,"stv_name":"Uncletopia | London | 6 | All Maps | STV","players":null},{"server_id":40,"name":"Uncletopia | London | 7 | No Payload","name_short":"lon-7","host":"lon-1.uk.uncletopia.com","port":27075,"enabled":true,"region":"eu","cc":"gb","latitude":51.509865,"longitude":-0.118092,"reserved":0,"last_update":"0001-01-01T00:00:00Z","name_a2s":"Uncletopia | London | 7 | No Payload","protocol":17,"map":"koth_highpass","folder":"tf","game":"Team Fortress","app_id":440,"player_count":0,"max_players":24,"Bots":0,"server_type":"Dedicated","server_os":"Linux","password":true,"vac":true,"version":"7757534","steam_id":85568392924964314,"keywords":["cp","nocrits","nodmgspread","uncletopia"],"game_id":440,"stv_port":27076,"stv_name":"Uncletopia | London | 7 | No Payload | STV","players":null},{"server_id":41,"name":"Uncletopia | London | 8 | Community","name_short":"lon-8","host":"lon-1.uk.uncletopia.com","port":27085,"enabled":true,"region":"eu","cc":"gb","latitude":51.509865,"longitude":-0.118092,"reserved":0,"last_update":"0001-01-01T00:00:00Z","name_a2s":"Uncletopia | London | 8 | Community","protocol":17,"map":"workshop/pl_cactuscanyon_redux_final1.ugc2579644293","folder":"tf","game":"Team Fortress","app_id":440,"player_count":0,"max_players":24,"Bots":0,"server_type":"Dedicated","server_os":"Linux","password":true,"vac":true,"version":"7757534","steam_id":85568392924964315,"keywords":["nocrits","nodmgspread","payload","uncletopia"],"game_id":440,"stv_port":27086,"stv_name":"Uncletopia | London | 8 | Community | STV","players":null},{"server_id":300,"name":"Uncletopia | Montr√©al | 1 | All Maps","name_short":"mtl-1","host":"mtl-1.ca.uncletopia.com","port":27015,"enabled":true,"region":"us-east","cc":"ca","latitude":45.50889,"longitude":-73.56167,"reserved":0,"last_update":"0001-01-01T00:00:00Z","name_a2s":"Uncletopia | Montr√©al | 1 | All Maps","protocol":17,"map":"pl_pier","folder":"tf","game":"Team Fortress","app_id":440,"player_count":0,"max_players":24,"Bots":0,"server_type":"Dedicated","server_os":"Linux","password":true,"vac":true,"version":"7757534","steam_id":85568392924500087,"keywords":["nocrits","nodmgspread","payload","uncletopia"],"game_id":440,"stv_port":27016,"stv_name":"Uncletopia | Montr√©al | 1 | All Maps | STV","players":null},{"server_id":301,"name":"Uncletopia | Montr√©al | 2 | All Maps","name_short":"mtl-2","host":"mtl-1.ca.uncletopia.com","port":27025,"enabled":true,"region":"us-east","cc":"ca","latitude":45.50889,"longitude":-73.56167,"reserved":0,"last_update":"0001-01-01T00:00:00Z","name_a2s":"Uncletopia | Montr√©al | 2 | All Maps","protocol":17,"map":"pl_frontier_final","folder":"tf","game":"Team Fortress","app_id":440,"player_count":0,"max_players":24,"Bots":0,"server_type":"Dedicated","server_os":"Linux","password":true,"vac":true,"version":"7757534","steam_id":85568392924500088,"keywords":["nocrits","nodmgspread","payload","uncletopia"],"game_id":440,"stv_port":27026,"stv_name":"Uncletopia | Montr√©al | 2 | All Maps | STV","players":null},{"server_id":302,"name":"Uncletopia | Montr√©al | 3 | All Maps","name_short":"mtl-3","host":"mtl-1.ca.uncletopia.com","port":27035,"enabled":true,"region":"us-east","cc":"ca","latitude":45.50889,"longitude":-73.56167,"reserved":0,"last_update":"0001-01-01T00:00:00Z","name_a2s":"Uncletopia | Montr√©al | 3 | All Maps","protocol":17,"map":"pl_borneo","folder":"tf","game":"Team Fortress","app_id":440,"player_count":0,"max_players":24,"Bots":0,"server_type":"Dedicated","server_os":"Linux","password":true,"vac":true,"version":"7757534","steam_id":85568392924500089,"keywords":["nocrits","nodmgspread","payload","uncletopia"],"game_id":440,"stv_port":27036,"stv_name":"Uncletopia | Montr√©al | 3 | All Maps | STV","players":null},{"server_id":303,"name":"Uncletopia | Montr√©al | 4 | No Payload","name_short":"mtl-4","host":"mtl-1.ca.uncletopia.com","port":27045,"enabled":true,"region":"us-east","cc":"ca","latitude":45.50889,"longitude":-73.56167,"reserved":0,"last_update":"0001-01-01T00:00:00Z","name_a2s":"Uncletopia | Montr√©al | 4 | No Payload","protocol":17,"map":"plr_pipeline","folder":"tf","game":"Team Fortress","app_id":440,"player_count":0,"max_players":24,"Bots":0,"server_type":"Dedicated","server_os":"Linux","password":true,"vac":true,"version":"7757534","steam_id":85568392924500090,"keywords":["nocrits","nodmgspread","payload","uncletopia"],"game_id":440,"stv_port":27046,"stv_name":"Uncletopia | Montr√©al | 4 | No Payload | STV","players":null},{"server_id":13,"name":"Uncletopia | New York City | 1 | All Maps","name_short":"nyc-1","host":"nyc-1.us.uncletopia.com","port":27015,"enabled":true,"region":"us-east","cc":"us","latitude":40.73061,"longitude":-73.93524,"reserved":0,"last_update":"0001-01-01T00:00:00Z","name_a2s":"Uncletopia | New York City | 1 | All Maps","protocol":17,"map":"koth_highpass","folder":"tf","game":"Team Fortress","app_id":440,"player_count":0,"max_players":24,"Bots":0,"server_type":"Dedicated","server_os":"Linux","password":true,"vac":true,"version":"7757534","steam_id":85568392924469993,"keywords":["cp","nocrits","nodmgspread","uncletopia"],"game_id":440,"stv_port":27016,"stv_name":"Uncletopia | New York City | 1 | All Maps | STV","players":null},{"server_id":14,"name":"Uncletopia | New York City | 2 | All Maps","name_short":"nyc-2","host":"nyc-1.us.uncletopia.com","port":27025,"enabled":true,"region":"us-east","cc":"us","latitude":40.73061,"longitude":-73.93524,"reserved":0,"last_update":"0001-01-01T00:00:00Z","name_a2s":"Uncletopia | New York City | 2 | All Maps","protocol":17,"map":"cp_snakewater_final1","folder":"tf","game":"Team Fortress","app_id":440,"player_count":3,"max_players":24,"Bots":0,"server_type":"Dedicated","server_os":"Linux","password":true,"vac":true,"version":"7757534","steam_id":85568392924469994,"keywords":["cp","nocrits","nodmgspread","uncletopia"],"game_id":440,"stv_port":27026,"stv_name":"Uncletopia | New York City | 2 | All Maps | STV","players":[{"user_id":273,"name":"HeyGamingLIVE","steam_id":76561199224811007,"connected_time":997000000000,"state":"active","ping":78},{"user_id":276,"name":"OtherJake","steam_id":76561199097944589,"connected_time":66000000000,"state":"active","ping":113},{"user_id":271,"name":"Gandalf Gaming","steam_id":76561198368151490,"connected_time":1284000000000,"state":"active","ping":49}]},{"server_id":15,"name":"Uncletopia | New York City | 3 | Stopwatch Beta","name_short":"nyc-3","host":"nyc-1.us.uncletopia.com","port":27035,"enabled":true,"region":"us-east","cc":"us","latitude":40.73061,"longitude":-73.93524,"reserved":0,"last_update":"0001-01-01T00:00:00Z","name_a2s":"Uncletopia | New York City | 3 | Stopwatch Beta","protocol":17,"map":"koth_cascade","folder":"tf","game":"Team Fortress","app_id":440,"player_count":0,"max_players":24,"Bots":0,"server_type":"Dedicated","server_os":"Linux","password":true,"vac":true,"version":"7757534","steam_id":85568392924742820,"keywords":["cp","nocrits","nodmgspread","uncletopia"],"game_id":440,"stv_port":27036,"stv_name":"Uncletopia | New York City | 3 | Stopwatch Beta | STV","players":null},{"server_id":16,"name":"Uncletopia | New York City | 4 | Community","name_short":"nyc-4","host":"nyc-1.us.uncletopia.com","port":27045,"enabled":true,"region":"us-east","cc":"us","latitude":40.73061,"longitude":-73.93524,"reserved":0,"last_update":"0001-01-01T00:00:00Z","name_a2s":"Uncletopia | New York City | 4 | Community","protocol":17,"map":"pl_frontier_final","folder":"tf","game":"Team Fortress","app_id":440,"player_count":0,"max_players":24,"Bots":0,"server_type":"Dedicated","server_os":"Linux","password":true,"vac":true,"version":"7757534","steam_id":85568392924742821,"keywords":["nocrits","nodmgspread","payload","uncletopia"],"game_id":440,"stv_port":27046,"stv_name":"Uncletopia | New York City | 4 | Community | STV","players":null},{"server_id":142,"name":"Uncletopia | S√£o Paulo | 1 | All Maps","name_short":"sao-1","host":"sao-1.br.uncletopia.com","port":27015,"enabled":true,"region":"sa","cc":"br","latitude":-23.533773,"longitude":-46.62529,"reserved":0,"last_update":"0001-01-01T00:00:00Z","name_a2s":"Uncletopia | S√£o Paulo | 1 | All Maps","protocol":17,"map":"cp_altitude","folder":"tf","game":"Team Fortress","app_id":440,"player_count":0,"max_players":24,"Bots":0,"server_type":"Dedicated","server_os":"Linux","password":true,"vac":true,"version":"7757534","steam_id":85568392924469996,"keywords":["cp","nocrits","nodmgspread","uncletopia"],"game_id":440,"stv_port":27016,"stv_name":"Uncletopia | S√£o Paulo | 1 | All Maps | STV","players":null},{"server_id":143,"name":"Uncletopia | S√£o Paulo | 2 | All Maps","name_short":"sao-2","host":"sao-2.br.uncletopia.com","port":27015,"enabled":true,"region":"sa","cc":"br","latitude":-23.533773,"longitude":-46.62529,"reserved":0,"last_update":"0001-01-01T00:00:00Z","name_a2s":"Uncletopia | S√£o Paulo | 2 | All Maps","protocol":17,"map":"koth_viaduct","folder":"tf","game":"Team Fortress","app_id":440,"player_count":0,"max_players":24,"Bots":0,"server_type":"Dedicated","server_os":"Linux","password":true,"vac":true,"version":"7757534","steam_id":85568392924485349,"keywords":["cp","nocrits","nodmgspread","uncletopia"],"game_id":440,"stv_port":27016,"stv_name":"Uncletopia | S√£o Paulo | 2 | All Maps | STV","players":null},{"server_id":7,"name":"Uncletopia | Seattle | 1 | All Maps","name_short":"sea-1","host":"sea-1.us.uncletopia.com","port":27015,"enabled":true,"region":"us-west","cc":"us","latitude":47.608013,"longitude":-122.33517,"reserved":0,"last_update":"0001-01-01T00:00:00Z","name_a2s":"Uncletopia | Seattle | 1 | All Maps","protocol":17,"map":"koth_highpass","folder":"tf","game":"Team Fortress","app_id":440,"player_count":0,"max_players":24,"Bots":0,"server_type":"Dedicated","server_os":"Linux","password":true,"vac":true,"version":"7757534","steam_id":85568392924469997,"keywords":["cp","nocrits","nodmgspread","uncletopia"],"game_id":440,"stv_port":27016,"stv_name":"Uncletopia | Seattle | 1 | All Maps | STV","players":null},{"server_id":119,"name":"Uncletopia | Seattle | 2 | All Maps","name_short":"sea-2","host":"sea-1.us.uncletopia.com","port":27025,"enabled":true,"region":"us-west","cc":"us","latitude":47.608013,"longitude":-122.33517,"reserved":0,"last_update":"0001-01-01T00:00:00Z","name_a2s":"Uncletopia | Seattle | 2 | All Maps","protocol":17,"map":"pl_barnblitz","folder":"tf","game":"Team Fortress","app_id":440,"player_count":24,"max_players":24,"Bots":0,"server_type":"Dedicated","server_os":"Linux","password":true,"vac":true,"version":"7757534","steam_id":85568392924469998,"keywords":["nocrits","nodmgspread","payload","uncletopia"],"game_id":440,"stv_port":27026,"stv_name":"Uncletopia | Seattle | 2 | All Maps | STV","players":[{"user_id":163,"name":"Worm","steam_id":76561198086239747,"connected_time":522000000000,"state":"active","ping":120},{"user_id":169,"name":"Hawksgamer","steam_id":76561198152405941,"connected_time":39000000000,"state":"active","ping":56},{"user_id":149,"name":"AmiableNebula","steam_id":76561198094306627,"connected_time":1862000000000,"state":"active","ping":74},{"user_id":142,"name":"swiftyy","steam_id":76561198142939433,"connected_time":2487000000000,"state":"active","ping":107},{"user_id":155,"name":"lukamine","steam_id":76561198166827208,"connected_time":1199000000000,"state":"active","ping":45},{"user_id":143,"name":"Optimore","steam_id":76561198047662990,"connected_time":2467000000000,"state":"active","ping":73},{"user_id":131,"name":"Dill","steam_id":76561197995325198,"connected_time":3219000000000,"state":"active","ping":94},{"user_id":132,"name":"AmyPercent","steam_id":76561198071896932,"connected_time":3153000000000,"state":"active","ping":77},{"user_id":144,"name":"jawnymac","steam_id":76561198179529599,"connected_time":2429000000000,"state":"active","ping":75},{"user_id":83,"name":"old birb man","steam_id":76561199410269097,"connected_time":7137000000000,"state":"active","ping":84},{"user_id":154,"name":"Combustionaut","steam_id":76561198164877813,"connected_time":1360000000000,"state":"active","ping":52},{"user_id":85,"name":"The Pepsi¬Æ Superbowl¬Æ!","steam_id":76561198080828981,"connected_time":7041000000000,"state":"active","ping":79},{"user_id":158,"name":"Florist","steam_id":76561198009121060,"connected_time":1020000000000,"state":"active","ping":45},{"user_id":27,"name":"Little Linguine","steam_id":76561198816986370,"connected_time":9535000000000,"state":"active","ping":48},{"user_id":162,"name":"Fh","steam_id":76561198000903511,"connected_time":851000000000,"state":"active","ping":69},{"user_id":161,"name":"Shark Sandwich","steam_id":76561198025007938,"connected_time":1004000000000,"state":"active","ping":93},{"user_id":112,"name":"ApertureCity","steam_id":76561198004153607,"connected_time":5103000000000,"state":"active","ping":135},{"user_id":152,"name":"Waaaaz","steam_id":76561198029754301,"connected_time":1616000000000,"state":"active","ping":93},{"user_id":153,"name":"Flying Emu","steam_id":76561198121632924,"connected_time":1596000000000,"state":"active","ping":110},{"user_id":104,"name":"Keamy","steam_id":76561199471434875,"connected_time":5685000000000,"state":"active","ping":43},{"user_id":164,"name":"Â•óÂà©ËÄÖ","steam_id":76561198068672882,"connected_time":414000000000,"state":"active","ping":67},{"user_id":159,"name":"Frank","steam_id":76561198428759980,"connected_time":1017000000000,"state":"active","ping":37},{"user_id":148,"name":"‚úø PoutyBun ‚úø","steam_id":76561197965762847,"connected_time":1885000000000,"state":"active","ping":41},{"user_id":166,"name":"Mr8bittripper","steam_id":76561198133894229,"connected_time":233000000000,"state":"active","ping":63}]},{"server_id":406,"name":"Uncletopia | Seattle | 3 | Stopwatch Beta","name_short":"sea-3","host":"sea-1.us.uncletopia.com","port":27035,"enabled":true,"region":"us-west","cc":"us","latitude":47.608013,"longitude":-122.33517,"reserved":0,"last_update":"0001-01-01T00:00:00Z","name_a2s":"Uncletopia | Seattle | 3 | Stopwatch Beta","protocol":17,"map":"cp_process_final","folder":"tf","game":"Team Fortress","app_id":440,"player_count":0,"max_players":24,"Bots":0,"server_type":"Dedicated","server_os":"Linux","password":true,"vac":true,"version":"7757534","steam_id":85568392924515217,"keywords":["cp","nocrits","nodmgspread","uncletopia"],"game_id":440,"stv_port":27036,"stv_name":"Uncletopia | Seattle | 3 | Stopwatch Beta | STV","players":null},{"server_id":17,"name":"Uncletopia | San Francisco | 1 | All Maps","name_short":"sfo-1","host":"sfo-1.us.uncletopia.com","port":27015,"enabled":true,"region":"us-west","cc":"us","latitude":37.77397,"longitude":-122.4313,"reserved":0,"last_update":"0001-01-01T00:00:00Z","name_a2s":"Uncletopia | San Francisco | 1 | All Maps","protocol":17,"map":"koth_highpass","folder":"tf","game":"Team Fortress","app_id":440,"player_count":4,"max_players":24,"Bots":0,"server_type":"Dedicated","server_os":"Linux","password":true,"vac":true,"version":"7757534","steam_id":85568392924469999,"keywords":["cp","nocrits","nodmgspread","uncletopia"],"game_id":440,"stv_port":27016,"stv_name":"Uncletopia | San Francisco | 1 | All Maps | STV","players":[{"user_id":18,"name":"KillerBruhStar","steam_id":76561198401858258,"connected_time":88000000000,"state":"active","ping":74},{"user_id":15,"name":"nfseskimo","steam_id":76561198078745666,"connected_time":788000000000,"state":"active","ping":60},{"user_id":16,"name":"Nibotshooter","steam_id":76561199284825579,"connected_time":619000000000,"state":"active","ping":88},{"user_id":11,"name":"Deez Nuts","steam_id":76561199241575214,"connected_time":2046000000000,"state":"active","ping":239}]},{"server_id":18,"name":"Uncletopia | San Francisco | 2 | All Maps","name_short":"sfo-2","host":"sfo-1.us.uncletopia.com","port":27025,"enabled":true,"region":"us-west","cc":"us","latitude":37.77397,"longitude":-122.4313,"reserved":0,"last_update":"0001-01-01T00:00:00Z","name_a2s":"Uncletopia | San Francisco | 2 | All Maps","protocol":17,"map":"koth_viaduct","folder":"tf","game":"Team Fortress","app_id":440,"player_count":0,"max_players":24,"Bots":0,"server_type":"Dedicated","server_os":"Linux","password":true,"vac":true,"version":"7757534","steam_id":85568392924470000,"keywords":["cp","nocrits","nodmgspread","uncletopia"],"game_id":440,"stv_port":27026,"stv_name":"Uncletopia | San Francisco | 2 | All Maps | STV","players":null},{"server_id":19,"name":"Uncletopia | San Francisco | 3 | Stopwatch Beta","name_short":"sfo-3","host":"sfo-1.us.uncletopia.com","port":27035,"enabled":true,"region":"us-west","cc":"us","latitude":37.77397,"longitude":-122.4313,"reserved":0,"last_update":"0001-01-01T00:00:00Z","name_a2s":"Uncletopia | San Francisco | 3 | Stopwatch Beta","protocol":17,"map":"workshop/koth_ramjam_rc1.ugc459778887","folder":"tf","game":"Team Fortress","app_id":440,"player_count":0,"max_players":24,"Bots":0,"server_type":"Dedicated","server_os":"Linux","password":true,"vac":true,"version":"7757534","steam_id":85568392924742824,"keywords":["cp","nocrits","nodmgspread","uncletopia"],"game_id":440,"stv_port":27036,"stv_name":"Uncletopia | San Francisco | 3 | Stopwatch Beta | STV","players":null},{"server_id":20,"name":"Uncletopia | San Francisco | 4 | Community","name_short":"sfo-4","host":"sfo-1.us.uncletopia.com","port":27045,"enabled":true,"region":"us-west","cc":"us","latitude":37.77397,"longitude":-122.4313,"reserved":0,"last_update":"0001-01-01T00:00:00Z","name_a2s":"Uncletopia | San Francisco | 4 | Community","protocol":17,"map":"workshop/cp_glassworks_rc6a.ugc454118349","folder":"tf","game":"Team Fortress","app_id":440,"player_count":0,"max_players":24,"Bots":0,"server_type":"Dedicated","server_os":"Linux","password":true,"vac":true,"version":"7757534","steam_id":85568392924742826,"keywords":["cp","nocrits","nodmgspread","uncletopia"],"game_id":440,"stv_port":27046,"stv_name":"Uncletopia | San Francisco | 4 | Community | STV","players":null},{"server_id":141,"name":"Uncletopia | Sydney | 1 | All Maps","name_short":"syd-1","host":"syd-1.au.uncletopia.com","port":27015,"enabled":true,"region":"au","cc":"au","latitude":-33.865143,"longitude":151.2099,"reserved":0,"last_update":"0001-01-01T00:00:00Z","name_a2s":"Uncletopia | Sydney | 1 | All Maps","protocol":17,"map":"pl_borneo","folder":"tf","game":"Team Fortress","app_id":440,"player_count":0,"max_players":24,"Bots":0,"server_type":"Dedicated","server_os":"Linux","password":true,"vac":true,"version":"7757534","steam_id":85568392924470001,"keywords":["nocrits","nodmgspread","payload","uncletopia"],"game_id":440,"stv_port":27016,"stv_name":"Uncletopia | Sydney | 1 | All Maps | STV","players":null},{"server_id":123,"name":"Uncletopia | Sydney | 2 | All Maps","name_short":"syd-2","host":"syd-1.au.uncletopia.com","port":27025,"enabled":true,"region":"au","cc":"au","latitude":-33.865143,"longitude":151.2099,"reserved":0,"last_update":"0001-01-01T00:00:00Z","name_a2s":"Uncletopia | Sydney | 2 | All Maps","protocol":17,"map":"cp_snakewater_final1","folder":"tf","game":"Team Fortress","app_id":440,"player_count":1,"max_players":24,"Bots":0,"server_type":"Dedicated","server_os":"Linux","password":true,"vac":true,"version":"7757534","steam_id":85568392924470002,"keywords":["cp","nocrits","nodmgspread","uncletopia"],"game_id":440,"stv_port":27026,"stv_name":"Uncletopia | Sydney | 2 | All Maps | STV","players":[{"user_id":3,"name":"[TERMINATED]","steam_id":76561198451146503,"connected_time":405000000000,"state":"active","ping":99}]},{"server_id":395,"name":"Uncletopia | Sydney | 3 | All Maps","name_short":"syd-3","host":"syd-1.au.uncletopia.com","port":27035,"enabled":true,"region":"au","cc":"au","latitude":-33.865143,"longitude":151.2099,"reserved":0,"last_update":"0001-01-01T00:00:00Z","name_a2s":"Uncletopia | Sydney | 3 | All Maps","protocol":17,"map":"pl_borneo","folder":"tf","game":"Team Fortress","app_id":440,"player_count":0,"max_players":24,"Bots":0,"server_type":"Dedicated","server_os":"Linux","password":true,"vac":true,"version":"7757534","steam_id":85568392925194467,"keywords":["nocrits","nodmgspread","payload","uncletopia"],"game_id":440,"stv_port":27036,"stv_name":"Uncletopia | Sydney | 3 | All Maps | STV","players":null},{"server_id":396,"name":"Uncletopia | Sydney | 4 | All Maps","name_short":"syd-4","host":"syd-1.au.uncletopia.com","port":27045,"enabled":true,"region":"au","cc":"au","latitude":-33.865143,"longitude":151.2099,"reserved":0,"last_update":"0001-01-01T00:00:00Z","name_a2s":"Uncletopia | Sydney | 4 | All Maps","protocol":17,"map":"cp_process_final","folder":"tf","game":"Team Fortress","app_id":440,"player_count":0,"max_players":24,"Bots":0,"server_type":"Dedicated","server_os":"Linux","password":true,"vac":true,"version":"7757534","steam_id":85568392925397958,"keywords":["cp","nocrits","nodmgspread","uncletopia"],"game_id":440,"stv_port":27046,"stv_name":"Uncletopia | Sydney | 4 | All Maps | STV","players":null},{"server_id":58,"name":"Uncletopia | Sydney | 5 | Stopwatch Beta","name_short":"syd-5","host":"syd-1.au.uncletopia.com","port":27055,"enabled":true,"region":"au","cc":"au","latitude":-33.865143,"longitude":151.2099,"reserved":0,"last_update":"0001-01-01T00:00:00Z","name_a2s":"Uncletopia | Sydney | 5 | Stopwatch Beta","protocol":17,"map":"koth_cascade","folder":"tf","game":"Team Fortress","app_id":440,"player_count":0,"max_players":24,"Bots":0,"server_type":"Dedicated","server_os":"Linux","password":true,"vac":true,"version":"7757534","steam_id":85568392925397959,"keywords":["cp","nocrits","nodmgspread","uncletopia"],"game_id":440,"stv_port":27056,"stv_name":"Uncletopia | Sydney | 5 | Stopwatch Beta | STV","players":null},{"server_id":59,"name":"Uncletopia | Sydney | 6 | Community","name_short":"syd-6","host":"syd-1.au.uncletopia.com","port":27065,"enabled":true,"region":"au","cc":"au","latitude":-33.865143,"longitude":151.2099,"reserved":0,"last_update":"0001-01-01T00:00:00Z","name_a2s":"Uncletopia | Sydney | 6 | Community","protocol":17,"map":"pl_badwater","folder":"tf","game":"Team Fortress","app_id":440,"player_count":0,"max_players":24,"Bots":0,"server_type":"Dedicated","server_os":"Linux","password":true,"vac":true,"version":"7757534","steam_id":85568392925397960,"keywords":["nocrits","nodmgspread","payload","uncletopia"],"game_id":440,"stv_port":27066,"stv_name":"Uncletopia | Sydney | 6 | Community | STV","players":null},{"server_id":49,"name":"Uncletopia | Warsaw | 1 | All Maps","name_short":"waw-1","host":"waw-1.pl.uncletopia.com","port":27015,"enabled":true,"region":"eu","cc":"pl","latitude":52.2297,"longitude":21.017532,"reserved":0,"last_update":"0001-01-01T00:00:00Z","name_a2s":"","protocol":0,"map":"","folder":"","game":"","app_id":0,"player_count":0,"max_players":0,"Bots":0,"server_type":"","server_os":"","password":false,"vac":false,"version":"","steam_id":0,"keywords":null,"game_id":0,"stv_port":0,"stv_name":"","players":null},{"server_id":50,"name":"Uncletopia | Warsaw | 2 | All Maps","name_short":"waw-2","host":"waw-1.pl.uncletopia.com","port":27025,"enabled":true,"region":"eu","cc":"pl","latitude":52.2297,"longitude":21.017532,"reserved":0,"last_update":"0001-01-01T00:00:00Z","name_a2s":"Uncletopia | Warsaw | 2 | All Maps","protocol":17,"map":"koth_highpass","folder":"tf","game":"Team Fortress","app_id":440,"player_count":0,"max_players":24,"Bots":0,"server_type":"Dedicated","server_os":"Linux","password":true,"vac":true,"version":"7757534","steam_id":85568392925397851,"keywords":["cp","nocrits","nodmgspread","uncletopia"],"game_id":440,"stv_port":27026,"stv_name":"Uncletopia | Warsaw | 2 | All Maps | STV","players":null},{"server_id":51,"name":"Uncletopia | Warsaw | 3 | All Maps","name_short":"waw-3","host":"waw-1.pl.uncletopia.com","port":27035,"enabled":true,"region":"eu","cc":"pl","latitude":52.2297,"longitude":21.017532,"reserved":0,"last_update":"0001-01-01T00:00:00Z","name_a2s":"Uncletopia | Warsaw | 3 | All Maps","protocol":17,"map":"koth_highpass","folder":"tf","game":"Team Fortress","app_id":440,"player_count":0,"max_players":24,"Bots":0,"server_type":"Dedicated","server_os":"Linux","password":true,"vac":true,"version":"7757534","steam_id":85568392925397852,"keywords":["cp","nocrits","nodmgspread","uncletopia"],"game_id":440,"stv_port":27036,"stv_name":"Uncletopia | Warsaw | 3 | All Maps | STV","players":null},{"server_id":52,"name":"Uncletopia | Warsaw | 4 | All Maps","name_short":"waw-4","host":"waw-1.pl.uncletopia.com","port":27045,"enabled":true,"region":"eu","cc":"pl","latitude":52.2297,"longitude":21.017532,"reserved":0,"last_update":"0001-01-01T00:00:00Z","name_a2s":"Uncletopia | Warsaw | 4 | All Maps","protocol":17,"map":"cp_altitude","folder":"tf","game":"Team Fortress","app_id":440,"player_count":0,"max_players":24,"Bots":0,"server_type":"Dedicated","server_os":"Linux","password":true,"vac":true,"version":"7757534","steam_id":85568392925397853,"keywords":["cp","nocrits","nodmgspread","uncletopia"],"game_id":440,"stv_port":27046,"stv_name":"Uncletopia | Warsaw | 4 | All Maps | STV","players":null},{"server_id":53,"name":"Uncletopia | Warsaw | 5 | Stopwatch Beta","name_short":"waw-5","host":"waw-1.pl.uncletopia.com","port":27055,"enabled":true,"region":"eu","cc":"pl","latitude":52.2297,"longitude":21.017532,"reserved":0,"last_update":"0001-01-01T00:00:00Z","name_a2s":"Uncletopia | Warsaw | 5 | Stopwatch Beta","protocol":17,"map":"pl_pier","folder":"tf","game":"Team Fortress","app_id":440,"player_count":0,"max_players":24,"Bots":0,"server_type":"Dedicated","server_os":"Linux","password":true,"vac":true,"version":"7757534","steam_id":85568392925397854,"keywords":["nocrits","nodmgspread","payload","uncletopia"],"game_id":440,"stv_port":27056,"stv_name":"Uncletopia | Warsaw | 5 | Stopwatch Beta | STV","players":null},{"server_id":54,"name":"Uncletopia | Warsaw | 6 | Community","name_short":"waw-6","host":"waw-1.pl.uncletopia.com","port":27065,"enabled":true,"region":"eu","cc":"pl","latitude":52.2297,"longitude":21.017532,"reserved":0,"last_update":"0001-01-01T00:00:00Z","name_a2s":"Uncletopia | Warsaw | 6 | Community","protocol":17,"map":"koth_highpass","folder":"tf","game":"Team Fortress","app_id":440,"player_count":0,"max_players":24,"Bots":0,"server_type":"Dedicated","server_os":"Linux","password":true,"vac":true,"version":"7757534","steam_id":85568392925397856,"keywords":["cp","nocrits","nodmgspread","uncletopia"],"game_id":440,"stv_port":27066,"stv_name":"Uncletopia | Warsaw | 6 | Community | STV","players":null}]}