{"status":true,"message":"","result":[{"server_id":9,"name":"Uncletopia | Atlanta | 1 | All Maps","name_short":"atl-1","host":"atl-1.us.uncletopia.com","port":27015,"enabled":true,"region":"us-east","cc":"us","latitude":33.753746,"longitude":-84.38633,"reserved":0,"last_update":"0001-01-01T00:00:00Z","name_a2s":"Uncletopia | Atlanta | 1 | All Maps","protocol":17,"map":"cp_powerhouse","folder":"tf","game":"Team Fortress","app_id":440,"player_count":24,"max_players":24,"Bots":0,"server_type":"Dedicated","server_os":"Linux","password":true,"vac":true,"version":"7961495","steam_id":85568392924469982,"keywords":["cp","nocrits","nodmgspread","uncletopia"],"game_id":440,"stv_port":27016,"stv_name":"Uncletopia | Atlanta | 1 | All Maps | STV","players":[{"user_id":413,"name":"sansa musa","steam_id":76561198163723555,"connected_time":6783000000000,"state":"active","ping":74},{"user_id":419,"name":"Gus Fring","steam_id":76561199022178492,"connected_time":6582000000000,"state":"active","ping":51},{"user_id":473,"name":"big steve","steam_id":76561199037050183,"connected_time":2340000000000,"state":"active","ping":77},{"user_id":507,"name":"LOVEDRAGON","steam_id":76561198089908485,"connected_time":481000000000,"state":"active","ping":71},{"user_id":495,"name":"Alyx","steam_id":76561198047212251,"connected_time":1025000000000,"state":"active","ping":60},{"user_id":505,"name":"Roberto Del Fuego","steam_id":76561198043458554,"connected_time":796000000000,"state":"active","ping":47},{"user_id":496,"name":"fleants","steam_id":76561198085416641,"connected_time":1020000000000,"state":"active","ping":68},{"user_id":478,"name":"DuckMann","steam_id":76561198197058638,"connected_time":2074000000000,"state":"active","ping":46},{"user_id":491,"name":"chexo4","steam_id":76561198150532531,"connected_time":1104000000000,"state":"active","ping":49},{"user_id":497,"name":"Holy Freaking Moly","steam_id":76561198054873965,"connected_time":1011000000000,"state":"active","ping":49},{"user_id":499,"name":"zuma deluxe","steam_id":76561198059041027,"connected_time":974000000000,"state":"active","ping":117},{"user_id":398,"name":"Pango","steam_id":76561198069811545,"connected_time":8474000000000,"state":"active","ping":46},{"user_id":489,"name":"Laura Palmer Gaming","steam_id":76561198282965733,"connected_time":1536000000000,"state":"active","ping":57},{"user_id":500,"name":"Sorry","steam_id":76561198040722720,"connected_time":973000000000,"state":"active","ping":83},{"user_id":482,"name":"The One True Luke","steam_id":76561198180891187,"connected_time":2034000000000,"state":"active","ping":73},{"user_id":483,"name":"Lobotomy Enthusiast","steam_id":76561198085520751,"connected_time":2020000000000,"state":"active","ping":56},{"user_id":504,"name":"Onyx","steam_id":76561198275349640,"connected_time":803000000000,"state":"active","ping":77},{"user_id":506,"name":"Nørzaq","steam_id":76561198143188802,"connected_time":544000000000,"state":"active","ping":116},{"user_id":492,"name":"dam","steam_id":76561198991633113,"connected_time":1103000000000,"state":"active","ping":111},{"user_id":445,"name":"Tay1Qr","steam_id":76561198082809935,"connected_time":4902000000000,"state":"active","ping":64},{"user_id":461,"name":"KennytheHedgehog","steam_id":76561198094607721,"connected_time":3397000000000,"state":"active","ping":69},{"user_id":475,"name":"ATL1 | cola","steam_id":76561198374390458,"connected_time":2289000000000,"state":"active","ping":65},{"user_id":485,"name":"Pizza time","steam_id":76561199005827155,"connected_time":1918000000000,"state":"active","ping":102},{"user_id":503,"name":"Baannaannaa","steam_id":76561198042895194,"connected_time":859000000000,"state":"active","ping":68}]},{"server_id":104,"name":"Uncletopia | Atlanta | 2 | All Maps","name_short":"atl-2","host":"atl-1.us.uncletopia.com","port":27025,"enabled":true,"region":"us-east","cc":"us","latitude":33.753746,"longitude":-84.38633,"reserved":0,"last_update":"0001-01-01T00:00:00Z","name_a2s":"Uncletopia | Atlanta | 2 | All Maps","protocol":17,"map":"pl_pier","folder":"tf","game":"Team Fortress","app_id":440,"player_count":23,"max_players":24,"Bots":0,"server_type":"Dedicated","server_os":"Linux","password":true,"vac":true,"version":"7961495","steam_id":85568392924469983,"keywords":["nocrits","nodmgspread","payload","uncletopia"],"game_id":440,"stv_port":27026,"stv_name":"Uncletopia | Atlanta | 2 | All Maps | STV","players":[{"user_id":329,"name":"rattlin' bog","steam_id":76561198224551028,"connected_time":2129000000000,"state":"active","ping":72},{"user_id":320,"name":"Rudy","steam_id":76561198013456828,"connected_time":2380000000000,"state":"active","ping":74},{"user_id":283,"name":"simply","steam_id":76561198215728721,"connected_time":5416000000000,"state":"active","ping":51},{"user_id":312,"name":"Mildstrife","steam_id":76561198000080715,"connected_time":3546000000000,"state":"active","ping":85},{"user_id":321,"name":"Azazellotl","steam_id":76561198824814392,"connected_time":2362000000000,"state":"active","ping":76},{"user_id":323,"name":"Father Zimbabwe","steam_id":76561198043872907,"connected_time":2319000000000,"state":"active","ping":60},{"user_id":365,"name":"lalman","steam_id":76561198196605887,"connected_time":202000000000,"state":"active","ping":74},{"user_id":230,"name":"Oxygen User","steam_id":76561199111975528,"connected_time":10548000000000,"state":"active","ping":68},{"user_id":362,"name":"Wumbologist","steam_id":76561198188729514,"connected_time":438000000000,"state":"active","ping":61},{"user_id":309,"name":"igotmail","steam_id":76561198070631899,"connected_time":3592000000000,"state":"active","ping":79},{"user_id":336,"name":"aaaxel","steam_id":76561198137430598,"connected_time":1179000000000,"state":"active","ping":76},{"user_id":354,"name":"Universe Man","steam_id":76561197997710655,"connected_time":647000000000,"state":"active","ping":71},{"user_id":366,"name":"Brown_Dream","steam_id":76561198975766145,"connected_time":64000000000,"state":"active","ping":82},{"user_id":306,"name":"DarkenedPolarity","steam_id":76561199073099596,"connected_time":3872000000000,"state":"active","ping":71},{"user_id":345,"name":"FreshlyBrewed","steam_id":76561198181099881,"connected_time":1047000000000,"state":"active","ping":102},{"user_id":300,"name":"gyat","steam_id":76561198043684960,"connected_time":4558000000000,"state":"active","ping":72},{"user_id":290,"name":"Juan Pablo Gonzalez 2023","steam_id":76561199197961413,"connected_time":5196000000000,"state":"active","ping":63},{"user_id":330,"name":"swan","steam_id":76561198012569200,"connected_time":2128000000000,"state":"active","ping":73},{"user_id":346,"name":"Sicko Mode (Chris Pratt Cover)","steam_id":76561198315786174,"connected_time":1035000000000,"state":"active","ping":89},{"user_id":348,"name":"JustAnotherHuman","steam_id":76561199018122924,"connected_time":959000000000,"state":"active","ping":114},{"user_id":331,"name":"herobrine from xbox 360","steam_id":76561199244367897,"connected_time":2092000000000,"state":"active","ping":67},{"user_id":364,"name":"Sus:/","steam_id":76561199232156472,"connected_time":406000000000,"state":"active","ping":85},{"user_id":317,"name":"Sky_CW","steam_id":76561198131867612,"connected_time":2679000000000,"state":"active","ping":66}]},{"server_id":400,"name":"Uncletopia | Atlanta | 3 | Stopwatch","name_short":"atl-3","host":"atl-1.us.uncletopia.com","port":27035,"enabled":true,"region":"us-east","cc":"us","latitude":33.753746,"longitude":-84.38633,"reserved":0,"last_update":"0001-01-01T00:00:00Z","name_a2s":"Uncletopia | Atlanta | 3 | Stopwatch","protocol":17,"map":"workshop/pl_badwater_pro_v12.ugc2142942074","folder":"tf","game":"Team Fortress","app_id":440,"player_count":24,"max_players":24,"Bots":0,"server_type":"Dedicated","server_os":"Linux","password":true,"vac":true,"version":"7961495","steam_id":85568392924515187,"keywords":["nocrits","nodmgspread","payload","uncletopia"],"game_id":440,"stv_port":27036,"stv_name":"Uncletopia | Atlanta | 3 | Stopwatch | STV","players":[{"user_id":45,"name":"-_oni-_-_-JoJo_-","steam_id":76561199229584264,"connected_time":2393000000000,"state":"active","ping":78},{"user_id":75,"name":"CreateADebate","steam_id":76561198115760035,"connected_time":545000000000,"state":"active","ping":47},{"user_id":83,"name":"dave :3","steam_id":76561198135961731,"connected_time":441000000000,"state":"active","ping":76},{"user_id":35,"name":"Effie","steam_id":76561198261842068,"connected_time":4057000000000,"state":"active","ping":74},{"user_id":44,"name":"Aggressive Menace","steam_id":76561198249138216,"connected_time":2650000000000,"state":"active","ping":74},{"user_id":77,"name":"Andallfor","steam_id":76561198350143349,"connected_time":538000000000,"state":"active","ping":68},{"user_id":28,"name":"Elijah123","steam_id":76561199037648021,"connected_time":5646000000000,"state":"active","ping":75},{"user_id":86,"name":"ther","steam_id":76561199191376935,"connected_time":215000000000,"state":"active","ping":102},{"user_id":52,"name":"Arthur","steam_id":76561199002734947,"connected_time":1659000000000,"state":"active","ping":118},{"user_id":73,"name":"DarkestRose","steam_id":76561199090647043,"connected_time":910000000000,"state":"active","ping":116},{"user_id":87,"name":"goat farmer","steam_id":76561199164226751,"connected_time":207000000000,"state":"active","ping":68},{"user_id":88,"name":"oppenheimer style","steam_id":76561198026664629,"connected_time":161000000000,"state":"active","ping":60},{"user_id":79,"name":"coco","steam_id":76561199112844022,"connected_time":517000000000,"state":"active","ping":448},{"user_id":57,"name":"diegotch808","steam_id":76561199171872199,"connected_time":1526000000000,"state":"active","ping":125},{"user_id":58,"name":"mini-sentry","steam_id":76561198884712155,"connected_time":1505000000000,"state":"active","ping":81},{"user_id":80,"name":"vebr","steam_id":76561199189391772,"connected_time":496000000000,"state":"active","ping":87},{"user_id":61,"name":"Zave","steam_id":76561198031565082,"connected_time":1345000000000,"state":"active","ping":131},{"user_id":64,"name":"I Dont Know","steam_id":76561198866602516,"connected_time":1208000000000,"state":"active","ping":83},{"user_id":66,"name":"Taskrabbits","steam_id":76561198366682546,"connected_time":1106000000000,"state":"active","ping":125},{"user_id":67,"name":"scarecr0wzz","steam_id":76561198416218389,"connected_time":1077000000000,"state":"active","ping":75},{"user_id":92,"name":"Johnny Lawrence #JohnnyMaxxing","steam_id":76561199367141671,"connected_time":72000000000,"state":"active","ping":73},{"user_id":81,"name":"Kobbert","steam_id":76561198045040833,"connected_time":495000000000,"state":"active","ping":62},{"user_id":91,"name":"Eldritch","steam_id":76561199009135766,"connected_time":106000000000,"state":"active","ping":79},{"user_id":84,"name":"UwU","steam_id":76561198971629959,"connected_time":401000000000,"state":"active","ping":118}]},{"server_id":401,"name":"Uncletopia | Atlanta | 4 | Community","name_short":"atl-4","host":"atl-1.us.uncletopia.com","port":27045,"enabled":true,"region":"us-east","cc":"us","latitude":33.753746,"longitude":-84.38633,"reserved":0,"last_update":"0001-01-01T00:00:00Z","name_a2s":"Uncletopia | Atlanta | 4 | Community","protocol":17,"map":"workshop/cp_croissant_final.ugc458840209","folder":"tf","game":"Team Fortress","app_id":440,"player_count":23,"max_players":24,"Bots":0,"server_type":"Dedicated","server_os":"Linux","password":true,"vac":true,"version":"7961495","steam_id":85568392924515188,"keywords":["cp","nocrits","nodmgspread","uncletopia"],"game_id":440,"stv_port":27046,"stv_name":"Uncletopia | Atlanta | 4 | Community | STV","players":[{"user_id":50,"name":"Uncle Majic the Hip Hop Magicia","steam_id":76561198107924303,"connected_time":2580000000000,"state":"active","ping":60},{"user_id":10,"name":"GameingFingerPuppet","steam_id":76561199200524643,"connected_time":4977000000000,"state":"active","ping":70},{"user_id":60,"name":"blonde binch","steam_id":76561198066227208,"connected_time":2044000000000,"state":"active","ping":60},{"user_id":12,"name":"corygaming","steam_id":76561198035669409,"connected_time":4681000000000,"state":"active","ping":135},{"user_id":80,"name":"Coach McFish","steam_id":76561198210456405,"connected_time":60000000000,"state":"active","ping":93},{"user_id":16,"name":"squishy","steam_id":76561198015034116,"connected_time":4607000000000,"state":"active","ping":70},{"user_id":67,"name":"Jag","steam_id":76561198001220471,"connected_time":1802000000000,"state":"active","ping":44},{"user_id":77,"name":"RocketRabbit","steam_id":76561198803062131,"connected_time":667000000000,"state":"active","ping":72},{"user_id":81,"name":"Arhkma_MuddyKipz","steam_id":76561198027180678,"connected_time":49000000000,"state":"active","ping":85},{"user_id":82,"name":"2inch","steam_id":76561198082116747,"connected_time":44000000000,"state":"active","ping":85},{"user_id":25,"name":"badabing badaboom","steam_id":76561198850358863,"connected_time":4032000000000,"state":"active","ping":161},{"user_id":83,"name":"Mightykami","steam_id":76561198064233918,"connected_time":39000000000,"state":"spawning","ping":154},{"user_id":53,"name":"xLeoparrd","steam_id":76561198940657194,"connected_time":2493000000000,"state":"active","ping":84},{"user_id":84,"name":"Poop Deck Joe","steam_id":76561198271397568,"connected_time":36000000000,"state":"active","ping":86},{"user_id":58,"name":"Eiss","steam_id":76561198343183806,"connected_time":2114000000000,"state":"active","ping":80},{"user_id":33,"name":"bird who can't aim","steam_id":76561198062360755,"connected_time":3775000000000,"state":"active","ping":55},{"user_id":55,"name":"Sanfox","steam_id":76561197969919451,"connected_time":2440000000000,"state":"active","ping":61},{"user_id":41,"name":"scooter","steam_id":76561198045603885,"connected_time":3610000000000,"state":"active","ping":46},{"user_id":56,"name":"UphillBuffalo","steam_id":76561198114640358,"connected_time":2418000000000,"state":"active","ping":86},{"user_id":76,"name":"shopvac model 18634964","steam_id":76561199121303492,"connected_time":919000000000,"state":"active","ping":65},{"user_id":49,"name":"Whompert","steam_id":76561198042939624,"connected_time":2853000000000,"state":"active","ping":70},{"user_id":79,"name":"Almonicus","steam_id":76561198044401351,"connected_time":622000000000,"state":"active","ping":84},{"user_id":85,"name":"V_","steam_id":76561198147577835,"connected_time":32000000000,"state":"spawning","ping":256}]},{"server_id":2,"name":"Uncletopia | Chicago | 1 | All Maps","name_short":"chi-1","host":"chi-1.us.uncletopia.com","port":27015,"enabled":true,"region":"us-central","cc":"us","latitude":41.881832,"longitude":-87.62318,"reserved":0,"last_update":"0001-01-01T00:00:00Z","name_a2s":"Uncletopia | Chicago | 1 | All Maps","protocol":17,"map":"pl_frontier_final","folder":"tf","game":"Team Fortress","app_id":440,"player_count":24,"max_players":24,"Bots":0,"server_type":"Dedicated","server_os":"Linux","password":true,"vac":true,"version":"7961495","steam_id":85568392924469984,"keywords":["nocrits","nodmgspread","payload","uncletopia"],"game_id":440,"stv_port":27016,"stv_name":"Uncletopia | Chicago | 1 | All Maps | STV","players":[{"user_id":544,"name":"THORNFIELDGAMER","steam_id":76561199087167473,"connected_time":2961000000000,"state":"active","ping":85},{"user_id":545,"name":"nowayayay","steam_id":76561198248322524,"connected_time":2943000000000,"state":"active","ping":56},{"user_id":445,"name":"L + Ratio","steam_id":76561198263786953,"connected_time":6801000000000,"state":"active","ping":83},{"user_id":546,"name":"Space","steam_id":76561198350489754,"connected_time":2922000000000,"state":"active","ping":53},{"user_id":439,"name":"flamingcookies","steam_id":76561198280864779,"connected_time":7076000000000,"state":"active","ping":63},{"user_id":575,"name":"Celestial Bodies","steam_id":76561198212572955,"connected_time":1324000000000,"state":"active","ping":78},{"user_id":425,"name":".JIFF","steam_id":76561198045181760,"connected_time":8721000000000,"state":"active","ping":61},{"user_id":589,"name":"Beeg Yoshi","steam_id":76561198835789509,"connected_time":212000000000,"state":"active","ping":56},{"user_id":549,"name":"Astoriae!","steam_id":76561199090168858,"connected_time":2357000000000,"state":"active","ping":73},{"user_id":583,"name":"Furious George","steam_id":76561198405111646,"connected_time":766000000000,"state":"active","ping":95},{"user_id":412,"name":"Drooop","steam_id":76561198856700517,"connected_time":10207000000000,"state":"active","ping":74},{"user_id":590,"name":"HalfFoxyfan1","steam_id":76561199122382647,"connected_time":197000000000,"state":"active","ping":70},{"user_id":551,"name":"Rex","steam_id":76561198138365053,"connected_time":2192000000000,"state":"active","ping":120},{"user_id":594,"name":"I Am Alpharius","steam_id":76561198033100226,"connected_time":1000000000,"state":"spawning","ping":45},{"user_id":593,"name":"AverageGloop","steam_id":76561198243395378,"connected_time":68000000000,"state":"active","ping":63},{"user_id":487,"name":"Chode Mode","steam_id":76561198353840477,"connected_time":4517000000000,"state":"active","ping":45},{"user_id":581,"name":"slep.py","steam_id":76561197988287144,"connected_time":784000000000,"state":"active","ping":55},{"user_id":376,"name":"Rode hard, put away wet","steam_id":76561198062764039,"connected_time":15017000000000,"state":"active","ping":53},{"user_id":580,"name":"SandHanitizer","steam_id":76561198234676500,"connected_time":805000000000,"state":"active","ping":80},{"user_id":587,"name":"BradB.","steam_id":76561199163905036,"connected_time":278000000000,"state":"active","ping":82},{"user_id":565,"name":"Orange Joe","steam_id":76561198082208637,"connected_time":1812000000000,"state":"active","ping":89},{"user_id":592,"name":"Notsocreative","steam_id":76561198236372202,"connected_time":178000000000,"state":"active","ping":81},{"user_id":569,"name":"pim","steam_id":76561198095163441,"connected_time":1770000000000,"state":"active","ping":66},{"user_id":489,"name":"subdromeda","steam_id":76561198884351860,"connected_time":4517000000000,"state":"active","ping":75}]},{"server_id":106,"name":"Uncletopia | Chicago | 2 | All Maps","name_short":"chi-2","host":"chi-1.us.uncletopia.com","port":27025,"enabled":true,"region":"us-central","cc":"us","latitude":41.881832,"longitude":-87.62318,"reserved":0,"last_update":"0001-01-01T00:00:00Z","name_a2s":"Uncletopia | Chicago | 2 | All Maps","protocol":17,"map":"pl_frontier_final","folder":"tf","game":"Team Fortress","app_id":440,"player_count":24,"max_players":24,"Bots":0,"server_type":"Dedicated","server_os":"Linux","password":true,"vac":true,"version":"7961495","steam_id":85568392924469985,"keywords":["nocrits","nodmgspread","payload","uncletopia"],"game_id":440,"stv_port":27026,"stv_name":"Uncletopia | Chicago | 2 | All Maps | STV","players":[{"user_id":715,"name":"Warpy","steam_id":76561198055852599,"connected_time":2788000000000,"state":"active","ping":93},{"user_id":736,"name":"Pillows","steam_id":76561198342571075,"connected_time":567000000000,"state":"active","ping":104},{"user_id":716,"name":"ThePatheticMedic","steam_id":76561198873083105,"connected_time":2726000000000,"state":"active","ping":61},{"user_id":729,"name":"Mr. Tickle","steam_id":76561198126684647,"connected_time":1485000000000,"state":"active","ping":53},{"user_id":727,"name":"Kirby.exe","steam_id":76561198242714582,"connected_time":1717000000000,"state":"active","ping":63},{"user_id":659,"name":"Arildis","steam_id":76561198123516977,"connected_time":5509000000000,"state":"active","ping":63},{"user_id":739,"name":"Joe Biden","steam_id":76561198056170906,"connected_time":421000000000,"state":"active","ping":84},{"user_id":708,"name":"kicks","steam_id":76561199228854923,"connected_time":3203000000000,"state":"active","ping":57},{"user_id":740,"name":"Yoshi Milkman","steam_id":76561198348594594,"connected_time":406000000000,"state":"active","ping":51},{"user_id":554,"name":"Ajax","steam_id":76561197962240140,"connected_time":13900000000000,"state":"active","ping":61},{"user_id":741,"name":"Jel1440","steam_id":76561198179045366,"connected_time":397000000000,"state":"active","ping":56},{"user_id":738,"name":"Wookie257","steam_id":76561198984452441,"connected_time":472000000000,"state":"active","ping":83},{"user_id":728,"name":"Gut125","steam_id":76561198101787225,"connected_time":1685000000000,"state":"active","ping":90},{"user_id":718,"name":"sailor","steam_id":76561198091015050,"connected_time":2687000000000,"state":"active","ping":52},{"user_id":711,"name":"Cyber Cylon","steam_id":76561198048972781,"connected_time":3073000000000,"state":"active","ping":67},{"user_id":713,"name":"bobby  peanstalk","steam_id":76561198040495463,"connected_time":2943000000000,"state":"active","ping":60},{"user_id":747,"name":"Arthur SSJ2","steam_id":76561198043678479,"connected_time":80000000000,"state":"active","ping":47},{"user_id":714,"name":"EvilMrPotoo ｡◕‿◕｡","steam_id":76561198012566870,"connected_time":2855000000000,"state":"active","ping":60},{"user_id":735,"name":"Weebmcgee","steam_id":76561198081231557,"connected_time":875000000000,"state":"active","ping":67},{"user_id":748,"name":"Snoman","steam_id":76561197969248675,"connected_time":37000000000,"state":"active","ping":62},{"user_id":749,"name":"Jokergamma","steam_id":76561198807984541,"connected_time":35000000000,"state":"active","ping":81},{"user_id":744,"name":"comrade slug","steam_id":76561198347280079,"connected_time":358000000000,"state":"active","ping":99},{"user_id":745,"name":"UzedPickle","steam_id":76561198005513760,"connected_time":345000000000,"state":"active","ping":78},{"user_id":746,"name":"The Foolish Samurai","steam_id":76561198094494945,"connected_time":308000000000,"state":"active","ping":111}]},{"server_id":402,"name":"Uncletopia | Chicago | 3 | All Maps","name_short":"chi-3","host":"chi-1.us.uncletopia.com","port":27035,"enabled":true,"region":"us-central","cc":"us","latitude":41.881832,"longitude":-87.62318,"reserved":0,"last_update":"0001-01-01T00:00:00Z","name_a2s":"Uncletopia | Chicago | 3 | All Maps","protocol":17,"map":"cp_dustbowl","folder":"tf","game":"Team Fortress","app_id":440,"player_count":24,"max_players":24,"Bots":0,"server_type":"Dedicated","server_os":"Linux","password":true,"vac":true,"version":"7961495","steam_id":85568392924515191,"keywords":["cp","nocrits","nodmgspread","uncletopia"],"game_id":440,"stv_port":27036,"stv_name":"Uncletopia | Chicago | 3 | All Maps | STV","players":[{"user_id":525,"name":"Riandox","steam_id":76561198130577326,"connected_time":153000000000,"state":"active","ping":61},{"user_id":512,"name":"Drake's Son","steam_id":76561198055628298,"connected_time":777000000000,"state":"active","ping":62},{"user_id":503,"name":"Soladach","steam_id":76561198091616441,"connected_time":1394000000000,"state":"active","ping":78},{"user_id":516,"name":"Huey","steam_id":76561198972816386,"connected_time":379000000000,"state":"active","ping":77},{"user_id":520,"name":"Der Krieger105","steam_id":76561197978384609,"connected_time":262000000000,"state":"active","ping":85},{"user_id":514,"name":"mudbuddle","steam_id":76561198042394402,"connected_time":703000000000,"state":"active","ping":69},{"user_id":487,"name":"MedRed™ #IATAH","steam_id":76561198002962970,"connected_time":2697000000000,"state":"active","ping":102},{"user_id":518,"name":"pupil ;)","steam_id":76561198047293356,"connected_time":289000000000,"state":"active","ping":69},{"user_id":490,"name":"Lia_Rein","steam_id":76561198151569597,"connected_time":2660000000000,"state":"active","ping":135},{"user_id":504,"name":"og biden pack cart","steam_id":76561198253731826,"connected_time":1390000000000,"state":"active","ping":62},{"user_id":481,"name":"Buckler","steam_id":76561197969421355,"connected_time":3650000000000,"state":"active","ping":59},{"user_id":519,"name":"I am two in a krillion","steam_id":76561198165208572,"connected_time":279000000000,"state":"active","ping":61},{"user_id":521,"name":"Sajurf","steam_id":76561198288552996,"connected_time":247000000000,"state":"active","ping":93},{"user_id":522,"name":"Blade Racer","steam_id":76561198155896703,"connected_time":243000000000,"state":"active","ping":83},{"user_id":457,"name":"Tobo","steam_id":76561198085846393,"connected_time":5972000000000,"state":"active","ping":97},{"user_id":523,"name":"AdachiGaming","steam_id":76561199193986463,"connected_time":235000000000,"state":"active","ping":155},{"user_id":526,"name":"Pizza Delivery Maid","steam_id":76561198444610862,"connected_time":153000000000,"state":"active","ping":112},{"user_id":527,"name":"Factatac","steam_id":76561198176041003,"connected_time":141000000000,"state":"active","ping":115},{"user_id":528,"name":"Worst Scenario","steam_id":76561199052130229,"connected_time":131000000000,"state":"active","ping":72},{"user_id":456,"name":"Howard Hamlin","steam_id":76561198881039861,"connected_time":6061000000000,"state":"active","ping":45},{"user_id":491,"name":"VisibleForce","steam_id":76561198104178938,"connected_time":2660000000000,"state":"active","ping":80},{"user_id":510,"name":"suicide enjoyer","steam_id":76561198057076267,"connected_time":999000000000,"state":"active","ping":101},{"user_id":479,"name":"hej","steam_id":76561197996366940,"connected_time":3795000000000,"state":"active","ping":60},{"user_id":511,"name":"Anthid","steam_id":76561198074493797,"connected_time":986000000000,"state":"active","ping":61}]},{"server_id":403,"name":"Uncletopia | Chicago | 4 | All Maps","name_short":"chi-4","host":"chi-1.us.uncletopia.com","port":27045,"enabled":true,"region":"us-central","cc":"us","latitude":41.881832,"longitude":-87.62318,"reserved":0,"last_update":"0001-01-01T00:00:00Z","name_a2s":"Uncletopia | Chicago | 4 | All Maps","protocol":17,"map":"pl_barnblitz","folder":"tf","game":"Team Fortress","app_id":440,"player_count":23,"max_players":24,"Bots":0,"server_type":"Dedicated","server_os":"Linux","password":true,"vac":true,"version":"7961495","steam_id":85568392924515193,"keywords":["nocrits","nodmgspread","payload","uncletopia"],"game_id":440,"stv_port":27046,"stv_name":"Uncletopia | Chicago | 4 | All Maps | STV","players":[{"user_id":346,"name":"Jake_Spencer","steam_id":76561198025176750,"connected_time":1230000000000,"state":"active","ping":92},{"user_id":328,"name":"Classic","steam_id":76561198215293509,"connected_time":2608000000000,"state":"active","ping":60},{"user_id":307,"name":"[SB] EDDIE SPAGHETTI","steam_id":76561198071688546,"connected_time":3982000000000,"state":"active","ping":82},{"user_id":334,"name":"NvAka","steam_id":76561199044781490,"connected_time":2360000000000,"state":"active","ping":77},{"user_id":355,"name":"shake","steam_id":76561199064204750,"connected_time":934000000000,"state":"active","ping":74},{"user_id":347,"name":"Nerf Clean Hit","steam_id":76561198257691881,"connected_time":1221000000000,"state":"active","ping":91},{"user_id":354,"name":"Manny Heffley","steam_id":76561198135137213,"connected_time":1004000000000,"state":"active","ping":57},{"user_id":268,"name":"DiamondEpsilon","steam_id":76561198203883311,"connected_time":5696000000000,"state":"active","ping":81},{"user_id":344,"name":"Red","steam_id":76561198001939529,"connected_time":1260000000000,"state":"active","ping":101},{"user_id":342,"name":"The Jar","steam_id":76561198146013385,"connected_time":2225000000000,"state":"active","ping":71},{"user_id":215,"name":"♥ Tomboy ♥","steam_id":76561198069881436,"connected_time":9001000000000,"state":"active","ping":85},{"user_id":361,"name":"slope","steam_id":76561198139303045,"connected_time":619000000000,"state":"active","ping":170},{"user_id":360,"name":"ooo","steam_id":76561198997456769,"connected_time":689000000000,"state":"active","ping":82},{"user_id":331,"name":"♡Ame♡","steam_id":76561198071217748,"connected_time":2583000000000,"state":"active","ping":49},{"user_id":349,"name":"JOOOOOOOOOOOOO!!!!!!","steam_id":76561199101638460,"connected_time":1196000000000,"state":"active","ping":75},{"user_id":317,"name":"Six Piece Chicken McNobody","steam_id":76561198129848222,"connected_time":2886000000000,"state":"active","ping":71},{"user_id":363,"name":"craigcest","steam_id":76561198105357961,"connected_time":23000000000,"state":"active","ping":91},{"user_id":278,"name":"KASHI","steam_id":76561198045285049,"connected_time":4952000000000,"state":"active","ping":86},{"user_id":337,"name":"fathead","steam_id":76561198150155615,"connected_time":2346000000000,"state":"active","ping":101},{"user_id":350,"name":"Breach","steam_id":76561198045060392,"connected_time":1194000000000,"state":"active","ping":45},{"user_id":362,"name":"Jennifer Aniston's Nipples","steam_id":76561198086107548,"connected_time":202000000000,"state":"active","ping":80},{"user_id":357,"name":"one million dollars","steam_id":76561198145072434,"connected_time":907000000000,"state":"active","ping":74},{"user_id":358,"name":"rekt","steam_id":76561198072179483,"connected_time":897000000000,"state":"active","ping":92}]},{"server_id":36,"name":"Uncletopia | Chicago | 5 | All Maps","name_short":"chi-5","host":"chi-2.us.uncletopia.com","port":27015,"enabled":true,"region":"us-central","cc":"us","latitude":41.881832,"longitude":-87.62318,"reserved":0,"last_update":"0001-01-01T00:00:00Z","name_a2s":"Uncletopia | Chicago | 5 | All Maps","protocol":17,"map":"pl_goldrush","folder":"tf","game":"Team Fortress","app_id":440,"player_count":24,"max_players":24,"Bots":0,"server_type":"Dedicated","server_os":"Linux","password":true,"vac":true,"version":"7961495","steam_id":85568392924866362,"keywords":["nocrits","nodmgspread","payload","uncletopia"],"game_id":440,"stv_port":27016,"stv_name":"Uncletopia | Chicago | 5 | All Maps | STV","players":[{"user_id":360,"name":"caption cool","steam_id":76561197990612056,"connected_time":1671000000000,"state":"active","ping":48},{"user_id":370,"name":"CheekiBreeki","steam_id":76561198008596138,"connected_time":668000000000,"state":"active","ping":86},{"user_id":391,"name":"M249 | Spectre","steam_id":76561198118334485,"connected_time":258000000000,"state":"active","ping":79},{"user_id":369,"name":"rach9411","steam_id":76561198256535721,"connected_time":710000000000,"state":"active","ping":140},{"user_id":362,"name":"Mr lazy pants 72","steam_id":76561198396412589,"connected_time":1418000000000,"state":"active","ping":102},{"user_id":270,"name":"notdoxed","steam_id":76561197992591404,"connected_time":8230000000000,"state":"active","ping":51},{"user_id":368,"name":"b3afy","steam_id":76561198084208649,"connected_time":723000000000,"state":"active","ping":90},{"user_id":356,"name":"Phos","steam_id":76561198122339506,"connected_time":1918000000000,"state":"active","ping":76},{"user_id":331,"name":"hearthian","steam_id":76561198113235260,"connected_time":3657000000000,"state":"active","ping":100},{"user_id":295,"name":"mus turd","steam_id":76561198025681784,"connected_time":6057000000000,"state":"active","ping":69},{"user_id":371,"name":"flare","steam_id":76561198048623485,"connected_time":651000000000,"state":"active","ping":62},{"user_id":358,"name":"The Washer of Dishes","steam_id":76561198028157625,"connected_time":1745000000000,"state":"active","ping":91},{"user_id":353,"name":"Gamering_funy","steam_id":76561199006503777,"connected_time":2283000000000,"state":"active","ping":58},{"user_id":354,"name":"Rambly Dambly","steam_id":76561198844496567,"connected_time":2273000000000,"state":"active","ping":56},{"user_id":372,"name":"Thot Patrol","steam_id":76561198026003193,"connected_time":608000000000,"state":"active","ping":68},{"user_id":392,"name":"millie","steam_id":76561198008366811,"connected_time":156000000000,"state":"active","ping":56},{"user_id":365,"name":"Jarvis","steam_id":76561198020088034,"connected_time":1274000000000,"state":"active","ping":89},{"user_id":349,"name":"Space Lizard","steam_id":76561198056798193,"connected_time":2479000000000,"state":"active","ping":74},{"user_id":373,"name":"BubbaJunior77","steam_id":76561198036168713,"connected_time":605000000000,"state":"active","ping":68},{"user_id":389,"name":"Son Balls","steam_id":76561198287202110,"connected_time":469000000000,"state":"active","ping":61},{"user_id":348,"name":"nomai","steam_id":76561198076201225,"connected_time":2593000000000,"state":"active","ping":100},{"user_id":345,"name":"bobbymcbobington","steam_id":76561199089411172,"connected_time":2721000000000,"state":"active","ping":120},{"user_id":332,"name":"NateDoesThings","steam_id":76561199028820561,"connected_time":3549000000000,"state":"active","ping":60},{"user_id":378,"name":"omga","steam_id":76561198171726106,"connected_time":577000000000,"state":"active","ping":80}]},{"server_id":37,"name":"Uncletopia | Chicago | 6 | All Maps","name_short":"chi-6","host":"chi-2.us.uncletopia.com","port":27025,"enabled":true,"region":"us-central","cc":"us","latitude":41.881832,"longitude":-87.62318,"reserved":0,"last_update":"0001-01-01T00:00:00Z","name_a2s":"Uncletopia | Chicago | 6 | All Maps","protocol":17,"map":"cp_dustbowl","folder":"tf","game":"Team Fortress","app_id":440,"player_count":13,"max_players":24,"Bots":0,"server_type":"Dedicated","server_os":"Linux","password":true,"vac":true,"version":"7961495","steam_id":85568392924866363,"keywords":["cp","nocrits","nodmgspread","uncletopia"],"game_id":440,"stv_port":27026,"stv_name":"Uncletopia | Chicago | 6 | All Maps | STV","players":[{"user_id":266,"name":"Toasterr","steam_id":76561197990169748,"connected_time":306000000000,"state":"active","ping":108},{"user_id":264,"name":"Briar","steam_id":76561198043712824,"connected_time":515000000000,"state":"active","ping":74},{"user_id":257,"name":"shrew","steam_id":76561199066828669,"connected_time":751000000000,"state":"active","ping":82},{"user_id":265,"name":"Fourth Wall Repair Guy","steam_id":76561199038566105,"connected_time":451000000000,"state":"active","ping":118},{"user_id":258,"name":"100 Million power in rise of ki","steam_id":76561199066284233,"connected_time":735000000000,"state":"active","ping":64},{"user_id":263,"name":"Fray","steam_id":76561198030141282,"connected_time":554000000000,"state":"active","ping":80},{"user_id":267,"name":"izzydex","steam_id":76561199101531034,"connected_time":70000000000,"state":"active","ping":60},{"user_id":262,"name":"ravN :)","steam_id":76561198272366231,"connected_time":638000000000,"state":"active","ping":58},{"user_id":268,"name":"Dr.StrangeGlove","steam_id":76561198286114229,"connected_time":68000000000,"state":"active","ping":59},{"user_id":269,"name":"SweetieBrigade160","steam_id":76561198854738940,"connected_time":53000000000,"state":"active","ping":285},{"user_id":270,"name":"RobinVista","steam_id":76561198278252510,"connected_time":4000000000,"state":"spawning","ping":98},{"user_id":240,"name":"fresco","steam_id":76561199101199477,"connected_time":3171000000000,"state":"active","ping":57},{"user_id":250,"name":"Gliglamesh","steam_id":76561198058221449,"connected_time":1811000000000,"state":"active","ping":56}]},{"server_id":38,"name":"Uncletopia | Chicago | 7 | Stopwatch","name_short":"chi-7","host":"chi-2.us.uncletopia.com","port":27035,"enabled":true,"region":"us-central","cc":"us","latitude":41.881832,"longitude":-87.62318,"reserved":0,"last_update":"0001-01-01T00:00:00Z","name_a2s":"Uncletopia | Chicago | 7 | Stopwatch","protocol":17,"map":"workshop/koth_product_final.ugc454272353","folder":"tf","game":"Team Fortress","app_id":440,"player_count":24,"max_players":24,"Bots":0,"server_type":"Dedicated","server_os":"Linux","password":true,"vac":true,"version":"7961495","steam_id":85568392924866364,"keywords":["cp","nocrits","nodmgspread","uncletopia"],"game_id":440,"stv_port":27036,"stv_name":"Uncletopia | Chicago | 7 | Stopwatch | STV","players":[{"user_id":14,"name":"120 lahmacun","steam_id":76561198152818418,"connected_time":2034000000000,"state":"active","ping":86},{"user_id":15,"name":"nok","steam_id":76561198115578117,"connected_time":2032000000000,"state":"active","ping":87},{"user_id":21,"name":"swift","steam_id":76561198190461447,"connected_time":1876000000000,"state":"active","ping":45},{"user_id":17,"name":"the egg salad sandwich legacy","steam_id":76561198116136297,"connected_time":2020000000000,"state":"active","ping":123},{"user_id":18,"name":"burgerkingpiccolo2007","steam_id":76561198138221795,"connected_time":2009000000000,"state":"active","ping":83},{"user_id":40,"name":"kitchen goblin","steam_id":76561198271710504,"connected_time":974000000000,"state":"active","ping":58},{"user_id":20,"name":"ZRMicrowave","steam_id":76561198288574525,"connected_time":1947000000000,"state":"active","ping":163},{"user_id":22,"name":"Garbo","steam_id":76561198192120869,"connected_time":1792000000000,"state":"active","ping":57},{"user_id":23,"name":"Joey Lemons","steam_id":76561198068104187,"connected_time":1733000000000,"state":"active","ping":43},{"user_id":24,"name":"stardust!","steam_id":76561198123721061,"connected_time":1717000000000,"state":"active","ping":48},{"user_id":25,"name":"Swag","steam_id":76561198835483242,"connected_time":1620000000000,"state":"active","ping":82},{"user_id":26,"name":"eipi","steam_id":76561199084492097,"connected_time":1619000000000,"state":"active","ping":82},{"user_id":34,"name":"tkeati","steam_id":76561198056356574,"connected_time":1381000000000,"state":"active","ping":91},{"user_id":35,"name":"Fat Kid In a Dragonball T-Shirt","steam_id":76561198182589975,"connected_time":1303000000000,"state":"active","ping":71},{"user_id":29,"name":"RabbitGaming696","steam_id":76561198334811317,"connected_time":1526000000000,"state":"active","ping":80},{"user_id":30,"name":"MidSobbes08","steam_id":76561199013101925,"connected_time":1499000000000,"state":"active","ping":164},{"user_id":41,"name":"[ 7 ]","steam_id":76561199229668733,"connected_time":970000000000,"state":"active","ping":61},{"user_id":37,"name":"ZacGames","steam_id":76561198283962271,"connected_time":1158000000000,"state":"active","ping":64},{"user_id":44,"name":"V@nn1e","steam_id":76561199099194994,"connected_time":885000000000,"state":"active","ping":98},{"user_id":39,"name":"dark souls boss","steam_id":76561198316610724,"connected_time":1122000000000,"state":"active","ping":92},{"user_id":42,"name":"Goku","steam_id":76561199013167718,"connected_time":957000000000,"state":"active","ping":73},{"user_id":43,"name":"Disparaging Frog","steam_id":76561199249649977,"connected_time":928000000000,"state":"active","ping":92},{"user_id":46,"name":"jarheaddevildog","steam_id":76561198060492517,"connected_time":791000000000,"state":"active","ping":94},{"user_id":48,"name":"Alex","steam_id":76561198135553277,"connected_time":127000000000,"state":"active","ping":88}]},{"server_id":39,"name":"Uncletopia | Chicago | 8 | Community","name_short":"chi-8","host":"chi-2.us.uncletopia.com","port":27045,"enabled":true,"region":"us-central","cc":"us","latitude":41.881832,"longitude":-87.62318,"reserved":0,"last_update":"0001-01-01T00:00:00Z","name_a2s":"Uncletopia | Chicago | 8 | Community","protocol":17,"map":"workshop/pl_shoreleave_rc2.ugc1238849347","folder":"tf","game":"Team Fortress","app_id":440,"player_count":0,"max_players":24,"Bots":0,"server_type":"Dedicated","server_os":"Linux","password":true,"vac":true,"version":"7961495","steam_id":85568392924866365,"keywords":["nocrits","nodmgspread","payload","uncletopia"],"game_id":440,"stv_port":27046,"stv_name":"Uncletopia | Chicago | 8 | Community | STV","players":null},{"server_id":8,"name":"Uncletopia | Dallas | 1 | All Maps","name_short":"dal-1","host":"dal-1.us.uncletopia.com","port":27015,"enabled":true,"region":"us-central","cc":"us","latitude":32.779167,"longitude":-96.80889,"reserved":0,"last_update":"0001-01-01T00:00:00Z","name_a2s":"Uncletopia | Dallas | 1 | All Maps","protocol":17,"map":"pl_upward","folder":"tf","game":"Team Fortress","app_id":440,"player_count":24,"max_players":24,"Bots":0,"server_type":"Dedicated","server_os":"Linux","password":true,"vac":true,"version":"7961495","steam_id":85568392924469986,"keywords":["nocrits","nodmgspread","payload","uncletopia"],"game_id":440,"stv_port":27016,"stv_name":"Uncletopia | Dallas | 1 | All Maps | STV","players":[{"user_id":327,"name":"θάνατος χωρίς όν","steam_id":76561198021308963,"connected_time":2256000000000,"state":"active","ping":60},{"user_id":314,"name":"Sup m8","steam_id":76561198081659121,"connected_time":2971000000000,"state":"active","ping":39},{"user_id":329,"name":"mellowhype","steam_id":76561198040675606,"connected_time":1529000000000,"state":"active","ping":47},{"user_id":328,"name":"Cat in a fedora","steam_id":76561198187502875,"connected_time":2170000000000,"state":"active","ping":60},{"user_id":317,"name":"Spiffyputt","steam_id":76561198439345687,"connected_time":2918000000000,"state":"active","ping":82},{"user_id":320,"name":"smetc","steam_id":76561198240696986,"connected_time":2887000000000,"state":"active","ping":82},{"user_id":341,"name":"Tots","steam_id":76561198027485007,"connected_time":380000000000,"state":"active","ping":60},{"user_id":330,"name":"R U S H","steam_id":76561197989597184,"connected_time":1508000000000,"state":"active","ping":98},{"user_id":336,"name":"jonaveil","steam_id":76561198989767584,"connected_time":922000000000,"state":"active","ping":95},{"user_id":128,"name":"Elias","steam_id":76561198106431732,"connected_time":19532000000000,"state":"active","ping":59},{"user_id":324,"name":"sheen_from_planet_sheen","steam_id":76561198146234786,"connected_time":2513000000000,"state":"active","ping":99},{"user_id":333,"name":"taxichikn","steam_id":76561198799263265,"connected_time":1252000000000,"state":"active","ping":73},{"user_id":299,"name":"leesh","steam_id":76561198079603938,"connected_time":5118000000000,"state":"active","ping":63},{"user_id":332,"name":"ninety9dragonfly","steam_id":76561198363406983,"connected_time":1389000000000,"state":"active","ping":105},{"user_id":318,"name":"Cap'n Bill","steam_id":76561197969559549,"connected_time":2908000000000,"state":"active","ping":73},{"user_id":283,"name":"♩Karmism♩","steam_id":76561199453410299,"connected_time":6538000000000,"state":"active","ping":97},{"user_id":319,"name":"yung.thongrealm","steam_id":76561198824431123,"connected_time":2892000000000,"state":"active","ping":103},{"user_id":300,"name":"TheGrassMan (He/Him)","steam_id":76561198118984048,"connected_time":4569000000000,"state":"active","ping":83},{"user_id":266,"name":"doubleshare","steam_id":76561198024472046,"connected_time":8718000000000,"state":"active","ping":88},{"user_id":311,"name":"Drakon","steam_id":76561198078210822,"connected_time":3596000000000,"state":"active","ping":99},{"user_id":340,"name":"Meiji","steam_id":76561198971753591,"connected_time":407000000000,"state":"active","ping":81},{"user_id":321,"name":"Java_Siege_","steam_id":76561199090000728,"connected_time":2813000000000,"state":"active","ping":88},{"user_id":342,"name":"Bizsnitch","steam_id":76561198017936794,"connected_time":72000000000,"state":"spawning","ping":60},{"user_id":335,"name":"A Straw","steam_id":76561199367935846,"connected_time":1123000000000,"state":"active","ping":73}]},{"server_id":108,"name":"Uncletopia | Dallas | 2 | All Maps","name_short":"dal-2","host":"dal-1.us.uncletopia.com","port":27025,"enabled":true,"region":"us-central","cc":"us","latitude":32.779167,"longitude":-96.80889,"reserved":0,"last_update":"0001-01-01T00:00:00Z","name_a2s":"Uncletopia | Dallas | 2 | All Maps","protocol":17,"map":"pl_badwater","folder":"tf","game":"Team Fortress","app_id":440,"player_count":24,"max_players":24,"Bots":0,"server_type":"Dedicated","server_os":"Linux","password":true,"vac":true,"version":"7961495","steam_id":85568392924469988,"keywords":["nocrits","nodmgspread","payload","uncletopia"],"game_id":440,"stv_port":27026,"stv_name":"Uncletopia | Dallas | 2 | All Maps | STV","players":[{"user_id":294,"name":"cupsovietxeno","steam_id":76561198997539399,"connected_time":1490000000000,"state":"active","ping":92},{"user_id":289,"name":"StudioMania (#SAVETF2)","steam_id":76561198211315795,"connected_time":2337000000000,"state":"active","ping":77},{"user_id":228,"name":"gerf.","steam_id":76561198811706201,"connected_time":7416000000000,"state":"active","ping":60},{"user_id":298,"name":"Junko","steam_id":76561198146089003,"connected_time":282000000000,"state":"active","ping":71},{"user_id":310,"name":"TrashPanda (she/her)","steam_id":76561198447864095,"connected_time":44000000000,"state":"spawning","ping":44},{"user_id":308,"name":"tsz","steam_id":76561199246231090,"connected_time":129000000000,"state":"active","ping":78},{"user_id":309,"name":"Reisen Udongein Inaba","steam_id":76561198051082314,"connected_time":76000000000,"state":"active","ping":91},{"user_id":304,"name":"Joe Nathan","steam_id":76561198041030399,"connected_time":234000000000,"state":"active","ping":56},{"user_id":271,"name":"Dragorf2010","steam_id":76561199238402270,"connected_time":3139000000000,"state":"active","ping":71},{"user_id":272,"name":"✩Boski✩","steam_id":76561197999945008,"connected_time":3136000000000,"state":"active","ping":91},{"user_id":278,"name":"Not a Can","steam_id":76561198064264767,"connected_time":2878000000000,"state":"active","ping":80},{"user_id":296,"name":"menonamed","steam_id":76561198199564382,"connected_time":1220000000000,"state":"active","ping":87},{"user_id":256,"name":"Odysseus The Proto-O-possum","steam_id":76561198122084846,"connected_time":5598000000000,"state":"active","ping":119},{"user_id":305,"name":"BrownMemeSter","steam_id":76561198113745020,"connected_time":230000000000,"state":"active","ping":82},{"user_id":261,"name":"Certified Hood Classic","steam_id":76561199086159354,"connected_time":4802000000000,"state":"active","ping":56},{"user_id":295,"name":"augs","steam_id":76561199120607417,"connected_time":1375000000000,"state":"active","ping":94},{"user_id":283,"name":"Agent Bowtie","steam_id":76561198175839279,"connected_time":2641000000000,"state":"active","ping":67},{"user_id":297,"name":"KOI BOY","steam_id":76561198402739250,"connected_time":1020000000000,"state":"active","ping":76},{"user_id":269,"name":"Hornk","steam_id":76561197988393372,"connected_time":4187000000000,"state":"active","ping":81},{"user_id":306,"name":"RaixaR","steam_id":76561198025289430,"connected_time":223000000000,"state":"active","ping":53},{"user_id":253,"name":"Observer","steam_id":76561198326814067,"connected_time":5968000000000,"state":"active","ping":75},{"user_id":307,"name":"bendera","steam_id":76561197965486503,"connected_time":204000000000,"state":"active","ping":86},{"user_id":268,"name":"⛧1-800-INN-KEEP⛧","steam_id":76561198012055277,"connected_time":4284000000000,"state":"active","ping":97},{"user_id":281,"name":"Stillkill","steam_id":76561198065069057,"connected_time":2797000000000,"state":"active","ping":33}]},{"server_id":404,"name":"Uncletopia | Dallas | 3 | All Maps","name_short":"dal-3","host":"dal-1.us.uncletopia.com","port":27035,"enabled":true,"region":"us-central","cc":"us","latitude":32.779167,"longitude":-96.80889,"reserved":0,"last_update":"0001-01-01T00:00:00Z","name_a2s":"Uncletopia | Dallas | 3 | All Maps","protocol":17,"map":"pl_snowycoast","folder":"tf","game":"Team Fortress","app_id":440,"player_count":24,"max_players":24,"Bots":0,"server_type":"Dedicated","server_os":"Linux","password":true,"vac":true,"version":"7961495","steam_id":85568392924515219,"keywords":["nocrits","nodmgspread","payload","uncletopia"],"game_id":440,"stv_port":27036,"stv_name":"Uncletopia | Dallas | 3 | All Maps | STV","players":[{"user_id":181,"name":"Captain Malarkey","steam_id":76561198869924281,"connected_time":316000000000,"state":"active","ping":46},{"user_id":157,"name":"dailyspesh","steam_id":76561197988072369,"connected_time":2227000000000,"state":"active","ping":98},{"user_id":133,"name":"Unethical Worm","steam_id":76561197998121744,"connected_time":3069000000000,"state":"active","ping":75},{"user_id":152,"name":"Luffliet.","steam_id":76561198186593707,"connected_time":2426000000000,"state":"active","ping":55},{"user_id":102,"name":"chicken nucket","steam_id":76561198042831480,"connected_time":5158000000000,"state":"active","ping":99},{"user_id":99,"name":"the zoo","steam_id":76561198013732450,"connected_time":5276000000000,"state":"active","ping":68},{"user_id":42,"name":"StillNotGinger","steam_id":76561198063419189,"connected_time":7844000000000,"state":"active","ping":63},{"user_id":161,"name":"Whapper","steam_id":76561198044029606,"connected_time":2067000000000,"state":"active","ping":95},{"user_id":144,"name":"corviraptor!!!!!!","steam_id":76561198058284392,"connected_time":2820000000000,"state":"active","ping":52},{"user_id":175,"name":"Klitz Penischmidt","steam_id":76561198050582941,"connected_time":1037000000000,"state":"active","ping":84},{"user_id":158,"name":"Cassius Money","steam_id":76561197979696414,"connected_time":2209000000000,"state":"active","ping":74},{"user_id":159,"name":"xxballfondlerxx","steam_id":76561197991546630,"connected_time":2130000000000,"state":"active","ping":70},{"user_id":147,"name":"wugmup","steam_id":76561199096287734,"connected_time":2590000000000,"state":"active","ping":97},{"user_id":142,"name":"JellyManBelly","steam_id":76561198263221903,"connected_time":2880000000000,"state":"active","ping":83},{"user_id":135,"name":"Stick","steam_id":76561198001509374,"connected_time":3029000000000,"state":"active","ping":76},{"user_id":178,"name":"RealStanzy","steam_id":76561199060261003,"connected_time":515000000000,"state":"active","ping":105},{"user_id":179,"name":"bashdzy","steam_id":76561199006087600,"connected_time":501000000000,"state":"active","ping":67},{"user_id":162,"name":"Kronk","steam_id":76561198063092125,"connected_time":2060000000000,"state":"active","ping":93},{"user_id":173,"name":"Brave Eagle","steam_id":76561198276535127,"connected_time":1225000000000,"state":"active","ping":104},{"user_id":167,"name":"harley","steam_id":76561198799384110,"connected_time":1721000000000,"state":"active","ping":102},{"user_id":176,"name":"explosive reefer roach","steam_id":76561198135274720,"connected_time":895000000000,"state":"active","ping":115},{"user_id":180,"name":"Wang Tulong","steam_id":76561197974274014,"connected_time":498000000000,"state":"active","ping":113},{"user_id":169,"name":"Your Dad","steam_id":76561198060281192,"connected_time":1500000000000,"state":"active","ping":73},{"user_id":140,"name":"Dr. Unventor","steam_id":76561199174694230,"connected_time":2910000000000,"state":"active","ping":60}]},{"server_id":405,"name":"Uncletopia | Dallas | 4 | Community","name_short":"dal-4","host":"dal-1.us.uncletopia.com","port":27045,"enabled":true,"region":"us-central","cc":"us","latitude":32.779167,"longitude":-96.80889,"reserved":0,"last_update":"0001-01-01T00:00:00Z","name_a2s":"Uncletopia | Dallas | 4 | Community","protocol":17,"map":"workshop/koth_slaughter_rc1.ugc1712845210","folder":"tf","game":"Team Fortress","app_id":440,"player_count":0,"max_players":24,"Bots":0,"server_type":"Dedicated","server_os":"Linux","password":true,"vac":true,"version":"7961495","steam_id":85568392924515220,"keywords":["cp","nocrits","nodmgspread","uncletopia"],"game_id":440,"stv_port":27046,"stv_name":"Uncletopia | Dallas | 4 | Community | STV","players":null},{"server_id":5,"name":"Uncletopia | Frankfurt | 1 | All Maps","name_short":"frk-1","host":"frk-1.de.uncletopia.com","port":27015,"enabled":true,"region":"eu","cc":"de","latitude":50.110924,"longitude":8.682127,"reserved":0,"last_update":"0001-01-01T00:00:00Z","name_a2s":"Uncletopia | Frankfurt | 1 | All Maps","protocol":17,"map":"koth_highpass","folder":"tf","game":"Team Fortress","app_id":440,"player_count":0,"max_players":24,"Bots":0,"server_type":"Dedicated","server_os":"Linux","password":true,"vac":true,"version":"7961495","steam_id":85568392924469989,"keywords":["cp","nocrits","nodmgspread","uncletopia"],"game_id":440,"stv_port":27016,"stv_name":"Uncletopia | Frankfurt | 1 | All Maps | STV","players":null},{"server_id":110,"name":"Uncletopia | Frankfurt | 2 | All Maps","name_short":"frk-2","host":"frk-1.de.uncletopia.com","port":27025,"enabled":true,"region":"eu","cc":"de","latitude":50.110924,"longitude":8.682127,"reserved":0,"last_update":"0001-01-01T00:00:00Z","name_a2s":"Uncletopia | Frankfurt | 2 | All Maps","protocol":17,"map":"pl_pier","folder":"tf","game":"Team Fortress","app_id":440,"player_count":0,"max_players":24,"Bots":0,"server_type":"Dedicated","server_os":"Linux","password":true,"vac":true,"version":"7961495","steam_id":85568392924469990,"keywords":["nocrits","nodmgspread","payload","uncletopia"],"game_id":440,"stv_port":27026,"stv_name":"Uncletopia | Frankfurt | 2 | All Maps | STV","players":null},{"server_id":308,"name":"Uncletopia | Frankfurt | 3 | All Maps","name_short":"frk-3","host":"frk-1.de.uncletopia.com","port":27035,"enabled":true,"region":"eu","cc":"de","latitude":50.110924,"longitude":8.682127,"reserved":0,"last_update":"0001-01-01T00:00:00Z","name_a2s":"Uncletopia | Frankfurt | 3 | All Maps","protocol":17,"map":"cp_sunshine","folder":"tf","game":"Team Fortress","app_id":440,"player_count":1,"max_players":24,"Bots":0,"server_type":"Dedicated","server_os":"Linux","password":true,"vac":true,"version":"7961495","steam_id":85568392924504274,"keywords":["cp","nocrits","nodmgspread","uncletopia"],"game_id":440,"stv_port":27036,"stv_name":"Uncletopia | Frankfurt | 3 | All Maps | STV","players":[{"user_id":510,"name":"The Supreme Gentleman","steam_id":76561198037123203,"connected_time":7000000000,"state":"spawning","ping":188}]},{"server_id":309,"name":"Uncletopia | Frankfurt | 4 | All Maps","name_short":"frk-4","host":"frk-1.de.uncletopia.com","port":27045,"enabled":true,"region":"eu","cc":"de","latitude":50.110924,"longitude":8.682127,"reserved":0,"last_update":"0001-01-01T00:00:00Z","name_a2s":"Uncletopia | Frankfurt | 4 | All Maps","protocol":17,"map":"pl_frontier_final","folder":"tf","game":"Team Fortress","app_id":440,"player_count":0,"max_players":24,"Bots":0,"server_type":"Dedicated","server_os":"Linux","password":true,"vac":true,"version":"7961495","steam_id":85568392924504275,"keywords":["nocrits","nodmgspread","payload","uncletopia"],"game_id":440,"stv_port":27046,"stv_name":"Uncletopia | Frankfurt | 4 | All Maps | STV","players":null},{"server_id":310,"name":"Uncletopia | Frankfurt | 5 | All Maps","name_short":"frk-5","host":"frk-1.de.uncletopia.com","port":27055,"enabled":true,"region":"eu","cc":"de","latitude":50.110924,"longitude":8.682127,"reserved":0,"last_update":"0001-01-01T00:00:00Z","name_a2s":"Uncletopia | Frankfurt | 5 | All Maps","protocol":17,"map":"cp_mountainlab","folder":"tf","game":"Team Fortress","app_id":440,"player_count":1,"max_players":24,"Bots":0,"server_type":"Dedicated","server_os":"Linux","password":true,"vac":true,"version":"7961495","steam_id":85568392924504277,"keywords":["cp","nocrits","nodmgspread","uncletopia"],"game_id":440,"stv_port":27056,"stv_name":"Uncletopia | Frankfurt | 5 | All Maps | STV","players":[{"user_id":716,"name":"♥ marc 愛","steam_id":76561198018694332,"connected_time":13000000000,"state":"spawning","ping":59}]},{"server_id":311,"name":"Uncletopia | Frankfurt | 6 | All Maps","name_short":"frk-6","host":"frk-1.de.uncletopia.com","port":27065,"enabled":true,"region":"eu","cc":"de","latitude":50.110924,"longitude":8.682127,"reserved":0,"last_update":"0001-01-01T00:00:00Z","name_a2s":"Uncletopia | Frankfurt | 6 | All Maps","protocol":17,"map":"plr_hightower","folder":"tf","game":"Team Fortress","app_id":440,"player_count":0,"max_players":24,"Bots":0,"server_type":"Dedicated","server_os":"Linux","password":true,"vac":true,"version":"7961495","steam_id":85568392924504278,"keywords":["nocrits","nodmgspread","payload","uncletopia"],"game_id":440,"stv_port":27066,"stv_name":"Uncletopia | Frankfurt | 6 | All Maps | STV","players":null},{"server_id":23,"name":"Uncletopia | Frankfurt | 7 | Stopwatch","name_short":"frk-7","host":"frk-1.de.uncletopia.com","port":27075,"enabled":true,"region":"eu","cc":"de","latitude":50.110924,"longitude":8.682127,"reserved":0,"last_update":"0001-01-01T00:00:00Z","name_a2s":"Uncletopia | Frankfurt | 7 | Stopwatch","protocol":17,"map":"workshop/pl_badwater_pro_v12.ugc2142942074","folder":"tf","game":"Team Fortress","app_id":440,"player_count":0,"max_players":24,"Bots":0,"server_type":"Dedicated","server_os":"Linux","password":true,"vac":true,"version":"7961495","steam_id":85568392924742827,"keywords":["nocrits","nodmgspread","payload","uncletopia"],"game_id":440,"stv_port":27076,"stv_name":"Uncletopia | Frankfurt | 7 | Stopwatch | STV","players":null},{"server_id":24,"name":"Uncletopia | Frankfurt | 8 | Community","name_short":"frk-8","host":"frk-1.de.uncletopia.com","port":27085,"enabled":true,"region":"eu","cc":"de","latitude":50.110924,"longitude":8.682127,"reserved":0,"last_update":"0001-01-01T00:00:00Z","name_a2s":"Uncletopia | Frankfurt | 8 | Community","protocol":17,"map":"workshop/cp_alloy_rc3.ugc592805587","folder":"tf","game":"Team Fortress","app_id":440,"player_count":0,"max_players":24,"Bots":0,"server_type":"Dedicated","server_os":"Linux","password":true,"vac":true,"version":"7961495","steam_id":85568392924742828,"keywords":["cp","nocrits","nodmgspread","uncletopia"],"game_id":440,"stv_port":27086,"stv_name":"Uncletopia | Frankfurt | 8 | Community | STV","players":null},{"server_id":202,"name":"Uncletopia | Hong Kong | 1 | All Maps","name_short":"hgk-1","host":"hgk-1.hk.uncletopia.com","port":27015,"enabled":true,"region":"asia","cc":"hk","latitude":22.302711,"longitude":114.177216,"reserved":0,"last_update":"0001-01-01T00:00:00Z","name_a2s":"Uncletopia | Hong Kong | 1 | All Maps","protocol":17,"map":"pl_pier","folder":"tf","game":"Team Fortress","app_id":440,"player_count":0,"max_players":24,"Bots":0,"server_type":"Dedicated","server_os":"Linux","password":true,"vac":true,"version":"7961495","steam_id":85568392924494504,"keywords":["nocrits","nodmgspread","payload","uncletopia"],"game_id":440,"stv_port":27016,"stv_name":"Uncletopia | Hong Kong | 1 | All Maps | STV","players":null},{"server_id":1,"name":"Uncletopia | Los Angeles | 1 | All Maps","name_short":"lax-1","host":"lax-1.us.uncletopia.com","port":27015,"enabled":true,"region":"us-west","cc":"us","latitude":33.94279,"longitude":-118.41004,"reserved":0,"last_update":"0001-01-01T00:00:00Z","name_a2s":"Uncletopia | Los Angeles | 1 | All Maps","protocol":17,"map":"cp_dustbowl","folder":"tf","game":"Team Fortress","app_id":440,"player_count":24,"max_players":24,"Bots":0,"server_type":"Dedicated","server_os":"Linux","password":true,"vac":true,"version":"7961495","steam_id":85568392924469991,"keywords":["cp","nocrits","nodmgspread","uncletopia"],"game_id":440,"stv_port":27016,"stv_name":"Uncletopia | Los Angeles | 1 | All Maps | STV","players":[{"user_id":366,"name":"Nooblord","steam_id":76561199105123730,"connected_time":2302000000000,"state":"active","ping":87},{"user_id":327,"name":"rmbl (fork eater)","steam_id":76561198150137369,"connected_time":4943000000000,"state":"active","ping":53},{"user_id":365,"name":"Kylar","steam_id":76561198196979431,"connected_time":2308000000000,"state":"active","ping":60},{"user_id":379,"name":"Diddy Kong","steam_id":76561198053208862,"connected_time":1582000000000,"state":"active","ping":69},{"user_id":318,"name":"Trace","steam_id":76561198009486000,"connected_time":5629000000000,"state":"active","ping":101},{"user_id":367,"name":"GreenApples","steam_id":76561198120559543,"connected_time":2301000000000,"state":"active","ping":57},{"user_id":368,"name":"heck","steam_id":76561198315694520,"connected_time":2295000000000,"state":"active","ping":47},{"user_id":353,"name":"asimus","steam_id":76561199141433499,"connected_time":3226000000000,"state":"active","ping":147},{"user_id":361,"name":"Roe Jogan","steam_id":76561198062763370,"connected_time":2597000000000,"state":"active","ping":59},{"user_id":369,"name":"Person Man","steam_id":76561198293857963,"connected_time":2256000000000,"state":"active","ping":61},{"user_id":371,"name":"Dullahan","steam_id":76561198119668908,"connected_time":2231000000000,"state":"active","ping":58},{"user_id":360,"name":"adapt","steam_id":76561198156181017,"connected_time":2664000000000,"state":"active","ping":57},{"user_id":392,"name":"jer","steam_id":76561198148235230,"connected_time":322000000000,"state":"active","ping":60},{"user_id":388,"name":"Stapler","steam_id":76561198099295077,"connected_time":792000000000,"state":"active","ping":59},{"user_id":359,"name":"baedeker","steam_id":76561199081837220,"connected_time":2752000000000,"state":"active","ping":98},{"user_id":393,"name":"-The_Under_Miner-","steam_id":76561199195735972,"connected_time":25000000000,"state":"active","ping":50},{"user_id":391,"name":"Lemonade Juice","steam_id":76561198402892608,"connected_time":392000000000,"state":"active","ping":45},{"user_id":362,"name":"MineOpal","steam_id":76561198044716407,"connected_time":2470000000000,"state":"active","ping":42},{"user_id":386,"name":"reem","steam_id":76561198050767193,"connected_time":918000000000,"state":"active","ping":49},{"user_id":352,"name":"Fishandfish","steam_id":76561198298483804,"connected_time":3240000000000,"state":"active","ping":70},{"user_id":387,"name":"eggplantgirl♥","steam_id":76561198811515692,"connected_time":831000000000,"state":"active","ping":53},{"user_id":298,"name":"Kujo","steam_id":76561198342579745,"connected_time":7133000000000,"state":"active","ping":81},{"user_id":389,"name":"Insomniac","steam_id":76561199180653046,"connected_time":731000000000,"state":"active","ping":164},{"user_id":356,"name":"Warbomb","steam_id":76561198004312859,"connected_time":3136000000000,"state":"active","ping":132}]},{"server_id":112,"name":"Uncletopia | Los Angeles | 2 | All Maps","name_short":"lax-2","host":"lax-1.us.uncletopia.com","port":27025,"enabled":true,"region":"us-west","cc":"us","latitude":33.94279,"longitude":-118.41004,"reserved":0,"last_update":"0001-01-01T00:00:00Z","name_a2s":"Uncletopia | Los Angeles | 2 | All Maps","protocol":17,"map":"pl_frontier_final","folder":"tf","game":"Team Fortress","app_id":440,"player_count":24,"max_players":24,"Bots":0,"server_type":"Dedicated","server_os":"Linux","password":true,"vac":true,"version":"7961495","steam_id":85568392924469992,"keywords":["nocrits","nodmgspread","payload","uncletopia"],"game_id":440,"stv_port":27026,"stv_name":"Uncletopia | Los Angeles | 2 | All Maps | STV","players":[{"user_id":122,"name":"Markiplier","steam_id":76561198100385184,"connected_time":380000000000,"state":"active","ping":55},{"user_id":108,"name":"Quaalude","steam_id":76561198100177449,"connected_time":1565000000000,"state":"active","ping":86},{"user_id":119,"name":"JACK BRUNO","steam_id":76561198027957690,"connected_time":479000000000,"state":"active","ping":68},{"user_id":118,"name":"jdm","steam_id":76561199497603020,"connected_time":502000000000,"state":"active","ping":48},{"user_id":120,"name":"Siah","steam_id":76561197990045774,"connected_time":466000000000,"state":"active","ping":81},{"user_id":69,"name":"Kimba","steam_id":76561199092078325,"connected_time":3336000000000,"state":"active","ping":129},{"user_id":92,"name":"exx","steam_id":76561198090552145,"connected_time":2027000000000,"state":"active","ping":46},{"user_id":123,"name":"Context","steam_id":76561197972634187,"connected_time":267000000000,"state":"active","ping":49},{"user_id":93,"name":"Flops","steam_id":76561197961030141,"connected_time":2009000000000,"state":"active","ping":71},{"user_id":111,"name":"cielael","steam_id":76561198043971956,"connected_time":1442000000000,"state":"active","ping":52},{"user_id":66,"name":"Penne","steam_id":76561198982393756,"connected_time":3557000000000,"state":"active","ping":53},{"user_id":84,"name":"Chinaski","steam_id":76561198092218594,"connected_time":2490000000000,"state":"active","ping":69},{"user_id":95,"name":"Count Ejacula","steam_id":76561198058400387,"connected_time":2002000000000,"state":"active","ping":70},{"user_id":107,"name":"Brody Yukin","steam_id":76561198084712019,"connected_time":1693000000000,"state":"active","ping":70},{"user_id":114,"name":"HopeTheNeko","steam_id":76561199159285465,"connected_time":1174000000000,"state":"active","ping":61},{"user_id":74,"name":"no vc no c","steam_id":76561197989503095,"connected_time":3162000000000,"state":"active","ping":161},{"user_id":124,"name":"Thunder","steam_id":76561198097721532,"connected_time":190000000000,"state":"active","ping":50},{"user_id":121,"name":"5kPrime","steam_id":76561198039471915,"connected_time":435000000000,"state":"active","ping":68},{"user_id":63,"name":"Anotherordinary1","steam_id":76561199258223335,"connected_time":4125000000000,"state":"active","ping":59},{"user_id":99,"name":"RC","steam_id":76561198048127881,"connected_time":1955000000000,"state":"active","ping":46},{"user_id":101,"name":"elephant thumb","steam_id":76561198118859752,"connected_time":1922000000000,"state":"active","ping":51},{"user_id":113,"name":"Pile of Spinach","steam_id":76561198043068841,"connected_time":1182000000000,"state":"active","ping":69},{"user_id":103,"name":"Alchemist","steam_id":76561198094238189,"connected_time":1895000000000,"state":"active","ping":60},{"user_id":115,"name":"puffer","steam_id":76561199049164456,"connected_time":999000000000,"state":"active","ping":69}]},{"server_id":324,"name":"Uncletopia | Los Angeles | 3 | All Maps","name_short":"lax-3","host":"lax-1.us.uncletopia.com","port":27035,"enabled":true,"region":"us-west","cc":"us","latitude":33.94279,"longitude":-118.41004,"reserved":0,"last_update":"0001-01-01T00:00:00Z","name_a2s":"Uncletopia | Los Angeles | 3 | All Maps","protocol":17,"map":"pl_barnblitz","folder":"tf","game":"Team Fortress","app_id":440,"player_count":0,"max_players":24,"Bots":0,"server_type":"Dedicated","server_os":"Linux","password":true,"vac":true,"version":"7961495","steam_id":85568392924510198,"keywords":["nocrits","nodmgspread","payload","uncletopia"],"game_id":440,"stv_port":27036,"stv_name":"Uncletopia | Los Angeles | 3 | All Maps | STV","players":null},{"server_id":25,"name":"Uncletopia | Los Angeles | 4 | Stopwatch","name_short":"lax-4","host":"lax-1.us.uncletopia.com","port":27045,"enabled":true,"region":"us-west","cc":"us","latitude":33.94279,"longitude":-118.41004,"reserved":0,"last_update":"0001-01-01T00:00:00Z","name_a2s":"Uncletopia | Los Angeles | 4 | Stopwatch","protocol":17,"map":"pl_barnblitz","folder":"tf","game":"Team Fortress","app_id":440,"player_count":0,"max_players":24,"Bots":0,"server_type":"Dedicated","server_os":"Linux","password":true,"vac":true,"version":"7961495","steam_id":85568392924510199,"keywords":["nocrits","nodmgspread","payload","uncletopia"],"game_id":440,"stv_port":27046,"stv_name":"Uncletopia | Los Angeles | 4 | Stopwatch | STV","players":null},{"server_id":11,"name":"Uncletopia | London | 1 | All Maps","name_short":"lon-1","host":"lon-1.uk.uncletopia.com","port":27015,"enabled":true,"region":"eu","cc":"gb","latitude":51.509865,"longitude":-0.118092,"reserved":0,"last_update":"0001-01-01T00:00:00Z","name_a2s":"Uncletopia | London | 1 | All Maps","protocol":17,"map":"pl_swiftwater_final1","folder":"tf","game":"Team Fortress","app_id":440,"player_count":24,"max_players":24,"Bots":0,"server_type":"Dedicated","server_os":"Linux","password":true,"vac":true,"version":"7961495","steam_id":85568392924367362,"keywords":["nocrits","nodmgspread","payload","uncletopia"],"game_id":440,"stv_port":27016,"stv_name":"Uncletopia | London | 1 | All Maps | STV","players":[{"user_id":942,"name":"Shallaska","steam_id":76561198019030896,"connected_time":1330000000000,"state":"active","ping":59},{"user_id":872,"name":"GoblinGaming","steam_id":76561198360395476,"connected_time":6995000000000,"state":"active","ping":31},{"user_id":951,"name":"t.tv/FamilyGuyFunnyMoments277","steam_id":76561198416047580,"connected_time":544000000000,"state":"active","ping":135},{"user_id":938,"name":"geroxe cruo","steam_id":76561199480942903,"connected_time":1616000000000,"state":"active","ping":75},{"user_id":934,"name":"Visphiric","steam_id":76561198071938027,"connected_time":2221000000000,"state":"active","ping":34},{"user_id":929,"name":"SnareBreaker","steam_id":76561198854045058,"connected_time":2615000000000,"state":"active","ping":68},{"user_id":927,"name":"._.","steam_id":76561198300316801,"connected_time":3095000000000,"state":"active","ping":105},{"user_id":947,"name":"Morten49","steam_id":76561199375618712,"connected_time":1020000000000,"state":"active","ping":55},{"user_id":911,"name":"is that your crocodile?","steam_id":76561198346638308,"connected_time":4427000000000,"state":"active","ping":58},{"user_id":948,"name":"my fault og","steam_id":76561198256811438,"connected_time":963000000000,"state":"active","ping":88},{"user_id":936,"name":"Steen","steam_id":76561198122992510,"connected_time":2204000000000,"state":"active","ping":41},{"user_id":954,"name":"DragonLord","steam_id":76561198074279225,"connected_time":190000000000,"state":"active","ping":46},{"user_id":550,"name":"shooer!","steam_id":76561198110531281,"connected_time":30022000000000,"state":"active","ping":73},{"user_id":923,"name":"Penis Contortionist","steam_id":76561198073663784,"connected_time":3418000000000,"state":"active","ping":34},{"user_id":912,"name":"Mei","steam_id":76561198363464483,"connected_time":4307000000000,"state":"active","ping":80},{"user_id":953,"name":"Carpal Tunner","steam_id":76561198332465893,"connected_time":285000000000,"state":"active","ping":30},{"user_id":779,"name":"gibb (official)","steam_id":76561198074097655,"connected_time":18105000000000,"state":"active","ping":62},{"user_id":924,"name":"ra","steam_id":76561198239927434,"connected_time":3340000000000,"state":"active","ping":62},{"user_id":925,"name":"Rick Makakezzz","steam_id":76561198057495653,"connected_time":3308000000000,"state":"active","ping":78},{"user_id":874,"name":"Enjoyer","steam_id":76561198147399855,"connected_time":6980000000000,"state":"active","ping":129},{"user_id":890,"name":"Edgebug Earl","steam_id":76561197970114051,"connected_time":5734000000000,"state":"active","ping":44},{"user_id":943,"name":"Therealyairo","steam_id":76561198826998079,"connected_time":1310000000000,"state":"active","ping":58},{"user_id":937,"name":"DEATH-ETANOL","steam_id":76561198010184206,"connected_time":2156000000000,"state":"active","ping":75},{"user_id":945,"name":"Nittugai","steam_id":76561198067366462,"connected_time":1080000000000,"state":"active","ping":60}]},{"server_id":114,"name":"Uncletopia | London | 2 | All Maps","name_short":"lon-2","host":"lon-1.uk.uncletopia.com","port":27025,"enabled":true,"region":"eu","cc":"gb","latitude":51.509865,"longitude":-0.118092,"reserved":0,"last_update":"0001-01-01T00:00:00Z","name_a2s":"Uncletopia | London | 2 | All Maps","protocol":17,"map":"koth_cascade","folder":"tf","game":"Team Fortress","app_id":440,"player_count":0,"max_players":24,"Bots":0,"server_type":"Dedicated","server_os":"Linux","password":true,"vac":true,"version":"7961495","steam_id":85568392924470941,"keywords":["cp","nocrits","nodmgspread","uncletopia"],"game_id":440,"stv_port":27026,"stv_name":"Uncletopia | London | 2 | All Maps | STV","players":null},{"server_id":320,"name":"Uncletopia | London | 3 | All Maps","name_short":"lon-3","host":"lon-1.uk.uncletopia.com","port":27035,"enabled":true,"region":"eu","cc":"gb","latitude":51.509865,"longitude":-0.118092,"reserved":0,"last_update":"0001-01-01T00:00:00Z","name_a2s":"Uncletopia | London | 3 | All Maps","protocol":17,"map":"koth_viaduct","folder":"tf","game":"Team Fortress","app_id":440,"player_count":0,"max_players":24,"Bots":0,"server_type":"Dedicated","server_os":"Linux","password":true,"vac":true,"version":"7961495","steam_id":85568392924510192,"keywords":["cp","nocrits","nodmgspread","uncletopia"],"game_id":440,"stv_port":27036,"stv_name":"Uncletopia | London | 3 | All Maps | STV","players":null},{"server_id":321,"name":"Uncletopia | London | 4 | All Maps","name_short":"lon-4","host":"lon-1.uk.uncletopia.com","port":27045,"enabled":true,"region":"eu","cc":"gb","latitude":51.509865,"longitude":-0.118092,"reserved":0,"last_update":"0001-01-01T00:00:00Z","name_a2s":"Uncletopia | London | 4 | All Maps","protocol":17,"map":"koth_viaduct","folder":"tf","game":"Team Fortress","app_id":440,"player_count":5,"max_players":24,"Bots":0,"server_type":"Dedicated","server_os":"Linux","password":true,"vac":true,"version":"7961495","steam_id":85568392924510193,"keywords":["cp","nocrits","nodmgspread","uncletopia"],"game_id":440,"stv_port":27046,"stv_name":"Uncletopia | London | 4 | All Maps | STV","players":[{"user_id":905,"name":"Enigmus","steam_id":76561197994063627,"connected_time":1080000000000,"state":"active","ping":89},{"user_id":903,"name":"Worm","steam_id":76561198296497176,"connected_time":1105000000000,"state":"active","ping":44},{"user_id":897,"name":"Rev0lved | tacobot.tf","steam_id":76561198422260456,"connected_time":1424000000000,"state":"active","ping":31},{"user_id":868,"name":"waffle toaster","steam_id":76561198799089628,"connected_time":4256000000000,"state":"active","ping":39},{"user_id":871,"name":"torn","steam_id":76561198223003236,"connected_time":4215000000000,"state":"active","ping":31}]},{"server_id":21,"name":"Uncletopia | London | 5 | All Maps","name_short":"lon-5","host":"lon-1.uk.uncletopia.com","port":27055,"enabled":true,"region":"eu","cc":"gb","latitude":51.509865,"longitude":-0.118092,"reserved":0,"last_update":"0001-01-01T00:00:00Z","name_a2s":"Uncletopia | London | 5 | All Maps","protocol":17,"map":"cp_mountainlab","folder":"tf","game":"Team Fortress","app_id":440,"player_count":0,"max_players":24,"Bots":0,"server_type":"Dedicated","server_os":"Linux","password":true,"vac":true,"version":"7961495","steam_id":85568392924742829,"keywords":["cp","nocrits","nodmgspread","uncletopia"],"game_id":440,"stv_port":27056,"stv_name":"Uncletopia | London | 5 | All Maps | STV","players":null},{"server_id":22,"name":"Uncletopia | London | 6 | All Maps","name_short":"lon-6","host":"lon-1.uk.uncletopia.com","port":27065,"enabled":true,"region":"eu","cc":"gb","latitude":51.509865,"longitude":-0.118092,"reserved":0,"last_update":"0001-01-01T00:00:00Z","name_a2s":"Uncletopia | London | 6 | All Maps","protocol":17,"map":"cp_sunshine","folder":"tf","game":"Team Fortress","app_id":440,"player_count":0,"max_players":24,"Bots":0,"server_type":"Dedicated","server_os":"Linux","password":true,"vac":true,"version":"7961495","steam_id":85568392924742830,"keywords":["cp","nocrits","nodmgspread","uncletopia"],"game_id":440,"stv_port":27066,"stv_name":"Uncletopia | London | 6 | All Maps | STV","players":null},{"server_id":40,"name":"Uncletopia | London | 7 | Stopwatch","name_short":"lon-7","host":"lon-1.uk.uncletopia.com","port":27075,"enabled":true,"region":"eu","cc":"gb","latitude":51.509865,"longitude":-0.118092,"reserved":0,"last_update":"0001-01-01T00:00:00Z","name_a2s":"Uncletopia | London | 7 | Stopwatch","protocol":17,"map":"koth_highpass","folder":"tf","game":"Team Fortress","app_id":440,"player_count":0,"max_players":24,"Bots":0,"server_type":"Dedicated","server_os":"Linux","password":true,"vac":true,"version":"7961495","steam_id":85568392924964314,"keywords":["cp","nocrits","nodmgspread","uncletopia"],"game_id":440,"stv_port":27076,"stv_name":"Uncletopia | London | 7 | Stopwatch | STV","players":null},{"server_id":41,"name":"Uncletopia | London | 8 | Community","name_short":"lon-8","host":"lon-1.uk.uncletopia.com","port":27085,"enabled":true,"region":"eu","cc":"gb","latitude":51.509865,"longitude":-0.118092,"reserved":0,"last_update":"0001-01-01T00:00:00Z","name_a2s":"Uncletopia | London | 8 | Community","protocol":17,"map":"workshop/koth_slaughter_rc1.ugc1712845210","folder":"tf","game":"Team Fortress","app_id":440,"player_count":0,"max_players":24,"Bots":0,"server_type":"Dedicated","server_os":"Linux","password":true,"vac":true,"version":"7961495","steam_id":85568392924964315,"keywords":["cp","nocrits","nodmgspread","uncletopia"],"game_id":440,"stv_port":27086,"stv_name":"Uncletopia | London | 8 | Community | STV","players":null},{"server_id":300,"name":"Uncletopia | Montréal | 1 | One Thousand Uncles","name_short":"mtl-1","host":"mtl-1.ca.uncletopia.com","port":27015,"enabled":true,"region":"us-east","cc":"ca","latitude":45.50889,"longitude":-73.56167,"reserved":0,"last_update":"0001-01-01T00:00:00Z","name_a2s":"","protocol":0,"map":"","folder":"","game":"","app_id":0,"player_count":0,"max_players":0,"Bots":0,"server_type":"","server_os":"","password":false,"vac":false,"version":"","steam_id":0,"keywords":null,"game_id":0,"stv_port":0,"stv_name":"","players":null},{"server_id":301,"name":"Uncletopia | Montréal | 2 | One Thousand Uncles","name_short":"mtl-2","host":"mtl-1.ca.uncletopia.com","port":27025,"enabled":true,"region":"us-east","cc":"ca","latitude":45.50889,"longitude":-73.56167,"reserved":0,"last_update":"0001-01-01T00:00:00Z","name_a2s":"","protocol":0,"map":"","folder":"","game":"","app_id":0,"player_count":16,"max_players":0,"Bots":0,"server_type":"","server_os":"","password":false,"vac":false,"version":"","steam_id":0,"keywords":null,"game_id":0,"stv_port":0,"stv_name":"","players":[{"user_id":185,"name":"Featherless Biped","steam_id":76561198034171721,"connected_time":1069000000000,"state":"active","ping":76},{"user_id":166,"name":"RacoonGamer","steam_id":76561198100907657,"connected_time":1678000000000,"state":"active","ping":45},{"user_id":167,"name":"Xruffel (mushroom)","steam_id":76561198067697879,"connected_time":1623000000000,"state":"active","ping":45},{"user_id":186,"name":"Jared","steam_id":76561198020432651,"connected_time":939000000000,"state":"active","ping":52},{"user_id":164,"name":"Juri Han","steam_id":76561198041678517,"connected_time":2486000000000,"state":"active","ping":120},{"user_id":187,"name":"ChoiBoi9001","steam_id":76561199401392691,"connected_time":937000000000,"state":"active","ping":57},{"user_id":188,"name":"Gay Cake","steam_id":76561198004388831,"connected_time":918000000000,"state":"active","ping":73},{"user_id":189,"name":"Ethan","steam_id":76561198157395996,"connected_time":910000000000,"state":"active","ping":75},{"user_id":190,"name":"Hud","steam_id":76561198146122110,"connected_time":900000000000,"state":"active","ping":45},{"user_id":191,"name":"BB Lorexav","steam_id":76561198207565988,"connected_time":811000000000,"state":"active","ping":89},{"user_id":193,"name":"tuatramxo5","steam_id":76561198324441191,"connected_time":475000000000,"state":"active","ping":72},{"user_id":194,"name":"Red Lobster Cheddar Bay Biscuit","steam_id":76561198133231245,"connected_time":378000000000,"state":"active","ping":44},{"user_id":195,"name":"Griffen","steam_id":76561198095732195,"connected_time":292000000000,"state":"active","ping":224},{"user_id":196,"name":"dog","steam_id":76561198263873491,"connected_time":126000000000,"state":"active","ping":69},{"user_id":197,"name":"Doltishhat","steam_id":76561198346469957,"connected_time":81000000000,"state":"active","ping":46},{"user_id":198,"name":"Bubtit","steam_id":76561199138751788,"connected_time":66000000000,"state":"active","ping":54}]},{"server_id":302,"name":"Uncletopia | Montréal | 3 | One Thousand Uncles","name_short":"mtl-3","host":"mtl-1.ca.uncletopia.com","port":27035,"enabled":true,"region":"us-east","cc":"ca","latitude":45.50889,"longitude":-73.56167,"reserved":0,"last_update":"0001-01-01T00:00:00Z","name_a2s":"","protocol":0,"map":"","folder":"","game":"","app_id":0,"player_count":0,"max_players":0,"Bots":0,"server_type":"","server_os":"","password":false,"vac":false,"version":"","steam_id":0,"keywords":null,"game_id":0,"stv_port":0,"stv_name":"","players":null},{"server_id":13,"name":"Uncletopia | New York City | 1 | All Maps","name_short":"nyc-1","host":"nyc-1.us.uncletopia.com","port":27015,"enabled":true,"region":"us-east","cc":"us","latitude":40.73061,"longitude":-73.93524,"reserved":0,"last_update":"0001-01-01T00:00:00Z","name_a2s":"Uncletopia | New York City | 1 | All Maps","protocol":17,"map":"pl_swiftwater_final1","folder":"tf","game":"Team Fortress","app_id":440,"player_count":24,"max_players":24,"Bots":0,"server_type":"Dedicated","server_os":"Linux","password":true,"vac":true,"version":"7961495","steam_id":85568392924469993,"keywords":["nocrits","nodmgspread","payload","uncletopia"],"game_id":440,"stv_port":27016,"stv_name":"Uncletopia | New York City | 1 | All Maps | STV","players":[{"user_id":650,"name":"Arctem","steam_id":76561198012937871,"connected_time":1577000000000,"state":"active","ping":92},{"user_id":577,"name":"kennedy family reunion","steam_id":76561198143826450,"connected_time":7137000000000,"state":"active","ping":70},{"user_id":641,"name":"Bald Vegeta","steam_id":76561198844143746,"connected_time":2247000000000,"state":"active","ping":72},{"user_id":631,"name":"20 miles for a Quaalude","steam_id":76561198042579477,"connected_time":2404000000000,"state":"active","ping":54},{"user_id":582,"name":"King Sans","steam_id":76561198294198517,"connected_time":6584000000000,"state":"active","ping":47},{"user_id":611,"name":"Ak","steam_id":76561199333659458,"connected_time":3269000000000,"state":"active","ping":51},{"user_id":651,"name":"NinjaLau95","steam_id":76561198001069938,"connected_time":1350000000000,"state":"active","ping":54},{"user_id":600,"name":"Eblizard","steam_id":76561198111481965,"connected_time":4616000000000,"state":"active","ping":85},{"user_id":648,"name":"jamzine","steam_id":76561198186168293,"connected_time":1624000000000,"state":"active","ping":54},{"user_id":644,"name":"Yuzu","steam_id":76561198417913035,"connected_time":2007000000000,"state":"active","ping":75},{"user_id":601,"name":"Sobertoday","steam_id":76561198010606163,"connected_time":4579000000000,"state":"active","ping":90},{"user_id":658,"name":"amablehughes","steam_id":76561199007131236,"connected_time":822000000000,"state":"active","ping":54},{"user_id":625,"name":"militaryindustrialcomplexgaming","steam_id":76561198340079559,"connected_time":2894000000000,"state":"active","ping":57},{"user_id":550,"name":"Young-OG","steam_id":76561198058800479,"connected_time":8209000000000,"state":"active","ping":76},{"user_id":645,"name":"Bacchus","steam_id":76561198113244990,"connected_time":1957000000000,"state":"active","ping":72},{"user_id":627,"name":"ndvr","steam_id":76561199379200102,"connected_time":2788000000000,"state":"active","ping":55},{"user_id":649,"name":"orangesuit1","steam_id":76561199020443017,"connected_time":1605000000000,"state":"active","ping":128},{"user_id":652,"name":"Zinc","steam_id":76561198025303928,"connected_time":1197000000000,"state":"active","ping":65},{"user_id":640,"name":"JtsRes","steam_id":76561197994809241,"connected_time":2309000000000,"state":"active","ping":100},{"user_id":621,"name":"RR SLAVE RR WORKSHOP","steam_id":76561198449857428,"connected_time":3141000000000,"state":"active","ping":60},{"user_id":659,"name":"Femboy Medic Main","steam_id":76561198268225109,"connected_time":370000000000,"state":"active","ping":111},{"user_id":657,"name":"eggo-on-a-stick","steam_id":76561198799357966,"connected_time":979000000000,"state":"active","ping":97},{"user_id":612,"name":"rough man","steam_id":76561198007494744,"connected_time":3269000000000,"state":"active","ping":128},{"user_id":613,"name":"[MRY] Sk-iLite","steam_id":76561198041797350,"connected_time":3256000000000,"state":"active","ping":78}]},{"server_id":14,"name":"Uncletopia | New York City | 2 | All Maps","name_short":"nyc-2","host":"nyc-1.us.uncletopia.com","port":27025,"enabled":true,"region":"us-east","cc":"us","latitude":40.73061,"longitude":-73.93524,"reserved":0,"last_update":"0001-01-01T00:00:00Z","name_a2s":"Uncletopia | New York City | 2 | All Maps","protocol":17,"map":"pl_pier","folder":"tf","game":"Team Fortress","app_id":440,"player_count":24,"max_players":24,"Bots":0,"server_type":"Dedicated","server_os":"Linux","password":true,"vac":true,"version":"7961495","steam_id":85568392924469994,"keywords":["nocrits","nodmgspread","payload","uncletopia"],"game_id":440,"stv_port":27026,"stv_name":"Uncletopia | New York City | 2 | All Maps | STV","players":[{"user_id":437,"name":"dwight schrute","steam_id":76561198001237877,"connected_time":5069000000000,"state":"active","ping":70},{"user_id":463,"name":"PurPle","steam_id":76561198050393396,"connected_time":3467000000000,"state":"active","ping":65},{"user_id":398,"name":"Yeti","steam_id":76561198176049478,"connected_time":7553000000000,"state":"active","ping":66},{"user_id":487,"name":"Domswish","steam_id":76561198331444240,"connected_time":913000000000,"state":"active","ping":57},{"user_id":470,"name":"friendly salamander","steam_id":76561198888219116,"connected_time":2801000000000,"state":"active","ping":55},{"user_id":489,"name":"soona","steam_id":76561198127325351,"connected_time":893000000000,"state":"active","ping":47},{"user_id":447,"name":"Erce","steam_id":76561198183481573,"connected_time":4214000000000,"state":"active","ping":53},{"user_id":409,"name":"Heropon","steam_id":76561198105224481,"connected_time":6797000000000,"state":"active","ping":70},{"user_id":484,"name":"trepplze","steam_id":76561198261896958,"connected_time":1005000000000,"state":"active","ping":45},{"user_id":448,"name":"Christian Bonnie","steam_id":76561199194702127,"connected_time":4205000000000,"state":"active","ping":81},{"user_id":485,"name":"gIBBY","steam_id":76561198080099598,"connected_time":964000000000,"state":"active","ping":38},{"user_id":462,"name":"Fish Fisherman","steam_id":76561198018656022,"connected_time":3639000000000,"state":"active","ping":48},{"user_id":490,"name":"Zorion98","steam_id":76561199221282951,"connected_time":886000000000,"state":"active","ping":77},{"user_id":472,"name":"Smiley","steam_id":76561198056430811,"connected_time":2254000000000,"state":"active","ping":70},{"user_id":497,"name":"Kalbor87","steam_id":76561198314673987,"connected_time":53000000000,"state":"active","ping":87},{"user_id":495,"name":"wool","steam_id":76561198869689933,"connected_time":499000000000,"state":"active","ping":60},{"user_id":496,"name":"Nevil","steam_id":76561198067925462,"connected_time":275000000000,"state":"active","ping":75},{"user_id":460,"name":"クケイ","steam_id":76561198215122444,"connected_time":3878000000000,"state":"active","ping":82},{"user_id":493,"name":"Nerrrd_","steam_id":76561198870129960,"connected_time":779000000000,"state":"active","ping":45},{"user_id":494,"name":"Anxiety.mp3","steam_id":76561198028145216,"connected_time":772000000000,"state":"active","ping":42},{"user_id":478,"name":"Fishman_200","steam_id":76561198152455167,"connected_time":1725000000000,"state":"active","ping":66},{"user_id":408,"name":"Voodo133","steam_id":76561198042670351,"connected_time":7065000000000,"state":"active","ping":83},{"user_id":413,"name":"gen","steam_id":76561199118569153,"connected_time":6681000000000,"state":"active","ping":78}]},{"server_id":15,"name":"Uncletopia | New York City | 3 | Stopwatch","name_short":"nyc-3","host":"nyc-1.us.uncletopia.com","port":27035,"enabled":true,"region":"us-east","cc":"us","latitude":40.73061,"longitude":-73.93524,"reserved":0,"last_update":"0001-01-01T00:00:00Z","name_a2s":"Uncletopia | New York City | 3 | Stopwatch","protocol":17,"map":"workshop/koth_ashville_final.ugc2130459942","folder":"tf","game":"Team Fortress","app_id":440,"player_count":0,"max_players":24,"Bots":0,"server_type":"Dedicated","server_os":"Linux","password":true,"vac":true,"version":"7961495","steam_id":85568392924742820,"keywords":["cp","nocrits","nodmgspread","uncletopia"],"game_id":440,"stv_port":27036,"stv_name":"Uncletopia | New York City | 3 | Stopwatch | STV","players":null},{"server_id":16,"name":"Uncletopia | New York City | 4 | Community","name_short":"nyc-4","host":"nyc-1.us.uncletopia.com","port":27045,"enabled":true,"region":"us-east","cc":"us","latitude":40.73061,"longitude":-73.93524,"reserved":0,"last_update":"0001-01-01T00:00:00Z","name_a2s":"Uncletopia | New York City | 4 | Community","protocol":17,"map":"workshop/pl_barnblitz_pro7.ugc582280235","folder":"tf","game":"Team Fortress","app_id":440,"player_count":24,"max_players":24,"Bots":0,"server_type":"Dedicated","server_os":"Linux","password":true,"vac":true,"version":"7961495","steam_id":85568392924742821,"keywords":["nocrits","nodmgspread","payload","uncletopia"],"game_id":440,"stv_port":27046,"stv_name":"Uncletopia | New York City | 4 | Community | STV","players":[{"user_id":133,"name":"Dreysidel","steam_id":76561198056496183,"connected_time":4129000000000,"state":"active","ping":67},{"user_id":162,"name":"hazel (she/her)","steam_id":76561198879911815,"connected_time":1978000000000,"state":"active","ping":53},{"user_id":57,"name":"BarrowBaron","steam_id":76561198013633236,"connected_time":8101000000000,"state":"active","ping":65},{"user_id":181,"name":"MELONLAVE","steam_id":76561198117512605,"connected_time":501000000000,"state":"active","ping":45},{"user_id":193,"name":"Digresser","steam_id":76561198016426367,"connected_time":33000000000,"state":"spawning","ping":261},{"user_id":164,"name":"Five Guys Fuzion","steam_id":76561198882747410,"connected_time":1919000000000,"state":"active","ping":111},{"user_id":183,"name":"AMistake","steam_id":76561199379196708,"connected_time":396000000000,"state":"active","ping":70},{"user_id":151,"name":"krcwettg3","steam_id":76561198811015090,"connected_time":2776000000000,"state":"active","ping":77},{"user_id":147,"name":"JaM724","steam_id":76561199077582671,"connected_time":2855000000000,"state":"active","ping":63},{"user_id":148,"name":"famcal2017","steam_id":76561198973479241,"connected_time":2828000000000,"state":"active","ping":70},{"user_id":157,"name":"H0wlr","steam_id":76561198012332824,"connected_time":2483000000000,"state":"active","ping":54},{"user_id":139,"name":"A Beer and Wing Combo","steam_id":76561198108400585,"connected_time":3889000000000,"state":"active","ping":75},{"user_id":184,"name":"Tuska","steam_id":76561198185598330,"connected_time":385000000000,"state":"active","ping":101},{"user_id":185,"name":"Mercy!Avatar","steam_id":76561199113870006,"connected_time":354000000000,"state":"active","ping":52},{"user_id":186,"name":"thundah!","steam_id":76561199159928133,"connected_time":332000000000,"state":"active","ping":67},{"user_id":177,"name":"HRTless","steam_id":76561198394284595,"connected_time":1194000000000,"state":"active","ping":35},{"user_id":187,"name":"cerne","steam_id":76561198350747953,"connected_time":303000000000,"state":"active","ping":53},{"user_id":188,"name":"worgeral","steam_id":76561198050781898,"connected_time":278000000000,"state":"active","ping":143},{"user_id":189,"name":"oh god i'm gonna CHUM","steam_id":76561198019210187,"connected_time":268000000000,"state":"active","ping":84},{"user_id":190,"name":"DolphiN | RGL.gg","steam_id":76561198048614515,"connected_time":194000000000,"state":"active","ping":45},{"user_id":96,"name":"Red_Hatkins","steam_id":76561198214004105,"connected_time":6324000000000,"state":"active","ping":75},{"user_id":109,"name":"Cat_Gaben","steam_id":76561198308094558,"connected_time":5240000000000,"state":"active","ping":67},{"user_id":191,"name":"A better name","steam_id":76561198357330520,"connected_time":186000000000,"state":"active","ping":116},{"user_id":179,"name":"schmeat","steam_id":76561198257548268,"connected_time":908000000000,"state":"active","ping":74}]},{"server_id":142,"name":"Uncletopia | São Paulo | 1 | All Maps","name_short":"sao-1","host":"sao-1.br.uncletopia.com","port":27015,"enabled":true,"region":"sa","cc":"br","latitude":-23.533773,"longitude":-46.62529,"reserved":0,"last_update":"0001-01-01T00:00:00Z","name_a2s":"Uncletopia | São Paulo | 1 | All Maps","protocol":17,"map":"koth_harvest_final","folder":"tf","game":"Team Fortress","app_id":440,"player_count":0,"max_players":24,"Bots":0,"server_type":"Dedicated","server_os":"Linux","password":true,"vac":true,"version":"7961495","steam_id":85568392924469996,"keywords":["cp","nocrits","nodmgspread","uncletopia"],"game_id":440,"stv_port":27016,"stv_name":"Uncletopia | São Paulo | 1 | All Maps | STV","players":null},{"server_id":143,"name":"Uncletopia | São Paulo | 2 | Community","name_short":"sao-2","host":"sao-2.br.uncletopia.com","port":27015,"enabled":true,"region":"sa","cc":"br","latitude":-23.533773,"longitude":-46.62529,"reserved":0,"last_update":"0001-01-01T00:00:00Z","name_a2s":"Uncletopia | São Paulo | 2 | Community","protocol":17,"map":"workshop/koth_trenchfoot_ab1.ugc731436616","folder":"tf","game":"Team Fortress","app_id":440,"player_count":0,"max_players":24,"Bots":0,"server_type":"Dedicated","server_os":"Linux","password":true,"vac":true,"version":"7961495","steam_id":85568392924485349,"keywords":["cp","nocrits","nodmgspread","uncletopia"],"game_id":440,"stv_port":27016,"stv_name":"Uncletopia | São Paulo | 2 | Community | STV","players":null},{"server_id":7,"name":"Uncletopia | Seattle | 1 | All Maps","name_short":"sea-1","host":"sea-1.us.uncletopia.com","port":27015,"enabled":true,"region":"us-west","cc":"us","latitude":47.608013,"longitude":-122.33517,"reserved":0,"last_update":"0001-01-01T00:00:00Z","name_a2s":"Uncletopia | Seattle | 1 | All Maps","protocol":17,"map":"pl_badwater","folder":"tf","game":"Team Fortress","app_id":440,"player_count":24,"max_players":24,"Bots":0,"server_type":"Dedicated","server_os":"Linux","password":true,"vac":true,"version":"7961495","steam_id":85568392924469997,"keywords":["nocrits","nodmgspread","payload","uncletopia"],"game_id":440,"stv_port":27016,"stv_name":"Uncletopia | Seattle | 1 | All Maps | STV","players":[{"user_id":592,"name":"♥ Osana Najimi ♥ (Soupcan)","steam_id":76561198056269538,"connected_time":1940000000000,"state":"active","ping":46},{"user_id":602,"name":"fwoov","steam_id":76561198129166260,"connected_time":630000000000,"state":"active","ping":75},{"user_id":593,"name":"William P. Ennis","steam_id":76561198073464877,"connected_time":1895000000000,"state":"active","ping":90},{"user_id":565,"name":"salty","steam_id":76561198293673616,"connected_time":3518000000000,"state":"active","ping":118},{"user_id":611,"name":"sodakid26","steam_id":76561198987498486,"connected_time":263000000000,"state":"active","ping":73},{"user_id":604,"name":"ssssssstar","steam_id":76561198450136640,"connected_time":505000000000,"state":"active","ping":59},{"user_id":518,"name":"sadlaxx","steam_id":76561198061354919,"connected_time":7311000000000,"state":"active","ping":81},{"user_id":590,"name":"lker","steam_id":76561197976975075,"connected_time":2136000000000,"state":"active","ping":105},{"user_id":591,"name":"♦♣Quadric♥♠","steam_id":76561198061003853,"connected_time":2063000000000,"state":"active","ping":105},{"user_id":582,"name":"Bearegard","steam_id":76561198061926542,"connected_time":2603000000000,"state":"active","ping":105},{"user_id":610,"name":"flip","steam_id":76561198362928297,"connected_time":282000000000,"state":"active","ping":61},{"user_id":557,"name":"Ninja Monkey481","steam_id":76561199122311815,"connected_time":4209000000000,"state":"active","ping":117},{"user_id":583,"name":"i am not hayder","steam_id":76561198066403884,"connected_time":2594000000000,"state":"active","ping":122},{"user_id":584,"name":"Officer Banana","steam_id":76561198830428514,"connected_time":2592000000000,"state":"active","ping":46},{"user_id":567,"name":"=Silver=","steam_id":76561198292307127,"connected_time":3421000000000,"state":"active","ping":70},{"user_id":596,"name":"sih3","steam_id":76561198081462396,"connected_time":998000000000,"state":"active","ping":72},{"user_id":554,"name":"wish you were here","steam_id":76561198282764599,"connected_time":4331000000000,"state":"active","ping":96},{"user_id":586,"name":"slushy :))","steam_id":76561198135281802,"connected_time":2481000000000,"state":"active","ping":45},{"user_id":598,"name":"caca sniffer","steam_id":76561199099914725,"connected_time":984000000000,"state":"active","ping":47},{"user_id":601,"name":"Aardappel","steam_id":76561198030894676,"connected_time":683000000000,"state":"active","ping":67},{"user_id":597,"name":"Sweets","steam_id":76561198998446307,"connected_time":989000000000,"state":"active","ping":71},{"user_id":588,"name":"Gm_Sweet","steam_id":76561199445091548,"connected_time":2209000000000,"state":"active","ping":59},{"user_id":606,"name":"chilis baby back ribs","steam_id":76561198813516435,"connected_time":476000000000,"state":"active","ping":75},{"user_id":612,"name":"garbo","steam_id":76561198802803961,"connected_time":213000000000,"state":"active","ping":72}]},{"server_id":119,"name":"Uncletopia | Seattle | 2 | All Maps","name_short":"sea-2","host":"sea-1.us.uncletopia.com","port":27025,"enabled":true,"region":"us-west","cc":"us","latitude":47.608013,"longitude":-122.33517,"reserved":0,"last_update":"0001-01-01T00:00:00Z","name_a2s":"Uncletopia | Seattle | 2 | All Maps","protocol":17,"map":"pl_badwater","folder":"tf","game":"Team Fortress","app_id":440,"player_count":24,"max_players":24,"Bots":0,"server_type":"Dedicated","server_os":"Linux","password":true,"vac":true,"version":"7961495","steam_id":85568392924469998,"keywords":["nocrits","nodmgspread","payload","uncletopia"],"game_id":440,"stv_port":27026,"stv_name":"Uncletopia | Seattle | 2 | All Maps | STV","players":[{"user_id":218,"name":"TheOnlyBrandon","steam_id":76561198133620881,"connected_time":1007000000000,"state":"active","ping":111},{"user_id":150,"name":"crnloony","steam_id":76561198374903320,"connected_time":4914000000000,"state":"active","ping":61},{"user_id":122,"name":"robot with human hair","steam_id":76561198018691308,"connected_time":6183000000000,"state":"active","ping":120},{"user_id":190,"name":"Mungler 1","steam_id":76561198276385778,"connected_time":3517000000000,"state":"active","ping":46},{"user_id":170,"name":"sleepy.haste","steam_id":76561199283485895,"connected_time":4527000000000,"state":"active","ping":155},{"user_id":140,"name":"Daz","steam_id":76561198041431938,"connected_time":5077000000000,"state":"active","ping":51},{"user_id":220,"name":"Zenire","steam_id":76561199087298510,"connected_time":498000000000,"state":"active","ping":57},{"user_id":219,"name":"cat","steam_id":76561198366828434,"connected_time":581000000000,"state":"active","ping":67},{"user_id":189,"name":"ItsTheNebula","steam_id":76561198120576195,"connected_time":3595000000000,"state":"active","ping":58},{"user_id":193,"name":"Mungler 2","steam_id":76561198025383855,"connected_time":3418000000000,"state":"active","ping":56},{"user_id":213,"name":"Gamekiller839","steam_id":76561199475400469,"connected_time":1904000000000,"state":"active","ping":31},{"user_id":191,"name":"Mungler 3","steam_id":76561198096221632,"connected_time":3513000000000,"state":"active","ping":114},{"user_id":223,"name":"KellyKapoor","steam_id":76561198040828123,"connected_time":207000000000,"state":"active","ping":53},{"user_id":211,"name":"saucy jack","steam_id":76561198307012859,"connected_time":2185000000000,"state":"active","ping":101},{"user_id":212,"name":"Tsunami","steam_id":76561198097188001,"connected_time":2105000000000,"state":"active","ping":45},{"user_id":96,"name":"J O S H³²","steam_id":76561198122603779,"connected_time":7708000000000,"state":"active","ping":98},{"user_id":222,"name":"Aglovail","steam_id":76561198276988844,"connected_time":434000000000,"state":"active","ping":57},{"user_id":216,"name":"HULK JUMPER","steam_id":76561198129658091,"connected_time":1367000000000,"state":"active","ping":51},{"user_id":217,"name":"✿ PoutyBun ✿","steam_id":76561197965762847,"connected_time":1277000000000,"state":"active","ping":38},{"user_id":210,"name":"greens beans","steam_id":76561198153611491,"connected_time":2191000000000,"state":"active","ping":45},{"user_id":224,"name":"Testament-In-Training","steam_id":76561198281251327,"connected_time":185000000000,"state":"active","ping":65},{"user_id":203,"name":"Day Man","steam_id":76561198067154807,"connected_time":3025000000000,"state":"active","ping":50},{"user_id":214,"name":"Dog","steam_id":76561198041841128,"connected_time":1879000000000,"state":"active","ping":77},{"user_id":208,"name":"Lucas","steam_id":76561198399704604,"connected_time":2482000000000,"state":"active","ping":74}]},{"server_id":406,"name":"Uncletopia | Seattle | 3 | Stopwatch","name_short":"sea-3","host":"sea-1.us.uncletopia.com","port":27035,"enabled":true,"region":"us-west","cc":"us","latitude":47.608013,"longitude":-122.33517,"reserved":0,"last_update":"0001-01-01T00:00:00Z","name_a2s":"Uncletopia | Seattle | 3 | Stopwatch","protocol":17,"map":"cp_sunshine","folder":"tf","game":"Team Fortress","app_id":440,"player_count":0,"max_players":24,"Bots":0,"server_type":"Dedicated","server_os":"Linux","password":true,"vac":true,"version":"7961495","steam_id":85568392924515217,"keywords":["cp","nocrits","nodmgspread","uncletopia"],"game_id":440,"stv_port":27036,"stv_name":"Uncletopia | Seattle | 3 | Stopwatch | STV","players":null},{"server_id":17,"name":"Uncletopia | San Francisco | 1 | All Maps","name_short":"sfo-1","host":"sfo-1.us.uncletopia.com","port":27015,"enabled":true,"region":"us-west","cc":"us","latitude":37.77397,"longitude":-122.4313,"reserved":0,"last_update":"0001-01-01T00:00:00Z","name_a2s":"Uncletopia | San Francisco | 1 | All Maps","protocol":17,"map":"pl_swiftwater_final1","folder":"tf","game":"Team Fortress","app_id":440,"player_count":20,"max_players":24,"Bots":0,"server_type":"Dedicated","server_os":"Linux","password":true,"vac":true,"version":"7961495","steam_id":85568392924469999,"keywords":["nocrits","nodmgspread","payload","uncletopia"],"game_id":440,"stv_port":27016,"stv_name":"Uncletopia | San Francisco | 1 | All Maps | STV","players":[{"user_id":199,"name":"self sufficient kitten","steam_id":76561197960592612,"connected_time":561000000000,"state":"active","ping":64},{"user_id":166,"name":"@","steam_id":76561198824691581,"connected_time":2914000000000,"state":"active","ping":105},{"user_id":209,"name":"wizerd","steam_id":76561198342480009,"connected_time":18000000000,"state":"active","ping":63},{"user_id":189,"name":"❤ Ashley ❤","steam_id":76561198056428303,"connected_time":1784000000000,"state":"active","ping":58},{"user_id":205,"name":"big play","steam_id":76561198011675372,"connected_time":410000000000,"state":"active","ping":72},{"user_id":169,"name":"Seriously Bruh","steam_id":76561198070408485,"connected_time":2787000000000,"state":"active","ping":60},{"user_id":210,"name":"kelvindavid121","steam_id":76561199010489413,"connected_time":4000000000,"state":"spawning","ping":130},{"user_id":181,"name":"ROTTINGGIRL","steam_id":76561198051445358,"connected_time":2265000000000,"state":"active","ping":45},{"user_id":208,"name":"Ethanol Buttchugger","steam_id":76561199127590316,"connected_time":281000000000,"state":"active","ping":66},{"user_id":187,"name":"buccellb","steam_id":76561198344975466,"connected_time":1801000000000,"state":"active","ping":90},{"user_id":202,"name":"ballsniffer985","steam_id":76561199077027954,"connected_time":526000000000,"state":"active","ping":73},{"user_id":204,"name":"Risky","steam_id":76561198231029328,"connected_time":479000000000,"state":"active","ping":204},{"user_id":195,"name":"Celeritas","steam_id":76561198133414847,"connected_time":1005000000000,"state":"active","ping":50},{"user_id":207,"name":"big gamer","steam_id":76561199102883421,"connected_time":384000000000,"state":"active","ping":133},{"user_id":197,"name":"FastCo. Piglet","steam_id":76561198001877571,"connected_time":718000000000,"state":"active","ping":100},{"user_id":185,"name":"Melody","steam_id":76561198407789232,"connected_time":1916000000000,"state":"active","ping":71},{"user_id":155,"name":"Battle Bug","steam_id":76561198005793034,"connected_time":4414000000000,"state":"active","ping":69},{"user_id":194,"name":"Thomas Chavira Gaming","steam_id":76561198313671617,"connected_time":1277000000000,"state":"active","ping":54},{"user_id":160,"name":"Leftovers","steam_id":76561198046041079,"connected_time":3555000000000,"state":"active","ping":122},{"user_id":180,"name":"Clockwork0613","steam_id":76561198987121123,"connected_time":2347000000000,"state":"active","ping":67}]},{"server_id":18,"name":"Uncletopia | San Francisco | 2 | All Maps","name_short":"sfo-2","host":"sfo-1.us.uncletopia.com","port":27025,"enabled":true,"region":"us-west","cc":"us","latitude":37.77397,"longitude":-122.4313,"reserved":0,"last_update":"0001-01-01T00:00:00Z","name_a2s":"Uncletopia | San Francisco | 2 | All Maps","protocol":17,"map":"pl_swiftwater_final1","folder":"tf","game":"Team Fortress","app_id":440,"player_count":23,"max_players":24,"Bots":0,"server_type":"Dedicated","server_os":"Linux","password":true,"vac":true,"version":"7961495","steam_id":85568392924470000,"keywords":["nocrits","nodmgspread","payload","uncletopia"],"game_id":440,"stv_port":27026,"stv_name":"Uncletopia | San Francisco | 2 | All Maps | STV","players":[{"user_id":57,"name":"[DATS➡] Sugar Meowth","steam_id":76561197995251793,"connected_time":385000000000,"state":"active","ping":60},{"user_id":54,"name":"Delicious Gas Station Cake","steam_id":76561198069735882,"connected_time":521000000000,"state":"active","ping":118},{"user_id":27,"name":"WaywardFinn","steam_id":76561198040391296,"connected_time":2612000000000,"state":"active","ping":129},{"user_id":55,"name":"❤[S'more]❤","steam_id":76561198817361963,"connected_time":514000000000,"state":"active","ping":74},{"user_id":31,"name":"do you like beans?","steam_id":76561199184000745,"connected_time":1844000000000,"state":"active","ping":104},{"user_id":32,"name":"Awesome Style Gaming","steam_id":76561198311537713,"connected_time":1764000000000,"state":"active","ping":127},{"user_id":35,"name":"SPUDOW!!","steam_id":76561199452235520,"connected_time":1490000000000,"state":"active","ping":137},{"user_id":61,"name":"GoblinActual","steam_id":76561198330743199,"connected_time":176000000000,"state":"active","ping":65},{"user_id":56,"name":"nav","steam_id":76561198872608266,"connected_time":468000000000,"state":"active","ping":134},{"user_id":39,"name":"yaoi boy princess","steam_id":76561197997343746,"connected_time":851000000000,"state":"active","ping":53},{"user_id":40,"name":"Mr. Carfox","steam_id":76561198041664428,"connected_time":832000000000,"state":"active","ping":45},{"user_id":41,"name":"PLATNUMHANNYA","steam_id":76561198451426311,"connected_time":813000000000,"state":"active","ping":76},{"user_id":42,"name":"Platinum","steam_id":76561198052463484,"connected_time":805000000000,"state":"active","ping":63},{"user_id":43,"name":"Mr.Bones","steam_id":76561198205170595,"connected_time":805000000000,"state":"active","ping":70},{"user_id":44,"name":"sleePI","steam_id":76561198450073779,"connected_time":765000000000,"state":"active","ping":61},{"user_id":58,"name":"es","steam_id":76561198006892337,"connected_time":347000000000,"state":"active","ping":103},{"user_id":59,"name":"Spiffy","steam_id":76561199059756914,"connected_time":291000000000,"state":"active","ping":69},{"user_id":48,"name":"fish (2:3)","steam_id":76561198134331073,"connected_time":695000000000,"state":"active","ping":78},{"user_id":49,"name":"Stitches","steam_id":76561198009227139,"connected_time":686000000000,"state":"active","ping":59},{"user_id":60,"name":"Cloud804","steam_id":76561199122462997,"connected_time":281000000000,"state":"active","ping":81},{"user_id":62,"name":"YOU WHAT?!","steam_id":76561198418679471,"connected_time":92000000000,"state":"active","ping":103},{"user_id":52,"name":"yogi","steam_id":76561198067986753,"connected_time":658000000000,"state":"active","ping":46},{"user_id":64,"name":"jizz gaming","steam_id":76561198984762462,"connected_time":78000000000,"state":"active","ping":51}]},{"server_id":19,"name":"Uncletopia | San Francisco | 3 | Stopwatch","name_short":"sfo-3","host":"sfo-1.us.uncletopia.com","port":27035,"enabled":true,"region":"us-west","cc":"us","latitude":37.77397,"longitude":-122.4313,"reserved":0,"last_update":"0001-01-01T00:00:00Z","name_a2s":"Uncletopia | San Francisco | 3 | Stopwatch","protocol":17,"map":"cp_sunshine","folder":"tf","game":"Team Fortress","app_id":440,"player_count":5,"max_players":24,"Bots":0,"server_type":"Dedicated","server_os":"Linux","password":true,"vac":true,"version":"7961495","steam_id":85568392924742824,"keywords":["cp","nocrits","nodmgspread","uncletopia"],"game_id":440,"stv_port":27036,"stv_name":"Uncletopia | San Francisco | 3 | Stopwatch | STV","players":[{"user_id":58,"name":"Uiopty","steam_id":76561199158631608,"connected_time":99000000000,"state":"active","ping":71},{"user_id":55,"name":"Frosty whispers","steam_id":76561199496885628,"connected_time":1249000000000,"state":"active","ping":71},{"user_id":56,"name":"Flopster","steam_id":76561199230072993,"connected_time":704000000000,"state":"active","ping":70},{"user_id":57,"name":"Specific ocean","steam_id":76561198307563765,"connected_time":630000000000,"state":"active","ping":72},{"user_id":59,"name":"Cinnifox","steam_id":76561198068773971,"connected_time":50000000000,"state":"active","ping":75}]},{"server_id":20,"name":"Uncletopia | San Francisco | 4 | Community","name_short":"sfo-4","host":"sfo-1.us.uncletopia.com","port":27045,"enabled":true,"region":"us-west","cc":"us","latitude":37.77397,"longitude":-122.4313,"reserved":0,"last_update":"0001-01-01T00:00:00Z","name_a2s":"Uncletopia | San Francisco | 4 | Community","protocol":17,"map":"workshop/koth_ashville_final.ugc2130459942","folder":"tf","game":"Team Fortress","app_id":440,"player_count":0,"max_players":24,"Bots":0,"server_type":"Dedicated","server_os":"Linux","password":true,"vac":true,"version":"7961495","steam_id":85568392924742826,"keywords":["cp","nocrits","nodmgspread","uncletopia"],"game_id":440,"stv_port":27046,"stv_name":"Uncletopia | San Francisco | 4 | Community | STV","players":null},{"server_id":141,"name":"Uncletopia | Sydney | 1 | All Maps","name_short":"syd-1","host":"syd-1.au.uncletopia.com","port":27015,"enabled":true,"region":"au","cc":"au","latitude":-33.865143,"longitude":151.2099,"reserved":0,"last_update":"0001-01-01T00:00:00Z","name_a2s":"Uncletopia | Sydney | 1 | All Maps","protocol":17,"map":"pl_swiftwater_final1","folder":"tf","game":"Team Fortress","app_id":440,"player_count":15,"max_players":24,"Bots":0,"server_type":"Dedicated","server_os":"Linux","password":true,"vac":true,"version":"7961495","steam_id":85568392924470001,"keywords":["nocrits","nodmgspread","payload","uncletopia"],"game_id":440,"stv_port":27016,"stv_name":"Uncletopia | Sydney | 1 | All Maps | STV","players":[{"user_id":16,"name":"{Azura Sarah}","steam_id":76561197989210208,"connected_time":3872000000000,"state":"active","ping":47},{"user_id":31,"name":"Zoeycan'thearyouoverthemusic","steam_id":76561198126153554,"connected_time":2200000000000,"state":"active","ping":76},{"user_id":59,"name":"Blondie","steam_id":76561198046977058,"connected_time":25000000000,"state":"active","ping":62},{"user_id":42,"name":"Pablo 62 (Jug of Milk)","steam_id":76561199172717986,"connected_time":1248000000000,"state":"active","ping":32},{"user_id":45,"name":"Gregory (Jug of Milk)","steam_id":76561199028542666,"connected_time":1038000000000,"state":"active","ping":39},{"user_id":32,"name":"Renaeissance","steam_id":76561198073689346,"connected_time":2133000000000,"state":"active","ping":58},{"user_id":49,"name":"Fey","steam_id":76561198057682041,"connected_time":782000000000,"state":"active","ping":68},{"user_id":23,"name":"voxii","steam_id":76561198099698281,"connected_time":3001000000000,"state":"active","ping":68},{"user_id":58,"name":"Centrelink","steam_id":76561198988128327,"connected_time":226000000000,"state":"active","ping":40},{"user_id":36,"name":"rill","steam_id":76561198057133119,"connected_time":1803000000000,"state":"active","ping":56},{"user_id":50,"name":"East","steam_id":76561197998179587,"connected_time":755000000000,"state":"active","ping":102},{"user_id":48,"name":"duckZ","steam_id":76561197997600639,"connected_time":809000000000,"state":"active","ping":44},{"user_id":51,"name":"boogalumpus snickelpuff","steam_id":76561198063481761,"connected_time":737000000000,"state":"active","ping":44},{"user_id":40,"name":"KnowZero","steam_id":76561198095752015,"connected_time":1400000000000,"state":"active","ping":47},{"user_id":44,"name":"pususy","steam_id":76561198031800830,"connected_time":1211000000000,"state":"active","ping":58}]},{"server_id":123,"name":"Uncletopia | Sydney | 2 | All Maps","name_short":"syd-2","host":"syd-1.au.uncletopia.com","port":27025,"enabled":true,"region":"au","cc":"au","latitude":-33.865143,"longitude":151.2099,"reserved":0,"last_update":"0001-01-01T00:00:00Z","name_a2s":"Uncletopia | Sydney | 2 | All Maps","protocol":17,"map":"koth_lakeside_final","folder":"tf","game":"Team Fortress","app_id":440,"player_count":0,"max_players":24,"Bots":0,"server_type":"Dedicated","server_os":"Linux","password":true,"vac":true,"version":"7961495","steam_id":85568392924470002,"keywords":["cp","nocrits","nodmgspread","uncletopia"],"game_id":440,"stv_port":27026,"stv_name":"Uncletopia | Sydney | 2 | All Maps | STV","players":null},{"server_id":395,"name":"Uncletopia | Sydney | 3 | All Maps","name_short":"syd-3","host":"syd-1.au.uncletopia.com","port":27035,"enabled":true,"region":"au","cc":"au","latitude":-33.865143,"longitude":151.2099,"reserved":0,"last_update":"0001-01-01T00:00:00Z","name_a2s":"Uncletopia | Sydney | 3 | All Maps","protocol":17,"map":"pl_swiftwater_final1","folder":"tf","game":"Team Fortress","app_id":440,"player_count":0,"max_players":24,"Bots":0,"server_type":"Dedicated","server_os":"Linux","password":true,"vac":true,"version":"7961495","steam_id":85568392925194467,"keywords":["nocrits","nodmgspread","payload","uncletopia"],"game_id":440,"stv_port":27036,"stv_name":"Uncletopia | Sydney | 3 | All Maps | STV","players":null},{"server_id":396,"name":"Uncletopia | Sydney | 4 | All Maps","name_short":"syd-4","host":"syd-1.au.uncletopia.com","port":27045,"enabled":true,"region":"au","cc":"au","latitude":-33.865143,"longitude":151.2099,"reserved":0,"last_update":"0001-01-01T00:00:00Z","name_a2s":"Uncletopia | Sydney | 4 | All Maps","protocol":17,"map":"cp_process_final","folder":"tf","game":"Team Fortress","app_id":440,"player_count":0,"max_players":24,"Bots":0,"server_type":"Dedicated","server_os":"Linux","password":true,"vac":true,"version":"7961495","steam_id":85568392925397958,"keywords":["cp","nocrits","nodmgspread","uncletopia"],"game_id":440,"stv_port":27046,"stv_name":"Uncletopia | Sydney | 4 | All Maps | STV","players":null},{"server_id":58,"name":"Uncletopia | Sydney | 5 | Stopwatch","name_short":"syd-5","host":"syd-1.au.uncletopia.com","port":27055,"enabled":true,"region":"au","cc":"au","latitude":-33.865143,"longitude":151.2099,"reserved":0,"last_update":"0001-01-01T00:00:00Z","name_a2s":"Uncletopia | Sydney | 5 | Stopwatch","protocol":17,"map":"pl_frontier_final","folder":"tf","game":"Team Fortress","app_id":440,"player_count":0,"max_players":24,"Bots":0,"server_type":"Dedicated","server_os":"Linux","password":true,"vac":true,"version":"7961495","steam_id":85568392925397959,"keywords":["nocrits","nodmgspread","payload","uncletopia"],"game_id":440,"stv_port":27056,"stv_name":"Uncletopia | Sydney | 5 | Stopwatch | STV","players":null},{"server_id":59,"name":"Uncletopia | Sydney | 6 | Community","name_short":"syd-6","host":"syd-1.au.uncletopia.com","port":27065,"enabled":true,"region":"au","cc":"au","latitude":-33.865143,"longitude":151.2099,"reserved":0,"last_update":"0001-01-01T00:00:00Z","name_a2s":"Uncletopia | Sydney | 6 | Community","protocol":17,"map":"cp_sunshine","folder":"tf","game":"Team Fortress","app_id":440,"player_count":0,"max_players":24,"Bots":0,"server_type":"Dedicated","server_os":"Linux","password":true,"vac":true,"version":"7961495","steam_id":85568392925397960,"keywords":["cp","nocrits","nodmgspread","uncletopia"],"game_id":440,"stv_port":27066,"stv_name":"Uncletopia | Sydney | 6 | Community | STV","players":null},{"server_id":49,"name":"Uncletopia | Warsaw | 1 | One Thousand Uncles","name_short":"waw-1","host":"waw-1.pl.uncletopia.com","port":27015,"enabled":true,"region":"eu","cc":"pl","latitude":52.2297,"longitude":21.017532,"reserved":0,"last_update":"0001-01-01T00:00:00Z","name_a2s":"Uncletopia | Warsaw | 1 | One Thousand Uncles","protocol":17,"map":"cp_egypt_final","folder":"tf","game":"Team Fortress","app_id":440,"player_count":0,"max_players":32,"Bots":0,"server_type":"Dedicated","server_os":"Linux","password":true,"vac":true,"version":"7961495","steam_id":85568392925397850,"keywords":["alltalk","cp","danepve","increased_maxplayers","nocrits","norespawntime","uncletopia"],"game_id":440,"stv_port":0,"stv_name":"","players":null},{"server_id":50,"name":"Uncletopia | Warsaw | 2 | One Thousand Uncles","name_short":"waw-2","host":"waw-1.pl.uncletopia.com","port":27025,"enabled":true,"region":"eu","cc":"pl","latitude":52.2297,"longitude":21.017532,"reserved":0,"last_update":"0001-01-01T00:00:00Z","name_a2s":"Uncletopia | Warsaw | 2 | One Thousand Uncles","protocol":17,"map":"cp_dustbowl","folder":"tf","game":"Team Fortress","app_id":440,"player_count":0,"max_players":32,"Bots":0,"server_type":"Dedicated","server_os":"Linux","password":true,"vac":true,"version":"7961495","steam_id":85568392925397851,"keywords":["alltalk","cp","danepve","increased_maxplayers","nocrits","norespawntime","uncletopia"],"game_id":440,"stv_port":0,"stv_name":"","players":null},{"server_id":51,"name":"Uncletopia | Warsaw | 3 | All Maps","name_short":"waw-3","host":"waw-1.pl.uncletopia.com","port":27035,"enabled":true,"region":"eu","cc":"pl","latitude":52.2297,"longitude":21.017532,"reserved":0,"last_update":"0001-01-01T00:00:00Z","name_a2s":"Uncletopia | Warsaw | 3 | All Maps","protocol":17,"map":"koth_viaduct","folder":"tf","game":"Team Fortress","app_id":440,"player_count":0,"max_players":24,"Bots":0,"server_type":"Dedicated","server_os":"Linux","password":true,"vac":true,"version":"7961495","steam_id":85568392925397852,"keywords":["cp","nocrits","nodmgspread","uncletopia"],"game_id":440,"stv_port":27036,"stv_name":"Uncletopia | Warsaw | 3 | All Maps | STV","players":null},{"server_id":52,"name":"Uncletopia | Warsaw | 4 | All Maps","name_short":"waw-4","host":"waw-1.pl.uncletopia.com","port":27045,"enabled":true,"region":"eu","cc":"pl","latitude":52.2297,"longitude":21.017532,"reserved":0,"last_update":"0001-01-01T00:00:00Z","name_a2s":"Uncletopia | Warsaw | 4 | All Maps","protocol":17,"map":"cp_dustbowl","folder":"tf","game":"Team Fortress","app_id":440,"player_count":0,"max_players":24,"Bots":0,"server_type":"Dedicated","server_os":"Linux","password":true,"vac":true,"version":"7961495","steam_id":85568392925397853,"keywords":["cp","nocrits","nodmgspread","uncletopia"],"game_id":440,"stv_port":27046,"stv_name":"Uncletopia | Warsaw | 4 | All Maps | STV","players":null},{"server_id":53,"name":"Uncletopia | Warsaw | 5 | Stopwatch","name_short":"waw-5","host":"waw-1.pl.uncletopia.com","port":27055,"enabled":true,"region":"eu","cc":"pl","latitude":52.2297,"longitude":21.017532,"reserved":0,"last_update":"0001-01-01T00:00:00Z","name_a2s":"Uncletopia | Warsaw | 5 | Stopwatch","protocol":17,"map":"workshop/pl_vigil_rc10.ugc1266210012","folder":"tf","game":"Team Fortress","app_id":440,"player_count":0,"max_players":24,"Bots":0,"server_type":"Dedicated","server_os":"Linux","password":true,"vac":true,"version":"7961495","steam_id":85568392925397854,"keywords":["nocrits","nodmgspread","payload","uncletopia"],"game_id":440,"stv_port":27056,"stv_name":"Uncletopia | Warsaw | 5 | Stopwatch | STV","players":null},{"server_id":54,"name":"Uncletopia | Warsaw | 6 | Community","name_short":"waw-6","host":"waw-1.pl.uncletopia.com","port":27065,"enabled":true,"region":"eu","cc":"pl","latitude":52.2297,"longitude":21.017532,"reserved":0,"last_update":"0001-01-01T00:00:00Z","name_a2s":"Uncletopia | Warsaw | 6 | Community","protocol":17,"map":"workshop/koth_ramjam_rc1.ugc459778887","folder":"tf","game":"Team Fortress","app_id":440,"player_count":0,"max_players":24,"Bots":0,"server_type":"Dedicated","server_os":"Linux","password":true,"vac":true,"version":"7961495","steam_id":85568392925397856,"keywords":["cp","nocrits","nodmgspread","uncletopia"],"game_id":440,"stv_port":27066,"stv_name":"Uncletopia | Warsaw | 6 | Community | STV","players":null}]}