{"status":true,"message":"","result":[{"server_id":9,"name":"Uncletopia | Atlanta | 1 | All Maps","name_short":"atl-1","host":"atl-1.us.uncletopia.com","port":27015,"enabled":true,"region":"us-east","cc":"us","latitude":33.753746,"longitude":-84.38633,"reserved":0,"last_update":"0001-01-01T00:00:00Z","name_a2s":"Uncletopia | Atlanta | 1 | All Maps","protocol":17,"map":"cp_process_final","folder":"tf","game":"Team Fortress","app_id":440,"player_count":24,"max_players":24,"Bots":0,"server_type":"Dedicated","server_os":"Linux","password":true,"vac":true,"version":"7882260","steam_id":85568392924469982,"keywords":["cp","nocrits","nodmgspread","uncletopia"],"game_id":440,"stv_port":27016,"stv_name":"Uncletopia | Atlanta | 1 | All Maps | STV","players":[{"user_id":475,"name":"firstlastmcgee","steam_id":76561198170187989,"connected_time":286000000000,"state":"active","ping":79},{"user_id":425,"name":"Mrcool55555","steam_id":76561198992594232,"connected_time":1313000000000,"state":"active","ping":82},{"user_id":490,"name":"HarryjusttHarry","steam_id":76561198982810452,"connected_time":28000000000,"state":"active","ping":114},{"user_id":461,"name":"Zigadox","steam_id":76561198079813479,"connected_time":575000000000,"state":"active","ping":100},{"user_id":491,"name":"Nephs","steam_id":76561198136763403,"connected_time":5000000000,"state":"spawning","ping":117},{"user_id":480,"name":"Tomato","steam_id":76561197996472649,"connected_time":255000000000,"state":"active","ping":89},{"user_id":421,"name":"Rhutebeer","steam_id":76561198018302761,"connected_time":1393000000000,"state":"active","ping":104},{"user_id":468,"name":"Ulrich Stern","steam_id":76561198101739682,"connected_time":378000000000,"state":"active","ping":123},{"user_id":463,"name":"uncle 'ardboss","steam_id":76561198055490732,"connected_time":507000000000,"state":"active","ping":177},{"user_id":287,"name":"ATL1 | on my hunting trip","steam_id":76561198315341646,"connected_time":4203000000000,"state":"active","ping":94},{"user_id":484,"name":"Raine","steam_id":76561199081937889,"connected_time":152000000000,"state":"active","ping":68},{"user_id":487,"name":"Xraverz","steam_id":76561198008891628,"connected_time":109000000000,"state":"active","ping":120},{"user_id":472,"name":"scio","steam_id":76561199001930207,"connected_time":321000000000,"state":"active","ping":101},{"user_id":355,"name":"The 64th Gamer","steam_id":76561198191188271,"connected_time":2758000000000,"state":"active","ping":97},{"user_id":106,"name":"icm2008","steam_id":76561199277408836,"connected_time":8332000000000,"state":"active","ping":105},{"user_id":438,"name":"MellowBoy-2354","steam_id":76561199080630632,"connected_time":900000000000,"state":"active","ping":101},{"user_id":471,"name":"strongest WNBA player","steam_id":76561198036884600,"connected_time":344000000000,"state":"active","ping":105},{"user_id":486,"name":"Peepster","steam_id":76561198297854733,"connected_time":140000000000,"state":"active","ping":121},{"user_id":489,"name":"K1nG","steam_id":76561198862980983,"connected_time":77000000000,"state":"active","ping":81},{"user_id":374,"name":"GandalfTheGrey6","steam_id":76561199116701903,"connected_time":2375000000000,"state":"active","ping":118},{"user_id":478,"name":"dark souls boss","steam_id":76561198316610724,"connected_time":282000000000,"state":"active","ping":135},{"user_id":440,"name":"sl0629","steam_id":76561199053720935,"connected_time":895000000000,"state":"active","ping":126},{"user_id":457,"name":"NikoOS (NO SOUND)","steam_id":76561198180020521,"connected_time":673000000000,"state":"active","ping":241},{"user_id":479,"name":"TheTroller2Billion","steam_id":76561198976660472,"connected_time":282000000000,"state":"active","ping":116}]},{"server_id":104,"name":"Uncletopia | Atlanta | 2 | All Maps","name_short":"atl-2","host":"atl-1.us.uncletopia.com","port":27025,"enabled":true,"region":"us-east","cc":"us","latitude":33.753746,"longitude":-84.38633,"reserved":0,"last_update":"0001-01-01T00:00:00Z","name_a2s":"Uncletopia | Atlanta | 2 | All Maps","protocol":17,"map":"cp_altitude","folder":"tf","game":"Team Fortress","app_id":440,"player_count":0,"max_players":24,"Bots":0,"server_type":"Dedicated","server_os":"Linux","password":true,"vac":true,"version":"7882260","steam_id":85568392924469983,"keywords":["cp","nocrits","nodmgspread","uncletopia"],"game_id":440,"stv_port":27026,"stv_name":"Uncletopia | Atlanta | 2 | All Maps | STV","players":null},{"server_id":400,"name":"Uncletopia | Atlanta | 3 | Community","name_short":"atl-3","host":"atl-1.us.uncletopia.com","port":27035,"enabled":true,"region":"us-east","cc":"us","latitude":33.753746,"longitude":-84.38633,"reserved":0,"last_update":"0001-01-01T00:00:00Z","name_a2s":"Uncletopia | Atlanta | 3 | Community","protocol":17,"map":"workshop/cp_glassworks_rc6a.ugc454118349","folder":"tf","game":"Team Fortress","app_id":440,"player_count":0,"max_players":24,"Bots":0,"server_type":"Dedicated","server_os":"Linux","password":true,"vac":true,"version":"7882260","steam_id":85568392924515187,"keywords":["cp","nocrits","nodmgspread","uncletopia"],"game_id":440,"stv_port":27036,"stv_name":"Uncletopia | Atlanta | 3 | Community | STV","players":null},{"server_id":401,"name":"Uncletopia | Atlanta | 4 | No Payload","name_short":"atl-4","host":"atl-1.us.uncletopia.com","port":27045,"enabled":true,"region":"us-east","cc":"us","latitude":33.753746,"longitude":-84.38633,"reserved":0,"last_update":"0001-01-01T00:00:00Z","name_a2s":"","protocol":0,"map":"","folder":"","game":"","app_id":0,"player_count":0,"max_players":0,"Bots":0,"server_type":"","server_os":"","password":false,"vac":false,"version":"","steam_id":0,"keywords":null,"game_id":0,"stv_port":0,"stv_name":"","players":null},{"server_id":2,"name":"Uncletopia | Chicago | 1 | All Maps","name_short":"chi-1","host":"chi-1.us.uncletopia.com","port":27015,"enabled":true,"region":"us-central","cc":"us","latitude":41.881832,"longitude":-87.62318,"reserved":0,"last_update":"0001-01-01T00:00:00Z","name_a2s":"Uncletopia | Chicago | 1 | All Maps","protocol":17,"map":"pl_badwater","folder":"tf","game":"Team Fortress","app_id":440,"player_count":24,"max_players":24,"Bots":0,"server_type":"Dedicated","server_os":"Linux","password":true,"vac":true,"version":"7882260","steam_id":85568392924469984,"keywords":["nocrits","nodmgspread","payload","uncletopia"],"game_id":440,"stv_port":27016,"stv_name":"Uncletopia | Chicago | 1 | All Maps | STV","players":[{"user_id":124,"name":"lexi","steam_id":76561198176299759,"connected_time":141000000000,"state":"active","ping":81},{"user_id":122,"name":"ideamerit","steam_id":76561198934423030,"connected_time":154000000000,"state":"active","ping":175},{"user_id":82,"name":"Ace Chromatica","steam_id":76561198042211131,"connected_time":4077000000000,"state":"active","ping":55},{"user_id":100,"name":"Wallet","steam_id":76561198081067377,"connected_time":2463000000000,"state":"active","ping":59},{"user_id":110,"name":"Lost","steam_id":76561198093713427,"connected_time":1181000000000,"state":"active","ping":61},{"user_id":113,"name":"Broadsword","steam_id":76561198011160411,"connected_time":1117000000000,"state":"active","ping":90},{"user_id":111,"name":"Toottoot","steam_id":76561197992404836,"connected_time":1168000000000,"state":"active","ping":47},{"user_id":96,"name":"Rornir","steam_id":76561198081829615,"connected_time":3661000000000,"state":"active","ping":41},{"user_id":105,"name":"Filthy Acts at Reasonable Price","steam_id":76561198354615890,"connected_time":2389000000000,"state":"active","ping":94},{"user_id":112,"name":"soltuno","steam_id":76561198074430565,"connected_time":1162000000000,"state":"active","ping":120},{"user_id":114,"name":"noah","steam_id":76561198173310157,"connected_time":1107000000000,"state":"active","ping":53},{"user_id":53,"name":"trollgenier","steam_id":76561198882404753,"connected_time":6616000000000,"state":"active","ping":82},{"user_id":94,"name":"StonedGiant","steam_id":76561197984386932,"connected_time":3738000000000,"state":"active","ping":62},{"user_id":121,"name":"meo ♥","steam_id":76561197992719272,"connected_time":823000000000,"state":"active","ping":51},{"user_id":93,"name":"Guil","steam_id":76561197993289176,"connected_time":3760000000000,"state":"active","ping":71},{"user_id":97,"name":"Astoriae!","steam_id":76561199090168858,"connected_time":3407000000000,"state":"active","ping":67},{"user_id":104,"name":"Zoot","steam_id":76561198121944243,"connected_time":2398000000000,"state":"active","ping":75},{"user_id":117,"name":"Pepsiman","steam_id":76561198046891909,"connected_time":1025000000000,"state":"active","ping":54},{"user_id":116,"name":"Clyde","steam_id":76561198158206236,"connected_time":1091000000000,"state":"active","ping":106},{"user_id":108,"name":"thepokeyen","steam_id":76561198236847572,"connected_time":2315000000000,"state":"active","ping":69},{"user_id":84,"name":"Oh, it's Zach","steam_id":76561198103309672,"connected_time":4070000000000,"state":"active","ping":58},{"user_id":86,"name":"Phos","steam_id":76561198122339506,"connected_time":4040000000000,"state":"active","ping":75},{"user_id":123,"name":"homer","steam_id":76561198171491110,"connected_time":150000000000,"state":"active","ping":66},{"user_id":99,"name":"frolik.maty","steam_id":76561199033830846,"connected_time":3271000000000,"state":"active","ping":175}]},{"server_id":106,"name":"Uncletopia | Chicago | 2 | All Maps","name_short":"chi-2","host":"chi-1.us.uncletopia.com","port":27025,"enabled":true,"region":"us-central","cc":"us","latitude":41.881832,"longitude":-87.62318,"reserved":0,"last_update":"0001-01-01T00:00:00Z","name_a2s":"Uncletopia | Chicago | 2 | All Maps","protocol":17,"map":"pl_upward","folder":"tf","game":"Team Fortress","app_id":440,"player_count":24,"max_players":24,"Bots":0,"server_type":"Dedicated","server_os":"Linux","password":true,"vac":true,"version":"7882260","steam_id":85568392924469985,"keywords":["nocrits","nodmgspread","payload","uncletopia"],"game_id":440,"stv_port":27026,"stv_name":"Uncletopia | Chicago | 2 | All Maps | STV","players":[{"user_id":100,"name":"Endoflobbywaittime","steam_id":76561199457528443,"connected_time":936000000000,"state":"active","ping":74},{"user_id":113,"name":"tlm","steam_id":76561198178457461,"connected_time":48000000000,"state":"active","ping":60},{"user_id":102,"name":"jack","steam_id":76561198314104415,"connected_time":823000000000,"state":"active","ping":69},{"user_id":77,"name":"Cloud","steam_id":76561198954987128,"connected_time":2583000000000,"state":"active","ping":70},{"user_id":79,"name":"Tone","steam_id":76561198139386202,"connected_time":2233000000000,"state":"active","ping":55},{"user_id":109,"name":"sunny","steam_id":76561198069380992,"connected_time":141000000000,"state":"active","ping":81},{"user_id":64,"name":"just a gamer","steam_id":76561199208833695,"connected_time":3881000000000,"state":"active","ping":87},{"user_id":93,"name":"Schmingus","steam_id":76561199476148332,"connected_time":1586000000000,"state":"active","ping":102},{"user_id":107,"name":"Nite","steam_id":76561199014777092,"connected_time":536000000000,"state":"active","ping":59},{"user_id":110,"name":"Changretta","steam_id":76561198050136796,"connected_time":107000000000,"state":"active","ping":75},{"user_id":108,"name":"the engineer","steam_id":76561199467412609,"connected_time":383000000000,"state":"active","ping":73},{"user_id":98,"name":"Brian","steam_id":76561198144650969,"connected_time":995000000000,"state":"active","ping":85},{"user_id":104,"name":"ATL1 | wire-guided","steam_id":76561198055407168,"connected_time":758000000000,"state":"active","ping":72},{"user_id":114,"name":"Harry Hotcock","steam_id":76561197999209779,"connected_time":18000000000,"state":"active","ping":112},{"user_id":58,"name":"wearing my sunday pants","steam_id":76561198834106533,"connected_time":4360000000000,"state":"active","ping":88},{"user_id":94,"name":"ElChuchoXf","steam_id":76561199235124146,"connected_time":1572000000000,"state":"active","ping":144},{"user_id":84,"name":"boy kisser","steam_id":76561198142129648,"connected_time":2171000000000,"state":"active","ping":65},{"user_id":95,"name":"JonBoy","steam_id":76561198082052480,"connected_time":1476000000000,"state":"active","ping":101},{"user_id":92,"name":"fazaness","steam_id":76561198851525394,"connected_time":1790000000000,"state":"active","ping":83},{"user_id":74,"name":"Four","steam_id":76561198413077658,"connected_time":2973000000000,"state":"active","ping":82},{"user_id":106,"name":"floppy muppet","steam_id":76561198003076261,"connected_time":747000000000,"state":"active","ping":76},{"user_id":70,"name":"Voodo133","steam_id":76561198042670351,"connected_time":3259000000000,"state":"active","ping":88},{"user_id":111,"name":"The CEO of cement","steam_id":76561199107177460,"connected_time":88000000000,"state":"active","ping":96},{"user_id":112,"name":"the real big sips","steam_id":76561197999945358,"connected_time":88000000000,"state":"active","ping":63}]},{"server_id":402,"name":"Uncletopia | Chicago | 3 | All Maps","name_short":"chi-3","host":"chi-1.us.uncletopia.com","port":27035,"enabled":true,"region":"us-central","cc":"us","latitude":41.881832,"longitude":-87.62318,"reserved":0,"last_update":"0001-01-01T00:00:00Z","name_a2s":"Uncletopia | Chicago | 3 | All Maps","protocol":17,"map":"pl_upward","folder":"tf","game":"Team Fortress","app_id":440,"player_count":24,"max_players":24,"Bots":0,"server_type":"Dedicated","server_os":"Linux","password":true,"vac":true,"version":"7882260","steam_id":85568392924515191,"keywords":["nocrits","nodmgspread","payload","uncletopia"],"game_id":440,"stv_port":27036,"stv_name":"Uncletopia | Chicago | 3 | All Maps | STV","players":[{"user_id":120,"name":"FUSION","steam_id":76561197972659738,"connected_time":2657000000000,"state":"active","ping":49},{"user_id":151,"name":"Shogun","steam_id":76561198041050862,"connected_time":275000000000,"state":"active","ping":58},{"user_id":153,"name":"keep it down will ya?","steam_id":76561198056733774,"connected_time":121000000000,"state":"active","ping":59},{"user_id":145,"name":"Lightatex","steam_id":76561199068097196,"connected_time":1022000000000,"state":"active","ping":53},{"user_id":155,"name":"Mediocre Gaming","steam_id":76561199230467980,"connected_time":98000000000,"state":"active","ping":62},{"user_id":121,"name":"Some random dude","steam_id":76561199477705792,"connected_time":2573000000000,"state":"active","ping":117},{"user_id":146,"name":"volta","steam_id":76561199214283884,"connected_time":1001000000000,"state":"active","ping":101},{"user_id":147,"name":"Umbrella Corporation","steam_id":76561197970242110,"connected_time":761000000000,"state":"active","ping":61},{"user_id":148,"name":"koemu","steam_id":76561198077449460,"connected_time":483000000000,"state":"active","ping":60},{"user_id":139,"name":"a table","steam_id":76561198158461279,"connected_time":1470000000000,"state":"active","ping":59},{"user_id":135,"name":"slurp","steam_id":76561198323497535,"connected_time":1486000000000,"state":"active","ping":73},{"user_id":156,"name":"Luke","steam_id":76561198090671431,"connected_time":89000000000,"state":"active","ping":75},{"user_id":137,"name":"LispyJimmyOfficial420","steam_id":76561198986553109,"connected_time":1482000000000,"state":"active","ping":49},{"user_id":119,"name":"Motreir","steam_id":76561198151717946,"connected_time":2873000000000,"state":"active","ping":76},{"user_id":144,"name":"tyg","steam_id":76561198056246867,"connected_time":1354000000000,"state":"active","ping":65},{"user_id":150,"name":"Big Soup","steam_id":76561198045609958,"connected_time":455000000000,"state":"active","ping":75},{"user_id":152,"name":"Dim","steam_id":76561198061411324,"connected_time":178000000000,"state":"active","ping":142},{"user_id":157,"name":"Misfit","steam_id":76561197976038308,"connected_time":78000000000,"state":"active","ping":60},{"user_id":158,"name":"green bean","steam_id":76561198113099204,"connected_time":73000000000,"state":"active","ping":76},{"user_id":131,"name":"MasterCard Mouse Water","steam_id":76561198174428289,"connected_time":1835000000000,"state":"active","ping":69},{"user_id":159,"name":"dr sex, md (sexologist)","steam_id":76561198115874625,"connected_time":65000000000,"state":"active","ping":61},{"user_id":162,"name":"Auburn","steam_id":76561198199541493,"connected_time":17000000000,"state":"active","ping":297},{"user_id":127,"name":"PyroEagle","steam_id":76561198296434231,"connected_time":2304000000000,"state":"active","ping":67},{"user_id":163,"name":"parotiC","steam_id":76561198080518621,"connected_time":1000000000,"state":"spawning","ping":85}]},{"server_id":403,"name":"Uncletopia | Chicago | 4 | All Maps","name_short":"chi-4","host":"chi-1.us.uncletopia.com","port":27045,"enabled":true,"region":"us-central","cc":"us","latitude":41.881832,"longitude":-87.62318,"reserved":0,"last_update":"0001-01-01T00:00:00Z","name_a2s":"Uncletopia | Chicago | 4 | All Maps","protocol":17,"map":"pl_upward","folder":"tf","game":"Team Fortress","app_id":440,"player_count":0,"max_players":24,"Bots":0,"server_type":"Dedicated","server_os":"Linux","password":true,"vac":true,"version":"7882260","steam_id":85568392924515193,"keywords":["nocrits","nodmgspread","payload","uncletopia"],"game_id":440,"stv_port":27046,"stv_name":"Uncletopia | Chicago | 4 | All Maps | STV","players":null},{"server_id":36,"name":"Uncletopia | Chicago | 5 | All Maps","name_short":"chi-5","host":"chi-2.us.uncletopia.com","port":27015,"enabled":true,"region":"us-central","cc":"us","latitude":41.881832,"longitude":-87.62318,"reserved":0,"last_update":"0001-01-01T00:00:00Z","name_a2s":"Uncletopia | Chicago | 5 | All Maps","protocol":17,"map":"cp_dustbowl","folder":"tf","game":"Team Fortress","app_id":440,"player_count":9,"max_players":24,"Bots":0,"server_type":"Dedicated","server_os":"Linux","password":true,"vac":true,"version":"7882260","steam_id":85568392924866362,"keywords":["cp","nocrits","nodmgspread","uncletopia"],"game_id":440,"stv_port":27016,"stv_name":"Uncletopia | Chicago | 5 | All Maps | STV","players":[{"user_id":15,"name":"Dragoon","steam_id":76561198211973253,"connected_time":620000000000,"state":"active","ping":82},{"user_id":16,"name":"legopirate10","steam_id":76561198178827241,"connected_time":619000000000,"state":"active","ping":40},{"user_id":23,"name":"ConnorBruh","steam_id":76561198869159718,"connected_time":209000000000,"state":"active","ping":89},{"user_id":24,"name":"Ike Broflovski","steam_id":76561199209016136,"connected_time":202000000000,"state":"active","ping":60},{"user_id":22,"name":"Bangushonkle","steam_id":76561198218887511,"connected_time":284000000000,"state":"active","ping":84},{"user_id":21,"name":"GrassHopper","steam_id":76561198201371821,"connected_time":395000000000,"state":"active","ping":137},{"user_id":25,"name":"Peepster","steam_id":76561198297854733,"connected_time":157000000000,"state":"connecting","ping":0},{"user_id":26,"name":"katryna","steam_id":76561198023440304,"connected_time":114000000000,"state":"active","ping":52},{"user_id":27,"name":"Prex","steam_id":76561198301145725,"connected_time":32000000000,"state":"active","ping":111}]},{"server_id":37,"name":"Uncletopia | Chicago | 6 | All Maps","name_short":"chi-6","host":"chi-2.us.uncletopia.com","port":27025,"enabled":true,"region":"us-central","cc":"us","latitude":41.881832,"longitude":-87.62318,"reserved":0,"last_update":"0001-01-01T00:00:00Z","name_a2s":"Uncletopia | Chicago | 6 | All Maps","protocol":17,"map":"pl_pier","folder":"tf","game":"Team Fortress","app_id":440,"player_count":24,"max_players":24,"Bots":0,"server_type":"Dedicated","server_os":"Linux","password":true,"vac":true,"version":"7882260","steam_id":85568392924866363,"keywords":["nocrits","nodmgspread","payload","uncletopia"],"game_id":440,"stv_port":27026,"stv_name":"Uncletopia | Chicago | 6 | All Maps | STV","players":[{"user_id":62,"name":"ALBINO LESBIAN MIDGET","steam_id":76561198122691714,"connected_time":1038000000000,"state":"active","ping":88},{"user_id":7,"name":"Miner2495","steam_id":76561198445904523,"connected_time":4562000000000,"state":"active","ping":101},{"user_id":35,"name":"Through The Mill","steam_id":76561197995620232,"connected_time":2748000000000,"state":"active","ping":57},{"user_id":50,"name":"M","steam_id":76561198286792807,"connected_time":1625000000000,"state":"active","ping":68},{"user_id":10,"name":"carrot cake","steam_id":76561198055174915,"connected_time":3933000000000,"state":"active","ping":69},{"user_id":14,"name":"bachphong760","steam_id":76561199433780443,"connected_time":3599000000000,"state":"active","ping":93},{"user_id":79,"name":"scapegoat","steam_id":76561198188722751,"connected_time":208000000000,"state":"active","ping":101},{"user_id":49,"name":"Tying the knot","steam_id":76561198247794130,"connected_time":1744000000000,"state":"active","ping":58},{"user_id":60,"name":"The Chosen One","steam_id":76561199046984627,"connected_time":1051000000000,"state":"active","ping":87},{"user_id":75,"name":"Takeover","steam_id":76561197996081461,"connected_time":436000000000,"state":"active","ping":59},{"user_id":57,"name":"CJDGuy","steam_id":76561198213009545,"connected_time":1154000000000,"state":"active","ping":51},{"user_id":80,"name":"ssj4 turles","steam_id":76561198128347876,"connected_time":139000000000,"state":"active","ping":82},{"user_id":67,"name":"DerpFamous","steam_id":76561198046167888,"connected_time":844000000000,"state":"active","ping":59},{"user_id":44,"name":"WhiteJohnWick","steam_id":76561198009543767,"connected_time":2558000000000,"state":"active","ping":61},{"user_id":28,"name":"Have a great week!!","steam_id":76561198392539722,"connected_time":2886000000000,"state":"active","ping":83},{"user_id":53,"name":"Chezaus","steam_id":76561198317397837,"connected_time":1305000000000,"state":"active","ping":63},{"user_id":48,"name":"funny little lesbian","steam_id":76561198079416036,"connected_time":2022000000000,"state":"active","ping":46},{"user_id":31,"name":"Skele Ton of Fun","steam_id":76561198154574280,"connected_time":2829000000000,"state":"active","ping":72},{"user_id":73,"name":"Woodstock","steam_id":76561198041442667,"connected_time":554000000000,"state":"active","ping":115},{"user_id":56,"name":"the real babytron","steam_id":76561197989627918,"connected_time":1210000000000,"state":"active","ping":79},{"user_id":40,"name":"ConroyJenkins","steam_id":76561198014297798,"connected_time":2641000000000,"state":"active","ping":88},{"user_id":81,"name":"RapBap Bird in Lap","steam_id":76561198105613110,"connected_time":61000000000,"state":"active","ping":66},{"user_id":74,"name":"Noob_Extreme","steam_id":76561198353507507,"connected_time":529000000000,"state":"active","ping":169},{"user_id":47,"name":"freyja","steam_id":76561198249206656,"connected_time":2406000000000,"state":"active","ping":80}]},{"server_id":38,"name":"Uncletopia | Chicago | 7 | Stopwatch Beta","name_short":"chi-7","host":"chi-2.us.uncletopia.com","port":27035,"enabled":true,"region":"us-central","cc":"us","latitude":41.881832,"longitude":-87.62318,"reserved":0,"last_update":"0001-01-01T00:00:00Z","name_a2s":"Uncletopia | Chicago | 7 | Stopwatch Beta","protocol":17,"map":"pl_upward","folder":"tf","game":"Team Fortress","app_id":440,"player_count":0,"max_players":24,"Bots":0,"server_type":"Dedicated","server_os":"Linux","password":true,"vac":true,"version":"7882260","steam_id":85568392924866364,"keywords":["nocrits","nodmgspread","payload","uncletopia"],"game_id":440,"stv_port":27036,"stv_name":"Uncletopia | Chicago | 7 | Stopwatch Beta | STV","players":null},{"server_id":39,"name":"Uncletopia | Chicago | 8 | Community","name_short":"chi-8","host":"chi-2.us.uncletopia.com","port":27045,"enabled":true,"region":"us-central","cc":"us","latitude":41.881832,"longitude":-87.62318,"reserved":0,"last_update":"0001-01-01T00:00:00Z","name_a2s":"Uncletopia | Chicago | 8 | Community","protocol":17,"map":"workshop/pl_barnblitz_pro7.ugc582280235","folder":"tf","game":"Team Fortress","app_id":440,"player_count":0,"max_players":24,"Bots":0,"server_type":"Dedicated","server_os":"Linux","password":true,"vac":true,"version":"7882260","steam_id":85568392924866365,"keywords":["nocrits","nodmgspread","payload","uncletopia"],"game_id":440,"stv_port":27046,"stv_name":"Uncletopia | Chicago | 8 | Community | STV","players":null},{"server_id":8,"name":"Uncletopia | Dallas | 1 | All Maps","name_short":"dal-1","host":"dal-1.us.uncletopia.com","port":27015,"enabled":true,"region":"us-central","cc":"us","latitude":32.779167,"longitude":-96.80889,"reserved":0,"last_update":"0001-01-01T00:00:00Z","name_a2s":"Uncletopia | Dallas | 1 | All Maps","protocol":17,"map":"cp_snakewater_final1","folder":"tf","game":"Team Fortress","app_id":440,"player_count":24,"max_players":24,"Bots":0,"server_type":"Dedicated","server_os":"Linux","password":true,"vac":true,"version":"7882260","steam_id":85568392924469986,"keywords":["cp","nocrits","nodmgspread","uncletopia"],"game_id":440,"stv_port":27016,"stv_name":"Uncletopia | Dallas | 1 | All Maps | STV","players":[{"user_id":179,"name":".mp3","steam_id":76561198070710025,"connected_time":1282000000000,"state":"active","ping":52},{"user_id":161,"name":"Whatrus","steam_id":76561198340908301,"connected_time":3723000000000,"state":"active","ping":111},{"user_id":117,"name":"Warfarin","steam_id":76561198348354629,"connected_time":8230000000000,"state":"active","ping":75},{"user_id":166,"name":"cloaker","steam_id":76561199453618642,"connected_time":2602000000000,"state":"active","ping":100},{"user_id":110,"name":"ᕦ(ò_óˇ)ᕤ","steam_id":76561198072646165,"connected_time":8445000000000,"state":"active","ping":78},{"user_id":167,"name":"joebot","steam_id":76561197975606100,"connected_time":2357000000000,"state":"active","ping":80},{"user_id":193,"name":"skilaruh","steam_id":76561198413172611,"connected_time":540000000000,"state":"active","ping":77},{"user_id":116,"name":"Shipmunk","steam_id":76561198063062670,"connected_time":8348000000000,"state":"active","ping":79},{"user_id":169,"name":"NOT Susie Deltarune (not real)","steam_id":76561199007365488,"connected_time":2303000000000,"state":"active","ping":66},{"user_id":183,"name":"Yoshi_86","steam_id":76561198942328734,"connected_time":1214000000000,"state":"active","ping":45},{"user_id":171,"name":"neet","steam_id":76561197968115168,"connected_time":2264000000000,"state":"active","ping":75},{"user_id":195,"name":"fred","steam_id":76561199065834574,"connected_time":160000000000,"state":"active","ping":99},{"user_id":150,"name":"Dusklight","steam_id":76561198036982638,"connected_time":4957000000000,"state":"active","ping":66},{"user_id":172,"name":"RoxyRubyG (she/her)","steam_id":76561198451067525,"connected_time":2262000000000,"state":"active","ping":55},{"user_id":36,"name":"lasky","steam_id":76561198017030029,"connected_time":13927000000000,"state":"active","ping":95},{"user_id":180,"name":"Nyplestheclown","steam_id":76561198028600291,"connected_time":1280000000000,"state":"active","ping":54},{"user_id":196,"name":"Gary Budussy","steam_id":76561197969793969,"connected_time":38000000000,"state":"active","ping":53},{"user_id":174,"name":"Glaceon","steam_id":76561198177715869,"connected_time":2175000000000,"state":"active","ping":67},{"user_id":162,"name":"Michaelpc1","steam_id":76561198088365519,"connected_time":3476000000000,"state":"active","ping":90},{"user_id":192,"name":"peacekeeper","steam_id":76561199474493516,"connected_time":632000000000,"state":"active","ping":74},{"user_id":154,"name":"igotswag.com","steam_id":76561198083851689,"connected_time":4398000000000,"state":"active","ping":32},{"user_id":181,"name":"Mindstrain","steam_id":76561199274044215,"connected_time":1277000000000,"state":"active","ping":93},{"user_id":191,"name":"DMM","steam_id":76561198065426171,"connected_time":726000000000,"state":"active","ping":57},{"user_id":185,"name":"J.G. Klaus","steam_id":76561198001111196,"connected_time":1158000000000,"state":"active","ping":55}]},{"server_id":108,"name":"Uncletopia | Dallas | 2 | All Maps","name_short":"dal-2","host":"dal-1.us.uncletopia.com","port":27025,"enabled":true,"region":"us-central","cc":"us","latitude":32.779167,"longitude":-96.80889,"reserved":0,"last_update":"0001-01-01T00:00:00Z","name_a2s":"Uncletopia | Dallas | 2 | All Maps","protocol":17,"map":"koth_highpass","folder":"tf","game":"Team Fortress","app_id":440,"player_count":4,"max_players":24,"Bots":0,"server_type":"Dedicated","server_os":"Linux","password":true,"vac":true,"version":"7882260","steam_id":85568392924469988,"keywords":["cp","nocrits","nodmgspread","uncletopia"],"game_id":440,"stv_port":27026,"stv_name":"Uncletopia | Dallas | 2 | All Maps | STV","players":[{"user_id":20,"name":"The World's Softest Sandwich","steam_id":76561198015577707,"connected_time":1183000000000,"state":"active","ping":69},{"user_id":21,"name":"cdozbirn10","steam_id":76561198104042921,"connected_time":1069000000000,"state":"active","ping":64},{"user_id":23,"name":"Coffee_Addict@Home","steam_id":76561198297673004,"connected_time":379000000000,"state":"active","ping":99},{"user_id":25,"name":"Fresh Lychee","steam_id":76561198045399559,"connected_time":337000000000,"state":"active","ping":68}]},{"server_id":5,"name":"Uncletopia | Frankfurt | 1 | All Maps","name_short":"frk-1","host":"frk-1.de.uncletopia.com","port":27015,"enabled":true,"region":"eu","cc":"de","latitude":50.110924,"longitude":8.682127,"reserved":0,"last_update":"0001-01-01T00:00:00Z","name_a2s":"Uncletopia | Frankfurt | 1 | All Maps","protocol":17,"map":"pl_barnblitz","folder":"tf","game":"Team Fortress","app_id":440,"player_count":24,"max_players":24,"Bots":0,"server_type":"Dedicated","server_os":"Linux","password":true,"vac":true,"version":"7882260","steam_id":85568392924469989,"keywords":["nocrits","nodmgspread","payload","uncletopia"],"game_id":440,"stv_port":27016,"stv_name":"Uncletopia | Frankfurt | 1 | All Maps | STV","players":[{"user_id":335,"name":"shrrrrrrekkkkk","steam_id":76561198347241576,"connected_time":597000000000,"state":"active","ping":168},{"user_id":304,"name":"Gryoss","steam_id":76561197999837111,"connected_time":2807000000000,"state":"active","ping":100},{"user_id":348,"name":"Sonic","steam_id":76561198081692577,"connected_time":187000000000,"state":"active","ping":60},{"user_id":238,"name":"Greenmaker","steam_id":76561198060466591,"connected_time":6748000000000,"state":"active","ping":79},{"user_id":347,"name":"mr.bertik","steam_id":76561199090893519,"connected_time":224000000000,"state":"active","ping":68},{"user_id":315,"name":"sHIFTINGvORTEX","steam_id":76561198231648332,"connected_time":1814000000000,"state":"active","ping":75},{"user_id":291,"name":"Radegast the Brown","steam_id":76561198075489505,"connected_time":3796000000000,"state":"active","ping":59},{"user_id":324,"name":"KHEY","steam_id":76561198035380064,"connected_time":864000000000,"state":"active","ping":60},{"user_id":251,"name":"Hrač2","steam_id":76561198020566637,"connected_time":5950000000000,"state":"active","ping":45},{"user_id":310,"name":"i'm sick","steam_id":76561198170609049,"connected_time":2040000000000,"state":"active","ping":63},{"user_id":311,"name":"pizzaboob","steam_id":76561198097507847,"connected_time":2028000000000,"state":"active","ping":75},{"user_id":339,"name":"Communisam Extremist","steam_id":76561199034293112,"connected_time":516000000000,"state":"active","ping":62},{"user_id":334,"name":"nyanezt","steam_id":76561198253734265,"connected_time":644000000000,"state":"active","ping":77},{"user_id":342,"name":"hardstyle","steam_id":76561198091840184,"connected_time":438000000000,"state":"active","ping":63},{"user_id":349,"name":"Accident","steam_id":76561198115160396,"connected_time":185000000000,"state":"active","ping":67},{"user_id":312,"name":"Willing to be science","steam_id":76561198067204908,"connected_time":2019000000000,"state":"active","ping":69},{"user_id":296,"name":"Pa(i)n","steam_id":76561198285357256,"connected_time":3366000000000,"state":"active","ping":95},{"user_id":340,"name":"Digio","steam_id":76561199065101964,"connected_time":506000000000,"state":"active","ping":82},{"user_id":333,"name":"D.M.G | DAMAGE","steam_id":76561199080898851,"connected_time":681000000000,"state":"active","ping":117},{"user_id":305,"name":"engineer drip","steam_id":76561198991032570,"connected_time":2644000000000,"state":"active","ping":96},{"user_id":294,"name":"rets","steam_id":76561198061551392,"connected_time":3776000000000,"state":"active","ping":49},{"user_id":345,"name":"Zizman","steam_id":76561198446562910,"connected_time":411000000000,"state":"active","ping":145},{"user_id":326,"name":"Armo PRO90","steam_id":76561198138789964,"connected_time":856000000000,"state":"active","ping":72},{"user_id":350,"name":"Your local defective","steam_id":76561198072950522,"connected_time":171000000000,"state":"active","ping":76}]},{"server_id":110,"name":"Uncletopia | Frankfurt | 2 | All Maps","name_short":"frk-2","host":"frk-1.de.uncletopia.com","port":27025,"enabled":true,"region":"eu","cc":"de","latitude":50.110924,"longitude":8.682127,"reserved":0,"last_update":"0001-01-01T00:00:00Z","name_a2s":"Uncletopia | Frankfurt | 2 | All Maps","protocol":17,"map":"pl_barnblitz","folder":"tf","game":"Team Fortress","app_id":440,"player_count":24,"max_players":24,"Bots":0,"server_type":"Dedicated","server_os":"Linux","password":true,"vac":true,"version":"7882260","steam_id":85568392924469990,"keywords":["nocrits","nodmgspread","payload","uncletopia"],"game_id":440,"stv_port":27026,"stv_name":"Uncletopia | Frankfurt | 2 | All Maps | STV","players":[{"user_id":226,"name":"XFACTOR | {Moshik Roth}","steam_id":76561198352842114,"connected_time":4760000000000,"state":"active","ping":107},{"user_id":268,"name":"EMES","steam_id":76561198046639824,"connected_time":238000000000,"state":"active","ping":81},{"user_id":237,"name":"『Dorarhim』","steam_id":76561198220232352,"connected_time":4415000000000,"state":"active","ping":48},{"user_id":257,"name":"Brother Roga","steam_id":76561198029613515,"connected_time":2412000000000,"state":"active","ping":60},{"user_id":260,"name":"wiita","steam_id":76561198123238801,"connected_time":1521000000000,"state":"active","ping":69},{"user_id":262,"name":"minitel","steam_id":76561198056336216,"connected_time":1319000000000,"state":"active","ping":61},{"user_id":203,"name":"Xanshi","steam_id":76561198152392309,"connected_time":6150000000000,"state":"active","ping":47},{"user_id":258,"name":"Ecton","steam_id":76561198025103720,"connected_time":1971000000000,"state":"active","ping":60},{"user_id":230,"name":"AfterburnMastah!","steam_id":76561198156655964,"connected_time":4695000000000,"state":"active","ping":83},{"user_id":265,"name":"avenje","steam_id":76561198155824845,"connected_time":421000000000,"state":"active","ping":68},{"user_id":264,"name":"Local Dumbass","steam_id":76561198252211608,"connected_time":1146000000000,"state":"active","ping":75},{"user_id":233,"name":"Dark|TBE","steam_id":76561199093438455,"connected_time":4509000000000,"state":"active","ping":43},{"user_id":234,"name":"Dimitri_612","steam_id":76561199223984137,"connected_time":4508000000000,"state":"active","ping":51},{"user_id":236,"name":"satanism","steam_id":76561198410662428,"connected_time":4418000000000,"state":"active","ping":68},{"user_id":244,"name":"ZerCroix","steam_id":76561198199523226,"connected_time":3717000000000,"state":"active","ping":50},{"user_id":269,"name":"ScaryTree","steam_id":76561199384362833,"connected_time":56000000000,"state":"active","ping":67},{"user_id":246,"name":"󠀡󠀡","steam_id":76561198399390201,"connected_time":3674000000000,"state":"active","ping":88},{"user_id":239,"name":"Klifton","steam_id":76561198803743443,"connected_time":4344000000000,"state":"active","ping":71},{"user_id":242,"name":"vdl","steam_id":76561198044583116,"connected_time":4096000000000,"state":"active","ping":93},{"user_id":266,"name":"Waltcha","steam_id":76561198007691468,"connected_time":369000000000,"state":"active","ping":65},{"user_id":202,"name":"Just1s","steam_id":76561198026597437,"connected_time":6165000000000,"state":"active","ping":60},{"user_id":267,"name":"Blind","steam_id":76561198310295139,"connected_time":349000000000,"state":"active","ping":82},{"user_id":214,"name":"Cars","steam_id":76561198173329977,"connected_time":5404000000000,"state":"active","ping":70},{"user_id":220,"name":"twscsvl","steam_id":76561198045304929,"connected_time":5179000000000,"state":"active","ping":121}]},{"server_id":308,"name":"Uncletopia | Frankfurt | 3 | All Maps","name_short":"frk-3","host":"frk-1.de.uncletopia.com","port":27035,"enabled":true,"region":"eu","cc":"de","latitude":50.110924,"longitude":8.682127,"reserved":0,"last_update":"0001-01-01T00:00:00Z","name_a2s":"Uncletopia | Frankfurt | 3 | All Maps","protocol":17,"map":"pl_pier","folder":"tf","game":"Team Fortress","app_id":440,"player_count":24,"max_players":24,"Bots":0,"server_type":"Dedicated","server_os":"Linux","password":true,"vac":true,"version":"7882260","steam_id":85568392924504274,"keywords":["nocrits","nodmgspread","payload","uncletopia"],"game_id":440,"stv_port":27036,"stv_name":"Uncletopia | Frankfurt | 3 | All Maps | STV","players":[{"user_id":465,"name":"Лысый из кухни","steam_id":76561199072741842,"connected_time":905000000000,"state":"active","ping":81},{"user_id":471,"name":"Rambi","steam_id":76561199058078505,"connected_time":845000000000,"state":"active","ping":147},{"user_id":483,"name":"巧克力冰淇淋","steam_id":76561198364121077,"connected_time":219000000000,"state":"active","ping":102},{"user_id":443,"name":"Engi-Nearing","steam_id":76561199221172552,"connected_time":1918000000000,"state":"active","ping":66},{"user_id":475,"name":"GAETA ELECTRONICOS DEPORTES","steam_id":76561199042470246,"connected_time":723000000000,"state":"active","ping":53},{"user_id":472,"name":"mmm","steam_id":76561198111134021,"connected_time":804000000000,"state":"active","ping":73},{"user_id":415,"name":"Mr. Mundy","steam_id":76561198132008918,"connected_time":3793000000000,"state":"active","ping":72},{"user_id":482,"name":"Dag!","steam_id":76561198030147941,"connected_time":367000000000,"state":"active","ping":66},{"user_id":481,"name":"howabe","steam_id":76561197996486818,"connected_time":511000000000,"state":"active","ping":55},{"user_id":454,"name":"tf2 snake","steam_id":76561198193971167,"connected_time":1270000000000,"state":"active","ping":51},{"user_id":487,"name":"BonnieDrag","steam_id":76561199149216429,"connected_time":86000000000,"state":"active","ping":86},{"user_id":416,"name":"Hexagon","steam_id":76561198151205758,"connected_time":3788000000000,"state":"active","ping":51},{"user_id":485,"name":"Jojojiva","steam_id":76561198082883973,"connected_time":147000000000,"state":"active","ping":154},{"user_id":457,"name":"[T.H.W.U.] funkliner","steam_id":76561198436902492,"connected_time":1197000000000,"state":"active","ping":107},{"user_id":418,"name":"waluigi","steam_id":76561198215809251,"connected_time":3698000000000,"state":"active","ping":54},{"user_id":478,"name":"Koli","steam_id":76561197992428783,"connected_time":650000000000,"state":"active","ping":46},{"user_id":476,"name":"shadow wizard money gang","steam_id":76561199244678611,"connected_time":722000000000,"state":"active","ping":91},{"user_id":317,"name":"Tea Follet","steam_id":76561198852408734,"connected_time":11418000000000,"state":"active","ping":67},{"user_id":479,"name":"Thors","steam_id":76561197968739075,"connected_time":606000000000,"state":"active","ping":50},{"user_id":442,"name":"WALTER WHITE","steam_id":76561199147666336,"connected_time":2031000000000,"state":"active","ping":60},{"user_id":486,"name":"nvmHastee","steam_id":76561199371458295,"connected_time":138000000000,"state":"active","ping":73},{"user_id":450,"name":"1couver","steam_id":76561198168553215,"connected_time":1466000000000,"state":"active","ping":100},{"user_id":469,"name":"ToniGAM3S","steam_id":76561198128605351,"connected_time":882000000000,"state":"active","ping":61},{"user_id":480,"name":"James","steam_id":76561198138558005,"connected_time":600000000000,"state":"active","ping":75}]},{"server_id":309,"name":"Uncletopia | Frankfurt | 4 | All Maps","name_short":"frk-4","host":"frk-1.de.uncletopia.com","port":27045,"enabled":true,"region":"eu","cc":"de","latitude":50.110924,"longitude":8.682127,"reserved":0,"last_update":"0001-01-01T00:00:00Z","name_a2s":"Uncletopia | Frankfurt | 4 | All Maps","protocol":17,"map":"pl_upward","folder":"tf","game":"Team Fortress","app_id":440,"player_count":24,"max_players":24,"Bots":0,"server_type":"Dedicated","server_os":"Linux","password":true,"vac":true,"version":"7882260","steam_id":85568392924504275,"keywords":["nocrits","nodmgspread","payload","uncletopia"],"game_id":440,"stv_port":27046,"stv_name":"Uncletopia | Frankfurt | 4 | All Maps | STV","players":[{"user_id":305,"name":"radek","steam_id":76561197998883721,"connected_time":436000000000,"state":"active","ping":81},{"user_id":279,"name":"Portal2Player","steam_id":76561198062870114,"connected_time":1826000000000,"state":"active","ping":168},{"user_id":306,"name":"Chainfire","steam_id":76561198120774329,"connected_time":416000000000,"state":"active","ping":111},{"user_id":286,"name":"jovi_","steam_id":76561198449280552,"connected_time":1178000000000,"state":"active","ping":61},{"user_id":288,"name":"󠁳⁧⁧ Kruthal","steam_id":76561198245726582,"connected_time":1140000000000,"state":"active","ping":74},{"user_id":294,"name":"andy.sw","steam_id":76561198126337272,"connected_time":821000000000,"state":"active","ping":73},{"user_id":300,"name":"Ai_Spankzie","steam_id":76561198040964036,"connected_time":671000000000,"state":"active","ping":60},{"user_id":313,"name":"Spectral Sloth","steam_id":76561198170083139,"connected_time":77000000000,"state":"active","ping":80},{"user_id":307,"name":"Gaxkang","steam_id":76561198125768571,"connected_time":397000000000,"state":"active","ping":73},{"user_id":270,"name":"Bottle O' Scrumpy","steam_id":76561199244250562,"connected_time":2193000000000,"state":"active","ping":100},{"user_id":308,"name":"jackchan37","steam_id":76561199084555750,"connected_time":390000000000,"state":"active","ping":61},{"user_id":271,"name":"skill based","steam_id":76561198341178432,"connected_time":2183000000000,"state":"active","ping":60},{"user_id":295,"name":"I'm not gonna sugarcoat it","steam_id":76561198144597089,"connected_time":797000000000,"state":"active","ping":46},{"user_id":299,"name":"operation mega sus","steam_id":76561198411598430,"connected_time":700000000000,"state":"active","ping":60},{"user_id":293,"name":"Arkku","steam_id":76561198255441801,"connected_time":906000000000,"state":"active","ping":104},{"user_id":281,"name":"NReallyS","steam_id":76561198979795815,"connected_time":1765000000000,"state":"active","ping":75},{"user_id":296,"name":"Faking.","steam_id":76561198823540483,"connected_time":751000000000,"state":"active","ping":76},{"user_id":226,"name":"blurst of times","steam_id":76561197972325640,"connected_time":4050000000000,"state":"active","ping":47},{"user_id":297,"name":"hammertime","steam_id":76561199097714393,"connected_time":734000000000,"state":"active","ping":146},{"user_id":309,"name":"Renolox","steam_id":76561198036590182,"connected_time":346000000000,"state":"active","ping":69},{"user_id":256,"name":"Michal jordan","steam_id":76561199106262610,"connected_time":2782000000000,"state":"active","ping":67},{"user_id":310,"name":"nevim","steam_id":76561199120843402,"connected_time":301000000000,"state":"active","ping":59},{"user_id":233,"name":"Dr.Cranium","steam_id":76561197992726926,"connected_time":3916000000000,"state":"active","ping":111},{"user_id":312,"name":"Local Capybara","steam_id":76561198388321887,"connected_time":189000000000,"state":"active","ping":56}]},{"server_id":310,"name":"Uncletopia | Frankfurt | 5 | All Maps","name_short":"frk-5","host":"frk-1.de.uncletopia.com","port":27055,"enabled":true,"region":"eu","cc":"de","latitude":50.110924,"longitude":8.682127,"reserved":0,"last_update":"0001-01-01T00:00:00Z","name_a2s":"Uncletopia | Frankfurt | 5 | All Maps","protocol":17,"map":"cp_mercenarypark","folder":"tf","game":"Team Fortress","app_id":440,"player_count":24,"max_players":24,"Bots":0,"server_type":"Dedicated","server_os":"Linux","password":true,"vac":true,"version":"7882260","steam_id":85568392924504277,"keywords":["cp","nocrits","nodmgspread","uncletopia"],"game_id":440,"stv_port":27056,"stv_name":"Uncletopia | Frankfurt | 5 | All Maps | STV","players":[{"user_id":299,"name":"誰かが見ている","steam_id":76561198834913692,"connected_time":2101000000000,"state":"active","ping":60},{"user_id":257,"name":"SlowMode","steam_id":76561198039631442,"connected_time":5186000000000,"state":"active","ping":90},{"user_id":278,"name":"LivEssense","steam_id":76561198052476979,"connected_time":3441000000000,"state":"active","ping":75},{"user_id":194,"name":"finbar","steam_id":76561198056812396,"connected_time":9221000000000,"state":"active","ping":75},{"user_id":294,"name":"Ixsus\u003c3","steam_id":76561198094756869,"connected_time":2467000000000,"state":"active","ping":54},{"user_id":323,"name":"Schmidt","steam_id":76561198001058733,"connected_time":201000000000,"state":"active","ping":99},{"user_id":312,"name":"stefanbejenari","steam_id":76561199466718294,"connected_time":1474000000000,"state":"active","ping":74},{"user_id":231,"name":"LiterallyRyanGosling","steam_id":76561199017856691,"connected_time":6591000000000,"state":"active","ping":68},{"user_id":320,"name":"Chopperson_","steam_id":76561198873728497,"connected_time":747000000000,"state":"active","ping":110},{"user_id":324,"name":"kanya","steam_id":76561198010188452,"connected_time":181000000000,"state":"active","ping":86},{"user_id":302,"name":"undead","steam_id":76561198958038350,"connected_time":1977000000000,"state":"active","ping":53},{"user_id":319,"name":"I am on the TF2 Scoreboard...","steam_id":76561198043850884,"connected_time":1135000000000,"state":"active","ping":69},{"user_id":325,"name":"TwisteD [Robo.CEO]","steam_id":76561197968406174,"connected_time":29000000000,"state":"active","ping":85},{"user_id":242,"name":"Urfangonultasadana","steam_id":76561199389286151,"connected_time":6447000000000,"state":"active","ping":98},{"user_id":301,"name":"JohnTraveltime","steam_id":76561199244281754,"connected_time":2038000000000,"state":"active","ping":68},{"user_id":272,"name":"Isuurn","steam_id":76561198150201094,"connected_time":4733000000000,"state":"active","ping":84},{"user_id":326,"name":"Eke","steam_id":76561198105248922,"connected_time":3000000000,"state":"spawning","ping":95},{"user_id":318,"name":"MEDiUM","steam_id":76561198112328561,"connected_time":1236000000000,"state":"active","ping":72},{"user_id":322,"name":"Cabbch","steam_id":76561198045955679,"connected_time":452000000000,"state":"active","ping":50},{"user_id":289,"name":"sanest tf2 player","steam_id":76561199013231641,"connected_time":3012000000000,"state":"active","ping":70},{"user_id":285,"name":"Yousnas","steam_id":76561198405234816,"connected_time":3124000000000,"state":"active","ping":77},{"user_id":288,"name":"♥aura♥","steam_id":76561198066258544,"connected_time":3074000000000,"state":"active","ping":55},{"user_id":276,"name":"VeliIlves","steam_id":76561198038731353,"connected_time":4192000000000,"state":"active","ping":93},{"user_id":310,"name":"Heikkimr FTX.COM #STANDWITHSBF","steam_id":76561198892900358,"connected_time":1660000000000,"state":"active","ping":85}]},{"server_id":311,"name":"Uncletopia | Frankfurt | 6 | All Maps","name_short":"frk-6","host":"frk-1.de.uncletopia.com","port":27065,"enabled":true,"region":"eu","cc":"de","latitude":50.110924,"longitude":8.682127,"reserved":0,"last_update":"0001-01-01T00:00:00Z","name_a2s":"Uncletopia | Frankfurt | 6 | All Maps","protocol":17,"map":"koth_cascade","folder":"tf","game":"Team Fortress","app_id":440,"player_count":0,"max_players":24,"Bots":0,"server_type":"Dedicated","server_os":"Linux","password":true,"vac":true,"version":"7882260","steam_id":85568392924504278,"keywords":["cp","nocrits","nodmgspread","uncletopia"],"game_id":440,"stv_port":27066,"stv_name":"Uncletopia | Frankfurt | 6 | All Maps | STV","players":null},{"server_id":23,"name":"Uncletopia | Frankfurt | 7 | Stopwatch Beta","name_short":"frk-7","host":"frk-1.de.uncletopia.com","port":27075,"enabled":true,"region":"eu","cc":"de","latitude":50.110924,"longitude":8.682127,"reserved":0,"last_update":"0001-01-01T00:00:00Z","name_a2s":"Uncletopia | Frankfurt | 7 | Stopwatch Beta","protocol":17,"map":"pl_swiftwater_final1","folder":"tf","game":"Team Fortress","app_id":440,"player_count":0,"max_players":24,"Bots":0,"server_type":"Dedicated","server_os":"Linux","password":true,"vac":true,"version":"7882260","steam_id":85568392924742827,"keywords":["nocrits","nodmgspread","payload","uncletopia"],"game_id":440,"stv_port":27076,"stv_name":"Uncletopia | Frankfurt | 7 | Stopwatch Beta | STV","players":null},{"server_id":24,"name":"Uncletopia | Frankfurt | 8 | Community","name_short":"frk-8","host":"frk-1.de.uncletopia.com","port":27085,"enabled":true,"region":"eu","cc":"de","latitude":50.110924,"longitude":8.682127,"reserved":0,"last_update":"0001-01-01T00:00:00Z","name_a2s":"Uncletopia | Frankfurt | 8 | Community","protocol":17,"map":"workshop/koth_kemptown_rc1.ugc767410655","folder":"tf","game":"Team Fortress","app_id":440,"player_count":0,"max_players":24,"Bots":0,"server_type":"Dedicated","server_os":"Linux","password":true,"vac":true,"version":"7882260","steam_id":85568392924742828,"keywords":["cp","nocrits","nodmgspread","uncletopia"],"game_id":440,"stv_port":27086,"stv_name":"Uncletopia | Frankfurt | 8 | Community | STV","players":null},{"server_id":202,"name":"Uncletopia | Hong Kong | 1 | All Maps","name_short":"hgk-1","host":"hgk-1.hk.uncletopia.com","port":27015,"enabled":true,"region":"asia","cc":"hk","latitude":22.302711,"longitude":114.177216,"reserved":0,"last_update":"0001-01-01T00:00:00Z","name_a2s":"Uncletopia | Hong Kong | 1 | All Maps","protocol":17,"map":"koth_lakeside_final","folder":"tf","game":"Team Fortress","app_id":440,"player_count":0,"max_players":24,"Bots":0,"server_type":"Dedicated","server_os":"Linux","password":true,"vac":true,"version":"7882260","steam_id":85568392924494504,"keywords":["cp","nocrits","nodmgspread","uncletopia"],"game_id":440,"stv_port":27016,"stv_name":"Uncletopia | Hong Kong | 1 | All Maps | STV","players":null},{"server_id":1,"name":"Uncletopia | Los Angeles | 1 | All Maps","name_short":"lax-1","host":"lax-1.us.uncletopia.com","port":27015,"enabled":true,"region":"us-west","cc":"us","latitude":33.94279,"longitude":-118.41004,"reserved":0,"last_update":"0001-01-01T00:00:00Z","name_a2s":"Uncletopia | Los Angeles | 1 | All Maps","protocol":17,"map":"cp_altitude","folder":"tf","game":"Team Fortress","app_id":440,"player_count":23,"max_players":24,"Bots":0,"server_type":"Dedicated","server_os":"Linux","password":true,"vac":true,"version":"7882260","steam_id":85568392924469991,"keywords":["cp","nocrits","nodmgspread","uncletopia"],"game_id":440,"stv_port":27016,"stv_name":"Uncletopia | Los Angeles | 1 | All Maps | STV","players":[{"user_id":157,"name":"Mango Fanta","steam_id":76561198828945468,"connected_time":179000000000,"state":"active","ping":96},{"user_id":158,"name":"BirdScruff","steam_id":76561198349249196,"connected_time":178000000000,"state":"active","ping":107},{"user_id":128,"name":"Boone","steam_id":76561198398931575,"connected_time":2031000000000,"state":"active","ping":56},{"user_id":77,"name":"BarrowBaron","steam_id":76561198013633236,"connected_time":5000000000000,"state":"active","ping":116},{"user_id":141,"name":"Troyer","steam_id":76561198038005881,"connected_time":1425000000000,"state":"active","ping":90},{"user_id":159,"name":"Fake21","steam_id":76561198282065071,"connected_time":153000000000,"state":"active","ping":77},{"user_id":101,"name":"CollDragon","steam_id":76561198067534450,"connected_time":3642000000000,"state":"active","ping":109},{"user_id":129,"name":"insane jester","steam_id":76561198079609974,"connected_time":2000000000000,"state":"active","ping":57},{"user_id":156,"name":"kab789","steam_id":76561198069842202,"connected_time":389000000000,"state":"active","ping":107},{"user_id":160,"name":"CPTforever","steam_id":76561198237767198,"connected_time":135000000000,"state":"active","ping":51},{"user_id":123,"name":"Big Puff","steam_id":76561198209820681,"connected_time":2111000000000,"state":"active","ping":73},{"user_id":161,"name":"I love VAC!!!!!","steam_id":76561198329087915,"connected_time":131000000000,"state":"active","ping":53},{"user_id":105,"name":"Nibotshooter","steam_id":76561199284825579,"connected_time":3431000000000,"state":"active","ping":68},{"user_id":143,"name":"thelostrobotmusic","steam_id":76561199013230288,"connected_time":1186000000000,"state":"active","ping":75},{"user_id":148,"name":"Excrement","steam_id":76561198167740127,"connected_time":816000000000,"state":"active","ping":71},{"user_id":144,"name":"Sax","steam_id":76561198055425123,"connected_time":1114000000000,"state":"active","ping":84},{"user_id":162,"name":"Olibeea","steam_id":76561198079445380,"connected_time":123000000000,"state":"active","ping":80},{"user_id":149,"name":"cringy","steam_id":76561198323000455,"connected_time":807000000000,"state":"active","ping":61},{"user_id":151,"name":"CELLGOD1","steam_id":76561198967902002,"connected_time":747000000000,"state":"active","ping":119},{"user_id":163,"name":"OrangeShoes","steam_id":76561197971249940,"connected_time":84000000000,"state":"active","ping":114},{"user_id":110,"name":"Dani","steam_id":76561198348012378,"connected_time":3222000000000,"state":"active","ping":105},{"user_id":165,"name":"demonhunter","steam_id":76561198869081920,"connected_time":75000000000,"state":"active","ping":290},{"user_id":115,"name":"Nephi","steam_id":76561198031525122,"connected_time":2840000000000,"state":"active","ping":132}]},{"server_id":112,"name":"Uncletopia | Los Angeles | 2 | All Maps","name_short":"lax-2","host":"lax-1.us.uncletopia.com","port":27025,"enabled":true,"region":"us-west","cc":"us","latitude":33.94279,"longitude":-118.41004,"reserved":0,"last_update":"0001-01-01T00:00:00Z","name_a2s":"Uncletopia | Los Angeles | 2 | All Maps","protocol":17,"map":"pl_snowycoast","folder":"tf","game":"Team Fortress","app_id":440,"player_count":0,"max_players":24,"Bots":0,"server_type":"Dedicated","server_os":"Linux","password":true,"vac":true,"version":"7882260","steam_id":85568392924469992,"keywords":["nocrits","nodmgspread","payload","uncletopia"],"game_id":440,"stv_port":27026,"stv_name":"Uncletopia | Los Angeles | 2 | All Maps | STV","players":null},{"server_id":324,"name":"Uncletopia | Los Angeles | 3 | All Maps","name_short":"lax-3","host":"lax-1.us.uncletopia.com","port":27035,"enabled":true,"region":"us-west","cc":"us","latitude":33.94279,"longitude":-118.41004,"reserved":0,"last_update":"0001-01-01T00:00:00Z","name_a2s":"Uncletopia | Los Angeles | 3 | All Maps","protocol":17,"map":"pl_pier","folder":"tf","game":"Team Fortress","app_id":440,"player_count":0,"max_players":24,"Bots":0,"server_type":"Dedicated","server_os":"Linux","password":true,"vac":true,"version":"7882260","steam_id":85568392924510198,"keywords":["nocrits","nodmgspread","payload","uncletopia"],"game_id":440,"stv_port":27036,"stv_name":"Uncletopia | Los Angeles | 3 | All Maps | STV","players":null},{"server_id":25,"name":"Uncletopia | Los Angeles | 4 | Stopwatch Beta","name_short":"lax-4","host":"lax-1.us.uncletopia.com","port":27045,"enabled":true,"region":"us-west","cc":"us","latitude":33.94279,"longitude":-118.41004,"reserved":0,"last_update":"0001-01-01T00:00:00Z","name_a2s":"Uncletopia | Los Angeles | 4 | Stopwatch Beta","protocol":17,"map":"koth_viaduct","folder":"tf","game":"Team Fortress","app_id":440,"player_count":0,"max_players":24,"Bots":0,"server_type":"Dedicated","server_os":"Linux","password":true,"vac":true,"version":"7882260","steam_id":85568392924510199,"keywords":["cp","nocrits","nodmgspread","uncletopia"],"game_id":440,"stv_port":27046,"stv_name":"Uncletopia | Los Angeles | 4 | Stopwatch Beta | STV","players":null},{"server_id":11,"name":"Uncletopia | London | 1 | All Maps","name_short":"lon-1","host":"lon-1.uk.uncletopia.com","port":27015,"enabled":true,"region":"eu","cc":"gb","latitude":51.509865,"longitude":-0.118092,"reserved":0,"last_update":"0001-01-01T00:00:00Z","name_a2s":"Uncletopia | London | 1 | All Maps","protocol":17,"map":"pl_upward","folder":"tf","game":"Team Fortress","app_id":440,"player_count":24,"max_players":24,"Bots":0,"server_type":"Dedicated","server_os":"Linux","password":true,"vac":true,"version":"7882260","steam_id":85568392924367362,"keywords":["nocrits","nodmgspread","payload","uncletopia"],"game_id":440,"stv_port":27016,"stv_name":"Uncletopia | London | 1 | All Maps | STV","players":[{"user_id":527,"name":"FirePenguin","steam_id":76561198151468340,"connected_time":2135000000000,"state":"active","ping":32},{"user_id":554,"name":"Dumbzilla","steam_id":76561198031304349,"connected_time":798000000000,"state":"active","ping":50},{"user_id":543,"name":"Lambda","steam_id":76561198313133913,"connected_time":1274000000000,"state":"active","ping":54},{"user_id":528,"name":"n174","steam_id":76561199465285458,"connected_time":2129000000000,"state":"active","ping":60},{"user_id":541,"name":"DaiDaiMu :3","steam_id":76561198052794823,"connected_time":1341000000000,"state":"active","ping":64},{"user_id":471,"name":"LordTrap.exe","steam_id":76561198318089716,"connected_time":3940000000000,"state":"active","ping":59},{"user_id":556,"name":"Night Fury","steam_id":76561197995207032,"connected_time":366000000000,"state":"active","ping":80},{"user_id":501,"name":"fence_","steam_id":76561198150386379,"connected_time":2809000000000,"state":"active","ping":45},{"user_id":557,"name":"TF2","steam_id":76561198256328990,"connected_time":336000000000,"state":"active","ping":75},{"user_id":558,"name":"Kolanciasty ♥","steam_id":76561198020042179,"connected_time":323000000000,"state":"active","ping":92},{"user_id":519,"name":"Smart Chimp","steam_id":76561198243603442,"connected_time":2251000000000,"state":"active","ping":87},{"user_id":531,"name":"Meddler","steam_id":76561198033001402,"connected_time":2037000000000,"state":"active","ping":43},{"user_id":547,"name":"ArikMor","steam_id":76561199124472513,"connected_time":1045000000000,"state":"active","ping":122},{"user_id":559,"name":"crox","steam_id":76561199024792831,"connected_time":306000000000,"state":"active","ping":104},{"user_id":548,"name":"AWP Bodyshot :) ❤","steam_id":76561198029928533,"connected_time":1023000000000,"state":"active","ping":51},{"user_id":560,"name":"Dmskootje","steam_id":76561198127600559,"connected_time":297000000000,"state":"active","ping":55},{"user_id":544,"name":"le unfunny dog","steam_id":76561198415020571,"connected_time":1240000000000,"state":"active","ping":74},{"user_id":563,"name":"Ace","steam_id":76561198172079242,"connected_time":95000000000,"state":"active","ping":136},{"user_id":561,"name":"fshfkr","steam_id":76561198095979282,"connected_time":269000000000,"state":"active","ping":37},{"user_id":551,"name":"Ferlo","steam_id":76561198095561504,"connected_time":941000000000,"state":"active","ping":56},{"user_id":505,"name":"Kapitan Polska","steam_id":76561197968069413,"connected_time":2762000000000,"state":"active","ping":82},{"user_id":564,"name":"Littleyoshifan","steam_id":76561198445491045,"connected_time":84000000000,"state":"active","ping":41},{"user_id":552,"name":"Meira","steam_id":76561198057786932,"connected_time":911000000000,"state":"active","ping":49},{"user_id":555,"name":"slug","steam_id":76561198065902089,"connected_time":457000000000,"state":"active","ping":62}]},{"server_id":114,"name":"Uncletopia | London | 2 | All Maps","name_short":"lon-2","host":"lon-1.uk.uncletopia.com","port":27025,"enabled":true,"region":"eu","cc":"gb","latitude":51.509865,"longitude":-0.118092,"reserved":0,"last_update":"0001-01-01T00:00:00Z","name_a2s":"Uncletopia | London | 2 | All Maps","protocol":17,"map":"koth_highpass","folder":"tf","game":"Team Fortress","app_id":440,"player_count":0,"max_players":24,"Bots":0,"server_type":"Dedicated","server_os":"Linux","password":true,"vac":true,"version":"7882260","steam_id":85568392924470941,"keywords":["cp","nocrits","nodmgspread","uncletopia"],"game_id":440,"stv_port":27026,"stv_name":"Uncletopia | London | 2 | All Maps | STV","players":null},{"server_id":320,"name":"Uncletopia | London | 3 | All Maps","name_short":"lon-3","host":"lon-1.uk.uncletopia.com","port":27035,"enabled":true,"region":"eu","cc":"gb","latitude":51.509865,"longitude":-0.118092,"reserved":0,"last_update":"0001-01-01T00:00:00Z","name_a2s":"Uncletopia | London | 3 | All Maps","protocol":17,"map":"pl_frontier_final","folder":"tf","game":"Team Fortress","app_id":440,"player_count":12,"max_players":24,"Bots":0,"server_type":"Dedicated","server_os":"Linux","password":true,"vac":true,"version":"7882260","steam_id":85568392924510192,"keywords":["nocrits","nodmgspread","payload","uncletopia"],"game_id":440,"stv_port":27036,"stv_name":"Uncletopia | London | 3 | All Maps | STV","players":[{"user_id":35,"name":"FanFish","steam_id":76561199389558024,"connected_time":2310000000000,"state":"active","ping":74},{"user_id":40,"name":"big poo","steam_id":76561198129157178,"connected_time":925000000000,"state":"active","ping":86},{"user_id":37,"name":"TheQueenInChess","steam_id":76561199045410906,"connected_time":2107000000000,"state":"active","ping":53},{"user_id":39,"name":"Brinier","steam_id":76561199012604288,"connected_time":1021000000000,"state":"active","ping":67},{"user_id":44,"name":"Secretti","steam_id":76561198151480179,"connected_time":506000000000,"state":"active","ping":105},{"user_id":47,"name":"Rez","steam_id":76561198410598772,"connected_time":128000000000,"state":"active","ping":52},{"user_id":45,"name":"Mr_White","steam_id":76561198024615280,"connected_time":418000000000,"state":"active","ping":81},{"user_id":48,"name":"Medic","steam_id":76561198183370571,"connected_time":114000000000,"state":"active","ping":129},{"user_id":49,"name":"you are sus","steam_id":76561199291362833,"connected_time":52000000000,"state":"active","ping":113},{"user_id":50,"name":"Anonymous47007","steam_id":76561199005211417,"connected_time":36000000000,"state":"active","ping":84},{"user_id":51,"name":"Heller","steam_id":76561198033694102,"connected_time":17000000000,"state":"active","ping":76},{"user_id":52,"name":"THE CLUELESS CLOWN","steam_id":76561198246990590,"connected_time":15000000000,"state":"spawning","ping":139}]},{"server_id":321,"name":"Uncletopia | London | 4 | All Maps","name_short":"lon-4","host":"lon-1.uk.uncletopia.com","port":27045,"enabled":true,"region":"eu","cc":"gb","latitude":51.509865,"longitude":-0.118092,"reserved":0,"last_update":"0001-01-01T00:00:00Z","name_a2s":"Uncletopia | London | 4 | All Maps","protocol":17,"map":"koth_viaduct","folder":"tf","game":"Team Fortress","app_id":440,"player_count":23,"max_players":24,"Bots":0,"server_type":"Dedicated","server_os":"Linux","password":true,"vac":true,"version":"7882260","steam_id":85568392924510193,"keywords":["cp","nocrits","nodmgspread","uncletopia"],"game_id":440,"stv_port":27046,"stv_name":"Uncletopia | London | 4 | All Maps | STV","players":[{"user_id":424,"name":"Milk","steam_id":76561198125876588,"connected_time":568000000000,"state":"active","ping":39},{"user_id":420,"name":"mumbler","steam_id":76561197970641239,"connected_time":703000000000,"state":"active","ping":56},{"user_id":423,"name":"Average meme enjoyer","steam_id":76561199087566663,"connected_time":626000000000,"state":"active","ping":92},{"user_id":421,"name":"SubSilk","steam_id":76561199075279215,"connected_time":701000000000,"state":"active","ping":154},{"user_id":425,"name":"Izzie","steam_id":76561198090287325,"connected_time":561000000000,"state":"active","ping":68},{"user_id":335,"name":"ShellBug","steam_id":76561198144187527,"connected_time":5704000000000,"state":"active","ping":145},{"user_id":426,"name":"Fus in Boots","steam_id":76561198053897722,"connected_time":504000000000,"state":"active","ping":58},{"user_id":427,"name":"Ashy my beloved","steam_id":76561199122356477,"connected_time":416000000000,"state":"active","ping":67},{"user_id":387,"name":"PctSneeze","steam_id":76561198037155178,"connected_time":2310000000000,"state":"active","ping":59},{"user_id":355,"name":"Saihtama","steam_id":76561198067497192,"connected_time":4580000000000,"state":"active","ping":86},{"user_id":403,"name":"Bayoyo","steam_id":76561199069591774,"connected_time":1570000000000,"state":"active","ping":81},{"user_id":430,"name":"moseley519","steam_id":76561198045485374,"connected_time":374000000000,"state":"active","ping":44},{"user_id":406,"name":"GEP Gun","steam_id":76561197981821003,"connected_time":1462000000000,"state":"active","ping":60},{"user_id":354,"name":"Tree","steam_id":76561198054795379,"connected_time":4599000000000,"state":"active","ping":59},{"user_id":338,"name":"UltimateAura","steam_id":76561198338361324,"connected_time":5644000000000,"state":"active","ping":37},{"user_id":385,"name":"Ladder Liam","steam_id":76561198178636518,"connected_time":2318000000000,"state":"active","ping":58},{"user_id":435,"name":"Hubble","steam_id":76561198329002678,"connected_time":355000000000,"state":"active","ping":52},{"user_id":436,"name":"Artha","steam_id":76561198198453253,"connected_time":316000000000,"state":"active","ping":88},{"user_id":438,"name":"WolfmanCZ","steam_id":76561199157141414,"connected_time":216000000000,"state":"active","ping":78},{"user_id":439,"name":"tete","steam_id":76561198045222850,"connected_time":213000000000,"state":"active","ping":63},{"user_id":440,"name":"Wyodu","steam_id":76561198406237593,"connected_time":194000000000,"state":"active","ping":72},{"user_id":398,"name":"svantezch","steam_id":76561198373831657,"connected_time":1953000000000,"state":"active","ping":80},{"user_id":395,"name":"FastPasta","steam_id":76561198124970841,"connected_time":2035000000000,"state":"active","ping":115}]},{"server_id":21,"name":"Uncletopia | London | 5 | All Maps","name_short":"lon-5","host":"lon-1.uk.uncletopia.com","port":27055,"enabled":true,"region":"eu","cc":"gb","latitude":51.509865,"longitude":-0.118092,"reserved":0,"last_update":"0001-01-01T00:00:00Z","name_a2s":"Uncletopia | London | 5 | All Maps","protocol":17,"map":"pl_upward","folder":"tf","game":"Team Fortress","app_id":440,"player_count":8,"max_players":24,"Bots":0,"server_type":"Dedicated","server_os":"Linux","password":true,"vac":true,"version":"7882260","steam_id":85568392924742829,"keywords":["nocrits","nodmgspread","payload","uncletopia"],"game_id":440,"stv_port":27056,"stv_name":"Uncletopia | London | 5 | All Maps | STV","players":[{"user_id":495,"name":"C.H.E.R.E.P.","steam_id":76561198026938595,"connected_time":613000000000,"state":"active","ping":75},{"user_id":408,"name":"Danish","steam_id":76561198382533217,"connected_time":8086000000000,"state":"active","ping":78},{"user_id":501,"name":"Flyffmario","steam_id":76561198044770177,"connected_time":219000000000,"state":"active","ping":82},{"user_id":502,"name":"F","steam_id":76561199149462792,"connected_time":47000000000,"state":"active","ping":63},{"user_id":499,"name":"Sivik","steam_id":76561198370329466,"connected_time":247000000000,"state":"active","ping":44},{"user_id":500,"name":"rado","steam_id":76561198103583326,"connected_time":239000000000,"state":"active","ping":61},{"user_id":503,"name":"*Vee Vee*","steam_id":76561199099468635,"connected_time":6000000000,"state":"spawning","ping":47},{"user_id":504,"name":"hennerz","steam_id":76561199062586342,"connected_time":3000000000,"state":"spawning","ping":44}]},{"server_id":22,"name":"Uncletopia | London | 6 | All Maps","name_short":"lon-6","host":"lon-1.uk.uncletopia.com","port":27065,"enabled":true,"region":"eu","cc":"gb","latitude":51.509865,"longitude":-0.118092,"reserved":0,"last_update":"0001-01-01T00:00:00Z","name_a2s":"Uncletopia | London | 6 | All Maps","protocol":17,"map":"cp_dustbowl","folder":"tf","game":"Team Fortress","app_id":440,"player_count":24,"max_players":24,"Bots":0,"server_type":"Dedicated","server_os":"Linux","password":true,"vac":true,"version":"7882260","steam_id":85568392924742830,"keywords":["cp","nocrits","nodmgspread","uncletopia"],"game_id":440,"stv_port":27066,"stv_name":"Uncletopia | London | 6 | All Maps | STV","players":[{"user_id":295,"name":"Lord","steam_id":76561198241305816,"connected_time":2957000000000,"state":"active","ping":146},{"user_id":287,"name":"Based Gustavus","steam_id":76561198087778884,"connected_time":3935000000000,"state":"active","ping":73},{"user_id":284,"name":"Epickario","steam_id":76561199068338969,"connected_time":4027000000000,"state":"active","ping":56},{"user_id":322,"name":"Sex Man TF2","steam_id":76561198798657045,"connected_time":645000000000,"state":"active","ping":74},{"user_id":325,"name":"General Petrov","steam_id":76561198027204104,"connected_time":466000000000,"state":"active","ping":80},{"user_id":315,"name":"After8","steam_id":76561198090750865,"connected_time":1770000000000,"state":"active","ping":75},{"user_id":304,"name":"APELOR","steam_id":76561198436284444,"connected_time":2412000000000,"state":"active","ping":100},{"user_id":305,"name":"Moonkey","steam_id":76561199013741389,"connected_time":2343000000000,"state":"active","ping":110},{"user_id":280,"name":"mixxxa_french","steam_id":76561198085098243,"connected_time":4150000000000,"state":"active","ping":120},{"user_id":293,"name":"Clitorina","steam_id":76561198077570815,"connected_time":3314000000000,"state":"active","ping":42},{"user_id":281,"name":"WiiSportKing","steam_id":76561198114139081,"connected_time":4130000000000,"state":"active","ping":57},{"user_id":194,"name":"Rin-Nakaret","steam_id":76561197971051188,"connected_time":9687000000000,"state":"active","ping":59},{"user_id":311,"name":"3xlneet","steam_id":76561198041502877,"connected_time":1792000000000,"state":"active","ping":75},{"user_id":290,"name":"Flandre Scarlet","steam_id":76561198136962242,"connected_time":3556000000000,"state":"active","ping":81},{"user_id":312,"name":"eeeeee","steam_id":76561198017786875,"connected_time":1781000000000,"state":"active","ping":64},{"user_id":323,"name":"My name Ankle","steam_id":76561199192245921,"connected_time":617000000000,"state":"active","ping":123},{"user_id":318,"name":"Plep","steam_id":76561198840259819,"connected_time":1538000000000,"state":"active","ping":59},{"user_id":324,"name":"hmscole09","steam_id":76561198811362788,"connected_time":543000000000,"state":"active","ping":57},{"user_id":317,"name":"Carrotcracker","steam_id":76561198034862396,"connected_time":1726000000000,"state":"active","ping":79},{"user_id":308,"name":"xopurpp","steam_id":76561199242248831,"connected_time":2298000000000,"state":"active","ping":77},{"user_id":326,"name":"Nitro2300","steam_id":76561198269430639,"connected_time":104000000000,"state":"active","ping":44},{"user_id":321,"name":"metamikko","steam_id":76561198324704234,"connected_time":911000000000,"state":"active","ping":102},{"user_id":289,"name":"FatAssHaver55","steam_id":76561199142022395,"connected_time":3886000000000,"state":"active","ping":74},{"user_id":299,"name":"ducks","steam_id":76561198166148685,"connected_time":2857000000000,"state":"active","ping":30}]},{"server_id":40,"name":"Uncletopia | London | 7 | No Payload","name_short":"lon-7","host":"lon-1.uk.uncletopia.com","port":27075,"enabled":true,"region":"eu","cc":"gb","latitude":51.509865,"longitude":-0.118092,"reserved":0,"last_update":"0001-01-01T00:00:00Z","name_a2s":"Uncletopia | London | 7 | No Payload","protocol":17,"map":"koth_suijin","folder":"tf","game":"Team Fortress","app_id":440,"player_count":23,"max_players":24,"Bots":0,"server_type":"Dedicated","server_os":"Linux","password":true,"vac":true,"version":"7882260","steam_id":85568392924964314,"keywords":["cp","nocrits","nodmgspread","uncletopia"],"game_id":440,"stv_port":27076,"stv_name":"Uncletopia | London | 7 | No Payload | STV","players":[{"user_id":225,"name":"Marukuso","steam_id":76561198154229845,"connected_time":1958000000000,"state":"active","ping":61},{"user_id":226,"name":"Ash","steam_id":76561198148738525,"connected_time":1809000000000,"state":"active","ping":158},{"user_id":230,"name":"Shark","steam_id":76561198205226501,"connected_time":1576000000000,"state":"active","ping":164},{"user_id":236,"name":"Chuckstarrious","steam_id":76561198029531334,"connected_time":732000000000,"state":"active","ping":66},{"user_id":233,"name":"Commander TarTar Gaming (real)","steam_id":76561199116756001,"connected_time":1056000000000,"state":"active","ping":77},{"user_id":251,"name":"CoolMarioGames2012","steam_id":76561198082502910,"connected_time":326000000000,"state":"active","ping":70},{"user_id":210,"name":"Maranhadas","steam_id":76561198152856761,"connected_time":3435000000000,"state":"active","ping":143},{"user_id":252,"name":"Criminal","steam_id":76561198353399383,"connected_time":189000000000,"state":"active","ping":60},{"user_id":239,"name":"vox stellarum","steam_id":76561198093286184,"connected_time":623000000000,"state":"active","ping":67},{"user_id":240,"name":"Rolloden","steam_id":76561198069414404,"connected_time":613000000000,"state":"active","ping":73},{"user_id":241,"name":"smokeing we'd","steam_id":76561198088125671,"connected_time":584000000000,"state":"active","ping":60},{"user_id":242,"name":"Fartmaster","steam_id":76561198079280482,"connected_time":579000000000,"state":"active","ping":106},{"user_id":186,"name":"Nyhde","steam_id":76561198012771416,"connected_time":5213000000000,"state":"active","ping":109},{"user_id":246,"name":"Temboard","steam_id":76561198083663142,"connected_time":512000000000,"state":"active","ping":93},{"user_id":132,"name":"Sham!","steam_id":76561198050434275,"connected_time":8142000000000,"state":"active","ping":51},{"user_id":244,"name":"no","steam_id":76561198043812045,"connected_time":552000000000,"state":"active","ping":99},{"user_id":133,"name":"El_Kommadante","steam_id":76561198079551685,"connected_time":8139000000000,"state":"active","ping":56},{"user_id":196,"name":"Der Herr Doktor","steam_id":76561198119476089,"connected_time":4434000000000,"state":"active","ping":68},{"user_id":245,"name":"Davey","steam_id":76561198256879107,"connected_time":546000000000,"state":"active","ping":77},{"user_id":247,"name":"timvs5","steam_id":76561198136646312,"connected_time":512000000000,"state":"active","ping":57},{"user_id":193,"name":"ldshwt","steam_id":76561198090364357,"connected_time":5067000000000,"state":"active","ping":63},{"user_id":253,"name":"Ziemniaczki","steam_id":76561198061866742,"connected_time":112000000000,"state":"active","ping":83},{"user_id":249,"name":"Usher Arentrir","steam_id":76561198334126785,"connected_time":489000000000,"state":"active","ping":76}]},{"server_id":41,"name":"Uncletopia | London | 8 | Community","name_short":"lon-8","host":"lon-1.uk.uncletopia.com","port":27085,"enabled":true,"region":"eu","cc":"gb","latitude":51.509865,"longitude":-0.118092,"reserved":0,"last_update":"0001-01-01T00:00:00Z","name_a2s":"Uncletopia | London | 8 | Community","protocol":17,"map":"workshop/koth_bagel_rc6.ugc2514036946","folder":"tf","game":"Team Fortress","app_id":440,"player_count":24,"max_players":24,"Bots":0,"server_type":"Dedicated","server_os":"Linux","password":true,"vac":true,"version":"7882260","steam_id":85568392924964315,"keywords":["cp","nocrits","nodmgspread","uncletopia"],"game_id":440,"stv_port":27086,"stv_name":"Uncletopia | London | 8 | Community | STV","players":[{"user_id":128,"name":"dr. coom","steam_id":76561198172193711,"connected_time":79000000000,"state":"active","ping":31},{"user_id":117,"name":"yaldabaoth","steam_id":76561198084606869,"connected_time":668000000000,"state":"active","ping":133},{"user_id":59,"name":"TSx* Naxer","steam_id":76561198011986779,"connected_time":4160000000000,"state":"active","ping":77},{"user_id":100,"name":"oxidius","steam_id":76561198261730746,"connected_time":1756000000000,"state":"active","ping":100},{"user_id":60,"name":"Fat Pigeon","steam_id":76561198817940142,"connected_time":4080000000000,"state":"active","ping":46},{"user_id":120,"name":"cream gravy","steam_id":76561198973069177,"connected_time":545000000000,"state":"active","ping":55},{"user_id":129,"name":"le big mac","steam_id":76561199026378253,"connected_time":23000000000,"state":"active","ping":87},{"user_id":56,"name":"I.AM.THE.BOOP.WHICH.IS.APROACHI","steam_id":76561198049342507,"connected_time":4428000000000,"state":"active","ping":96},{"user_id":122,"name":"z4k","steam_id":76561198849236583,"connected_time":399000000000,"state":"active","ping":75},{"user_id":123,"name":"quickfast","steam_id":76561199438900919,"connected_time":358000000000,"state":"active","ping":44},{"user_id":101,"name":"X-tis","steam_id":76561198043837480,"connected_time":1706000000000,"state":"active","ping":72},{"user_id":109,"name":"Fran","steam_id":76561199070516960,"connected_time":1164000000000,"state":"active","ping":72},{"user_id":96,"name":"TeraxCZ","steam_id":76561199090651362,"connected_time":2033000000000,"state":"active","ping":117},{"user_id":67,"name":"joachym","steam_id":76561198428579761,"connected_time":3720000000000,"state":"active","ping":70},{"user_id":116,"name":"wibe","steam_id":76561198002519060,"connected_time":788000000000,"state":"active","ping":78},{"user_id":119,"name":"Dolcelatte","steam_id":76561198038501770,"connected_time":629000000000,"state":"active","ping":67},{"user_id":72,"name":"☞LaZe☜","steam_id":76561198202191400,"connected_time":3529000000000,"state":"active","ping":59},{"user_id":126,"name":"cheetah","steam_id":76561198160020162,"connected_time":97000000000,"state":"active","ping":85},{"user_id":83,"name":"WatermelonWill32","steam_id":76561198089478290,"connected_time":3268000000000,"state":"active","ping":43},{"user_id":104,"name":"7-7.5/10","steam_id":76561198193480430,"connected_time":1604000000000,"state":"active","ping":59},{"user_id":52,"name":"GuSkand","steam_id":76561198043775605,"connected_time":4893000000000,"state":"active","ping":92},{"user_id":121,"name":"dog","steam_id":76561198063919822,"connected_time":487000000000,"state":"active","ping":34},{"user_id":38,"name":"Thunder","steam_id":76561198042433374,"connected_time":5269000000000,"state":"active","ping":43},{"user_id":127,"name":"TSx* Bargal","steam_id":76561198040266872,"connected_time":92000000000,"state":"active","ping":86}]},{"server_id":300,"name":"Uncletopia | Montréal | 1 | All Maps","name_short":"mtl-1","host":"mtl-1.ca.uncletopia.com","port":27015,"enabled":true,"region":"us-east","cc":"ca","latitude":45.50889,"longitude":-73.56167,"reserved":0,"last_update":"0001-01-01T00:00:00Z","name_a2s":"Uncletopia | Montréal | 1 | All Maps","protocol":17,"map":"cp_dustbowl","folder":"tf","game":"Team Fortress","app_id":440,"player_count":0,"max_players":24,"Bots":0,"server_type":"Dedicated","server_os":"Linux","password":true,"vac":true,"version":"7882260","steam_id":85568392924500087,"keywords":["cp","nocrits","nodmgspread","uncletopia"],"game_id":440,"stv_port":27016,"stv_name":"Uncletopia | Montréal | 1 | All Maps | STV","players":null},{"server_id":301,"name":"Uncletopia | Montréal | 2 | All Maps","name_short":"mtl-2","host":"mtl-1.ca.uncletopia.com","port":27025,"enabled":true,"region":"us-east","cc":"ca","latitude":45.50889,"longitude":-73.56167,"reserved":0,"last_update":"0001-01-01T00:00:00Z","name_a2s":"Uncletopia | Montréal | 2 | All Maps","protocol":17,"map":"pl_swiftwater_final1","folder":"tf","game":"Team Fortress","app_id":440,"player_count":0,"max_players":24,"Bots":0,"server_type":"Dedicated","server_os":"Linux","password":true,"vac":true,"version":"7882260","steam_id":85568392924500088,"keywords":["nocrits","nodmgspread","payload","uncletopia"],"game_id":440,"stv_port":27026,"stv_name":"Uncletopia | Montréal | 2 | All Maps | STV","players":null},{"server_id":302,"name":"Uncletopia | Montréal | 3 | All Maps","name_short":"mtl-3","host":"mtl-1.ca.uncletopia.com","port":27035,"enabled":true,"region":"us-east","cc":"ca","latitude":45.50889,"longitude":-73.56167,"reserved":0,"last_update":"0001-01-01T00:00:00Z","name_a2s":"Uncletopia | Montréal | 3 | All Maps","protocol":17,"map":"koth_highpass","folder":"tf","game":"Team Fortress","app_id":440,"player_count":0,"max_players":24,"Bots":0,"server_type":"Dedicated","server_os":"Linux","password":true,"vac":true,"version":"7882260","steam_id":85568392924500089,"keywords":["cp","nocrits","nodmgspread","uncletopia"],"game_id":440,"stv_port":27036,"stv_name":"Uncletopia | Montréal | 3 | All Maps | STV","players":null},{"server_id":303,"name":"Uncletopia | Montréal | 4 | No Payload","name_short":"mtl-4","host":"mtl-1.ca.uncletopia.com","port":27045,"enabled":true,"region":"us-east","cc":"ca","latitude":45.50889,"longitude":-73.56167,"reserved":0,"last_update":"0001-01-01T00:00:00Z","name_a2s":"Uncletopia | Montréal | 4 | No Payload","protocol":17,"map":"koth_highpass","folder":"tf","game":"Team Fortress","app_id":440,"player_count":0,"max_players":24,"Bots":0,"server_type":"Dedicated","server_os":"Linux","password":true,"vac":true,"version":"7882260","steam_id":85568392924500090,"keywords":["cp","nocrits","nodmgspread","uncletopia"],"game_id":440,"stv_port":27046,"stv_name":"Uncletopia | Montréal | 4 | No Payload | STV","players":null},{"server_id":13,"name":"Uncletopia | New York City | 1 | All Maps","name_short":"nyc-1","host":"nyc-1.us.uncletopia.com","port":27015,"enabled":true,"region":"us-east","cc":"us","latitude":40.73061,"longitude":-73.93524,"reserved":0,"last_update":"0001-01-01T00:00:00Z","name_a2s":"Uncletopia | New York City | 1 | All Maps","protocol":17,"map":"koth_cascade","folder":"tf","game":"Team Fortress","app_id":440,"player_count":2,"max_players":24,"Bots":0,"server_type":"Dedicated","server_os":"Linux","password":true,"vac":true,"version":"7882260","steam_id":85568392924469993,"keywords":["cp","nocrits","nodmgspread","uncletopia"],"game_id":440,"stv_port":27016,"stv_name":"Uncletopia | New York City | 1 | All Maps | STV","players":[{"user_id":26,"name":"ThatComicStenzo","steam_id":76561198312325408,"connected_time":683000000000,"state":"active","ping":67},{"user_id":27,"name":"Lone Wanderer","steam_id":76561198360285761,"connected_time":668000000000,"state":"active","ping":60}]},{"server_id":14,"name":"Uncletopia | New York City | 2 | All Maps","name_short":"nyc-2","host":"nyc-1.us.uncletopia.com","port":27025,"enabled":true,"region":"us-east","cc":"us","latitude":40.73061,"longitude":-73.93524,"reserved":0,"last_update":"0001-01-01T00:00:00Z","name_a2s":"Uncletopia | New York City | 2 | All Maps","protocol":17,"map":"pl_swiftwater_final1","folder":"tf","game":"Team Fortress","app_id":440,"player_count":2,"max_players":24,"Bots":0,"server_type":"Dedicated","server_os":"Linux","password":true,"vac":true,"version":"7882260","steam_id":85568392924469994,"keywords":["nocrits","nodmgspread","payload","uncletopia"],"game_id":440,"stv_port":27026,"stv_name":"Uncletopia | New York City | 2 | All Maps | STV","players":[{"user_id":15,"name":"Aisforlike","steam_id":76561199482110668,"connected_time":351000000000,"state":"active","ping":74},{"user_id":16,"name":"odacovA","steam_id":76561199383345208,"connected_time":64000000000,"state":"active","ping":77}]},{"server_id":15,"name":"Uncletopia | New York City | 3 | Stopwatch Beta","name_short":"nyc-3","host":"nyc-1.us.uncletopia.com","port":27035,"enabled":true,"region":"us-east","cc":"us","latitude":40.73061,"longitude":-73.93524,"reserved":0,"last_update":"0001-01-01T00:00:00Z","name_a2s":"Uncletopia | New York City | 3 | Stopwatch Beta","protocol":17,"map":"pl_borneo","folder":"tf","game":"Team Fortress","app_id":440,"player_count":0,"max_players":24,"Bots":0,"server_type":"Dedicated","server_os":"Linux","password":true,"vac":true,"version":"7882260","steam_id":85568392924742820,"keywords":["nocrits","nodmgspread","payload","uncletopia"],"game_id":440,"stv_port":27036,"stv_name":"Uncletopia | New York City | 3 | Stopwatch Beta | STV","players":null},{"server_id":16,"name":"Uncletopia | New York City | 4 | Community","name_short":"nyc-4","host":"nyc-1.us.uncletopia.com","port":27045,"enabled":true,"region":"us-east","cc":"us","latitude":40.73061,"longitude":-73.93524,"reserved":0,"last_update":"0001-01-01T00:00:00Z","name_a2s":"Uncletopia | New York City | 4 | Community","protocol":17,"map":"workshop/koth_ashville_final.ugc2130459942","folder":"tf","game":"Team Fortress","app_id":440,"player_count":22,"max_players":24,"Bots":0,"server_type":"Dedicated","server_os":"Linux","password":true,"vac":true,"version":"7882260","steam_id":85568392924742821,"keywords":["cp","nocrits","nodmgspread","uncletopia"],"game_id":440,"stv_port":27046,"stv_name":"Uncletopia | New York City | 4 | Community | STV","players":[{"user_id":67,"name":"AltrA","steam_id":76561198117148323,"connected_time":3760000000000,"state":"active","ping":49},{"user_id":92,"name":"🌸Callie The Potato🌸","steam_id":76561198313463421,"connected_time":1023000000000,"state":"active","ping":71},{"user_id":74,"name":"Orenji","steam_id":76561199229204857,"connected_time":2626000000000,"state":"active","ping":123},{"user_id":87,"name":"AverageGloop","steam_id":76561198243395378,"connected_time":1537000000000,"state":"active","ping":43},{"user_id":106,"name":"capeeKo","steam_id":76561197970346623,"connected_time":297000000000,"state":"active","ping":54},{"user_id":85,"name":"F_L BongRipper","steam_id":76561198047136927,"connected_time":1638000000000,"state":"active","ping":53},{"user_id":62,"name":"thermometer mercury drink","steam_id":76561198882713406,"connected_time":4236000000000,"state":"active","ping":135},{"user_id":95,"name":"brg","steam_id":76561197998415548,"connected_time":873000000000,"state":"active","ping":61},{"user_id":72,"name":"SnickerNoodle","steam_id":76561198064359644,"connected_time":2684000000000,"state":"active","ping":55},{"user_id":96,"name":"Some Octopus Wizard","steam_id":76561198005470354,"connected_time":727000000000,"state":"active","ping":74},{"user_id":78,"name":"Josuke Higashikata","steam_id":76561199154366239,"connected_time":2545000000000,"state":"active","ping":99},{"user_id":89,"name":"lifted tater","steam_id":76561198404564240,"connected_time":1337000000000,"state":"active","ping":44},{"user_id":105,"name":"FunkyTown.mp3.exe","steam_id":76561199435939261,"connected_time":389000000000,"state":"active","ping":54},{"user_id":98,"name":"Mops","steam_id":76561198058213741,"connected_time":710000000000,"state":"active","ping":47},{"user_id":109,"name":"i gotta pee bad","steam_id":76561198006307133,"connected_time":275000000000,"state":"active","ping":79},{"user_id":101,"name":"FooFLit","steam_id":76561198236967080,"connected_time":609000000000,"state":"active","ping":69},{"user_id":102,"name":"Drusalem","steam_id":76561199078547218,"connected_time":597000000000,"state":"active","ping":98},{"user_id":103,"name":"drood","steam_id":76561198000300475,"connected_time":563000000000,"state":"active","ping":75},{"user_id":84,"name":"Womp","steam_id":76561198245103000,"connected_time":1659000000000,"state":"active","ping":54},{"user_id":104,"name":"spy","steam_id":76561198364943570,"connected_time":539000000000,"state":"active","ping":45},{"user_id":108,"name":"xiPoison","steam_id":76561198064961659,"connected_time":286000000000,"state":"active","ping":66},{"user_id":81,"name":"Stupid Rat","steam_id":76561198408747483,"connected_time":2296000000000,"state":"active","ping":89}]},{"server_id":142,"name":"Uncletopia | São Paulo | 1 | All Maps","name_short":"sao-1","host":"sao-1.br.uncletopia.com","port":27015,"enabled":true,"region":"sa","cc":"br","latitude":-23.533773,"longitude":-46.62529,"reserved":0,"last_update":"0001-01-01T00:00:00Z","name_a2s":"Uncletopia | São Paulo | 1 | All Maps","protocol":17,"map":"koth_cascade","folder":"tf","game":"Team Fortress","app_id":440,"player_count":0,"max_players":24,"Bots":0,"server_type":"Dedicated","server_os":"Linux","password":true,"vac":true,"version":"7882260","steam_id":85568392924469996,"keywords":["cp","nocrits","nodmgspread","uncletopia"],"game_id":440,"stv_port":27016,"stv_name":"Uncletopia | São Paulo | 1 | All Maps | STV","players":null},{"server_id":143,"name":"Uncletopia | São Paulo | 2 | All Maps","name_short":"sao-2","host":"sao-2.br.uncletopia.com","port":27015,"enabled":true,"region":"sa","cc":"br","latitude":-23.533773,"longitude":-46.62529,"reserved":0,"last_update":"0001-01-01T00:00:00Z","name_a2s":"Uncletopia | São Paulo | 2 | All Maps","protocol":17,"map":"cp_gravelpit","folder":"tf","game":"Team Fortress","app_id":440,"player_count":12,"max_players":24,"Bots":0,"server_type":"Dedicated","server_os":"Linux","password":true,"vac":true,"version":"7882260","steam_id":85568392924485349,"keywords":["cp","nocrits","nodmgspread","uncletopia"],"game_id":440,"stv_port":27016,"stv_name":"Uncletopia | São Paulo | 2 | All Maps | STV","players":[{"user_id":138,"name":"Granemann","steam_id":76561198086827008,"connected_time":670000000000,"state":"active","ping":58},{"user_id":139,"name":"Adventurematt","steam_id":76561199302420877,"connected_time":614000000000,"state":"active","ping":178},{"user_id":147,"name":"Dreamer ︻芫=一一","steam_id":76561198376775003,"connected_time":34000000000,"state":"active","ping":97},{"user_id":117,"name":"Hecker","steam_id":76561198289336823,"connected_time":2607000000000,"state":"active","ping":26},{"user_id":141,"name":"Frans","steam_id":76561198207928860,"connected_time":567000000000,"state":"active","ping":30},{"user_id":142,"name":"Brawmario","steam_id":76561198025313430,"connected_time":545000000000,"state":"active","ping":43},{"user_id":143,"name":"The imortal snail","steam_id":76561198136181550,"connected_time":327000000000,"state":"active","ping":43},{"user_id":119,"name":"Guihzy ♠","steam_id":76561199108239817,"connected_time":2548000000000,"state":"active","ping":49},{"user_id":104,"name":"starm0nster","steam_id":76561199016975635,"connected_time":4300000000000,"state":"active","ping":40},{"user_id":146,"name":"Jack el Guapo","steam_id":76561198452456127,"connected_time":130000000000,"state":"active","ping":63},{"user_id":145,"name":"jr_","steam_id":76561198313937899,"connected_time":265000000000,"state":"active","ping":52},{"user_id":133,"name":"Xx_GAMERFA1LURE_xX","steam_id":76561199038370433,"connected_time":1517000000000,"state":"active","ping":39}]},{"server_id":7,"name":"Uncletopia | Seattle | 1 | All Maps","name_short":"sea-1","host":"sea-1.us.uncletopia.com","port":27015,"enabled":true,"region":"us-west","cc":"us","latitude":47.608013,"longitude":-122.33517,"reserved":0,"last_update":"0001-01-01T00:00:00Z","name_a2s":"Uncletopia | Seattle | 1 | All Maps","protocol":17,"map":"pl_badwater","folder":"tf","game":"Team Fortress","app_id":440,"player_count":24,"max_players":24,"Bots":0,"server_type":"Dedicated","server_os":"Linux","password":true,"vac":true,"version":"7882260","steam_id":85568392924469997,"keywords":["nocrits","nodmgspread","payload","uncletopia"],"game_id":440,"stv_port":27016,"stv_name":"Uncletopia | Seattle | 1 | All Maps | STV","players":[{"user_id":40,"name":"Nugget","steam_id":76561199033722785,"connected_time":1292000000000,"state":"active","ping":64},{"user_id":42,"name":"GamerMan","steam_id":76561199058616824,"connected_time":1125000000000,"state":"active","ping":84},{"user_id":39,"name":"jayeskae","steam_id":76561198144220801,"connected_time":1353000000000,"state":"active","ping":45},{"user_id":55,"name":"Keamy","steam_id":76561199471434875,"connected_time":77000000000,"state":"active","ping":46},{"user_id":8,"name":"catch and claim","steam_id":76561198042913843,"connected_time":2760000000000,"state":"active","ping":60},{"user_id":10,"name":"Themasterman75","steam_id":76561199385573293,"connected_time":2486000000000,"state":"active","ping":70},{"user_id":54,"name":"whittecar","steam_id":76561198169715643,"connected_time":465000000000,"state":"active","ping":51},{"user_id":25,"name":"\u003c3Elise\u003c3","steam_id":76561198146435005,"connected_time":1750000000000,"state":"active","ping":74},{"user_id":43,"name":"kazoo2","steam_id":76561198260473504,"connected_time":1102000000000,"state":"active","ping":111},{"user_id":14,"name":"Renz","steam_id":76561198118995036,"connected_time":2376000000000,"state":"active","ping":47},{"user_id":44,"name":"SomeFuckingGuy #SAVETF2","steam_id":76561199239165015,"connected_time":1052000000000,"state":"active","ping":97},{"user_id":17,"name":"Little Linguine","steam_id":76561198816986370,"connected_time":2040000000000,"state":"active","ping":59},{"user_id":18,"name":"AnotherDude /:","steam_id":76561198313150295,"connected_time":1965000000000,"state":"active","ping":59},{"user_id":19,"name":"Dimple #TF2Center","steam_id":76561198980324190,"connected_time":1916000000000,"state":"active","ping":51},{"user_id":20,"name":"FUNNY JOKE(pls laugh)","steam_id":76561199070877046,"connected_time":1869000000000,"state":"active","ping":77},{"user_id":21,"name":"Mr.Frundles","steam_id":76561198134559026,"connected_time":1868000000000,"state":"active","ping":65},{"user_id":22,"name":"White_Wizard_Named_Corona","steam_id":76561198055652735,"connected_time":1831000000000,"state":"active","ping":115},{"user_id":57,"name":"Dreamzapp","steam_id":76561199084936632,"connected_time":8000000000,"state":"spawning","ping":74},{"user_id":52,"name":"Cluckimus Prime","steam_id":76561198051346739,"connected_time":572000000000,"state":"active","ping":126},{"user_id":27,"name":"♥ kiss me! ♥","steam_id":76561198014557455,"connected_time":1718000000000,"state":"active","ping":111},{"user_id":46,"name":"omneyle","steam_id":76561199088336819,"connected_time":1027000000000,"state":"active","ping":86},{"user_id":48,"name":"average ness main","steam_id":76561199293967489,"connected_time":857000000000,"state":"active","ping":75},{"user_id":36,"name":"slude","steam_id":76561198065700596,"connected_time":1583000000000,"state":"active","ping":105},{"user_id":56,"name":"Tommy Pickles (Very Cool)","steam_id":76561198391261463,"connected_time":34000000000,"state":"active","ping":91}]},{"server_id":119,"name":"Uncletopia | Seattle | 2 | All Maps","name_short":"sea-2","host":"sea-1.us.uncletopia.com","port":27025,"enabled":true,"region":"us-west","cc":"us","latitude":47.608013,"longitude":-122.33517,"reserved":0,"last_update":"0001-01-01T00:00:00Z","name_a2s":"Uncletopia | Seattle | 2 | All Maps","protocol":17,"map":"koth_cascade","folder":"tf","game":"Team Fortress","app_id":440,"player_count":0,"max_players":24,"Bots":0,"server_type":"Dedicated","server_os":"Linux","password":true,"vac":true,"version":"7882260","steam_id":85568392924469998,"keywords":["cp","nocrits","nodmgspread","uncletopia"],"game_id":440,"stv_port":27026,"stv_name":"Uncletopia | Seattle | 2 | All Maps | STV","players":null},{"server_id":406,"name":"Uncletopia | Seattle | 3 | Stopwatch Beta","name_short":"sea-3","host":"sea-1.us.uncletopia.com","port":27035,"enabled":true,"region":"us-west","cc":"us","latitude":47.608013,"longitude":-122.33517,"reserved":0,"last_update":"0001-01-01T00:00:00Z","name_a2s":"Uncletopia | Seattle | 3 | Stopwatch Beta","protocol":17,"map":"koth_viaduct","folder":"tf","game":"Team Fortress","app_id":440,"player_count":0,"max_players":24,"Bots":0,"server_type":"Dedicated","server_os":"Linux","password":true,"vac":true,"version":"7882260","steam_id":85568392924515217,"keywords":["cp","nocrits","nodmgspread","uncletopia"],"game_id":440,"stv_port":27036,"stv_name":"Uncletopia | Seattle | 3 | Stopwatch Beta | STV","players":null},{"server_id":17,"name":"Uncletopia | San Francisco | 1 | All Maps","name_short":"sfo-1","host":"sfo-1.us.uncletopia.com","port":27015,"enabled":true,"region":"us-west","cc":"us","latitude":37.77397,"longitude":-122.4313,"reserved":0,"last_update":"0001-01-01T00:00:00Z","name_a2s":"Uncletopia | San Francisco | 1 | All Maps","protocol":17,"map":"pl_barnblitz","folder":"tf","game":"Team Fortress","app_id":440,"player_count":0,"max_players":24,"Bots":0,"server_type":"Dedicated","server_os":"Linux","password":true,"vac":true,"version":"7882260","steam_id":85568392924469999,"keywords":["nocrits","nodmgspread","payload","uncletopia"],"game_id":440,"stv_port":27016,"stv_name":"Uncletopia | San Francisco | 1 | All Maps | STV","players":null},{"server_id":18,"name":"Uncletopia | San Francisco | 2 | All Maps","name_short":"sfo-2","host":"sfo-1.us.uncletopia.com","port":27025,"enabled":true,"region":"us-west","cc":"us","latitude":37.77397,"longitude":-122.4313,"reserved":0,"last_update":"0001-01-01T00:00:00Z","name_a2s":"Uncletopia | San Francisco | 2 | All Maps","protocol":17,"map":"cp_altitude","folder":"tf","game":"Team Fortress","app_id":440,"player_count":0,"max_players":24,"Bots":0,"server_type":"Dedicated","server_os":"Linux","password":true,"vac":true,"version":"7882260","steam_id":85568392924470000,"keywords":["cp","nocrits","nodmgspread","uncletopia"],"game_id":440,"stv_port":27026,"stv_name":"Uncletopia | San Francisco | 2 | All Maps | STV","players":null},{"server_id":19,"name":"Uncletopia | San Francisco | 3 | Stopwatch Beta","name_short":"sfo-3","host":"sfo-1.us.uncletopia.com","port":27035,"enabled":true,"region":"us-west","cc":"us","latitude":37.77397,"longitude":-122.4313,"reserved":0,"last_update":"0001-01-01T00:00:00Z","name_a2s":"Uncletopia | San Francisco | 3 | Stopwatch Beta","protocol":17,"map":"pl_snowycoast","folder":"tf","game":"Team Fortress","app_id":440,"player_count":0,"max_players":24,"Bots":0,"server_type":"Dedicated","server_os":"Linux","password":true,"vac":true,"version":"7882260","steam_id":85568392924742824,"keywords":["nocrits","nodmgspread","payload","uncletopia"],"game_id":440,"stv_port":27036,"stv_name":"Uncletopia | San Francisco | 3 | Stopwatch Beta | STV","players":null},{"server_id":20,"name":"Uncletopia | San Francisco | 4 | Community","name_short":"sfo-4","host":"sfo-1.us.uncletopia.com","port":27045,"enabled":true,"region":"us-west","cc":"us","latitude":37.77397,"longitude":-122.4313,"reserved":0,"last_update":"0001-01-01T00:00:00Z","name_a2s":"Uncletopia | San Francisco | 4 | Community","protocol":17,"map":"pl_swiftwater_final1","folder":"tf","game":"Team Fortress","app_id":440,"player_count":0,"max_players":24,"Bots":0,"server_type":"Dedicated","server_os":"Linux","password":true,"vac":true,"version":"7882260","steam_id":85568392924742826,"keywords":["nocrits","nodmgspread","payload","uncletopia"],"game_id":440,"stv_port":27046,"stv_name":"Uncletopia | San Francisco | 4 | Community | STV","players":null},{"server_id":141,"name":"Uncletopia | Sydney | 1 | All Maps","name_short":"syd-1","host":"syd-1.au.uncletopia.com","port":27015,"enabled":true,"region":"au","cc":"au","latitude":-33.865143,"longitude":151.2099,"reserved":0,"last_update":"0001-01-01T00:00:00Z","name_a2s":"Uncletopia | Sydney | 1 | All Maps","protocol":17,"map":"pl_borneo","folder":"tf","game":"Team Fortress","app_id":440,"player_count":0,"max_players":24,"Bots":0,"server_type":"Dedicated","server_os":"Linux","password":true,"vac":true,"version":"7882260","steam_id":85568392924470001,"keywords":["nocrits","nodmgspread","payload","uncletopia"],"game_id":440,"stv_port":27016,"stv_name":"Uncletopia | Sydney | 1 | All Maps | STV","players":null},{"server_id":123,"name":"Uncletopia | Sydney | 2 | All Maps","name_short":"syd-2","host":"syd-1.au.uncletopia.com","port":27025,"enabled":true,"region":"au","cc":"au","latitude":-33.865143,"longitude":151.2099,"reserved":0,"last_update":"0001-01-01T00:00:00Z","name_a2s":"Uncletopia | Sydney | 2 | All Maps","protocol":17,"map":"pl_borneo","folder":"tf","game":"Team Fortress","app_id":440,"player_count":0,"max_players":24,"Bots":0,"server_type":"Dedicated","server_os":"Linux","password":true,"vac":true,"version":"7882260","steam_id":85568392924470002,"keywords":["nocrits","nodmgspread","payload","uncletopia"],"game_id":440,"stv_port":27026,"stv_name":"Uncletopia | Sydney | 2 | All Maps | STV","players":null},{"server_id":395,"name":"Uncletopia | Sydney | 3 | All Maps","name_short":"syd-3","host":"syd-1.au.uncletopia.com","port":27035,"enabled":true,"region":"au","cc":"au","latitude":-33.865143,"longitude":151.2099,"reserved":0,"last_update":"0001-01-01T00:00:00Z","name_a2s":"Uncletopia | Sydney | 3 | All Maps","protocol":17,"map":"pl_swiftwater_final1","folder":"tf","game":"Team Fortress","app_id":440,"player_count":0,"max_players":24,"Bots":0,"server_type":"Dedicated","server_os":"Linux","password":true,"vac":true,"version":"7882260","steam_id":85568392925194467,"keywords":["nocrits","nodmgspread","payload","uncletopia"],"game_id":440,"stv_port":27036,"stv_name":"Uncletopia | Sydney | 3 | All Maps | STV","players":null},{"server_id":396,"name":"Uncletopia | Sydney | 4 | All Maps","name_short":"syd-4","host":"syd-1.au.uncletopia.com","port":27045,"enabled":true,"region":"au","cc":"au","latitude":-33.865143,"longitude":151.2099,"reserved":0,"last_update":"0001-01-01T00:00:00Z","name_a2s":"Uncletopia | Sydney | 4 | All Maps","protocol":17,"map":"koth_lakeside_final","folder":"tf","game":"Team Fortress","app_id":440,"player_count":0,"max_players":24,"Bots":0,"server_type":"Dedicated","server_os":"Linux","password":true,"vac":true,"version":"7882260","steam_id":85568392925397958,"keywords":["cp","nocrits","nodmgspread","uncletopia"],"game_id":440,"stv_port":27046,"stv_name":"Uncletopia | Sydney | 4 | All Maps | STV","players":null},{"server_id":58,"name":"Uncletopia | Sydney | 5 | Stopwatch Beta","name_short":"syd-5","host":"syd-1.au.uncletopia.com","port":27055,"enabled":true,"region":"au","cc":"au","latitude":-33.865143,"longitude":151.2099,"reserved":0,"last_update":"0001-01-01T00:00:00Z","name_a2s":"Uncletopia | Sydney | 5 | Stopwatch Beta","protocol":17,"map":"koth_viaduct","folder":"tf","game":"Team Fortress","app_id":440,"player_count":0,"max_players":24,"Bots":0,"server_type":"Dedicated","server_os":"Linux","password":true,"vac":true,"version":"7882260","steam_id":85568392925397959,"keywords":["cp","nocrits","nodmgspread","uncletopia"],"game_id":440,"stv_port":27056,"stv_name":"Uncletopia | Sydney | 5 | Stopwatch Beta | STV","players":null},{"server_id":59,"name":"Uncletopia | Sydney | 6 | Community","name_short":"syd-6","host":"syd-1.au.uncletopia.com","port":27065,"enabled":true,"region":"au","cc":"au","latitude":-33.865143,"longitude":151.2099,"reserved":0,"last_update":"0001-01-01T00:00:00Z","name_a2s":"Uncletopia | Sydney | 6 | Community","protocol":17,"map":"workshop/koth_product_final.ugc454272353","folder":"tf","game":"Team Fortress","app_id":440,"player_count":0,"max_players":24,"Bots":0,"server_type":"Dedicated","server_os":"Linux","password":true,"vac":true,"version":"7882260","steam_id":85568392925397960,"keywords":["cp","nocrits","nodmgspread","uncletopia"],"game_id":440,"stv_port":27066,"stv_name":"Uncletopia | Sydney | 6 | Community | STV","players":null},{"server_id":49,"name":"Uncletopia | Warsaw | 1 | All Maps","name_short":"waw-1","host":"waw-1.pl.uncletopia.com","port":27015,"enabled":true,"region":"eu","cc":"pl","latitude":52.2297,"longitude":21.017532,"reserved":0,"last_update":"0001-01-01T00:00:00Z","name_a2s":"","protocol":0,"map":"","folder":"","game":"","app_id":0,"player_count":0,"max_players":0,"Bots":0,"server_type":"","server_os":"","password":false,"vac":false,"version":"","steam_id":0,"keywords":null,"game_id":0,"stv_port":0,"stv_name":"","players":null},{"server_id":50,"name":"Uncletopia | Warsaw | 2 | All Maps","name_short":"waw-2","host":"waw-1.pl.uncletopia.com","port":27025,"enabled":true,"region":"eu","cc":"pl","latitude":52.2297,"longitude":21.017532,"reserved":0,"last_update":"0001-01-01T00:00:00Z","name_a2s":"Uncletopia | Warsaw | 2 | All Maps","protocol":17,"map":"koth_viaduct","folder":"tf","game":"Team Fortress","app_id":440,"player_count":0,"max_players":24,"Bots":0,"server_type":"Dedicated","server_os":"Linux","password":true,"vac":true,"version":"7882260","steam_id":85568392925397851,"keywords":["cp","nocrits","nodmgspread","uncletopia"],"game_id":440,"stv_port":27026,"stv_name":"Uncletopia | Warsaw | 2 | All Maps | STV","players":null},{"server_id":51,"name":"Uncletopia | Warsaw | 3 | All Maps","name_short":"waw-3","host":"waw-1.pl.uncletopia.com","port":27035,"enabled":true,"region":"eu","cc":"pl","latitude":52.2297,"longitude":21.017532,"reserved":0,"last_update":"0001-01-01T00:00:00Z","name_a2s":"Uncletopia | Warsaw | 3 | All Maps","protocol":17,"map":"pl_borneo","folder":"tf","game":"Team Fortress","app_id":440,"player_count":0,"max_players":24,"Bots":0,"server_type":"Dedicated","server_os":"Linux","password":true,"vac":true,"version":"7882260","steam_id":85568392925397852,"keywords":["nocrits","nodmgspread","payload","uncletopia"],"game_id":440,"stv_port":27036,"stv_name":"Uncletopia | Warsaw | 3 | All Maps | STV","players":null},{"server_id":52,"name":"Uncletopia | Warsaw | 4 | All Maps","name_short":"waw-4","host":"waw-1.pl.uncletopia.com","port":27045,"enabled":true,"region":"eu","cc":"pl","latitude":52.2297,"longitude":21.017532,"reserved":0,"last_update":"0001-01-01T00:00:00Z","name_a2s":"Uncletopia | Warsaw | 4 | All Maps","protocol":17,"map":"koth_cascade","folder":"tf","game":"Team Fortress","app_id":440,"player_count":0,"max_players":24,"Bots":0,"server_type":"Dedicated","server_os":"Linux","password":true,"vac":true,"version":"7882260","steam_id":85568392925397853,"keywords":["cp","nocrits","nodmgspread","uncletopia"],"game_id":440,"stv_port":27046,"stv_name":"Uncletopia | Warsaw | 4 | All Maps | STV","players":null},{"server_id":53,"name":"Uncletopia | Warsaw | 5 | Stopwatch Beta","name_short":"waw-5","host":"waw-1.pl.uncletopia.com","port":27055,"enabled":true,"region":"eu","cc":"pl","latitude":52.2297,"longitude":21.017532,"reserved":0,"last_update":"0001-01-01T00:00:00Z","name_a2s":"Uncletopia | Warsaw | 5 | Stopwatch Beta","protocol":17,"map":"cp_gullywash_final1","folder":"tf","game":"Team Fortress","app_id":440,"player_count":0,"max_players":24,"Bots":0,"server_type":"Dedicated","server_os":"Linux","password":true,"vac":true,"version":"7882260","steam_id":85568392925397854,"keywords":["cp","nocrits","nodmgspread","uncletopia"],"game_id":440,"stv_port":27056,"stv_name":"Uncletopia | Warsaw | 5 | Stopwatch Beta | STV","players":null},{"server_id":54,"name":"Uncletopia | Warsaw | 6 | Community","name_short":"waw-6","host":"waw-1.pl.uncletopia.com","port":27065,"enabled":true,"region":"eu","cc":"pl","latitude":52.2297,"longitude":21.017532,"reserved":0,"last_update":"0001-01-01T00:00:00Z","name_a2s":"Uncletopia | Warsaw | 6 | Community","protocol":17,"map":"workshop/cp_reckoner_rc6.ugc674719999","folder":"tf","game":"Team Fortress","app_id":440,"player_count":0,"max_players":24,"Bots":0,"server_type":"Dedicated","server_os":"Linux","password":true,"vac":true,"version":"7882260","steam_id":85568392925397856,"keywords":["cp","nocrits","nodmgspread","uncletopia"],"game_id":440,"stv_port":27066,"stv_name":"Uncletopia | Warsaw | 6 | Community | STV","players":null}]}