{"status":true,"message":"","result":[{"server_id":9,"name":"Uncletopia | Atlanta | 1 | All Maps","name_short":"atl-1","host":"atl-1.us.uncletopia.com","port":27015,"enabled":true,"region":"us-east","cc":"us","latitude":33.753746,"longitude":-84.38633,"reserved":0,"last_update":"0001-01-01T00:00:00Z","name_a2s":"Uncletopia | Atlanta | 1 | All Maps","protocol":17,"map":"pl_frontier_final","folder":"tf","game":"Team Fortress","app_id":440,"player_count":0,"max_players":24,"Bots":0,"server_type":"Dedicated","server_os":"Linux","password":true,"vac":true,"version":"7757534","steam_id":85568392924469982,"keywords":["nocrits","nodmgspread","payload","uncletopia"],"game_id":440,"stv_port":27016,"stv_name":"Uncletopia | Atlanta | 1 | All Maps | STV","players":null},{"server_id":104,"name":"Uncletopia | Atlanta | 2 | All Maps","name_short":"atl-2","host":"atl-1.us.uncletopia.com","port":27025,"enabled":true,"region":"us-east","cc":"us","latitude":33.753746,"longitude":-84.38633,"reserved":0,"last_update":"0001-01-01T00:00:00Z","name_a2s":"Uncletopia | Atlanta | 2 | All Maps","protocol":17,"map":"plr_hightower","folder":"tf","game":"Team Fortress","app_id":440,"player_count":20,"max_players":24,"Bots":0,"server_type":"Dedicated","server_os":"Linux","password":true,"vac":true,"version":"7757534","steam_id":85568392924469983,"keywords":["nocrits","nodmgspread","payload","uncletopia"],"game_id":440,"stv_port":27026,"stv_name":"Uncletopia | Atlanta | 2 | All Maps | STV","players":[{"user_id":1038,"name":"mechiimi ★","steam_id":76561198321627268,"connected_time":48000000000,"state":"active","ping":105},{"user_id":1033,"name":"CreeperPiggy","steam_id":76561198203184918,"connected_time":261000000000,"state":"active","ping":75},{"user_id":952,"name":".jpegged","steam_id":76561198120078454,"connected_time":6431000000000,"state":"active","ping":56},{"user_id":1008,"name":"yomo","steam_id":76561198063175935,"connected_time":1729000000000,"state":"active","ping":51},{"user_id":990,"name":"Cdesmondd","steam_id":76561198072774462,"connected_time":3172000000000,"state":"active","ping":79},{"user_id":1018,"name":"Stoofy","steam_id":76561198280750328,"connected_time":1242000000000,"state":"active","ping":107},{"user_id":1015,"name":"Cassius","steam_id":76561198146163328,"connected_time":1339000000000,"state":"active","ping":74},{"user_id":1016,"name":"Swannie","steam_id":76561199472877209,"connected_time":1253000000000,"state":"active","ping":70},{"user_id":1034,"name":"XBOX 360","steam_id":76561198066590783,"connected_time":195000000000,"state":"active","ping":77},{"user_id":1035,"name":"Eins","steam_id":76561199030343810,"connected_time":156000000000,"state":"active","ping":42},{"user_id":1010,"name":"Yummy Kabobz","steam_id":76561198067661705,"connected_time":1714000000000,"state":"active","ping":58},{"user_id":1020,"name":"LF Collectors Market Gardener","steam_id":76561199192132061,"connected_time":1168000000000,"state":"active","ping":90},{"user_id":1036,"name":"hot","steam_id":76561198324048855,"connected_time":142000000000,"state":"active","ping":137},{"user_id":1006,"name":"Intestinal Straw","steam_id":76561198082095303,"connected_time":1817000000000,"state":"active","ping":66},{"user_id":974,"name":"Mayo Monkey","steam_id":76561198090023039,"connected_time":4236000000000,"state":"active","ping":85},{"user_id":1037,"name":"Compassionate727","steam_id":76561198106303951,"connected_time":139000000000,"state":"active","ping":76},{"user_id":1031,"name":"qwerg","steam_id":76561198107191794,"connected_time":792000000000,"state":"active","ping":73},{"user_id":1001,"name":"Genetic Komodo (He/Him)","steam_id":76561198174806758,"connected_time":2734000000000,"state":"active","ping":52},{"user_id":986,"name":"Hyper","steam_id":76561198976760150,"connected_time":3513000000000,"state":"active","ping":95},{"user_id":987,"name":"JPEG Image","steam_id":76561199126026126,"connected_time":3457000000000,"state":"active","ping":119}]},{"server_id":400,"name":"Uncletopia | Atlanta | 3 | Community","name_short":"atl-3","host":"atl-1.us.uncletopia.com","port":27035,"enabled":true,"region":"us-east","cc":"us","latitude":33.753746,"longitude":-84.38633,"reserved":0,"last_update":"0001-01-01T00:00:00Z","name_a2s":"Uncletopia | Atlanta | 3 | Community","protocol":17,"map":"workshop/cp_glassworks_rc6a.ugc454118349","folder":"tf","game":"Team Fortress","app_id":440,"player_count":0,"max_players":24,"Bots":0,"server_type":"Dedicated","server_os":"Linux","password":true,"vac":true,"version":"7757534","steam_id":85568392924515187,"keywords":["cp","nocrits","nodmgspread","uncletopia"],"game_id":440,"stv_port":27036,"stv_name":"Uncletopia | Atlanta | 3 | Community | STV","players":null},{"server_id":401,"name":"Uncletopia | Atlanta | 4 | No Payload","name_short":"atl-4","host":"atl-1.us.uncletopia.com","port":27045,"enabled":true,"region":"us-east","cc":"us","latitude":33.753746,"longitude":-84.38633,"reserved":0,"last_update":"0001-01-01T00:00:00Z","name_a2s":"","protocol":0,"map":"","folder":"","game":"","app_id":0,"player_count":0,"max_players":0,"Bots":0,"server_type":"","server_os":"","password":false,"vac":false,"version":"","steam_id":0,"keywords":null,"game_id":0,"stv_port":0,"stv_name":"","players":null},{"server_id":2,"name":"Uncletopia | Chicago | 1 | All Maps","name_short":"chi-1","host":"chi-1.us.uncletopia.com","port":27015,"enabled":true,"region":"us-central","cc":"us","latitude":41.881832,"longitude":-87.62318,"reserved":0,"last_update":"0001-01-01T00:00:00Z","name_a2s":"Uncletopia | Chicago | 1 | All Maps","protocol":17,"map":"pl_barnblitz","folder":"tf","game":"Team Fortress","app_id":440,"player_count":24,"max_players":24,"Bots":0,"server_type":"Dedicated","server_os":"Linux","password":true,"vac":true,"version":"7757534","steam_id":85568392924469984,"keywords":["nocrits","nodmgspread","payload","uncletopia"],"game_id":440,"stv_port":27016,"stv_name":"Uncletopia | Chicago | 1 | All Maps | STV","players":[{"user_id":916,"name":"Sirius","steam_id":76561198031295225,"connected_time":2062000000000,"state":"active","ping":47},{"user_id":893,"name":"Bearegard","steam_id":76561198061926542,"connected_time":4647000000000,"state":"active","ping":58},{"user_id":894,"name":"HTA","steam_id":76561198043879140,"connected_time":4470000000000,"state":"active","ping":48},{"user_id":892,"name":"Pop","steam_id":76561199012562851,"connected_time":4711000000000,"state":"active","ping":86},{"user_id":930,"name":"indyjacob","steam_id":76561198065158713,"connected_time":333000000000,"state":"active","ping":115},{"user_id":915,"name":"69 odd goat","steam_id":76561198116908911,"connected_time":2638000000000,"state":"active","ping":74},{"user_id":863,"name":"roast pig with apple in mouth","steam_id":76561198051353647,"connected_time":7659000000000,"state":"active","ping":59},{"user_id":929,"name":"hud_saytext_time 0","steam_id":76561198010327228,"connected_time":454000000000,"state":"active","ping":163},{"user_id":881,"name":"GamingJoker2012","steam_id":76561198247589168,"connected_time":5833000000000,"state":"active","ping":61},{"user_id":931,"name":"CheeseCake488","steam_id":76561199407617942,"connected_time":326000000000,"state":"active","ping":160},{"user_id":925,"name":"GPG puppy","steam_id":76561198056158882,"connected_time":1013000000000,"state":"active","ping":76},{"user_id":918,"name":"auurr","steam_id":76561198028572994,"connected_time":1964000000000,"state":"active","ping":54},{"user_id":934,"name":"poompis","steam_id":76561198160850933,"connected_time":233000000000,"state":"active","ping":105},{"user_id":875,"name":"Stan","steam_id":76561199057962816,"connected_time":6622000000000,"state":"active","ping":50},{"user_id":819,"name":"Lemon Drop","steam_id":76561198023684559,"connected_time":11993000000000,"state":"active","ping":91},{"user_id":922,"name":"Influrrno","steam_id":76561198398893302,"connected_time":1697000000000,"state":"active","ping":69},{"user_id":933,"name":"Training Arc","steam_id":76561198038832034,"connected_time":306000000000,"state":"active","ping":102},{"user_id":897,"name":"Galactamarx","steam_id":76561198028065755,"connected_time":4223000000000,"state":"active","ping":107},{"user_id":913,"name":"Yoshimelon","steam_id":76561198253054325,"connected_time":2703000000000,"state":"active","ping":74},{"user_id":935,"name":"Scoron","steam_id":76561198062099305,"connected_time":217000000000,"state":"active","ping":108},{"user_id":927,"name":"Fish","steam_id":76561198307382591,"connected_time":667000000000,"state":"active","ping":162},{"user_id":914,"name":"Shipmunk","steam_id":76561198063062670,"connected_time":2699000000000,"state":"active","ping":67},{"user_id":924,"name":"Voodo133","steam_id":76561198042670351,"connected_time":1440000000000,"state":"active","ping":89},{"user_id":923,"name":"The Horselords and Animal Gods","steam_id":76561197975094050,"connected_time":1620000000000,"state":"active","ping":114}]},{"server_id":106,"name":"Uncletopia | Chicago | 2 | All Maps","name_short":"chi-2","host":"chi-1.us.uncletopia.com","port":27025,"enabled":true,"region":"us-central","cc":"us","latitude":41.881832,"longitude":-87.62318,"reserved":0,"last_update":"0001-01-01T00:00:00Z","name_a2s":"Uncletopia | Chicago | 2 | All Maps","protocol":17,"map":"cp_altitude","folder":"tf","game":"Team Fortress","app_id":440,"player_count":19,"max_players":24,"Bots":0,"server_type":"Dedicated","server_os":"Linux","password":true,"vac":true,"version":"7757534","steam_id":85568392924469985,"keywords":["cp","nocrits","nodmgspread","uncletopia"],"game_id":440,"stv_port":27026,"stv_name":"Uncletopia | Chicago | 2 | All Maps | STV","players":[{"user_id":1057,"name":"kratomSnorter.1quarter","steam_id":76561198946987511,"connected_time":1591000000000,"state":"active","ping":78},{"user_id":1054,"name":"THEY LET YOU PUT ANYTHING HERE","steam_id":76561198056214875,"connected_time":1756000000000,"state":"active","ping":55},{"user_id":1077,"name":"Oniko","steam_id":76561198087703138,"connected_time":703000000000,"state":"active","ping":63},{"user_id":1058,"name":"Notation","steam_id":76561198119509319,"connected_time":1586000000000,"state":"active","ping":59},{"user_id":1059,"name":"lucil3 on Bandcamp","steam_id":76561198149063013,"connected_time":1582000000000,"state":"active","ping":60},{"user_id":1078,"name":"I AM GOING TO EAT YOUR FACE","steam_id":76561198277449857,"connected_time":671000000000,"state":"active","ping":124},{"user_id":1082,"name":"A Good Name (she/her)","steam_id":76561198858190691,"connected_time":258000000000,"state":"active","ping":116},{"user_id":974,"name":"googa","steam_id":76561198133130452,"connected_time":8524000000000,"state":"active","ping":60},{"user_id":1066,"name":"PS2","steam_id":76561198108799902,"connected_time":1486000000000,"state":"active","ping":101},{"user_id":1080,"name":"Mengle","steam_id":76561198001953684,"connected_time":431000000000,"state":"active","ping":59},{"user_id":1081,"name":"Joocebox","steam_id":76561198259997021,"connected_time":371000000000,"state":"active","ping":68},{"user_id":1063,"name":"Alfie Solomons #Shelby2020","steam_id":76561198061870046,"connected_time":1551000000000,"state":"active","ping":114},{"user_id":1084,"name":"iggy destruction","steam_id":76561198081576799,"connected_time":111000000000,"state":"active","ping":90},{"user_id":1085,"name":"Charade","steam_id":76561198059859735,"connected_time":106000000000,"state":"active","ping":58},{"user_id":1086,"name":"uwuziel","steam_id":76561198143355561,"connected_time":23000000000,"state":"spawning","ping":62},{"user_id":1087,"name":"seductive smell of oreos","steam_id":76561198032791567,"connected_time":1000000000,"state":"spawning","ping":45},{"user_id":1070,"name":"Bort","steam_id":76561198161476974,"connected_time":1463000000000,"state":"active","ping":110},{"user_id":1072,"name":"Ltn. What's-his-Nuts","steam_id":76561198133834262,"connected_time":1422000000000,"state":"active","ping":60},{"user_id":1075,"name":"beatrix","steam_id":76561199057103062,"connected_time":1354000000000,"state":"active","ping":90}]},{"server_id":402,"name":"Uncletopia | Chicago | 3 | All Maps","name_short":"chi-3","host":"chi-1.us.uncletopia.com","port":27035,"enabled":true,"region":"us-central","cc":"us","latitude":41.881832,"longitude":-87.62318,"reserved":0,"last_update":"0001-01-01T00:00:00Z","name_a2s":"Uncletopia | Chicago | 3 | All Maps","protocol":17,"map":"pl_swiftwater_final1","folder":"tf","game":"Team Fortress","app_id":440,"player_count":0,"max_players":24,"Bots":0,"server_type":"Dedicated","server_os":"Linux","password":true,"vac":true,"version":"7757534","steam_id":85568392924515191,"keywords":["nocrits","nodmgspread","payload","uncletopia"],"game_id":440,"stv_port":27036,"stv_name":"Uncletopia | Chicago | 3 | All Maps | STV","players":null},{"server_id":403,"name":"Uncletopia | Chicago | 4 | All Maps","name_short":"chi-4","host":"chi-1.us.uncletopia.com","port":27045,"enabled":true,"region":"us-central","cc":"us","latitude":41.881832,"longitude":-87.62318,"reserved":0,"last_update":"0001-01-01T00:00:00Z","name_a2s":"Uncletopia | Chicago | 4 | All Maps","protocol":17,"map":"koth_cascade","folder":"tf","game":"Team Fortress","app_id":440,"player_count":0,"max_players":24,"Bots":0,"server_type":"Dedicated","server_os":"Linux","password":true,"vac":true,"version":"7757534","steam_id":85568392924515193,"keywords":["cp","nocrits","nodmgspread","uncletopia"],"game_id":440,"stv_port":27046,"stv_name":"Uncletopia | Chicago | 4 | All Maps | STV","players":null},{"server_id":36,"name":"Uncletopia | Chicago | 5 | All Maps","name_short":"chi-5","host":"chi-2.us.uncletopia.com","port":27015,"enabled":true,"region":"us-central","cc":"us","latitude":41.881832,"longitude":-87.62318,"reserved":0,"last_update":"0001-01-01T00:00:00Z","name_a2s":"Uncletopia | Chicago | 5 | All Maps","protocol":17,"map":"pl_snowycoast","folder":"tf","game":"Team Fortress","app_id":440,"player_count":0,"max_players":24,"Bots":0,"server_type":"Dedicated","server_os":"Linux","password":true,"vac":true,"version":"7757534","steam_id":85568392924866362,"keywords":["nocrits","nodmgspread","payload","uncletopia"],"game_id":440,"stv_port":27016,"stv_name":"Uncletopia | Chicago | 5 | All Maps | STV","players":null},{"server_id":37,"name":"Uncletopia | Chicago | 6 | All Maps","name_short":"chi-6","host":"chi-2.us.uncletopia.com","port":27025,"enabled":true,"region":"us-central","cc":"us","latitude":41.881832,"longitude":-87.62318,"reserved":0,"last_update":"0001-01-01T00:00:00Z","name_a2s":"Uncletopia | Chicago | 6 | All Maps","protocol":17,"map":"koth_viaduct","folder":"tf","game":"Team Fortress","app_id":440,"player_count":0,"max_players":24,"Bots":0,"server_type":"Dedicated","server_os":"Linux","password":true,"vac":true,"version":"7757534","steam_id":85568392924866363,"keywords":["cp","nocrits","nodmgspread","uncletopia"],"game_id":440,"stv_port":27026,"stv_name":"Uncletopia | Chicago | 6 | All Maps | STV","players":null},{"server_id":38,"name":"Uncletopia | Chicago | 7 | Stopwatch Beta","name_short":"chi-7","host":"chi-2.us.uncletopia.com","port":27035,"enabled":true,"region":"us-central","cc":"us","latitude":41.881832,"longitude":-87.62318,"reserved":0,"last_update":"0001-01-01T00:00:00Z","name_a2s":"Uncletopia | Chicago | 7 | Stopwatch Beta","protocol":17,"map":"workshop/pl_badwater_pro_v12.ugc2142942074","folder":"tf","game":"Team Fortress","app_id":440,"player_count":0,"max_players":24,"Bots":0,"server_type":"Dedicated","server_os":"Linux","password":true,"vac":true,"version":"7757534","steam_id":85568392924866364,"keywords":["nocrits","nodmgspread","payload","uncletopia"],"game_id":440,"stv_port":27036,"stv_name":"Uncletopia | Chicago | 7 | Stopwatch Beta | STV","players":null},{"server_id":39,"name":"Uncletopia | Chicago | 8 | Community","name_short":"chi-8","host":"chi-2.us.uncletopia.com","port":27045,"enabled":true,"region":"us-central","cc":"us","latitude":41.881832,"longitude":-87.62318,"reserved":0,"last_update":"0001-01-01T00:00:00Z","name_a2s":"Uncletopia | Chicago | 8 | Community","protocol":17,"map":"workshop/pl_barnblitz_pro7.ugc582280235","folder":"tf","game":"Team Fortress","app_id":440,"player_count":0,"max_players":24,"Bots":0,"server_type":"Dedicated","server_os":"Linux","password":true,"vac":true,"version":"7757534","steam_id":85568392924866365,"keywords":["nocrits","nodmgspread","payload","uncletopia"],"game_id":440,"stv_port":27046,"stv_name":"Uncletopia | Chicago | 8 | Community | STV","players":null},{"server_id":8,"name":"Uncletopia | Dallas | 1 | All Maps","name_short":"dal-1","host":"dal-1.us.uncletopia.com","port":27015,"enabled":true,"region":"us-central","cc":"us","latitude":32.779167,"longitude":-96.80889,"reserved":0,"last_update":"0001-01-01T00:00:00Z","name_a2s":"Uncletopia | Dallas | 1 | All Maps","protocol":17,"map":"pl_barnblitz","folder":"tf","game":"Team Fortress","app_id":440,"player_count":24,"max_players":24,"Bots":0,"server_type":"Dedicated","server_os":"Linux","password":true,"vac":true,"version":"7757534","steam_id":85568392924469986,"keywords":["nocrits","nodmgspread","payload","uncletopia"],"game_id":440,"stv_port":27016,"stv_name":"Uncletopia | Dallas | 1 | All Maps | STV","players":[{"user_id":810,"name":"stigma","steam_id":76561197960315263,"connected_time":2425000000000,"state":"active","ping":74},{"user_id":808,"name":"Mr.Roko","steam_id":76561198297223309,"connected_time":2979000000000,"state":"active","ping":75},{"user_id":833,"name":"Shnakes","steam_id":76561198201649518,"connected_time":786000000000,"state":"active","ping":89},{"user_id":803,"name":"Nekro Kitty","steam_id":76561198025054596,"connected_time":3670000000000,"state":"active","ping":76},{"user_id":815,"name":"DefaultCube","steam_id":76561198276316715,"connected_time":1904000000000,"state":"active","ping":90},{"user_id":814,"name":"deb","steam_id":76561198414336279,"connected_time":2079000000000,"state":"active","ping":54},{"user_id":816,"name":"私は不正行為をしてい","steam_id":76561199465653959,"connected_time":1860000000000,"state":"active","ping":132},{"user_id":820,"name":"StickyWicket","steam_id":76561198000155177,"connected_time":1249000000000,"state":"active","ping":73},{"user_id":821,"name":"looseteeeth","steam_id":76561198978612893,"connected_time":1239000000000,"state":"active","ping":86},{"user_id":841,"name":"Zen","steam_id":76561198181462539,"connected_time":258000000000,"state":"active","ping":87},{"user_id":835,"name":"skittle ducks jr.","steam_id":76561198309823950,"connected_time":719000000000,"state":"active","ping":90},{"user_id":824,"name":"Jones","steam_id":76561198046037216,"connected_time":1122000000000,"state":"active","ping":144},{"user_id":825,"name":"Аркадий","steam_id":76561198983512492,"connected_time":1115000000000,"state":"active","ping":202},{"user_id":827,"name":"AstroKrab","steam_id":76561198201923627,"connected_time":1033000000000,"state":"active","ping":99},{"user_id":842,"name":"SGT Disoriented","steam_id":76561198058177958,"connected_time":55000000000,"state":"active","ping":59},{"user_id":836,"name":"tyg","steam_id":76561198056246867,"connected_time":714000000000,"state":"active","ping":90},{"user_id":830,"name":"joolia","steam_id":76561198038550242,"connected_time":895000000000,"state":"active","ping":76},{"user_id":831,"name":"Sed","steam_id":76561198069672030,"connected_time":885000000000,"state":"active","ping":63},{"user_id":832,"name":"yayyy pinkie pie!!!!!","steam_id":76561198112280846,"connected_time":873000000000,"state":"active","ping":76},{"user_id":834,"name":"Mario","steam_id":76561198321794277,"connected_time":780000000000,"state":"active","ping":105},{"user_id":837,"name":"Commie","steam_id":76561198149370115,"connected_time":714000000000,"state":"active","ping":70},{"user_id":838,"name":"FLASH ASSANOVA","steam_id":76561197996266992,"connected_time":712000000000,"state":"active","ping":65},{"user_id":839,"name":"PolyGarrett","steam_id":76561198149683308,"connected_time":635000000000,"state":"active","ping":65},{"user_id":840,"name":"1st Lt. Paraphernalia","steam_id":76561198352544325,"connected_time":627000000000,"state":"active","ping":76}]},{"server_id":108,"name":"Uncletopia | Dallas | 2 | All Maps","name_short":"dal-2","host":"dal-1.us.uncletopia.com","port":27025,"enabled":true,"region":"us-central","cc":"us","latitude":32.779167,"longitude":-96.80889,"reserved":0,"last_update":"0001-01-01T00:00:00Z","name_a2s":"Uncletopia | Dallas | 2 | All Maps","protocol":17,"map":"pl_pier","folder":"tf","game":"Team Fortress","app_id":440,"player_count":0,"max_players":24,"Bots":0,"server_type":"Dedicated","server_os":"Linux","password":true,"vac":true,"version":"7757534","steam_id":85568392924469988,"keywords":["nocrits","nodmgspread","payload","uncletopia"],"game_id":440,"stv_port":27026,"stv_name":"Uncletopia | Dallas | 2 | All Maps | STV","players":null},{"server_id":5,"name":"Uncletopia | Frankfurt | 1 | All Maps","name_short":"frk-1","host":"frk-1.de.uncletopia.com","port":27015,"enabled":true,"region":"eu","cc":"de","latitude":50.110924,"longitude":8.682127,"reserved":0,"last_update":"0001-01-01T00:00:00Z","name_a2s":"Uncletopia | Frankfurt | 1 | All Maps","protocol":17,"map":"cp_snakewater_final1","folder":"tf","game":"Team Fortress","app_id":440,"player_count":0,"max_players":24,"Bots":0,"server_type":"Dedicated","server_os":"Linux","password":true,"vac":true,"version":"7757534","steam_id":85568392924469989,"keywords":["cp","nocrits","nodmgspread","uncletopia"],"game_id":440,"stv_port":27016,"stv_name":"Uncletopia | Frankfurt | 1 | All Maps | STV","players":null},{"server_id":110,"name":"Uncletopia | Frankfurt | 2 | All Maps","name_short":"frk-2","host":"frk-1.de.uncletopia.com","port":27025,"enabled":true,"region":"eu","cc":"de","latitude":50.110924,"longitude":8.682127,"reserved":0,"last_update":"0001-01-01T00:00:00Z","name_a2s":"Uncletopia | Frankfurt | 2 | All Maps","protocol":17,"map":"cp_snakewater_final1","folder":"tf","game":"Team Fortress","app_id":440,"player_count":0,"max_players":24,"Bots":0,"server_type":"Dedicated","server_os":"Linux","password":true,"vac":true,"version":"7757534","steam_id":85568392924469990,"keywords":["cp","nocrits","nodmgspread","uncletopia"],"game_id":440,"stv_port":27026,"stv_name":"Uncletopia | Frankfurt | 2 | All Maps | STV","players":null},{"server_id":308,"name":"Uncletopia | Frankfurt | 3 | All Maps","name_short":"frk-3","host":"frk-1.de.uncletopia.com","port":27035,"enabled":true,"region":"eu","cc":"de","latitude":50.110924,"longitude":8.682127,"reserved":0,"last_update":"0001-01-01T00:00:00Z","name_a2s":"Uncletopia | Frankfurt | 3 | All Maps","protocol":17,"map":"pl_swiftwater_final1","folder":"tf","game":"Team Fortress","app_id":440,"player_count":0,"max_players":24,"Bots":0,"server_type":"Dedicated","server_os":"Linux","password":true,"vac":true,"version":"7757534","steam_id":85568392924504274,"keywords":["nocrits","nodmgspread","payload","uncletopia"],"game_id":440,"stv_port":27036,"stv_name":"Uncletopia | Frankfurt | 3 | All Maps | STV","players":null},{"server_id":309,"name":"Uncletopia | Frankfurt | 4 | All Maps","name_short":"frk-4","host":"frk-1.de.uncletopia.com","port":27045,"enabled":true,"region":"eu","cc":"de","latitude":50.110924,"longitude":8.682127,"reserved":0,"last_update":"0001-01-01T00:00:00Z","name_a2s":"Uncletopia | Frankfurt | 4 | All Maps","protocol":17,"map":"koth_viaduct","folder":"tf","game":"Team Fortress","app_id":440,"player_count":0,"max_players":24,"Bots":0,"server_type":"Dedicated","server_os":"Linux","password":true,"vac":true,"version":"7757534","steam_id":85568392924504275,"keywords":["cp","nocrits","nodmgspread","uncletopia"],"game_id":440,"stv_port":27046,"stv_name":"Uncletopia | Frankfurt | 4 | All Maps | STV","players":null},{"server_id":310,"name":"Uncletopia | Frankfurt | 5 | All Maps","name_short":"frk-5","host":"frk-1.de.uncletopia.com","port":27055,"enabled":true,"region":"eu","cc":"de","latitude":50.110924,"longitude":8.682127,"reserved":0,"last_update":"0001-01-01T00:00:00Z","name_a2s":"Uncletopia | Frankfurt | 5 | All Maps","protocol":17,"map":"koth_lakeside_final","folder":"tf","game":"Team Fortress","app_id":440,"player_count":0,"max_players":24,"Bots":0,"server_type":"Dedicated","server_os":"Linux","password":true,"vac":true,"version":"7757534","steam_id":85568392924504277,"keywords":["cp","nocrits","nodmgspread","uncletopia"],"game_id":440,"stv_port":27056,"stv_name":"Uncletopia | Frankfurt | 5 | All Maps | STV","players":null},{"server_id":311,"name":"Uncletopia | Frankfurt | 6 | All Maps","name_short":"frk-6","host":"frk-1.de.uncletopia.com","port":27065,"enabled":true,"region":"eu","cc":"de","latitude":50.110924,"longitude":8.682127,"reserved":0,"last_update":"0001-01-01T00:00:00Z","name_a2s":"Uncletopia | Frankfurt | 6 | All Maps","protocol":17,"map":"pl_frontier_final","folder":"tf","game":"Team Fortress","app_id":440,"player_count":0,"max_players":24,"Bots":0,"server_type":"Dedicated","server_os":"Linux","password":true,"vac":true,"version":"7757534","steam_id":85568392924504278,"keywords":["nocrits","nodmgspread","payload","uncletopia"],"game_id":440,"stv_port":27066,"stv_name":"Uncletopia | Frankfurt | 6 | All Maps | STV","players":null},{"server_id":23,"name":"Uncletopia | Frankfurt | 7 | Stopwatch Beta","name_short":"frk-7","host":"frk-1.de.uncletopia.com","port":27075,"enabled":true,"region":"eu","cc":"de","latitude":50.110924,"longitude":8.682127,"reserved":0,"last_update":"0001-01-01T00:00:00Z","name_a2s":"Uncletopia | Frankfurt | 7 | Stopwatch Beta","protocol":17,"map":"cp_sunshine","folder":"tf","game":"Team Fortress","app_id":440,"player_count":0,"max_players":24,"Bots":0,"server_type":"Dedicated","server_os":"Linux","password":true,"vac":true,"version":"7757534","steam_id":85568392924742827,"keywords":["cp","nocrits","nodmgspread","uncletopia"],"game_id":440,"stv_port":27076,"stv_name":"Uncletopia | Frankfurt | 7 | Stopwatch Beta | STV","players":null},{"server_id":24,"name":"Uncletopia | Frankfurt | 8 | Community","name_short":"frk-8","host":"frk-1.de.uncletopia.com","port":27085,"enabled":true,"region":"eu","cc":"de","latitude":50.110924,"longitude":8.682127,"reserved":0,"last_update":"0001-01-01T00:00:00Z","name_a2s":"Uncletopia | Frankfurt | 8 | Community","protocol":17,"map":"koth_lakeside_final","folder":"tf","game":"Team Fortress","app_id":440,"player_count":0,"max_players":24,"Bots":0,"server_type":"Dedicated","server_os":"Linux","password":true,"vac":true,"version":"7757534","steam_id":85568392924742828,"keywords":["cp","nocrits","nodmgspread","uncletopia"],"game_id":440,"stv_port":27086,"stv_name":"Uncletopia | Frankfurt | 8 | Community | STV","players":null},{"server_id":202,"name":"Uncletopia | Hong Kong | 1 | All Maps","name_short":"hgk-1","host":"hgk-1.hk.uncletopia.com","port":27015,"enabled":true,"region":"asia","cc":"hk","latitude":22.302711,"longitude":114.177216,"reserved":0,"last_update":"0001-01-01T00:00:00Z","name_a2s":"Uncletopia | Hong Kong | 1 | All Maps","protocol":17,"map":"pl_upward","folder":"tf","game":"Team Fortress","app_id":440,"player_count":21,"max_players":24,"Bots":0,"server_type":"Dedicated","server_os":"Linux","password":true,"vac":true,"version":"7757534","steam_id":85568392924494504,"keywords":["nocrits","nodmgspread","payload","uncletopia"],"game_id":440,"stv_port":27016,"stv_name":"Uncletopia | Hong Kong | 1 | All Maps | STV","players":[{"user_id":153,"name":"Pyro","steam_id":76561198144194541,"connected_time":374000000000,"state":"active","ping":108},{"user_id":154,"name":"쿠키","steam_id":76561197997220367,"connected_time":292000000000,"state":"active","ping":41},{"user_id":118,"name":"RP birdzz","steam_id":76561198318077734,"connected_time":2762000000000,"state":"active","ping":60},{"user_id":96,"name":"i saved my fart for lunch","steam_id":76561199146847474,"connected_time":4477000000000,"state":"active","ping":63},{"user_id":140,"name":"Nebula","steam_id":76561198431725617,"connected_time":1057000000000,"state":"active","ping":61},{"user_id":155,"name":"Corn_Archer","steam_id":76561199185044554,"connected_time":196000000000,"state":"active","ping":96},{"user_id":146,"name":"Chiang1223","steam_id":76561198190212969,"connected_time":773000000000,"state":"active","ping":55},{"user_id":112,"name":"pincat","steam_id":76561198878176849,"connected_time":2923000000000,"state":"active","ping":90},{"user_id":121,"name":"malas solat","steam_id":76561198154470283,"connected_time":2065000000000,"state":"active","ping":84},{"user_id":141,"name":"ArcticDolphin","steam_id":76561198203626319,"connected_time":951000000000,"state":"active","ping":136},{"user_id":147,"name":"5525tpp","steam_id":76561198990192805,"connected_time":688000000000,"state":"active","ping":84},{"user_id":148,"name":"wombatrat","steam_id":76561199375834537,"connected_time":642000000000,"state":"active","ping":69},{"user_id":132,"name":"braces","steam_id":76561198812686396,"connected_time":1834000000000,"state":"active","ping":67},{"user_id":70,"name":":uroSmonk:","steam_id":76561198074339034,"connected_time":7530000000000,"state":"active","ping":73},{"user_id":149,"name":"silverhouse7","steam_id":76561198349634906,"connected_time":562000000000,"state":"active","ping":62},{"user_id":137,"name":"water tastes good","steam_id":76561199375947670,"connected_time":1419000000000,"state":"active","ping":67},{"user_id":120,"name":"17","steam_id":76561198241530712,"connected_time":2611000000000,"state":"active","ping":59},{"user_id":144,"name":"affnine","steam_id":76561199096847066,"connected_time":935000000000,"state":"active","ping":90},{"user_id":134,"name":"Kek","steam_id":76561199004616229,"connected_time":1683000000000,"state":"active","ping":103},{"user_id":150,"name":"Cube","steam_id":76561199165729667,"connected_time":523000000000,"state":"active","ping":150},{"user_id":104,"name":"Xx_EpicTrickstabber_xX","steam_id":76561199024960087,"connected_time":3980000000000,"state":"active","ping":59}]},{"server_id":1,"name":"Uncletopia | Los Angeles | 1 | All Maps","name_short":"lax-1","host":"lax-1.us.uncletopia.com","port":27015,"enabled":true,"region":"us-west","cc":"us","latitude":33.94279,"longitude":-118.41004,"reserved":0,"last_update":"0001-01-01T00:00:00Z","name_a2s":"Uncletopia | Los Angeles | 1 | All Maps","protocol":17,"map":"pl_borneo","folder":"tf","game":"Team Fortress","app_id":440,"player_count":0,"max_players":24,"Bots":0,"server_type":"Dedicated","server_os":"Linux","password":true,"vac":true,"version":"7757534","steam_id":85568392924469991,"keywords":["nocrits","nodmgspread","payload","uncletopia"],"game_id":440,"stv_port":27016,"stv_name":"Uncletopia | Los Angeles | 1 | All Maps | STV","players":null},{"server_id":112,"name":"Uncletopia | Los Angeles | 2 | All Maps","name_short":"lax-2","host":"lax-1.us.uncletopia.com","port":27025,"enabled":true,"region":"us-west","cc":"us","latitude":33.94279,"longitude":-118.41004,"reserved":0,"last_update":"0001-01-01T00:00:00Z","name_a2s":"Uncletopia | Los Angeles | 2 | All Maps","protocol":17,"map":"pl_pier","folder":"tf","game":"Team Fortress","app_id":440,"player_count":2,"max_players":24,"Bots":0,"server_type":"Dedicated","server_os":"Linux","password":true,"vac":true,"version":"7757534","steam_id":85568392924469992,"keywords":["nocrits","nodmgspread","payload","uncletopia"],"game_id":440,"stv_port":27026,"stv_name":"Uncletopia | Los Angeles | 2 | All Maps | STV","players":[{"user_id":528,"name":"Raizen","steam_id":76561199092445367,"connected_time":1279000000000,"state":"active","ping":103},{"user_id":459,"name":"Pudsla","steam_id":76561198258974036,"connected_time":4999000000000,"state":"active","ping":59}]},{"server_id":324,"name":"Uncletopia | Los Angeles | 3 | All Maps","name_short":"lax-3","host":"lax-1.us.uncletopia.com","port":27035,"enabled":true,"region":"us-west","cc":"us","latitude":33.94279,"longitude":-118.41004,"reserved":0,"last_update":"0001-01-01T00:00:00Z","name_a2s":"Uncletopia | Los Angeles | 3 | All Maps","protocol":17,"map":"cp_dustbowl","folder":"tf","game":"Team Fortress","app_id":440,"player_count":0,"max_players":24,"Bots":0,"server_type":"Dedicated","server_os":"Linux","password":true,"vac":true,"version":"7757534","steam_id":85568392924510198,"keywords":["cp","nocrits","nodmgspread","uncletopia"],"game_id":440,"stv_port":27036,"stv_name":"Uncletopia | Los Angeles | 3 | All Maps | STV","players":null},{"server_id":25,"name":"Uncletopia | Los Angeles | 4 | Stopwatch Beta","name_short":"lax-4","host":"lax-1.us.uncletopia.com","port":27045,"enabled":true,"region":"us-west","cc":"us","latitude":33.94279,"longitude":-118.41004,"reserved":0,"last_update":"0001-01-01T00:00:00Z","name_a2s":"Uncletopia | Los Angeles | 4 | Stopwatch Beta","protocol":17,"map":"pl_swiftwater_final1","folder":"tf","game":"Team Fortress","app_id":440,"player_count":0,"max_players":24,"Bots":0,"server_type":"Dedicated","server_os":"Linux","password":true,"vac":true,"version":"7757534","steam_id":85568392924510199,"keywords":["nocrits","nodmgspread","payload","uncletopia"],"game_id":440,"stv_port":27046,"stv_name":"Uncletopia | Los Angeles | 4 | Stopwatch Beta | STV","players":null},{"server_id":11,"name":"Uncletopia | London | 1 | All Maps","name_short":"lon-1","host":"lon-1.uk.uncletopia.com","port":27015,"enabled":true,"region":"eu","cc":"gb","latitude":51.509865,"longitude":-0.118092,"reserved":0,"last_update":"0001-01-01T00:00:00Z","name_a2s":"Uncletopia | London | 1 | All Maps","protocol":17,"map":"koth_highpass","folder":"tf","game":"Team Fortress","app_id":440,"player_count":24,"max_players":24,"Bots":0,"server_type":"Dedicated","server_os":"Linux","password":true,"vac":true,"version":"7757534","steam_id":85568392924367362,"keywords":["cp","nocrits","nodmgspread","uncletopia"],"game_id":440,"stv_port":27016,"stv_name":"Uncletopia | London | 1 | All Maps | STV","players":[{"user_id":219,"name":"MinecraftGayLord2012","steam_id":76561198994935701,"connected_time":414000000000,"state":"active","ping":61},{"user_id":210,"name":"jack53","steam_id":76561198821002160,"connected_time":1050000000000,"state":"active","ping":71},{"user_id":200,"name":"Gabe","steam_id":76561197994239444,"connected_time":1398000000000,"state":"active","ping":113},{"user_id":220,"name":"Hank Schrader","steam_id":76561198055703974,"connected_time":292000000000,"state":"active","ping":77},{"user_id":223,"name":"Twinkle","steam_id":76561197995579716,"connected_time":64000000000,"state":"active","ping":46},{"user_id":204,"name":"Someone","steam_id":76561199030195879,"connected_time":1227000000000,"state":"active","ping":51},{"user_id":201,"name":"maerd.","steam_id":76561198031942623,"connected_time":1370000000000,"state":"active","ping":84},{"user_id":202,"name":"leminsc8","steam_id":76561198825084995,"connected_time":1310000000000,"state":"active","ping":53},{"user_id":186,"name":"Rolloden","steam_id":76561198069414404,"connected_time":2539000000000,"state":"active","ping":73},{"user_id":195,"name":"Vitamin Weee","steam_id":76561199183937747,"connected_time":1520000000000,"state":"active","ping":89},{"user_id":131,"name":"A stripper","steam_id":76561198034865891,"connected_time":6267000000000,"state":"active","ping":60},{"user_id":191,"name":"Tammi","steam_id":76561199480009781,"connected_time":1717000000000,"state":"active","ping":139},{"user_id":218,"name":"bum","steam_id":76561198060105180,"connected_time":509000000000,"state":"active","ping":76},{"user_id":209,"name":"Yuzu","steam_id":76561198121694613,"connected_time":1133000000000,"state":"active","ping":47},{"user_id":215,"name":"Drewbinz[Ow]","steam_id":76561197983576789,"connected_time":739000000000,"state":"active","ping":81},{"user_id":222,"name":"Son Goku","steam_id":76561199383437138,"connected_time":110000000000,"state":"active","ping":115},{"user_id":206,"name":"princess dvs","steam_id":76561198012901314,"connected_time":1210000000000,"state":"active","ping":98},{"user_id":214,"name":"peruna","steam_id":76561198000721196,"connected_time":763000000000,"state":"active","ping":75},{"user_id":187,"name":"Joro_Kudo","steam_id":76561198954912403,"connected_time":2538000000000,"state":"active","ping":74},{"user_id":179,"name":"øpossum","steam_id":76561198056152479,"connected_time":2811000000000,"state":"active","ping":34},{"user_id":213,"name":"Labial","steam_id":76561198385163046,"connected_time":810000000000,"state":"active","ping":40},{"user_id":216,"name":"it is what it is","steam_id":76561198255357694,"connected_time":663000000000,"state":"active","ping":90},{"user_id":142,"name":"Minecraftamere","steam_id":76561198045358081,"connected_time":5675000000000,"state":"active","ping":62},{"user_id":194,"name":"Marchioly","steam_id":76561198335079215,"connected_time":1631000000000,"state":"active","ping":119}]},{"server_id":114,"name":"Uncletopia | London | 2 | All Maps","name_short":"lon-2","host":"lon-1.uk.uncletopia.com","port":27025,"enabled":true,"region":"eu","cc":"gb","latitude":51.509865,"longitude":-0.118092,"reserved":0,"last_update":"0001-01-01T00:00:00Z","name_a2s":"Uncletopia | London | 2 | All Maps","protocol":17,"map":"koth_viaduct","folder":"tf","game":"Team Fortress","app_id":440,"player_count":0,"max_players":24,"Bots":0,"server_type":"Dedicated","server_os":"Linux","password":true,"vac":true,"version":"7757534","steam_id":85568392924470941,"keywords":["cp","nocrits","nodmgspread","uncletopia"],"game_id":440,"stv_port":27026,"stv_name":"Uncletopia | London | 2 | All Maps | STV","players":null},{"server_id":320,"name":"Uncletopia | London | 3 | All Maps","name_short":"lon-3","host":"lon-1.uk.uncletopia.com","port":27035,"enabled":true,"region":"eu","cc":"gb","latitude":51.509865,"longitude":-0.118092,"reserved":0,"last_update":"0001-01-01T00:00:00Z","name_a2s":"Uncletopia | London | 3 | All Maps","protocol":17,"map":"cp_dustbowl","folder":"tf","game":"Team Fortress","app_id":440,"player_count":0,"max_players":24,"Bots":0,"server_type":"Dedicated","server_os":"Linux","password":true,"vac":true,"version":"7757534","steam_id":85568392924510192,"keywords":["cp","nocrits","nodmgspread","uncletopia"],"game_id":440,"stv_port":27036,"stv_name":"Uncletopia | London | 3 | All Maps | STV","players":null},{"server_id":321,"name":"Uncletopia | London | 4 | All Maps","name_short":"lon-4","host":"lon-1.uk.uncletopia.com","port":27045,"enabled":true,"region":"eu","cc":"gb","latitude":51.509865,"longitude":-0.118092,"reserved":0,"last_update":"0001-01-01T00:00:00Z","name_a2s":"Uncletopia | London | 4 | All Maps","protocol":17,"map":"cp_dustbowl","folder":"tf","game":"Team Fortress","app_id":440,"player_count":0,"max_players":24,"Bots":0,"server_type":"Dedicated","server_os":"Linux","password":true,"vac":true,"version":"7757534","steam_id":85568392924510193,"keywords":["cp","nocrits","nodmgspread","uncletopia"],"game_id":440,"stv_port":27046,"stv_name":"Uncletopia | London | 4 | All Maps | STV","players":null},{"server_id":21,"name":"Uncletopia | London | 5 | All Maps","name_short":"lon-5","host":"lon-1.uk.uncletopia.com","port":27055,"enabled":true,"region":"eu","cc":"gb","latitude":51.509865,"longitude":-0.118092,"reserved":0,"last_update":"0001-01-01T00:00:00Z","name_a2s":"Uncletopia | London | 5 | All Maps","protocol":17,"map":"cp_altitude","folder":"tf","game":"Team Fortress","app_id":440,"player_count":0,"max_players":24,"Bots":0,"server_type":"Dedicated","server_os":"Linux","password":true,"vac":true,"version":"7757534","steam_id":85568392924742829,"keywords":["cp","nocrits","nodmgspread","uncletopia"],"game_id":440,"stv_port":27056,"stv_name":"Uncletopia | London | 5 | All Maps | STV","players":null},{"server_id":22,"name":"Uncletopia | London | 6 | All Maps","name_short":"lon-6","host":"lon-1.uk.uncletopia.com","port":27065,"enabled":true,"region":"eu","cc":"gb","latitude":51.509865,"longitude":-0.118092,"reserved":0,"last_update":"0001-01-01T00:00:00Z","name_a2s":"Uncletopia | London | 6 | All Maps","protocol":17,"map":"pl_pier","folder":"tf","game":"Team Fortress","app_id":440,"player_count":9,"max_players":24,"Bots":0,"server_type":"Dedicated","server_os":"Linux","password":true,"vac":true,"version":"7757534","steam_id":85568392924742830,"keywords":["nocrits","nodmgspread","payload","uncletopia"],"game_id":440,"stv_port":27066,"stv_name":"Uncletopia | London | 6 | All Maps | STV","players":[{"user_id":17,"name":"Uncle Terry","steam_id":76561198396415736,"connected_time":181000000000,"state":"active","ping":50},{"user_id":18,"name":"Shynii","steam_id":76561198194682105,"connected_time":168000000000,"state":"active","ping":55},{"user_id":6,"name":"MAKENTAKEN","steam_id":76561199127359587,"connected_time":1882000000000,"state":"active","ping":100},{"user_id":16,"name":"jonbob","steam_id":76561197963506620,"connected_time":586000000000,"state":"active","ping":57},{"user_id":8,"name":"Perci","steam_id":76561198097789669,"connected_time":1766000000000,"state":"active","ping":66},{"user_id":10,"name":"uncle dnae","steam_id":76561199184000174,"connected_time":1693000000000,"state":"active","ping":61},{"user_id":11,"name":"senior pomidor","steam_id":76561198123659806,"connected_time":1293000000000,"state":"active","ping":93},{"user_id":19,"name":"タレクインニット","steam_id":76561198298618127,"connected_time":68000000000,"state":"active","ping":56},{"user_id":20,"name":"Furno","steam_id":76561197999723047,"connected_time":1000000000,"state":"spawning","ping":156}]},{"server_id":40,"name":"Uncletopia | London | 7 | No Payload","name_short":"lon-7","host":"lon-1.uk.uncletopia.com","port":27075,"enabled":true,"region":"eu","cc":"gb","latitude":51.509865,"longitude":-0.118092,"reserved":0,"last_update":"0001-01-01T00:00:00Z","name_a2s":"Uncletopia | London | 7 | No Payload","protocol":17,"map":"pl_badwater","folder":"tf","game":"Team Fortress","app_id":440,"player_count":0,"max_players":24,"Bots":0,"server_type":"Dedicated","server_os":"Linux","password":true,"vac":true,"version":"7757534","steam_id":85568392924964314,"keywords":["nocrits","nodmgspread","payload","uncletopia"],"game_id":440,"stv_port":27076,"stv_name":"Uncletopia | London | 7 | No Payload | STV","players":null},{"server_id":41,"name":"Uncletopia | London | 8 | Community","name_short":"lon-8","host":"lon-1.uk.uncletopia.com","port":27085,"enabled":true,"region":"eu","cc":"gb","latitude":51.509865,"longitude":-0.118092,"reserved":0,"last_update":"0001-01-01T00:00:00Z","name_a2s":"Uncletopia | London | 8 | Community","protocol":17,"map":"pl_barnblitz","folder":"tf","game":"Team Fortress","app_id":440,"player_count":0,"max_players":24,"Bots":0,"server_type":"Dedicated","server_os":"Linux","password":true,"vac":true,"version":"7757534","steam_id":85568392924964315,"keywords":["nocrits","nodmgspread","payload","uncletopia"],"game_id":440,"stv_port":27086,"stv_name":"Uncletopia | London | 8 | Community | STV","players":null},{"server_id":300,"name":"Uncletopia | Montréal | 1 | All Maps","name_short":"mtl-1","host":"mtl-1.ca.uncletopia.com","port":27015,"enabled":true,"region":"us-east","cc":"ca","latitude":45.50889,"longitude":-73.56167,"reserved":0,"last_update":"0001-01-01T00:00:00Z","name_a2s":"Uncletopia | Montréal | 1 | All Maps","protocol":17,"map":"koth_viaduct","folder":"tf","game":"Team Fortress","app_id":440,"player_count":0,"max_players":24,"Bots":0,"server_type":"Dedicated","server_os":"Linux","password":true,"vac":true,"version":"7757534","steam_id":85568392924500087,"keywords":["cp","nocrits","nodmgspread","uncletopia"],"game_id":440,"stv_port":27016,"stv_name":"Uncletopia | Montréal | 1 | All Maps | STV","players":null},{"server_id":301,"name":"Uncletopia | Montréal | 2 | All Maps","name_short":"mtl-2","host":"mtl-1.ca.uncletopia.com","port":27025,"enabled":true,"region":"us-east","cc":"ca","latitude":45.50889,"longitude":-73.56167,"reserved":0,"last_update":"0001-01-01T00:00:00Z","name_a2s":"Uncletopia | Montréal | 2 | All Maps","protocol":17,"map":"koth_lakeside_final","folder":"tf","game":"Team Fortress","app_id":440,"player_count":0,"max_players":24,"Bots":0,"server_type":"Dedicated","server_os":"Linux","password":true,"vac":true,"version":"7757534","steam_id":85568392924500088,"keywords":["cp","nocrits","nodmgspread","uncletopia"],"game_id":440,"stv_port":27026,"stv_name":"Uncletopia | Montréal | 2 | All Maps | STV","players":null},{"server_id":302,"name":"Uncletopia | Montréal | 3 | All Maps","name_short":"mtl-3","host":"mtl-1.ca.uncletopia.com","port":27035,"enabled":true,"region":"us-east","cc":"ca","latitude":45.50889,"longitude":-73.56167,"reserved":0,"last_update":"0001-01-01T00:00:00Z","name_a2s":"Uncletopia | Montréal | 3 | All Maps","protocol":17,"map":"cp_snakewater_final1","folder":"tf","game":"Team Fortress","app_id":440,"player_count":0,"max_players":24,"Bots":0,"server_type":"Dedicated","server_os":"Linux","password":true,"vac":true,"version":"7757534","steam_id":85568392924500089,"keywords":["cp","nocrits","nodmgspread","uncletopia"],"game_id":440,"stv_port":27036,"stv_name":"Uncletopia | Montréal | 3 | All Maps | STV","players":null},{"server_id":303,"name":"Uncletopia | Montréal | 4 | No Payload","name_short":"mtl-4","host":"mtl-1.ca.uncletopia.com","port":27045,"enabled":true,"region":"us-east","cc":"ca","latitude":45.50889,"longitude":-73.56167,"reserved":0,"last_update":"0001-01-01T00:00:00Z","name_a2s":"Uncletopia | Montréal | 4 | No Payload","protocol":17,"map":"cp_mercenarypark","folder":"tf","game":"Team Fortress","app_id":440,"player_count":0,"max_players":24,"Bots":0,"server_type":"Dedicated","server_os":"Linux","password":true,"vac":true,"version":"7757534","steam_id":85568392924500090,"keywords":["cp","nocrits","nodmgspread","uncletopia"],"game_id":440,"stv_port":27046,"stv_name":"Uncletopia | Montréal | 4 | No Payload | STV","players":null},{"server_id":13,"name":"Uncletopia | New York City | 1 | All Maps","name_short":"nyc-1","host":"nyc-1.us.uncletopia.com","port":27015,"enabled":true,"region":"us-east","cc":"us","latitude":40.73061,"longitude":-73.93524,"reserved":0,"last_update":"0001-01-01T00:00:00Z","name_a2s":"Uncletopia | New York City | 1 | All Maps","protocol":17,"map":"cp_sunshine","folder":"tf","game":"Team Fortress","app_id":440,"player_count":0,"max_players":24,"Bots":0,"server_type":"Dedicated","server_os":"Linux","password":true,"vac":true,"version":"7757534","steam_id":85568392924469993,"keywords":["cp","nocrits","nodmgspread","uncletopia"],"game_id":440,"stv_port":27016,"stv_name":"Uncletopia | New York City | 1 | All Maps | STV","players":null},{"server_id":14,"name":"Uncletopia | New York City | 2 | All Maps","name_short":"nyc-2","host":"nyc-1.us.uncletopia.com","port":27025,"enabled":true,"region":"us-east","cc":"us","latitude":40.73061,"longitude":-73.93524,"reserved":0,"last_update":"0001-01-01T00:00:00Z","name_a2s":"Uncletopia | New York City | 2 | All Maps","protocol":17,"map":"koth_cascade","folder":"tf","game":"Team Fortress","app_id":440,"player_count":0,"max_players":24,"Bots":0,"server_type":"Dedicated","server_os":"Linux","password":true,"vac":true,"version":"7757534","steam_id":85568392924469994,"keywords":["cp","nocrits","nodmgspread","uncletopia"],"game_id":440,"stv_port":27026,"stv_name":"Uncletopia | New York City | 2 | All Maps | STV","players":null},{"server_id":15,"name":"Uncletopia | New York City | 3 | Stopwatch Beta","name_short":"nyc-3","host":"nyc-1.us.uncletopia.com","port":27035,"enabled":true,"region":"us-east","cc":"us","latitude":40.73061,"longitude":-73.93524,"reserved":0,"last_update":"0001-01-01T00:00:00Z","name_a2s":"Uncletopia | New York City | 3 | Stopwatch Beta","protocol":17,"map":"pl_upward","folder":"tf","game":"Team Fortress","app_id":440,"player_count":0,"max_players":24,"Bots":0,"server_type":"Dedicated","server_os":"Linux","password":true,"vac":true,"version":"7757534","steam_id":85568392924742820,"keywords":["nocrits","nodmgspread","payload","uncletopia"],"game_id":440,"stv_port":27036,"stv_name":"Uncletopia | New York City | 3 | Stopwatch Beta | STV","players":null},{"server_id":16,"name":"Uncletopia | New York City | 4 | Community","name_short":"nyc-4","host":"nyc-1.us.uncletopia.com","port":27045,"enabled":true,"region":"us-east","cc":"us","latitude":40.73061,"longitude":-73.93524,"reserved":0,"last_update":"0001-01-01T00:00:00Z","name_a2s":"Uncletopia | New York City | 4 | Community","protocol":17,"map":"workshop/cp_fulgur_rc2a.ugc2068252300","folder":"tf","game":"Team Fortress","app_id":440,"player_count":0,"max_players":24,"Bots":0,"server_type":"Dedicated","server_os":"Linux","password":true,"vac":true,"version":"7757534","steam_id":85568392924742821,"keywords":["cp","nocrits","nodmgspread","uncletopia"],"game_id":440,"stv_port":27046,"stv_name":"Uncletopia | New York City | 4 | Community | STV","players":null},{"server_id":142,"name":"Uncletopia | São Paulo | 1 | All Maps","name_short":"sao-1","host":"sao-1.br.uncletopia.com","port":27015,"enabled":true,"region":"sa","cc":"br","latitude":-23.533773,"longitude":-46.62529,"reserved":0,"last_update":"0001-01-01T00:00:00Z","name_a2s":"Uncletopia | São Paulo | 1 | All Maps","protocol":17,"map":"koth_lakeside_final","folder":"tf","game":"Team Fortress","app_id":440,"player_count":0,"max_players":24,"Bots":0,"server_type":"Dedicated","server_os":"Linux","password":true,"vac":true,"version":"7757534","steam_id":85568392924469996,"keywords":["cp","nocrits","nodmgspread","uncletopia"],"game_id":440,"stv_port":27016,"stv_name":"Uncletopia | São Paulo | 1 | All Maps | STV","players":null},{"server_id":143,"name":"Uncletopia | São Paulo | 2 | All Maps","name_short":"sao-2","host":"sao-2.br.uncletopia.com","port":27015,"enabled":true,"region":"sa","cc":"br","latitude":-23.533773,"longitude":-46.62529,"reserved":0,"last_update":"0001-01-01T00:00:00Z","name_a2s":"Uncletopia | São Paulo | 2 | All Maps","protocol":17,"map":"pl_borneo","folder":"tf","game":"Team Fortress","app_id":440,"player_count":0,"max_players":24,"Bots":0,"server_type":"Dedicated","server_os":"Linux","password":true,"vac":true,"version":"7757534","steam_id":85568392924485349,"keywords":["nocrits","nodmgspread","payload","uncletopia"],"game_id":440,"stv_port":27016,"stv_name":"Uncletopia | São Paulo | 2 | All Maps | STV","players":null},{"server_id":7,"name":"Uncletopia | Seattle | 1 | All Maps","name_short":"sea-1","host":"sea-1.us.uncletopia.com","port":27015,"enabled":true,"region":"us-west","cc":"us","latitude":47.608013,"longitude":-122.33517,"reserved":0,"last_update":"0001-01-01T00:00:00Z","name_a2s":"Uncletopia | Seattle | 1 | All Maps","protocol":17,"map":"pl_badwater","folder":"tf","game":"Team Fortress","app_id":440,"player_count":24,"max_players":24,"Bots":0,"server_type":"Dedicated","server_os":"Linux","password":true,"vac":true,"version":"7757534","steam_id":85568392924469997,"keywords":["nocrits","nodmgspread","payload","uncletopia"],"game_id":440,"stv_port":27016,"stv_name":"Uncletopia | Seattle | 1 | All Maps | STV","players":[{"user_id":719,"name":"Pineapple Pizza","steam_id":76561197997233176,"connected_time":1732000000000,"state":"active","ping":132},{"user_id":720,"name":"TrueCharles","steam_id":76561198431098809,"connected_time":1630000000000,"state":"active","ping":96},{"user_id":739,"name":"Spoofle","steam_id":76561199003655066,"connected_time":276000000000,"state":"active","ping":70},{"user_id":730,"name":"R1verz","steam_id":76561198056087178,"connected_time":990000000000,"state":"active","ping":58},{"user_id":740,"name":"HeavenHearst","steam_id":76561198066083947,"connected_time":264000000000,"state":"active","ping":119},{"user_id":677,"name":"Yosh","steam_id":76561198027078899,"connected_time":5278000000000,"state":"active","ping":76},{"user_id":724,"name":"H0wlr","steam_id":76561198012332824,"connected_time":1564000000000,"state":"active","ping":108},{"user_id":699,"name":"seve pick up the phone!","steam_id":76561197974470963,"connected_time":3361000000000,"state":"active","ping":109},{"user_id":738,"name":"Shorty","steam_id":76561198308680974,"connected_time":377000000000,"state":"active","ping":96},{"user_id":716,"name":"big vro","steam_id":76561197998911283,"connected_time":1744000000000,"state":"active","ping":116},{"user_id":707,"name":"ttv/californjoe","steam_id":76561197965047795,"connected_time":2191000000000,"state":"active","ping":81},{"user_id":709,"name":"TheGreatDong","steam_id":76561198000634178,"connected_time":2160000000000,"state":"active","ping":61},{"user_id":741,"name":"TheSquirrelofHuscurl","steam_id":76561198073379623,"connected_time":252000000000,"state":"active","ping":141},{"user_id":737,"name":"muffinman12126","steam_id":76561199471924109,"connected_time":467000000000,"state":"active","ping":65},{"user_id":742,"name":"TravelingBard","steam_id":76561198810150790,"connected_time":228000000000,"state":"active","ping":69},{"user_id":743,"name":"CaptnKiddd","steam_id":76561199012716207,"connected_time":209000000000,"state":"active","ping":79},{"user_id":726,"name":"minerkid2004","steam_id":76561198044262827,"connected_time":1520000000000,"state":"active","ping":72},{"user_id":744,"name":"0","steam_id":76561198046065237,"connected_time":168000000000,"state":"active","ping":111},{"user_id":727,"name":"177013","steam_id":76561198072303290,"connected_time":1509000000000,"state":"active","ping":121},{"user_id":684,"name":"smeasly","steam_id":76561198028718812,"connected_time":4658000000000,"state":"active","ping":45},{"user_id":733,"name":"[BBC] myr","steam_id":76561198200786939,"connected_time":866000000000,"state":"active","ping":45},{"user_id":746,"name":"touka","steam_id":76561198171521806,"connected_time":19000000000,"state":"active","ping":71},{"user_id":603,"name":"gorlab","steam_id":76561198025089694,"connected_time":10829000000000,"state":"active","ping":60},{"user_id":714,"name":"Heiv","steam_id":76561198355613063,"connected_time":2022000000000,"state":"active","ping":144}]},{"server_id":119,"name":"Uncletopia | Seattle | 2 | All Maps","name_short":"sea-2","host":"sea-1.us.uncletopia.com","port":27025,"enabled":true,"region":"us-west","cc":"us","latitude":47.608013,"longitude":-122.33517,"reserved":0,"last_update":"0001-01-01T00:00:00Z","name_a2s":"Uncletopia | Seattle | 2 | All Maps","protocol":17,"map":"pl_pier","folder":"tf","game":"Team Fortress","app_id":440,"player_count":23,"max_players":24,"Bots":0,"server_type":"Dedicated","server_os":"Linux","password":true,"vac":true,"version":"7757534","steam_id":85568392924469998,"keywords":["nocrits","nodmgspread","payload","uncletopia"],"game_id":440,"stv_port":27026,"stv_name":"Uncletopia | Seattle | 2 | All Maps | STV","players":[{"user_id":952,"name":"One Horned Bitch Destroyer","steam_id":76561198045810191,"connected_time":916000000000,"state":"active","ping":41},{"user_id":954,"name":"Motivational Man","steam_id":76561198414889101,"connected_time":855000000000,"state":"active","ping":120},{"user_id":951,"name":"HeroRareheart (she/her)","steam_id":76561198130745550,"connected_time":929000000000,"state":"active","ping":116},{"user_id":927,"name":"Jumbletoon","steam_id":76561198021351865,"connected_time":2063000000000,"state":"active","ping":56},{"user_id":960,"name":"Vem","steam_id":76561198117273112,"connected_time":481000000000,"state":"active","ping":119},{"user_id":911,"name":"Goblin Mode","steam_id":76561198064870076,"connected_time":3781000000000,"state":"active","ping":121},{"user_id":955,"name":"O_x","steam_id":76561198289696924,"connected_time":811000000000,"state":"active","ping":63},{"user_id":868,"name":"pineaple","steam_id":76561198119048742,"connected_time":7374000000000,"state":"active","ping":69},{"user_id":948,"name":"luminary","steam_id":76561198126358045,"connected_time":1241000000000,"state":"active","ping":124},{"user_id":953,"name":"Goober","steam_id":76561198931169208,"connected_time":907000000000,"state":"active","ping":72},{"user_id":929,"name":"Ninjia202","steam_id":76561198891979195,"connected_time":1997000000000,"state":"active","ping":62},{"user_id":915,"name":"the forbidden one","steam_id":76561198844273999,"connected_time":3498000000000,"state":"active","ping":43},{"user_id":930,"name":"Fang Lopez","steam_id":76561198141800967,"connected_time":1987000000000,"state":"active","ping":58},{"user_id":931,"name":"jaymae999","steam_id":76561199109286410,"connected_time":1983000000000,"state":"active","ping":128},{"user_id":932,"name":"Cutie Pyro \u003c3","steam_id":76561197997820384,"connected_time":1828000000000,"state":"active","ping":85},{"user_id":938,"name":"lker","steam_id":76561197976975075,"connected_time":1607000000000,"state":"active","ping":104},{"user_id":890,"name":"Alcohol Hominid","steam_id":76561198320313950,"connected_time":5444000000000,"state":"active","ping":111},{"user_id":958,"name":"creepycrawler","steam_id":76561198352016831,"connected_time":761000000000,"state":"active","ping":107},{"user_id":937,"name":"hardfork","steam_id":76561197960958019,"connected_time":1614000000000,"state":"active","ping":49},{"user_id":891,"name":"Chubby Monarch","steam_id":76561198027487285,"connected_time":5440000000000,"state":"active","ping":116},{"user_id":939,"name":"deathstar0611","steam_id":76561198120476410,"connected_time":1598000000000,"state":"active","ping":86},{"user_id":943,"name":"Blue Protogen - 001198","steam_id":76561198145791867,"connected_time":1510000000000,"state":"active","ping":84},{"user_id":964,"name":"reiidaya","steam_id":76561198325306660,"connected_time":275000000000,"state":"active","ping":58}]},{"server_id":406,"name":"Uncletopia | Seattle | 3 | Stopwatch Beta","name_short":"sea-3","host":"sea-1.us.uncletopia.com","port":27035,"enabled":true,"region":"us-west","cc":"us","latitude":47.608013,"longitude":-122.33517,"reserved":0,"last_update":"0001-01-01T00:00:00Z","name_a2s":"Uncletopia | Seattle | 3 | Stopwatch Beta","protocol":17,"map":"workshop/pl_summercoast_rc8e.ugc1761528829","folder":"tf","game":"Team Fortress","app_id":440,"player_count":0,"max_players":24,"Bots":0,"server_type":"Dedicated","server_os":"Linux","password":true,"vac":true,"version":"7757534","steam_id":85568392924515217,"keywords":["nocrits","nodmgspread","payload","uncletopia"],"game_id":440,"stv_port":27036,"stv_name":"Uncletopia | Seattle | 3 | Stopwatch Beta | STV","players":null},{"server_id":17,"name":"Uncletopia | San Francisco | 1 | All Maps","name_short":"sfo-1","host":"sfo-1.us.uncletopia.com","port":27015,"enabled":true,"region":"us-west","cc":"us","latitude":37.77397,"longitude":-122.4313,"reserved":0,"last_update":"0001-01-01T00:00:00Z","name_a2s":"Uncletopia | San Francisco | 1 | All Maps","protocol":17,"map":"koth_viaduct","folder":"tf","game":"Team Fortress","app_id":440,"player_count":2,"max_players":24,"Bots":0,"server_type":"Dedicated","server_os":"Linux","password":true,"vac":true,"version":"7757534","steam_id":85568392924469999,"keywords":["cp","nocrits","nodmgspread","uncletopia"],"game_id":440,"stv_port":27016,"stv_name":"Uncletopia | San Francisco | 1 | All Maps | STV","players":[{"user_id":662,"name":"*eta","steam_id":76561198143209841,"connected_time":250000000000,"state":"active","ping":60},{"user_id":665,"name":"Luv","steam_id":76561199200757524,"connected_time":4000000000,"state":"spawning","ping":62}]},{"server_id":18,"name":"Uncletopia | San Francisco | 2 | All Maps","name_short":"sfo-2","host":"sfo-1.us.uncletopia.com","port":27025,"enabled":true,"region":"us-west","cc":"us","latitude":37.77397,"longitude":-122.4313,"reserved":0,"last_update":"0001-01-01T00:00:00Z","name_a2s":"Uncletopia | San Francisco | 2 | All Maps","protocol":17,"map":"cp_sunshine","folder":"tf","game":"Team Fortress","app_id":440,"player_count":0,"max_players":24,"Bots":0,"server_type":"Dedicated","server_os":"Linux","password":true,"vac":true,"version":"7757534","steam_id":85568392924470000,"keywords":["cp","nocrits","nodmgspread","uncletopia"],"game_id":440,"stv_port":27026,"stv_name":"Uncletopia | San Francisco | 2 | All Maps | STV","players":null},{"server_id":19,"name":"Uncletopia | San Francisco | 3 | Stopwatch Beta","name_short":"sfo-3","host":"sfo-1.us.uncletopia.com","port":27035,"enabled":true,"region":"us-west","cc":"us","latitude":37.77397,"longitude":-122.4313,"reserved":0,"last_update":"0001-01-01T00:00:00Z","name_a2s":"Uncletopia | San Francisco | 3 | Stopwatch Beta","protocol":17,"map":"pl_borneo","folder":"tf","game":"Team Fortress","app_id":440,"player_count":0,"max_players":24,"Bots":0,"server_type":"Dedicated","server_os":"Linux","password":true,"vac":true,"version":"7757534","steam_id":85568392924742824,"keywords":["nocrits","nodmgspread","payload","uncletopia"],"game_id":440,"stv_port":27036,"stv_name":"Uncletopia | San Francisco | 3 | Stopwatch Beta | STV","players":null},{"server_id":20,"name":"Uncletopia | San Francisco | 4 | Community","name_short":"sfo-4","host":"sfo-1.us.uncletopia.com","port":27045,"enabled":true,"region":"us-west","cc":"us","latitude":37.77397,"longitude":-122.4313,"reserved":0,"last_update":"0001-01-01T00:00:00Z","name_a2s":"Uncletopia | San Francisco | 4 | Community","protocol":17,"map":"workshop/cp_snowbase_b18.ugc2081770490","folder":"tf","game":"Team Fortress","app_id":440,"player_count":0,"max_players":24,"Bots":0,"server_type":"Dedicated","server_os":"Linux","password":true,"vac":true,"version":"7757534","steam_id":85568392924742826,"keywords":["cp","nocrits","nodmgspread","uncletopia"],"game_id":440,"stv_port":27046,"stv_name":"Uncletopia | San Francisco | 4 | Community | STV","players":null},{"server_id":141,"name":"Uncletopia | Sydney | 1 | All Maps","name_short":"syd-1","host":"syd-1.au.uncletopia.com","port":27015,"enabled":true,"region":"au","cc":"au","latitude":-33.865143,"longitude":151.2099,"reserved":0,"last_update":"0001-01-01T00:00:00Z","name_a2s":"Uncletopia | Sydney | 1 | All Maps","protocol":17,"map":"koth_viaduct","folder":"tf","game":"Team Fortress","app_id":440,"player_count":0,"max_players":24,"Bots":0,"server_type":"Dedicated","server_os":"Linux","password":true,"vac":true,"version":"7757534","steam_id":85568392924470001,"keywords":["cp","nocrits","nodmgspread","uncletopia"],"game_id":440,"stv_port":27016,"stv_name":"Uncletopia | Sydney | 1 | All Maps | STV","players":null},{"server_id":123,"name":"Uncletopia | Sydney | 2 | All Maps","name_short":"syd-2","host":"syd-1.au.uncletopia.com","port":27025,"enabled":true,"region":"au","cc":"au","latitude":-33.865143,"longitude":151.2099,"reserved":0,"last_update":"0001-01-01T00:00:00Z","name_a2s":"Uncletopia | Sydney | 2 | All Maps","protocol":17,"map":"cp_mossrock","folder":"tf","game":"Team Fortress","app_id":440,"player_count":21,"max_players":24,"Bots":0,"server_type":"Dedicated","server_os":"Linux","password":true,"vac":true,"version":"7757534","steam_id":85568392924470002,"keywords":["cp","nocrits","nodmgspread","uncletopia"],"game_id":440,"stv_port":27026,"stv_name":"Uncletopia | Sydney | 2 | All Maps | STV","players":[{"user_id":71,"name":"soupy","steam_id":76561198073734936,"connected_time":2849000000000,"state":"active","ping":85},{"user_id":101,"name":"Bigrichard","steam_id":76561198032092945,"connected_time":256000000000,"state":"active","ping":77},{"user_id":102,"name":"Zoey","steam_id":76561198126153554,"connected_time":212000000000,"state":"active","ping":76},{"user_id":100,"name":"FreeBeers","steam_id":76561198095448607,"connected_time":311000000000,"state":"active","ping":73},{"user_id":33,"name":"Mr Mahal","steam_id":76561198123234137,"connected_time":5186000000000,"state":"active","ping":59},{"user_id":91,"name":"B. F. Bugleberry","steam_id":76561198137335569,"connected_time":1195000000000,"state":"active","ping":58},{"user_id":93,"name":"O'rangutan","steam_id":76561198095916681,"connected_time":1174000000000,"state":"active","ping":45},{"user_id":97,"name":"Femboy Fractions","steam_id":76561198321471147,"connected_time":637000000000,"state":"active","ping":92},{"user_id":77,"name":"Tiger_Tan","steam_id":76561198221733844,"connected_time":2468000000000,"state":"active","ping":70},{"user_id":58,"name":"The Goon","steam_id":76561198434696450,"connected_time":3181000000000,"state":"active","ping":157},{"user_id":48,"name":"Slippo","steam_id":76561198079649290,"connected_time":3449000000000,"state":"active","ping":61},{"user_id":49,"name":"Splooge Fellow","steam_id":76561198067993108,"connected_time":3408000000000,"state":"active","ping":45},{"user_id":86,"name":"you have been deemed, Gilbert","steam_id":76561198301282416,"connected_time":2006000000000,"state":"active","ping":59},{"user_id":103,"name":"Distilledrain41","steam_id":76561198272717119,"connected_time":115000000000,"state":"active","ping":50},{"user_id":105,"name":"Pew pew pew!","steam_id":76561198004120277,"connected_time":82000000000,"state":"active","ping":44},{"user_id":106,"name":"Meerkat","steam_id":76561198298662979,"connected_time":23000000000,"state":"active","ping":58},{"user_id":54,"name":"lemur","steam_id":76561198278239170,"connected_time":3338000000000,"state":"active","ping":94},{"user_id":98,"name":"saudi ambassador messi","steam_id":76561198031293430,"connected_time":321000000000,"state":"active","ping":89},{"user_id":89,"name":"Pr1nce","steam_id":76561198116791394,"connected_time":1571000000000,"state":"active","ping":55},{"user_id":96,"name":"T-10a","steam_id":76561198054765522,"connected_time":774000000000,"state":"active","ping":45},{"user_id":99,"name":"Dimond_bird","steam_id":76561199129051643,"connected_time":321000000000,"state":"active","ping":60}]},{"server_id":395,"name":"Uncletopia | Sydney | 3 | All Maps","name_short":"syd-3","host":"syd-1.au.uncletopia.com","port":27035,"enabled":true,"region":"au","cc":"au","latitude":-33.865143,"longitude":151.2099,"reserved":0,"last_update":"0001-01-01T00:00:00Z","name_a2s":"Uncletopia | Sydney | 3 | All Maps","protocol":17,"map":"pl_pier","folder":"tf","game":"Team Fortress","app_id":440,"player_count":14,"max_players":24,"Bots":0,"server_type":"Dedicated","server_os":"Linux","password":true,"vac":true,"version":"7757534","steam_id":85568392925194467,"keywords":["nocrits","nodmgspread","payload","uncletopia"],"game_id":440,"stv_port":27036,"stv_name":"Uncletopia | Sydney | 3 | All Maps | STV","players":[{"user_id":280,"name":"Deerstop","steam_id":76561198042248554,"connected_time":3048000000000,"state":"active","ping":63},{"user_id":261,"name":"Jodelkönig Franzl Lang","steam_id":76561198007667830,"connected_time":4954000000000,"state":"active","ping":50},{"user_id":302,"name":"Hardcoded","steam_id":76561198268600898,"connected_time":986000000000,"state":"active","ping":53},{"user_id":312,"name":"whiteshaq","steam_id":76561198131988811,"connected_time":421000000000,"state":"active","ping":51},{"user_id":298,"name":"Motormouth","steam_id":76561197980851839,"connected_time":1714000000000,"state":"active","ping":84},{"user_id":314,"name":"SpEnZeR","steam_id":76561199470854321,"connected_time":6000000000,"state":"spawning","ping":72},{"user_id":285,"name":"BruceWillis235","steam_id":76561198884324029,"connected_time":2741000000000,"state":"active","ping":88},{"user_id":301,"name":"Rupidup","steam_id":76561198201996454,"connected_time":1311000000000,"state":"active","ping":45},{"user_id":311,"name":"monkey (with spoon)","steam_id":76561198301254663,"connected_time":589000000000,"state":"active","ping":64},{"user_id":304,"name":"Slarty Bartfast","steam_id":76561198202283566,"connected_time":973000000000,"state":"active","ping":54},{"user_id":291,"name":"4-Star Yelp Review","steam_id":76561197995258180,"connected_time":2171000000000,"state":"active","ping":50},{"user_id":194,"name":"perturb","steam_id":76561198085124297,"connected_time":9466000000000,"state":"active","ping":53},{"user_id":296,"name":"Ratbagus","steam_id":76561197993827486,"connected_time":1929000000000,"state":"active","ping":75},{"user_id":208,"name":"Sentry Gun (EpicGuy4227)","steam_id":76561198094132328,"connected_time":8509000000000,"state":"active","ping":40}]},{"server_id":396,"name":"Uncletopia | Sydney | 4 | All Maps","name_short":"syd-4","host":"syd-1.au.uncletopia.com","port":27045,"enabled":true,"region":"au","cc":"au","latitude":-33.865143,"longitude":151.2099,"reserved":0,"last_update":"0001-01-01T00:00:00Z","name_a2s":"Uncletopia | Sydney | 4 | All Maps","protocol":17,"map":"koth_highpass","folder":"tf","game":"Team Fortress","app_id":440,"player_count":0,"max_players":24,"Bots":0,"server_type":"Dedicated","server_os":"Linux","password":true,"vac":true,"version":"7757534","steam_id":85568392925397958,"keywords":["cp","nocrits","nodmgspread","uncletopia"],"game_id":440,"stv_port":27046,"stv_name":"Uncletopia | Sydney | 4 | All Maps | STV","players":null},{"server_id":58,"name":"Uncletopia | Sydney | 5 | Stopwatch Beta","name_short":"syd-5","host":"syd-1.au.uncletopia.com","port":27055,"enabled":true,"region":"au","cc":"au","latitude":-33.865143,"longitude":151.2099,"reserved":0,"last_update":"0001-01-01T00:00:00Z","name_a2s":"Uncletopia | Sydney | 5 | Stopwatch Beta","protocol":17,"map":"pl_upward","folder":"tf","game":"Team Fortress","app_id":440,"player_count":0,"max_players":24,"Bots":0,"server_type":"Dedicated","server_os":"Linux","password":true,"vac":true,"version":"7757534","steam_id":85568392925397959,"keywords":["nocrits","nodmgspread","payload","uncletopia"],"game_id":440,"stv_port":27056,"stv_name":"Uncletopia | Sydney | 5 | Stopwatch Beta | STV","players":null},{"server_id":59,"name":"Uncletopia | Sydney | 6 | Community","name_short":"syd-6","host":"syd-1.au.uncletopia.com","port":27065,"enabled":true,"region":"au","cc":"au","latitude":-33.865143,"longitude":151.2099,"reserved":0,"last_update":"0001-01-01T00:00:00Z","name_a2s":"Uncletopia | Sydney | 6 | Community","protocol":17,"map":"workshop/koth_ashville_final.ugc2130459942","folder":"tf","game":"Team Fortress","app_id":440,"player_count":0,"max_players":24,"Bots":0,"server_type":"Dedicated","server_os":"Linux","password":true,"vac":true,"version":"7757534","steam_id":85568392925397960,"keywords":["cp","nocrits","nodmgspread","uncletopia"],"game_id":440,"stv_port":27066,"stv_name":"Uncletopia | Sydney | 6 | Community | STV","players":null},{"server_id":49,"name":"Uncletopia | Warsaw | 1 | All Maps","name_short":"waw-1","host":"waw-1.pl.uncletopia.com","port":27015,"enabled":true,"region":"eu","cc":"pl","latitude":52.2297,"longitude":21.017532,"reserved":0,"last_update":"0001-01-01T00:00:00Z","name_a2s":"","protocol":0,"map":"","folder":"","game":"","app_id":0,"player_count":0,"max_players":0,"Bots":0,"server_type":"","server_os":"","password":false,"vac":false,"version":"","steam_id":0,"keywords":null,"game_id":0,"stv_port":0,"stv_name":"","players":null},{"server_id":50,"name":"Uncletopia | Warsaw | 2 | All Maps","name_short":"waw-2","host":"waw-1.pl.uncletopia.com","port":27025,"enabled":true,"region":"eu","cc":"pl","latitude":52.2297,"longitude":21.017532,"reserved":0,"last_update":"0001-01-01T00:00:00Z","name_a2s":"Uncletopia | Warsaw | 2 | All Maps","protocol":17,"map":"koth_viaduct","folder":"tf","game":"Team Fortress","app_id":440,"player_count":0,"max_players":24,"Bots":0,"server_type":"Dedicated","server_os":"Linux","password":true,"vac":true,"version":"7757534","steam_id":85568392925397851,"keywords":["cp","nocrits","nodmgspread","uncletopia"],"game_id":440,"stv_port":27026,"stv_name":"Uncletopia | Warsaw | 2 | All Maps | STV","players":null},{"server_id":51,"name":"Uncletopia | Warsaw | 3 | All Maps","name_short":"waw-3","host":"waw-1.pl.uncletopia.com","port":27035,"enabled":true,"region":"eu","cc":"pl","latitude":52.2297,"longitude":21.017532,"reserved":0,"last_update":"0001-01-01T00:00:00Z","name_a2s":"Uncletopia | Warsaw | 3 | All Maps","protocol":17,"map":"pl_badwater","folder":"tf","game":"Team Fortress","app_id":440,"player_count":0,"max_players":24,"Bots":0,"server_type":"Dedicated","server_os":"Linux","password":true,"vac":true,"version":"7757534","steam_id":85568392925397852,"keywords":["nocrits","nodmgspread","payload","uncletopia"],"game_id":440,"stv_port":27036,"stv_name":"Uncletopia | Warsaw | 3 | All Maps | STV","players":null},{"server_id":52,"name":"Uncletopia | Warsaw | 4 | All Maps","name_short":"waw-4","host":"waw-1.pl.uncletopia.com","port":27045,"enabled":true,"region":"eu","cc":"pl","latitude":52.2297,"longitude":21.017532,"reserved":0,"last_update":"0001-01-01T00:00:00Z","name_a2s":"Uncletopia | Warsaw | 4 | All Maps","protocol":17,"map":"koth_lakeside_final","folder":"tf","game":"Team Fortress","app_id":440,"player_count":0,"max_players":24,"Bots":0,"server_type":"Dedicated","server_os":"Linux","password":true,"vac":true,"version":"7757534","steam_id":85568392925397853,"keywords":["cp","nocrits","nodmgspread","uncletopia"],"game_id":440,"stv_port":27046,"stv_name":"Uncletopia | Warsaw | 4 | All Maps | STV","players":null},{"server_id":53,"name":"Uncletopia | Warsaw | 5 | Stopwatch Beta","name_short":"waw-5","host":"waw-1.pl.uncletopia.com","port":27055,"enabled":true,"region":"eu","cc":"pl","latitude":52.2297,"longitude":21.017532,"reserved":0,"last_update":"0001-01-01T00:00:00Z","name_a2s":"Uncletopia | Warsaw | 5 | Stopwatch Beta","protocol":17,"map":"pl_borneo","folder":"tf","game":"Team Fortress","app_id":440,"player_count":0,"max_players":24,"Bots":0,"server_type":"Dedicated","server_os":"Linux","password":true,"vac":true,"version":"7757534","steam_id":85568392925397854,"keywords":["nocrits","nodmgspread","payload","uncletopia"],"game_id":440,"stv_port":27056,"stv_name":"Uncletopia | Warsaw | 5 | Stopwatch Beta | STV","players":null},{"server_id":54,"name":"Uncletopia | Warsaw | 6 | Community","name_short":"waw-6","host":"waw-1.pl.uncletopia.com","port":27065,"enabled":true,"region":"eu","cc":"pl","latitude":52.2297,"longitude":21.017532,"reserved":0,"last_update":"0001-01-01T00:00:00Z","name_a2s":"Uncletopia | Warsaw | 6 | Community","protocol":17,"map":"koth_lakeside_final","folder":"tf","game":"Team Fortress","app_id":440,"player_count":0,"max_players":24,"Bots":0,"server_type":"Dedicated","server_os":"Linux","password":true,"vac":true,"version":"7757534","steam_id":85568392925397856,"keywords":["cp","nocrits","nodmgspread","uncletopia"],"game_id":440,"stv_port":27066,"stv_name":"Uncletopia | Warsaw | 6 | Community | STV","players":null}]}