{"status":true,"message":"","result":[{"server_id":9,"name":"Uncletopia | Atlanta | 1 | All Maps","name_short":"atl-1","host":"atl-1.us.uncletopia.com","port":27015,"enabled":true,"region":"us-east","cc":"us","latitude":33.753746,"longitude":-84.38633,"reserved":0,"last_update":"0001-01-01T00:00:00Z","name_a2s":"Uncletopia | Atlanta | 1 | All Maps","protocol":17,"map":"koth_highpass","folder":"tf","game":"Team Fortress","app_id":440,"player_count":0,"max_players":24,"Bots":0,"server_type":"Dedicated","server_os":"Linux","password":true,"vac":true,"version":"7757534","steam_id":85568392924469982,"keywords":["cp","nocrits","nodmgspread","uncletopia"],"game_id":440,"stv_port":27016,"stv_name":"Uncletopia | Atlanta | 1 | All Maps | STV","players":null},{"server_id":400,"name":"Uncletopia | Atlanta | 3 | Community","name_short":"atl-3","host":"atl-1.us.uncletopia.com","port":27035,"enabled":true,"region":"us-east","cc":"us","latitude":33.753746,"longitude":-84.38633,"reserved":0,"last_update":"0001-01-01T00:00:00Z","name_a2s":"Uncletopia | Atlanta | 3 | Community","protocol":17,"map":"pl_swiftwater_final1","folder":"tf","game":"Team Fortress","app_id":440,"player_count":0,"max_players":32,"Bots":0,"server_type":"Dedicated","server_os":"Linux","password":true,"vac":true,"version":"7757534","steam_id":85568392924515187,"keywords":["increased_maxplayers","nocrits","nodmgspread","payload","uncletopia"],"game_id":440,"stv_port":27036,"stv_name":"Uncletopia | Atlanta | 3 | Community | STV","players":null},{"server_id":401,"name":"Uncletopia | Atlanta | 4 | No Payload","name_short":"atl-4","host":"atl-1.us.uncletopia.com","port":27045,"enabled":true,"region":"us-east","cc":"us","latitude":33.753746,"longitude":-84.38633,"reserved":0,"last_update":"0001-01-01T00:00:00Z","name_a2s":"","protocol":0,"map":"","folder":"","game":"","app_id":0,"player_count":0,"max_players":0,"Bots":0,"server_type":"","server_os":"","password":false,"vac":false,"version":"","steam_id":0,"keywords":null,"game_id":0,"stv_port":0,"stv_name":"","players":null},{"server_id":2,"name":"Uncletopia | Chicago | 1 | All Maps","name_short":"chi-1","host":"chi-1.us.uncletopia.com","port":27015,"enabled":true,"region":"us-central","cc":"us","latitude":41.881832,"longitude":-87.62318,"reserved":0,"last_update":"0001-01-01T00:00:00Z","name_a2s":"Uncletopia | Chicago | 1 | All Maps","protocol":17,"map":"pl_pier","folder":"tf","game":"Team Fortress","app_id":440,"player_count":1,"max_players":24,"Bots":0,"server_type":"Dedicated","server_os":"Linux","password":true,"vac":true,"version":"7757534","steam_id":85568392924469984,"keywords":["nocrits","nodmgspread","payload","uncletopia"],"game_id":440,"stv_port":27016,"stv_name":"Uncletopia | Chicago | 1 | All Maps | STV","players":[{"user_id":806,"name":"magickxanadu","steam_id":76561199117360103,"connected_time":625000000000,"state":"active","ping":75}]},{"server_id":106,"name":"Uncletopia | Chicago | 2 | All Maps","name_short":"chi-2","host":"chi-1.us.uncletopia.com","port":27025,"enabled":true,"region":"us-central","cc":"us","latitude":41.881832,"longitude":-87.62318,"reserved":0,"last_update":"0001-01-01T00:00:00Z","name_a2s":"Uncletopia | Chicago | 2 | All Maps","protocol":17,"map":"koth_lakeside_final","folder":"tf","game":"Team Fortress","app_id":440,"player_count":0,"max_players":24,"Bots":0,"server_type":"Dedicated","server_os":"Linux","password":true,"vac":true,"version":"7757534","steam_id":85568392924469985,"keywords":["cp","nocrits","nodmgspread","uncletopia"],"game_id":440,"stv_port":27026,"stv_name":"Uncletopia | Chicago | 2 | All Maps | STV","players":null},{"server_id":402,"name":"Uncletopia | Chicago | 3 | All Maps","name_short":"chi-3","host":"chi-1.us.uncletopia.com","port":27035,"enabled":true,"region":"us-central","cc":"us","latitude":41.881832,"longitude":-87.62318,"reserved":0,"last_update":"0001-01-01T00:00:00Z","name_a2s":"Uncletopia | Chicago | 3 | All Maps","protocol":17,"map":"pl_badwater","folder":"tf","game":"Team Fortress","app_id":440,"player_count":0,"max_players":24,"Bots":0,"server_type":"Dedicated","server_os":"Linux","password":true,"vac":true,"version":"7757534","steam_id":85568392924515191,"keywords":["nocrits","nodmgspread","payload","uncletopia"],"game_id":440,"stv_port":27036,"stv_name":"Uncletopia | Chicago | 3 | All Maps | STV","players":null},{"server_id":403,"name":"Uncletopia | Chicago | 4 | All Maps","name_short":"chi-4","host":"chi-1.us.uncletopia.com","port":27045,"enabled":true,"region":"us-central","cc":"us","latitude":41.881832,"longitude":-87.62318,"reserved":0,"last_update":"0001-01-01T00:00:00Z","name_a2s":"Uncletopia | Chicago | 4 | All Maps","protocol":17,"map":"cp_altitude","folder":"tf","game":"Team Fortress","app_id":440,"player_count":0,"max_players":24,"Bots":0,"server_type":"Dedicated","server_os":"Linux","password":true,"vac":true,"version":"7757534","steam_id":85568392924515193,"keywords":["cp","nocrits","nodmgspread","uncletopia"],"game_id":440,"stv_port":27046,"stv_name":"Uncletopia | Chicago | 4 | All Maps | STV","players":null},{"server_id":36,"name":"Uncletopia | Chicago | 5 | All Maps","name_short":"chi-5","host":"chi-2.us.uncletopia.com","port":27015,"enabled":true,"region":"us-central","cc":"us","latitude":41.881832,"longitude":-87.62318,"reserved":0,"last_update":"0001-01-01T00:00:00Z","name_a2s":"Uncletopia | Chicago | 5 | All Maps","protocol":17,"map":"cp_process_final","folder":"tf","game":"Team Fortress","app_id":440,"player_count":0,"max_players":24,"Bots":0,"server_type":"Dedicated","server_os":"Linux","password":true,"vac":true,"version":"7757534","steam_id":85568392924866362,"keywords":["cp","nocrits","nodmgspread","uncletopia"],"game_id":440,"stv_port":27016,"stv_name":"Uncletopia | Chicago | 5 | All Maps | STV","players":null},{"server_id":37,"name":"Uncletopia | Chicago | 6 | All Maps","name_short":"chi-6","host":"chi-2.us.uncletopia.com","port":27025,"enabled":true,"region":"us-central","cc":"us","latitude":41.881832,"longitude":-87.62318,"reserved":0,"last_update":"0001-01-01T00:00:00Z","name_a2s":"Uncletopia | Chicago | 6 | All Maps","protocol":17,"map":"koth_lakeside_final","folder":"tf","game":"Team Fortress","app_id":440,"player_count":0,"max_players":24,"Bots":0,"server_type":"Dedicated","server_os":"Linux","password":true,"vac":true,"version":"7757534","steam_id":85568392924866363,"keywords":["cp","nocrits","nodmgspread","uncletopia"],"game_id":440,"stv_port":27026,"stv_name":"Uncletopia | Chicago | 6 | All Maps | STV","players":null},{"server_id":38,"name":"Uncletopia | Chicago | 7 | Stopwatch Beta","name_short":"chi-7","host":"chi-2.us.uncletopia.com","port":27035,"enabled":true,"region":"us-central","cc":"us","latitude":41.881832,"longitude":-87.62318,"reserved":0,"last_update":"0001-01-01T00:00:00Z","name_a2s":"Uncletopia | Chicago | 7 | Stopwatch Beta","protocol":17,"map":"workshop/koth_ramjam_rc1.ugc459778887","folder":"tf","game":"Team Fortress","app_id":440,"player_count":0,"max_players":24,"Bots":0,"server_type":"Dedicated","server_os":"Linux","password":true,"vac":true,"version":"7757534","steam_id":85568392924866364,"keywords":["cp","nocrits","nodmgspread","uncletopia"],"game_id":440,"stv_port":27036,"stv_name":"Uncletopia | Chicago | 7 | Stopwatch Beta | STV","players":null},{"server_id":39,"name":"Uncletopia | Chicago | 8 | Community","name_short":"chi-8","host":"chi-2.us.uncletopia.com","port":27045,"enabled":true,"region":"us-central","cc":"us","latitude":41.881832,"longitude":-87.62318,"reserved":0,"last_update":"0001-01-01T00:00:00Z","name_a2s":"Uncletopia | Chicago | 8 | Community","protocol":17,"map":"workshop/rd_asteroid_redux_b1.ugc2154902912","folder":"tf","game":"Team Fortress","app_id":440,"player_count":0,"max_players":24,"Bots":0,"server_type":"Dedicated","server_os":"Linux","password":true,"vac":true,"version":"7757534","steam_id":85568392924866365,"keywords":["beta","nocrits","nodmgspread","rd","uncletopia"],"game_id":440,"stv_port":27046,"stv_name":"Uncletopia | Chicago | 8 | Community | STV","players":null},{"server_id":8,"name":"Uncletopia | Dallas | 1 | All Maps","name_short":"dal-1","host":"dal-1.us.uncletopia.com","port":27015,"enabled":true,"region":"us-central","cc":"us","latitude":32.779167,"longitude":-96.80889,"reserved":0,"last_update":"0001-01-01T00:00:00Z","name_a2s":"Uncletopia | Dallas | 1 | All Maps","protocol":17,"map":"koth_lakeside_final","folder":"tf","game":"Team Fortress","app_id":440,"player_count":0,"max_players":24,"Bots":0,"server_type":"Dedicated","server_os":"Linux","password":true,"vac":true,"version":"7757534","steam_id":85568392924469986,"keywords":["cp","nocrits","nodmgspread","uncletopia"],"game_id":440,"stv_port":27016,"stv_name":"Uncletopia | Dallas | 1 | All Maps | STV","players":null},{"server_id":108,"name":"Uncletopia | Dallas | 2 | All Maps","name_short":"dal-2","host":"dal-1.us.uncletopia.com","port":27025,"enabled":true,"region":"us-central","cc":"us","latitude":32.779167,"longitude":-96.80889,"reserved":0,"last_update":"0001-01-01T00:00:00Z","name_a2s":"Uncletopia | Dallas | 2 | All Maps","protocol":17,"map":"pl_pier","folder":"tf","game":"Team Fortress","app_id":440,"player_count":24,"max_players":24,"Bots":0,"server_type":"Dedicated","server_os":"Linux","password":true,"vac":true,"version":"7757534","steam_id":85568392924469988,"keywords":["nocrits","nodmgspread","payload","uncletopia"],"game_id":440,"stv_port":27026,"stv_name":"Uncletopia | Dallas | 2 | All Maps | STV","players":[{"user_id":859,"name":"Hugo","steam_id":76561198045581609,"connected_time":1157000000000,"state":"active","ping":76},{"user_id":863,"name":"Callahan","steam_id":76561197976928457,"connected_time":767000000000,"state":"active","ping":98},{"user_id":850,"name":"Xylemon","steam_id":76561197965297420,"connected_time":2384000000000,"state":"active","ping":105},{"user_id":813,"name":"human piss champion","steam_id":76561198122943559,"connected_time":5545000000000,"state":"active","ping":75},{"user_id":851,"name":"BeyondInsanity","steam_id":76561198043856409,"connected_time":2296000000000,"state":"active","ping":67},{"user_id":852,"name":"Oober Jackalope","steam_id":76561198285747760,"connected_time":2266000000000,"state":"active","ping":121},{"user_id":864,"name":"MoonWolf","steam_id":76561198095735033,"connected_time":754000000000,"state":"active","ping":60},{"user_id":860,"name":"Danger Daniel","steam_id":76561199085838474,"connected_time":1136000000000,"state":"active","ping":95},{"user_id":830,"name":"Eros","steam_id":76561198000530934,"connected_time":3902000000000,"state":"active","ping":90},{"user_id":870,"name":"Smirky","steam_id":76561198982807882,"connected_time":6000000000,"state":"spawning","ping":55},{"user_id":849,"name":"Satan-2","steam_id":76561199231742764,"connected_time":2430000000000,"state":"active","ping":102},{"user_id":847,"name":"Bleebi","steam_id":76561197971264259,"connected_time":2447000000000,"state":"active","ping":71},{"user_id":855,"name":"A Gamer [F2P]","steam_id":76561198138712892,"connected_time":2126000000000,"state":"active","ping":40},{"user_id":861,"name":"Kyzer","steam_id":76561198048034600,"connected_time":1125000000000,"state":"active","ping":93},{"user_id":865,"name":"Tuxedo Terrorist","steam_id":76561198153510094,"connected_time":725000000000,"state":"active","ping":67},{"user_id":869,"name":"Provocator","steam_id":76561197961830410,"connected_time":177000000000,"state":"active","ping":86},{"user_id":837,"name":"mel","steam_id":76561198019820977,"connected_time":3232000000000,"state":"active","ping":45},{"user_id":862,"name":"lyra","steam_id":76561198200002859,"connected_time":841000000000,"state":"active","ping":62},{"user_id":836,"name":"Nicole+","steam_id":76561198051599174,"connected_time":3278000000000,"state":"active","ping":112},{"user_id":815,"name":"Hindmost","steam_id":76561199081837220,"connected_time":5159000000000,"state":"active","ping":69},{"user_id":770,"name":"Ignatius","steam_id":76561198317980567,"connected_time":9544000000000,"state":"active","ping":71},{"user_id":839,"name":"Ⓑ⓪⓪ⓣⓨⓒⓐⓚⓔⓢ","steam_id":76561198088776421,"connected_time":3136000000000,"state":"active","ping":89},{"user_id":842,"name":"Toasty","steam_id":76561198001136776,"connected_time":3118000000000,"state":"active","ping":55},{"user_id":858,"name":"ULTRACOCK","steam_id":76561198022967929,"connected_time":1275000000000,"state":"active","ping":62}]},{"server_id":5,"name":"Uncletopia | Frankfurt | 1 | All Maps","name_short":"frk-1","host":"frk-1.de.uncletopia.com","port":27015,"enabled":true,"region":"eu","cc":"de","latitude":50.110924,"longitude":8.682127,"reserved":0,"last_update":"0001-01-01T00:00:00Z","name_a2s":"Uncletopia | Frankfurt | 1 | All Maps","protocol":17,"map":"pl_borneo","folder":"tf","game":"Team Fortress","app_id":440,"player_count":24,"max_players":24,"Bots":0,"server_type":"Dedicated","server_os":"Linux","password":true,"vac":true,"version":"7757534","steam_id":85568392924469989,"keywords":["nocrits","nodmgspread","payload","uncletopia"],"game_id":440,"stv_port":27016,"stv_name":"Uncletopia | Frankfurt | 1 | All Maps | STV","players":[{"user_id":127,"name":"Tank","steam_id":76561199059174576,"connected_time":946000000000,"state":"active","ping":182},{"user_id":92,"name":"TheFox.tf","steam_id":76561197996851702,"connected_time":3442000000000,"state":"active","ping":70},{"user_id":131,"name":"Daniel Day-Lewis","steam_id":76561198147249160,"connected_time":536000000000,"state":"active","ping":104},{"user_id":115,"name":"jmp","steam_id":76561198168283286,"connected_time":1673000000000,"state":"active","ping":75},{"user_id":89,"name":"Pain in a Box","steam_id":76561197990777173,"connected_time":3486000000000,"state":"active","ping":70},{"user_id":130,"name":"☞LaZe☜","steam_id":76561198202191400,"connected_time":542000000000,"state":"active","ping":74},{"user_id":132,"name":"Fran","steam_id":76561199070516960,"connected_time":505000000000,"state":"active","ping":63},{"user_id":125,"name":"-makina","steam_id":76561198273042780,"connected_time":966000000000,"state":"active","ping":61},{"user_id":133,"name":"Heikkimr","steam_id":76561198892900358,"connected_time":496000000000,"state":"active","ping":92},{"user_id":137,"name":"Nobaddy","steam_id":76561198037871007,"connected_time":340000000000,"state":"active","ping":87},{"user_id":126,"name":"PizzaPete123","steam_id":76561198089478290,"connected_time":963000000000,"state":"active","ping":58},{"user_id":134,"name":"Jiggie","steam_id":76561198018134884,"connected_time":483000000000,"state":"active","ping":69},{"user_id":135,"name":"Shun Rosen","steam_id":76561198012823909,"connected_time":475000000000,"state":"active","ping":148},{"user_id":110,"name":"Cosmetic brain","steam_id":76561198055936410,"connected_time":1728000000000,"state":"active","ping":89},{"user_id":108,"name":"I Peg Hot Men","steam_id":76561198060638325,"connected_time":2518000000000,"state":"active","ping":45},{"user_id":104,"name":"dafydd","steam_id":76561198052200325,"connected_time":2676000000000,"state":"active","ping":74},{"user_id":120,"name":"Tea","steam_id":76561198799243030,"connected_time":1458000000000,"state":"active","ping":73},{"user_id":114,"name":"silenk","steam_id":76561198367689055,"connected_time":1701000000000,"state":"active","ping":73},{"user_id":136,"name":"meatsoupcube","steam_id":76561198276802249,"connected_time":460000000000,"state":"active","ping":54},{"user_id":122,"name":"SugarPlumb","steam_id":76561198258269600,"connected_time":1369000000000,"state":"active","ping":54},{"user_id":129,"name":"Rizzy","steam_id":76561198164237267,"connected_time":827000000000,"state":"active","ping":73},{"user_id":79,"name":"Noxifoxis","steam_id":76561198838493783,"connected_time":4373000000000,"state":"active","ping":99},{"user_id":83,"name":"Piteras","steam_id":76561198858532207,"connected_time":4038000000000,"state":"active","ping":73},{"user_id":111,"name":"Bamboo","steam_id":76561198133782205,"connected_time":1728000000000,"state":"active","ping":132}]},{"server_id":110,"name":"Uncletopia | Frankfurt | 2 | All Maps","name_short":"frk-2","host":"frk-1.de.uncletopia.com","port":27025,"enabled":true,"region":"eu","cc":"de","latitude":50.110924,"longitude":8.682127,"reserved":0,"last_update":"0001-01-01T00:00:00Z","name_a2s":"Uncletopia | Frankfurt | 2 | All Maps","protocol":17,"map":"pl_upward","folder":"tf","game":"Team Fortress","app_id":440,"player_count":23,"max_players":24,"Bots":0,"server_type":"Dedicated","server_os":"Linux","password":true,"vac":true,"version":"7757534","steam_id":85568392924469990,"keywords":["nocrits","nodmgspread","payload","uncletopia"],"game_id":440,"stv_port":27026,"stv_name":"Uncletopia | Frankfurt | 2 | All Maps | STV","players":[{"user_id":15,"name":"AwZooom","steam_id":76561198154061149,"connected_time":3268000000000,"state":"active","ping":45},{"user_id":16,"name":"stupid stupid stupid","steam_id":76561198307522022,"connected_time":3161000000000,"state":"active","ping":52},{"user_id":45,"name":"Truegr","steam_id":76561198811912339,"connected_time":569000000000,"state":"active","ping":53},{"user_id":25,"name":"Enigmus","steam_id":76561197994063627,"connected_time":1324000000000,"state":"active","ping":76},{"user_id":46,"name":"moon","steam_id":76561199212557251,"connected_time":519000000000,"state":"active","ping":120},{"user_id":47,"name":"Watson","steam_id":76561197974362869,"connected_time":472000000000,"state":"active","ping":91},{"user_id":53,"name":"kemor","steam_id":76561198027684291,"connected_time":334000000000,"state":"active","ping":60},{"user_id":38,"name":"Melon","steam_id":76561198150893860,"connected_time":808000000000,"state":"active","ping":65},{"user_id":50,"name":"Mediplier (real)","steam_id":76561198970762992,"connected_time":360000000000,"state":"active","ping":74},{"user_id":39,"name":"Flint","steam_id":76561197995920776,"connected_time":777000000000,"state":"active","ping":43},{"user_id":60,"name":"bad at tf2 episode 2","steam_id":76561198002451113,"connected_time":162000000000,"state":"active","ping":94},{"user_id":44,"name":"Españaa","steam_id":76561198879587832,"connected_time":595000000000,"state":"active","ping":87},{"user_id":62,"name":"alvinulv","steam_id":76561198024487177,"connected_time":75000000000,"state":"active","ping":62},{"user_id":52,"name":"duke nukem (real)","steam_id":76561199451607131,"connected_time":347000000000,"state":"active","ping":59},{"user_id":54,"name":"MrBanana","steam_id":76561198116021623,"connected_time":301000000000,"state":"active","ping":45},{"user_id":55,"name":"frenchie","steam_id":76561198178298931,"connected_time":274000000000,"state":"active","ping":58},{"user_id":56,"name":"Chlowah","steam_id":76561198114485345,"connected_time":244000000000,"state":"active","ping":67},{"user_id":57,"name":"Vaselineum","steam_id":76561199404585461,"connected_time":232000000000,"state":"active","ping":71},{"user_id":61,"name":"Verculum","steam_id":76561198894912634,"connected_time":132000000000,"state":"active","ping":103},{"user_id":59,"name":"Allereinan","steam_id":76561198342239906,"connected_time":198000000000,"state":"active","ping":102},{"user_id":63,"name":"Cheddar","steam_id":76561199072919985,"connected_time":54000000000,"state":"active","ping":82},{"user_id":64,"name":"Rat, the ungodly rat #SaveTF2","steam_id":76561199126577423,"connected_time":30000000000,"state":"active","ping":68},{"user_id":65,"name":"S2/S0","steam_id":76561198131577749,"connected_time":26000000000,"state":"active","ping":82}]},{"server_id":308,"name":"Uncletopia | Frankfurt | 3 | All Maps","name_short":"frk-3","host":"frk-1.de.uncletopia.com","port":27035,"enabled":true,"region":"eu","cc":"de","latitude":50.110924,"longitude":8.682127,"reserved":0,"last_update":"0001-01-01T00:00:00Z","name_a2s":"Uncletopia | Frankfurt | 3 | All Maps","protocol":17,"map":"cp_altitude","folder":"tf","game":"Team Fortress","app_id":440,"player_count":0,"max_players":24,"Bots":0,"server_type":"Dedicated","server_os":"Linux","password":true,"vac":true,"version":"7757534","steam_id":85568392924504274,"keywords":["cp","nocrits","nodmgspread","uncletopia"],"game_id":440,"stv_port":27036,"stv_name":"Uncletopia | Frankfurt | 3 | All Maps | STV","players":null},{"server_id":309,"name":"Uncletopia | Frankfurt | 4 | All Maps","name_short":"frk-4","host":"frk-1.de.uncletopia.com","port":27045,"enabled":true,"region":"eu","cc":"de","latitude":50.110924,"longitude":8.682127,"reserved":0,"last_update":"0001-01-01T00:00:00Z","name_a2s":"Uncletopia | Frankfurt | 4 | All Maps","protocol":17,"map":"cp_altitude","folder":"tf","game":"Team Fortress","app_id":440,"player_count":0,"max_players":24,"Bots":0,"server_type":"Dedicated","server_os":"Linux","password":true,"vac":true,"version":"7757534","steam_id":85568392924504275,"keywords":["cp","nocrits","nodmgspread","uncletopia"],"game_id":440,"stv_port":27046,"stv_name":"Uncletopia | Frankfurt | 4 | All Maps | STV","players":null},{"server_id":310,"name":"Uncletopia | Frankfurt | 5 | All Maps","name_short":"frk-5","host":"frk-1.de.uncletopia.com","port":27055,"enabled":true,"region":"eu","cc":"de","latitude":50.110924,"longitude":8.682127,"reserved":0,"last_update":"0001-01-01T00:00:00Z","name_a2s":"Uncletopia | Frankfurt | 5 | All Maps","protocol":17,"map":"cp_process_final","folder":"tf","game":"Team Fortress","app_id":440,"player_count":0,"max_players":24,"Bots":0,"server_type":"Dedicated","server_os":"Linux","password":true,"vac":true,"version":"7757534","steam_id":85568392924504277,"keywords":["cp","nocrits","nodmgspread","uncletopia"],"game_id":440,"stv_port":27056,"stv_name":"Uncletopia | Frankfurt | 5 | All Maps | STV","players":null},{"server_id":311,"name":"Uncletopia | Frankfurt | 6 | All Maps","name_short":"frk-6","host":"frk-1.de.uncletopia.com","port":27065,"enabled":true,"region":"eu","cc":"de","latitude":50.110924,"longitude":8.682127,"reserved":0,"last_update":"0001-01-01T00:00:00Z","name_a2s":"Uncletopia | Frankfurt | 6 | All Maps","protocol":17,"map":"pl_barnblitz","folder":"tf","game":"Team Fortress","app_id":440,"player_count":24,"max_players":24,"Bots":0,"server_type":"Dedicated","server_os":"Linux","password":true,"vac":true,"version":"7757534","steam_id":85568392924504278,"keywords":["nocrits","nodmgspread","payload","uncletopia"],"game_id":440,"stv_port":27066,"stv_name":"Uncletopia | Frankfurt | 6 | All Maps | STV","players":[{"user_id":115,"name":"Ennard777","steam_id":76561198965409493,"connected_time":7262000000000,"state":"active","ping":101},{"user_id":178,"name":"0xDEADBEEF","steam_id":76561199075416111,"connected_time":2444000000000,"state":"active","ping":63},{"user_id":85,"name":"Ian","steam_id":76561198159334435,"connected_time":9364000000000,"state":"active","ping":180},{"user_id":199,"name":"EpicWinMaster","steam_id":76561198044688093,"connected_time":64000000000,"state":"active","ping":57},{"user_id":97,"name":"i wont","steam_id":76561198160888610,"connected_time":8480000000000,"state":"active","ping":90},{"user_id":171,"name":"LEGEND FUMO.","steam_id":76561198061033903,"connected_time":2816000000000,"state":"active","ping":45},{"user_id":186,"name":"the boil","steam_id":76561199236080782,"connected_time":1347000000000,"state":"active","ping":106},{"user_id":179,"name":".::[SerafeTTiN]::.","steam_id":76561198009471724,"connected_time":2058000000000,"state":"active","ping":91},{"user_id":143,"name":"Senator Armstrong","steam_id":76561198984346408,"connected_time":4855000000000,"state":"active","ping":69},{"user_id":168,"name":"Laru","steam_id":76561197998838438,"connected_time":2835000000000,"state":"active","ping":77},{"user_id":190,"name":"Prox","steam_id":76561198351490981,"connected_time":1259000000000,"state":"active","ping":51},{"user_id":184,"name":"Záporák","steam_id":76561198207175503,"connected_time":1849000000000,"state":"active","ping":55},{"user_id":187,"name":"Manslayer","steam_id":76561198063956707,"connected_time":1345000000000,"state":"active","ping":60},{"user_id":195,"name":"Cuthbert","steam_id":76561198204649481,"connected_time":772000000000,"state":"active","ping":100},{"user_id":188,"name":"Yelowchy","steam_id":76561198199416121,"connected_time":1340000000000,"state":"active","ping":69},{"user_id":196,"name":"little koala","steam_id":76561198074176732,"connected_time":746000000000,"state":"active","ping":88},{"user_id":192,"name":"^6demoknight66 trade.tf\"","steam_id":76561198104631920,"connected_time":1091000000000,"state":"active","ping":61},{"user_id":193,"name":"Hegyi tahó F2P","steam_id":76561199219150356,"connected_time":991000000000,"state":"active","ping":75},{"user_id":197,"name":"delta man","steam_id":76561198204491245,"connected_time":679000000000,"state":"active","ping":150},{"user_id":103,"name":"Dolcelatte","steam_id":76561198038501770,"connected_time":8373000000000,"state":"active","ping":54},{"user_id":198,"name":"MIAM LES PÂTES AU JAMBON ®","steam_id":76561198204821037,"connected_time":184000000000,"state":"active","ping":72},{"user_id":185,"name":"white man","steam_id":76561198062107879,"connected_time":1363000000000,"state":"active","ping":84},{"user_id":176,"name":"Lexios","steam_id":76561198079780864,"connected_time":2722000000000,"state":"active","ping":58},{"user_id":194,"name":"Cobb Salads","steam_id":76561197971140507,"connected_time":808000000000,"state":"active","ping":60}]},{"server_id":23,"name":"Uncletopia | Frankfurt | 7 | Stopwatch Beta","name_short":"frk-7","host":"frk-1.de.uncletopia.com","port":27075,"enabled":true,"region":"eu","cc":"de","latitude":50.110924,"longitude":8.682127,"reserved":0,"last_update":"0001-01-01T00:00:00Z","name_a2s":"Uncletopia | Frankfurt | 7 | Stopwatch Beta","protocol":17,"map":"pl_frontier_final","folder":"tf","game":"Team Fortress","app_id":440,"player_count":0,"max_players":24,"Bots":0,"server_type":"Dedicated","server_os":"Linux","password":true,"vac":true,"version":"7757534","steam_id":85568392924742827,"keywords":["nocrits","nodmgspread","payload","uncletopia"],"game_id":440,"stv_port":27076,"stv_name":"Uncletopia | Frankfurt | 7 | Stopwatch Beta | STV","players":null},{"server_id":24,"name":"Uncletopia | Frankfurt | 8 | Community","name_short":"frk-8","host":"frk-1.de.uncletopia.com","port":27085,"enabled":true,"region":"eu","cc":"de","latitude":50.110924,"longitude":8.682127,"reserved":0,"last_update":"0001-01-01T00:00:00Z","name_a2s":"Uncletopia | Frankfurt | 8 | Community","protocol":17,"map":"workshop/cp_reckoner_rc6.ugc674719999","folder":"tf","game":"Team Fortress","app_id":440,"player_count":0,"max_players":24,"Bots":0,"server_type":"Dedicated","server_os":"Linux","password":true,"vac":true,"version":"7757534","steam_id":85568392924742828,"keywords":["cp","nocrits","nodmgspread","uncletopia"],"game_id":440,"stv_port":27086,"stv_name":"Uncletopia | Frankfurt | 8 | Community | STV","players":null},{"server_id":202,"name":"Uncletopia | Hong Kong | 1 | All Maps","name_short":"hgk-1","host":"hgk-1.hk.uncletopia.com","port":27015,"enabled":true,"region":"asia","cc":"hk","latitude":22.302711,"longitude":114.177216,"reserved":0,"last_update":"0001-01-01T00:00:00Z","name_a2s":"Uncletopia | Hong Kong | 1 | All Maps","protocol":17,"map":"cp_steel","folder":"tf","game":"Team Fortress","app_id":440,"player_count":24,"max_players":24,"Bots":0,"server_type":"Dedicated","server_os":"Linux","password":true,"vac":true,"version":"7757534","steam_id":85568392924494504,"keywords":["cp","nocrits","nodmgspread","uncletopia"],"game_id":440,"stv_port":27016,"stv_name":"Uncletopia | Hong Kong | 1 | All Maps | STV","players":[{"user_id":264,"name":"detro.","steam_id":76561198412329672,"connected_time":1356000000000,"state":"active","ping":81},{"user_id":269,"name":"aeross","steam_id":76561198834445483,"connected_time":1044000000000,"state":"active","ping":54},{"user_id":207,"name":"uptriste","steam_id":76561198158666692,"connected_time":4283000000000,"state":"active","ping":35},{"user_id":285,"name":"cat","steam_id":76561199051874278,"connected_time":246000000000,"state":"active","ping":92},{"user_id":281,"name":"moguizhong","steam_id":76561198152588681,"connected_time":566000000000,"state":"active","ping":81},{"user_id":246,"name":"17","steam_id":76561198241530712,"connected_time":3310000000000,"state":"active","ping":60},{"user_id":276,"name":"razetime","steam_id":76561198093904557,"connected_time":772000000000,"state":"active","ping":132},{"user_id":173,"name":"Pillboi","steam_id":76561198011172886,"connected_time":5432000000000,"state":"active","ping":40},{"user_id":263,"name":"Jimbo Limbo The Scout Main","steam_id":76561199174449723,"connected_time":1802000000000,"state":"active","ping":114},{"user_id":287,"name":"Kore","steam_id":76561198308975624,"connected_time":75000000000,"state":"active","ping":117},{"user_id":270,"name":"TheRobot_140","steam_id":76561199107847802,"connected_time":1030000000000,"state":"active","ping":118},{"user_id":249,"name":"stexgashgaux","steam_id":76561198413116920,"connected_time":3004000000000,"state":"active","ping":99},{"user_id":266,"name":"itrash","steam_id":76561199068229379,"connected_time":1174000000000,"state":"active","ping":52},{"user_id":257,"name":"Jaysong","steam_id":76561198828599078,"connected_time":2576000000000,"state":"active","ping":78},{"user_id":261,"name":"water","steam_id":76561198803862977,"connected_time":2012000000000,"state":"active","ping":94},{"user_id":282,"name":"Beef Wellington","steam_id":76561197995635241,"connected_time":510000000000,"state":"active","ping":117},{"user_id":284,"name":"Dashinix","steam_id":76561198129263849,"connected_time":296000000000,"state":"active","ping":84},{"user_id":277,"name":"colme0104","steam_id":76561199164653025,"connected_time":747000000000,"state":"active","ping":75},{"user_id":256,"name":"Vortex Morez","steam_id":76561198833527091,"connected_time":2748000000000,"state":"active","ping":88},{"user_id":260,"name":"monkeyman536","steam_id":76561197997717737,"connected_time":2069000000000,"state":"active","ping":143},{"user_id":238,"name":"yw","steam_id":76561199382726488,"connected_time":3774000000000,"state":"active","ping":44},{"user_id":274,"name":"The lag killed me","steam_id":76561199094388107,"connected_time":985000000000,"state":"active","ping":114},{"user_id":279,"name":"Epileptic Abuse is bad for you","steam_id":76561199221871877,"connected_time":683000000000,"state":"active","ping":56},{"user_id":240,"name":"zartazan","steam_id":76561199420453519,"connected_time":3751000000000,"state":"active","ping":103}]},{"server_id":1,"name":"Uncletopia | Los Angeles | 1 | All Maps","name_short":"lax-1","host":"lax-1.us.uncletopia.com","port":27015,"enabled":true,"region":"us-west","cc":"us","latitude":33.94279,"longitude":-118.41004,"reserved":0,"last_update":"0001-01-01T00:00:00Z","name_a2s":"Uncletopia | Los Angeles | 1 | All Maps","protocol":17,"map":"cp_altitude","folder":"tf","game":"Team Fortress","app_id":440,"player_count":0,"max_players":24,"Bots":0,"server_type":"Dedicated","server_os":"Linux","password":true,"vac":true,"version":"7757534","steam_id":85568392924469991,"keywords":["cp","nocrits","nodmgspread","uncletopia"],"game_id":440,"stv_port":27016,"stv_name":"Uncletopia | Los Angeles | 1 | All Maps | STV","players":null},{"server_id":112,"name":"Uncletopia | Los Angeles | 2 | All Maps","name_short":"lax-2","host":"lax-1.us.uncletopia.com","port":27025,"enabled":true,"region":"us-west","cc":"us","latitude":33.94279,"longitude":-118.41004,"reserved":0,"last_update":"0001-01-01T00:00:00Z","name_a2s":"Uncletopia | Los Angeles | 2 | All Maps","protocol":17,"map":"pl_badwater","folder":"tf","game":"Team Fortress","app_id":440,"player_count":0,"max_players":24,"Bots":0,"server_type":"Dedicated","server_os":"Linux","password":true,"vac":true,"version":"7757534","steam_id":85568392924469992,"keywords":["nocrits","nodmgspread","payload","uncletopia"],"game_id":440,"stv_port":27026,"stv_name":"Uncletopia | Los Angeles | 2 | All Maps | STV","players":null},{"server_id":324,"name":"Uncletopia | Los Angeles | 3 | All Maps","name_short":"lax-3","host":"lax-1.us.uncletopia.com","port":27035,"enabled":true,"region":"us-west","cc":"us","latitude":33.94279,"longitude":-118.41004,"reserved":0,"last_update":"0001-01-01T00:00:00Z","name_a2s":"Uncletopia | Los Angeles | 3 | All Maps","protocol":17,"map":"cp_process_final","folder":"tf","game":"Team Fortress","app_id":440,"player_count":0,"max_players":24,"Bots":0,"server_type":"Dedicated","server_os":"Linux","password":true,"vac":true,"version":"7757534","steam_id":85568392924510198,"keywords":["cp","nocrits","nodmgspread","uncletopia"],"game_id":440,"stv_port":27036,"stv_name":"Uncletopia | Los Angeles | 3 | All Maps | STV","players":null},{"server_id":25,"name":"Uncletopia | Los Angeles | 4 | Stopwatch Beta","name_short":"lax-4","host":"lax-1.us.uncletopia.com","port":27045,"enabled":true,"region":"us-west","cc":"us","latitude":33.94279,"longitude":-118.41004,"reserved":0,"last_update":"0001-01-01T00:00:00Z","name_a2s":"Uncletopia | Los Angeles | 4 | Stopwatch Beta","protocol":17,"map":"pl_frontier_final","folder":"tf","game":"Team Fortress","app_id":440,"player_count":0,"max_players":24,"Bots":0,"server_type":"Dedicated","server_os":"Linux","password":true,"vac":true,"version":"7757534","steam_id":85568392924510199,"keywords":["nocrits","nodmgspread","payload","uncletopia"],"game_id":440,"stv_port":27046,"stv_name":"Uncletopia | Los Angeles | 4 | Stopwatch Beta | STV","players":null},{"server_id":11,"name":"Uncletopia | London | 1 | All Maps","name_short":"lon-1","host":"lon-1.uk.uncletopia.com","port":27015,"enabled":true,"region":"eu","cc":"gb","latitude":51.509865,"longitude":-0.118092,"reserved":0,"last_update":"0001-01-01T00:00:00Z","name_a2s":"Uncletopia | London | 1 | All Maps","protocol":17,"map":"koth_viaduct","folder":"tf","game":"Team Fortress","app_id":440,"player_count":0,"max_players":24,"Bots":0,"server_type":"Dedicated","server_os":"Linux","password":true,"vac":true,"version":"7757534","steam_id":85568392924367362,"keywords":["cp","nocrits","nodmgspread","uncletopia"],"game_id":440,"stv_port":27016,"stv_name":"Uncletopia | London | 1 | All Maps | STV","players":null},{"server_id":114,"name":"Uncletopia | London | 2 | All Maps","name_short":"lon-2","host":"lon-1.uk.uncletopia.com","port":27025,"enabled":true,"region":"eu","cc":"gb","latitude":51.509865,"longitude":-0.118092,"reserved":0,"last_update":"0001-01-01T00:00:00Z","name_a2s":"Uncletopia | London | 2 | All Maps","protocol":17,"map":"cp_dustbowl","folder":"tf","game":"Team Fortress","app_id":440,"player_count":0,"max_players":24,"Bots":0,"server_type":"Dedicated","server_os":"Linux","password":true,"vac":true,"version":"7757534","steam_id":85568392924470941,"keywords":["cp","nocrits","nodmgspread","uncletopia"],"game_id":440,"stv_port":27026,"stv_name":"Uncletopia | London | 2 | All Maps | STV","players":null},{"server_id":320,"name":"Uncletopia | London | 3 | All Maps","name_short":"lon-3","host":"lon-1.uk.uncletopia.com","port":27035,"enabled":true,"region":"eu","cc":"gb","latitude":51.509865,"longitude":-0.118092,"reserved":0,"last_update":"0001-01-01T00:00:00Z","name_a2s":"Uncletopia | London | 3 | All Maps","protocol":17,"map":"cp_altitude","folder":"tf","game":"Team Fortress","app_id":440,"player_count":0,"max_players":24,"Bots":0,"server_type":"Dedicated","server_os":"Linux","password":true,"vac":true,"version":"7757534","steam_id":85568392924510192,"keywords":["cp","nocrits","nodmgspread","uncletopia"],"game_id":440,"stv_port":27036,"stv_name":"Uncletopia | London | 3 | All Maps | STV","players":null},{"server_id":321,"name":"Uncletopia | London | 4 | All Maps","name_short":"lon-4","host":"lon-1.uk.uncletopia.com","port":27045,"enabled":true,"region":"eu","cc":"gb","latitude":51.509865,"longitude":-0.118092,"reserved":0,"last_update":"0001-01-01T00:00:00Z","name_a2s":"Uncletopia | London | 4 | All Maps","protocol":17,"map":"koth_viaduct","folder":"tf","game":"Team Fortress","app_id":440,"player_count":0,"max_players":24,"Bots":0,"server_type":"Dedicated","server_os":"Linux","password":true,"vac":true,"version":"7757534","steam_id":85568392924510193,"keywords":["cp","nocrits","nodmgspread","uncletopia"],"game_id":440,"stv_port":27046,"stv_name":"Uncletopia | London | 4 | All Maps | STV","players":null},{"server_id":21,"name":"Uncletopia | London | 5 | All Maps","name_short":"lon-5","host":"lon-1.uk.uncletopia.com","port":27055,"enabled":true,"region":"eu","cc":"gb","latitude":51.509865,"longitude":-0.118092,"reserved":0,"last_update":"0001-01-01T00:00:00Z","name_a2s":"Uncletopia | London | 5 | All Maps","protocol":17,"map":"pl_snowycoast","folder":"tf","game":"Team Fortress","app_id":440,"player_count":0,"max_players":24,"Bots":0,"server_type":"Dedicated","server_os":"Linux","password":true,"vac":true,"version":"7757534","steam_id":85568392924742829,"keywords":["nocrits","nodmgspread","payload","uncletopia"],"game_id":440,"stv_port":27056,"stv_name":"Uncletopia | London | 5 | All Maps | STV","players":null},{"server_id":22,"name":"Uncletopia | London | 6 | All Maps","name_short":"lon-6","host":"lon-1.uk.uncletopia.com","port":27065,"enabled":true,"region":"eu","cc":"gb","latitude":51.509865,"longitude":-0.118092,"reserved":0,"last_update":"0001-01-01T00:00:00Z","name_a2s":"Uncletopia | London | 6 | All Maps","protocol":17,"map":"koth_cascade","folder":"tf","game":"Team Fortress","app_id":440,"player_count":0,"max_players":24,"Bots":0,"server_type":"Dedicated","server_os":"Linux","password":true,"vac":true,"version":"7757534","steam_id":85568392924742830,"keywords":["cp","nocrits","nodmgspread","uncletopia"],"game_id":440,"stv_port":27066,"stv_name":"Uncletopia | London | 6 | All Maps | STV","players":null},{"server_id":40,"name":"Uncletopia | London | 7 | No Payload","name_short":"lon-7","host":"lon-1.uk.uncletopia.com","port":27075,"enabled":true,"region":"eu","cc":"gb","latitude":51.509865,"longitude":-0.118092,"reserved":0,"last_update":"0001-01-01T00:00:00Z","name_a2s":"Uncletopia | London | 7 | No Payload","protocol":17,"map":"cp_mountainlab","folder":"tf","game":"Team Fortress","app_id":440,"player_count":0,"max_players":24,"Bots":0,"server_type":"Dedicated","server_os":"Linux","password":true,"vac":true,"version":"7757534","steam_id":85568392924964314,"keywords":["cp","nocrits","nodmgspread","uncletopia"],"game_id":440,"stv_port":27076,"stv_name":"Uncletopia | London | 7 | No Payload | STV","players":null},{"server_id":41,"name":"Uncletopia | London | 8 | Community","name_short":"lon-8","host":"lon-1.uk.uncletopia.com","port":27085,"enabled":true,"region":"eu","cc":"gb","latitude":51.509865,"longitude":-0.118092,"reserved":0,"last_update":"0001-01-01T00:00:00Z","name_a2s":"Uncletopia | London | 8 | Community","protocol":17,"map":"workshop/cp_bruhstbowl_b5.ugc2878604990","folder":"tf","game":"Team Fortress","app_id":440,"player_count":0,"max_players":24,"Bots":0,"server_type":"Dedicated","server_os":"Linux","password":true,"vac":true,"version":"7757534","steam_id":85568392924964315,"keywords":["cp","nocrits","nodmgspread","uncletopia"],"game_id":440,"stv_port":27086,"stv_name":"Uncletopia | London | 8 | Community | STV","players":null},{"server_id":300,"name":"Uncletopia | Montréal | 1 | All Maps","name_short":"mtl-1","host":"mtl-1.ca.uncletopia.com","port":27015,"enabled":true,"region":"us-east","cc":"ca","latitude":45.50889,"longitude":-73.56167,"reserved":0,"last_update":"0001-01-01T00:00:00Z","name_a2s":"Uncletopia | Montréal | 1 | All Maps","protocol":17,"map":"pl_snowycoast","folder":"tf","game":"Team Fortress","app_id":440,"player_count":0,"max_players":24,"Bots":0,"server_type":"Dedicated","server_os":"Linux","password":true,"vac":true,"version":"7757534","steam_id":85568392924500087,"keywords":["nocrits","nodmgspread","payload","uncletopia"],"game_id":440,"stv_port":27016,"stv_name":"Uncletopia | Montréal | 1 | All Maps | STV","players":null},{"server_id":301,"name":"Uncletopia | Montréal | 2 | All Maps","name_short":"mtl-2","host":"mtl-1.ca.uncletopia.com","port":27025,"enabled":true,"region":"us-east","cc":"ca","latitude":45.50889,"longitude":-73.56167,"reserved":0,"last_update":"0001-01-01T00:00:00Z","name_a2s":"Uncletopia | Montréal | 2 | All Maps","protocol":17,"map":"pl_snowycoast","folder":"tf","game":"Team Fortress","app_id":440,"player_count":0,"max_players":24,"Bots":0,"server_type":"Dedicated","server_os":"Linux","password":true,"vac":true,"version":"7757534","steam_id":85568392924500088,"keywords":["nocrits","nodmgspread","payload","uncletopia"],"game_id":440,"stv_port":27026,"stv_name":"Uncletopia | Montréal | 2 | All Maps | STV","players":null},{"server_id":302,"name":"Uncletopia | Montréal | 3 | All Maps","name_short":"mtl-3","host":"mtl-1.ca.uncletopia.com","port":27035,"enabled":true,"region":"us-east","cc":"ca","latitude":45.50889,"longitude":-73.56167,"reserved":0,"last_update":"0001-01-01T00:00:00Z","name_a2s":"Uncletopia | Montréal | 3 | All Maps","protocol":17,"map":"cp_dustbowl","folder":"tf","game":"Team Fortress","app_id":440,"player_count":0,"max_players":24,"Bots":0,"server_type":"Dedicated","server_os":"Linux","password":true,"vac":true,"version":"7757534","steam_id":85568392924500089,"keywords":["cp","nocrits","nodmgspread","uncletopia"],"game_id":440,"stv_port":27036,"stv_name":"Uncletopia | Montréal | 3 | All Maps | STV","players":null},{"server_id":303,"name":"Uncletopia | Montréal | 4 | No Payload","name_short":"mtl-4","host":"mtl-1.ca.uncletopia.com","port":27045,"enabled":true,"region":"us-east","cc":"ca","latitude":45.50889,"longitude":-73.56167,"reserved":0,"last_update":"0001-01-01T00:00:00Z","name_a2s":"Uncletopia | Montréal | 4 | No Payload","protocol":17,"map":"pl_borneo","folder":"tf","game":"Team Fortress","app_id":440,"player_count":0,"max_players":24,"Bots":0,"server_type":"Dedicated","server_os":"Linux","password":true,"vac":true,"version":"7757534","steam_id":85568392924500090,"keywords":["nocrits","nodmgspread","payload","uncletopia"],"game_id":440,"stv_port":27046,"stv_name":"Uncletopia | Montréal | 4 | No Payload | STV","players":null},{"server_id":13,"name":"Uncletopia | New York City | 1 | All Maps","name_short":"nyc-1","host":"nyc-1.us.uncletopia.com","port":27015,"enabled":true,"region":"us-east","cc":"us","latitude":40.73061,"longitude":-73.93524,"reserved":0,"last_update":"0001-01-01T00:00:00Z","name_a2s":"Uncletopia | New York City | 1 | All Maps","protocol":17,"map":"pl_swiftwater_final1","folder":"tf","game":"Team Fortress","app_id":440,"player_count":0,"max_players":24,"Bots":0,"server_type":"Dedicated","server_os":"Linux","password":true,"vac":true,"version":"7757534","steam_id":85568392924469993,"keywords":["nocrits","nodmgspread","payload","uncletopia"],"game_id":440,"stv_port":27016,"stv_name":"Uncletopia | New York City | 1 | All Maps | STV","players":null},{"server_id":14,"name":"Uncletopia | New York City | 2 | All Maps","name_short":"nyc-2","host":"nyc-1.us.uncletopia.com","port":27025,"enabled":true,"region":"us-east","cc":"us","latitude":40.73061,"longitude":-73.93524,"reserved":0,"last_update":"0001-01-01T00:00:00Z","name_a2s":"Uncletopia | New York City | 2 | All Maps","protocol":17,"map":"pl_pier","folder":"tf","game":"Team Fortress","app_id":440,"player_count":0,"max_players":24,"Bots":0,"server_type":"Dedicated","server_os":"Linux","password":true,"vac":true,"version":"7757534","steam_id":85568392924469994,"keywords":["nocrits","nodmgspread","payload","uncletopia"],"game_id":440,"stv_port":27026,"stv_name":"Uncletopia | New York City | 2 | All Maps | STV","players":null},{"server_id":15,"name":"Uncletopia | New York City | 3 | Stopwatch Beta","name_short":"nyc-3","host":"nyc-1.us.uncletopia.com","port":27035,"enabled":true,"region":"us-east","cc":"us","latitude":40.73061,"longitude":-73.93524,"reserved":0,"last_update":"0001-01-01T00:00:00Z","name_a2s":"Uncletopia | New York City | 3 | Stopwatch Beta","protocol":17,"map":"cp_mountainlab","folder":"tf","game":"Team Fortress","app_id":440,"player_count":0,"max_players":24,"Bots":0,"server_type":"Dedicated","server_os":"Linux","password":true,"vac":true,"version":"7757534","steam_id":85568392924742820,"keywords":["cp","nocrits","nodmgspread","uncletopia"],"game_id":440,"stv_port":27036,"stv_name":"Uncletopia | New York City | 3 | Stopwatch Beta | STV","players":null},{"server_id":16,"name":"Uncletopia | New York City | 4 | Community","name_short":"nyc-4","host":"nyc-1.us.uncletopia.com","port":27045,"enabled":true,"region":"us-east","cc":"us","latitude":40.73061,"longitude":-73.93524,"reserved":0,"last_update":"0001-01-01T00:00:00Z","name_a2s":"Uncletopia | New York City | 4 | Community","protocol":17,"map":"pl_borneo","folder":"tf","game":"Team Fortress","app_id":440,"player_count":0,"max_players":24,"Bots":0,"server_type":"Dedicated","server_os":"Linux","password":true,"vac":true,"version":"7757534","steam_id":85568392924742821,"keywords":["nocrits","nodmgspread","payload","uncletopia"],"game_id":440,"stv_port":27046,"stv_name":"Uncletopia | New York City | 4 | Community | STV","players":null},{"server_id":142,"name":"Uncletopia | São Paulo | 1 | All Maps","name_short":"sao-1","host":"sao-1.br.uncletopia.com","port":27015,"enabled":true,"region":"sa","cc":"br","latitude":-23.533773,"longitude":-46.62529,"reserved":0,"last_update":"0001-01-01T00:00:00Z","name_a2s":"Uncletopia | São Paulo | 1 | All Maps","protocol":17,"map":"pl_badwater","folder":"tf","game":"Team Fortress","app_id":440,"player_count":0,"max_players":24,"Bots":0,"server_type":"Dedicated","server_os":"Linux","password":true,"vac":true,"version":"7757534","steam_id":85568392924469996,"keywords":["nocrits","nodmgspread","payload","uncletopia"],"game_id":440,"stv_port":27016,"stv_name":"Uncletopia | São Paulo | 1 | All Maps | STV","players":null},{"server_id":143,"name":"Uncletopia | São Paulo | 2 | All Maps","name_short":"sao-2","host":"sao-2.br.uncletopia.com","port":27015,"enabled":true,"region":"sa","cc":"br","latitude":-23.533773,"longitude":-46.62529,"reserved":0,"last_update":"0001-01-01T00:00:00Z","name_a2s":"Uncletopia | São Paulo | 2 | All Maps","protocol":17,"map":"pl_borneo","folder":"tf","game":"Team Fortress","app_id":440,"player_count":0,"max_players":24,"Bots":0,"server_type":"Dedicated","server_os":"Linux","password":true,"vac":true,"version":"7757534","steam_id":85568392924485349,"keywords":["nocrits","nodmgspread","payload","uncletopia"],"game_id":440,"stv_port":27016,"stv_name":"Uncletopia | São Paulo | 2 | All Maps | STV","players":null},{"server_id":7,"name":"Uncletopia | Seattle | 1 | All Maps","name_short":"sea-1","host":"sea-1.us.uncletopia.com","port":27015,"enabled":true,"region":"us-west","cc":"us","latitude":47.608013,"longitude":-122.33517,"reserved":0,"last_update":"0001-01-01T00:00:00Z","name_a2s":"Uncletopia | Seattle | 1 | All Maps","protocol":17,"map":"pl_pier","folder":"tf","game":"Team Fortress","app_id":440,"player_count":19,"max_players":24,"Bots":0,"server_type":"Dedicated","server_os":"Linux","password":true,"vac":true,"version":"7757534","steam_id":85568392924469997,"keywords":["nocrits","nodmgspread","payload","uncletopia"],"game_id":440,"stv_port":27016,"stv_name":"Uncletopia | Seattle | 1 | All Maps | STV","players":[{"user_id":754,"name":"Reisen","steam_id":76561199174579733,"connected_time":855000000000,"state":"active","ping":116},{"user_id":753,"name":"Kit Carson","steam_id":76561198115691546,"connected_time":986000000000,"state":"active","ping":86},{"user_id":766,"name":"Hazardous Material","steam_id":76561198085815757,"connected_time":426000000000,"state":"active","ping":119},{"user_id":756,"name":"ROFLMAOLOLXD!","steam_id":76561199472748548,"connected_time":809000000000,"state":"active","ping":77},{"user_id":776,"name":"Sad Sapling","steam_id":76561198075612150,"connected_time":212000000000,"state":"active","ping":80},{"user_id":777,"name":"Rosfell","steam_id":76561198126506967,"connected_time":63000000000,"state":"active","ping":174},{"user_id":778,"name":"Simply_Komeiji","steam_id":76561198354177703,"connected_time":5000000000,"state":"spawning","ping":136},{"user_id":738,"name":"Power","steam_id":76561198139274960,"connected_time":2310000000000,"state":"active","ping":63},{"user_id":773,"name":"Paul Blart","steam_id":76561198068110623,"connected_time":276000000000,"state":"active","ping":48},{"user_id":760,"name":"A Cuppa Cat","steam_id":76561198401288612,"connected_time":733000000000,"state":"active","ping":143},{"user_id":741,"name":"VerseG","steam_id":76561198059246919,"connected_time":2124000000000,"state":"active","ping":46},{"user_id":761,"name":"Jnj, But Uh...","steam_id":76561198295863937,"connected_time":733000000000,"state":"active","ping":80},{"user_id":743,"name":"Warmutt666","steam_id":76561198128155976,"connected_time":1974000000000,"state":"active","ping":128},{"user_id":764,"name":"DIZ","steam_id":76561199065119525,"connected_time":585000000000,"state":"active","ping":129},{"user_id":763,"name":"Vergil Gaming","steam_id":76561198066890470,"connected_time":635000000000,"state":"active","ping":89},{"user_id":774,"name":"-BRH- Tangled up in Bluegrass","steam_id":76561197987181139,"connected_time":238000000000,"state":"active","ping":99},{"user_id":768,"name":"Bryguy","steam_id":76561198092096120,"connected_time":416000000000,"state":"active","ping":91},{"user_id":772,"name":"Zeora","steam_id":76561198799145251,"connected_time":285000000000,"state":"active","ping":130},{"user_id":775,"name":"Ghilo","steam_id":76561198010112441,"connected_time":232000000000,"state":"active","ping":121}]},{"server_id":119,"name":"Uncletopia | Seattle | 2 | All Maps","name_short":"sea-2","host":"sea-1.us.uncletopia.com","port":27025,"enabled":true,"region":"us-west","cc":"us","latitude":47.608013,"longitude":-122.33517,"reserved":0,"last_update":"0001-01-01T00:00:00Z","name_a2s":"Uncletopia | Seattle | 2 | All Maps","protocol":17,"map":"pl_upward","folder":"tf","game":"Team Fortress","app_id":440,"player_count":24,"max_players":24,"Bots":0,"server_type":"Dedicated","server_os":"Linux","password":true,"vac":true,"version":"7757534","steam_id":85568392924469998,"keywords":["nocrits","nodmgspread","payload","uncletopia"],"game_id":440,"stv_port":27026,"stv_name":"Uncletopia | Seattle | 2 | All Maps | STV","players":[{"user_id":810,"name":"Helloppl65","steam_id":76561198272420658,"connected_time":3324000000000,"state":"active","ping":91},{"user_id":840,"name":"brian griffin","steam_id":76561198846480611,"connected_time":887000000000,"state":"active","ping":37},{"user_id":833,"name":"Twisted4k","steam_id":76561198031237102,"connected_time":1259000000000,"state":"active","ping":86},{"user_id":841,"name":"noot noot","steam_id":76561198318446417,"connected_time":875000000000,"state":"active","ping":130},{"user_id":816,"name":"The Horselords and Animal Gods","steam_id":76561197975094050,"connected_time":2739000000000,"state":"active","ping":88},{"user_id":811,"name":"Xerkz","steam_id":76561198063335500,"connected_time":3248000000000,"state":"active","ping":95},{"user_id":844,"name":"Jelqing Table","steam_id":76561198051373750,"connected_time":194000000000,"state":"active","ping":133},{"user_id":812,"name":"your colonoscopy results","steam_id":76561198017705248,"connected_time":3222000000000,"state":"active","ping":95},{"user_id":835,"name":"TAKAWAKA","steam_id":76561198121590259,"connected_time":1189000000000,"state":"active","ping":89},{"user_id":829,"name":"[δ] Delta","steam_id":76561198287190116,"connected_time":1684000000000,"state":"active","ping":90},{"user_id":797,"name":"east coast pan","steam_id":76561198856903497,"connected_time":3842000000000,"state":"active","ping":91},{"user_id":836,"name":"TAKACRAKA","steam_id":76561198117375532,"connected_time":1180000000000,"state":"active","ping":106},{"user_id":799,"name":"KennyAtom","steam_id":76561198376589580,"connected_time":3710000000000,"state":"active","ping":61},{"user_id":789,"name":"crayon flashlight","steam_id":76561198036032168,"connected_time":4759000000000,"state":"active","ping":101},{"user_id":825,"name":"jackhillard83","steam_id":76561199057098390,"connected_time":2060000000000,"state":"active","ping":118},{"user_id":800,"name":"Five","steam_id":76561198026640473,"connected_time":3706000000000,"state":"active","ping":53},{"user_id":818,"name":"ChaoticAngel","steam_id":76561198293528217,"connected_time":2722000000000,"state":"active","ping":115},{"user_id":842,"name":"chungo","steam_id":76561199127423378,"connected_time":313000000000,"state":"active","ping":89},{"user_id":843,"name":"jeffery 1:12","steam_id":76561197993895571,"connected_time":209000000000,"state":"active","ping":120},{"user_id":846,"name":"Claydaddy","steam_id":76561198211153109,"connected_time":16000000000,"state":"active","ping":117},{"user_id":802,"name":"yungSoul","steam_id":76561198121831068,"connected_time":3649000000000,"state":"active","ping":83},{"user_id":839,"name":"AdornedJoker02","steam_id":76561198155242095,"connected_time":986000000000,"state":"active","ping":111},{"user_id":828,"name":"El pandora","steam_id":76561198075490385,"connected_time":1817000000000,"state":"active","ping":81},{"user_id":814,"name":"marvxpensiv3","steam_id":76561199020502894,"connected_time":3141000000000,"state":"active","ping":95}]},{"server_id":406,"name":"Uncletopia | Seattle | 3 | Stopwatch Beta","name_short":"sea-3","host":"sea-1.us.uncletopia.com","port":27035,"enabled":true,"region":"us-west","cc":"us","latitude":47.608013,"longitude":-122.33517,"reserved":0,"last_update":"0001-01-01T00:00:00Z","name_a2s":"Uncletopia | Seattle | 3 | Stopwatch Beta","protocol":17,"map":"workshop/koth_product_final.ugc454272353","folder":"tf","game":"Team Fortress","app_id":440,"player_count":0,"max_players":24,"Bots":0,"server_type":"Dedicated","server_os":"Linux","password":true,"vac":true,"version":"7757534","steam_id":85568392924515217,"keywords":["cp","nocrits","nodmgspread","uncletopia"],"game_id":440,"stv_port":27036,"stv_name":"Uncletopia | Seattle | 3 | Stopwatch Beta | STV","players":null},{"server_id":17,"name":"Uncletopia | San Francisco | 1 | All Maps","name_short":"sfo-1","host":"sfo-1.us.uncletopia.com","port":27015,"enabled":true,"region":"us-west","cc":"us","latitude":37.77397,"longitude":-122.4313,"reserved":0,"last_update":"0001-01-01T00:00:00Z","name_a2s":"Uncletopia | San Francisco | 1 | All Maps","protocol":17,"map":"cp_mountainlab","folder":"tf","game":"Team Fortress","app_id":440,"player_count":0,"max_players":24,"Bots":0,"server_type":"Dedicated","server_os":"Linux","password":true,"vac":true,"version":"7757534","steam_id":85568392924469999,"keywords":["cp","nocrits","nodmgspread","uncletopia"],"game_id":440,"stv_port":27016,"stv_name":"Uncletopia | San Francisco | 1 | All Maps | STV","players":null},{"server_id":18,"name":"Uncletopia | San Francisco | 2 | All Maps","name_short":"sfo-2","host":"sfo-1.us.uncletopia.com","port":27025,"enabled":true,"region":"us-west","cc":"us","latitude":37.77397,"longitude":-122.4313,"reserved":0,"last_update":"0001-01-01T00:00:00Z","name_a2s":"Uncletopia | San Francisco | 2 | All Maps","protocol":17,"map":"koth_cascade","folder":"tf","game":"Team Fortress","app_id":440,"player_count":0,"max_players":24,"Bots":0,"server_type":"Dedicated","server_os":"Linux","password":true,"vac":true,"version":"7757534","steam_id":85568392924470000,"keywords":["cp","nocrits","nodmgspread","uncletopia"],"game_id":440,"stv_port":27026,"stv_name":"Uncletopia | San Francisco | 2 | All Maps | STV","players":null},{"server_id":19,"name":"Uncletopia | San Francisco | 3 | Stopwatch Beta","name_short":"sfo-3","host":"sfo-1.us.uncletopia.com","port":27035,"enabled":true,"region":"us-west","cc":"us","latitude":37.77397,"longitude":-122.4313,"reserved":0,"last_update":"0001-01-01T00:00:00Z","name_a2s":"Uncletopia | San Francisco | 3 | Stopwatch Beta","protocol":17,"map":"pl_borneo","folder":"tf","game":"Team Fortress","app_id":440,"player_count":0,"max_players":24,"Bots":0,"server_type":"Dedicated","server_os":"Linux","password":true,"vac":true,"version":"7757534","steam_id":85568392924742824,"keywords":["nocrits","nodmgspread","payload","uncletopia"],"game_id":440,"stv_port":27036,"stv_name":"Uncletopia | San Francisco | 3 | Stopwatch Beta | STV","players":null},{"server_id":20,"name":"Uncletopia | San Francisco | 4 | Community","name_short":"sfo-4","host":"sfo-1.us.uncletopia.com","port":27045,"enabled":true,"region":"us-west","cc":"us","latitude":37.77397,"longitude":-122.4313,"reserved":0,"last_update":"0001-01-01T00:00:00Z","name_a2s":"Uncletopia | San Francisco | 4 | Community","protocol":17,"map":"koth_highpass","folder":"tf","game":"Team Fortress","app_id":440,"player_count":0,"max_players":24,"Bots":0,"server_type":"Dedicated","server_os":"Linux","password":true,"vac":true,"version":"7757534","steam_id":85568392924742826,"keywords":["cp","nocrits","nodmgspread","uncletopia"],"game_id":440,"stv_port":27046,"stv_name":"Uncletopia | San Francisco | 4 | Community | STV","players":null},{"server_id":141,"name":"Uncletopia | Sydney | 1 | All Maps","name_short":"syd-1","host":"syd-1.au.uncletopia.com","port":27015,"enabled":true,"region":"au","cc":"au","latitude":-33.865143,"longitude":151.2099,"reserved":0,"last_update":"0001-01-01T00:00:00Z","name_a2s":"Uncletopia | Sydney | 1 | All Maps","protocol":17,"map":"cp_snakewater_final1","folder":"tf","game":"Team Fortress","app_id":440,"player_count":24,"max_players":24,"Bots":0,"server_type":"Dedicated","server_os":"Linux","password":true,"vac":true,"version":"7757534","steam_id":85568392924470001,"keywords":["cp","nocrits","nodmgspread","uncletopia"],"game_id":440,"stv_port":27016,"stv_name":"Uncletopia | Sydney | 1 | All Maps | STV","players":[{"user_id":578,"name":"freddyfazbear","steam_id":76561198090396620,"connected_time":687000000000,"state":"active","ping":69},{"user_id":580,"name":"zzzzzzz","steam_id":76561198066726621,"connected_time":644000000000,"state":"active","ping":58},{"user_id":551,"name":"Zom-B-Livion","steam_id":76561197968167449,"connected_time":1953000000000,"state":"active","ping":67},{"user_id":590,"name":"SUSHIMAN","steam_id":76561199089989428,"connected_time":60000000000,"state":"active","ping":93},{"user_id":553,"name":"The Nefarious Nuisance","steam_id":76561198951178401,"connected_time":1767000000000,"state":"active","ping":73},{"user_id":554,"name":"The Bisoneer TF2","steam_id":76561199446773766,"connected_time":1750000000000,"state":"active","ping":86},{"user_id":520,"name":"campbell","steam_id":76561197982503303,"connected_time":3923000000000,"state":"active","ping":49},{"user_id":587,"name":"SchlaytoN","steam_id":76561198206793747,"connected_time":410000000000,"state":"active","ping":71},{"user_id":540,"name":"Skrint","steam_id":76561198402045918,"connected_time":2655000000000,"state":"active","ping":60},{"user_id":583,"name":"Cal","steam_id":76561198069132107,"connected_time":629000000000,"state":"active","ping":55},{"user_id":588,"name":"Rolf :)","steam_id":76561198052357164,"connected_time":371000000000,"state":"active","ping":37},{"user_id":563,"name":"🌸Ava🌸","steam_id":76561198414036116,"connected_time":1256000000000,"state":"active","ping":100},{"user_id":584,"name":"Wake'n'Bake'n'Make'n'Bacon","steam_id":76561198061960926,"connected_time":623000000000,"state":"active","ping":96},{"user_id":569,"name":"soupy","steam_id":76561198073734936,"connected_time":1099000000000,"state":"active","ping":88},{"user_id":501,"name":"Corrupt","steam_id":76561198008567328,"connected_time":5685000000000,"state":"active","ping":109},{"user_id":573,"name":"Oysenberry","steam_id":76561198125443335,"connected_time":923000000000,"state":"active","ping":44},{"user_id":581,"name":"SUCC MY DUCC","steam_id":76561198127068703,"connected_time":644000000000,"state":"active","ping":63},{"user_id":586,"name":"Catto","steam_id":76561197999111589,"connected_time":440000000000,"state":"active","ping":40},{"user_id":589,"name":"FrontlineNinja","steam_id":76561198046731954,"connected_time":107000000000,"state":"active","ping":42},{"user_id":543,"name":"sweet","steam_id":76561198075311236,"connected_time":2606000000000,"state":"active","ping":47},{"user_id":572,"name":"Top Ramen","steam_id":76561198028969833,"connected_time":1027000000000,"state":"active","ping":46},{"user_id":459,"name":"WinterPizza850","steam_id":76561199043352840,"connected_time":8820000000000,"state":"active","ping":100},{"user_id":575,"name":"saudi ambassador messi","steam_id":76561198031293430,"connected_time":909000000000,"state":"active","ping":89},{"user_id":576,"name":"now's the time to invest","steam_id":76561198223331996,"connected_time":909000000000,"state":"active","ping":71}]},{"server_id":123,"name":"Uncletopia | Sydney | 2 | All Maps","name_short":"syd-2","host":"syd-1.au.uncletopia.com","port":27025,"enabled":true,"region":"au","cc":"au","latitude":-33.865143,"longitude":151.2099,"reserved":0,"last_update":"0001-01-01T00:00:00Z","name_a2s":"Uncletopia | Sydney | 2 | All Maps","protocol":17,"map":"pl_pier","folder":"tf","game":"Team Fortress","app_id":440,"player_count":0,"max_players":24,"Bots":0,"server_type":"Dedicated","server_os":"Linux","password":true,"vac":true,"version":"7757534","steam_id":85568392924470002,"keywords":["nocrits","nodmgspread","payload","uncletopia"],"game_id":440,"stv_port":27026,"stv_name":"Uncletopia | Sydney | 2 | All Maps | STV","players":null},{"server_id":395,"name":"Uncletopia | Sydney | 3 | All Maps","name_short":"syd-3","host":"syd-1.au.uncletopia.com","port":27035,"enabled":true,"region":"au","cc":"au","latitude":-33.865143,"longitude":151.2099,"reserved":0,"last_update":"0001-01-01T00:00:00Z","name_a2s":"Uncletopia | Sydney | 3 | All Maps","protocol":17,"map":"koth_viaduct","folder":"tf","game":"Team Fortress","app_id":440,"player_count":6,"max_players":24,"Bots":0,"server_type":"Dedicated","server_os":"Linux","password":true,"vac":true,"version":"7757534","steam_id":85568392925194467,"keywords":["cp","nocrits","nodmgspread","uncletopia"],"game_id":440,"stv_port":27036,"stv_name":"Uncletopia | Sydney | 3 | All Maps | STV","players":[{"user_id":112,"name":"Traveller","steam_id":76561199161637215,"connected_time":841000000000,"state":"active","ping":89},{"user_id":115,"name":"Rarity the Fabulous","steam_id":76561198077653287,"connected_time":513000000000,"state":"active","ping":30},{"user_id":116,"name":"Noble Chernobyl","steam_id":76561198011803825,"connected_time":246000000000,"state":"active","ping":53},{"user_id":117,"name":"[RR] Gazza","steam_id":76561198195761449,"connected_time":156000000000,"state":"active","ping":62},{"user_id":118,"name":"RR Nah (f2p)","steam_id":76561198869190432,"connected_time":150000000000,"state":"active","ping":66},{"user_id":33,"name":"Finios","steam_id":76561198209013071,"connected_time":6449000000000,"state":"active","ping":62}]},{"server_id":396,"name":"Uncletopia | Sydney | 4 | All Maps","name_short":"syd-4","host":"syd-1.au.uncletopia.com","port":27045,"enabled":true,"region":"au","cc":"au","latitude":-33.865143,"longitude":151.2099,"reserved":0,"last_update":"0001-01-01T00:00:00Z","name_a2s":"Uncletopia | Sydney | 4 | All Maps","protocol":17,"map":"koth_cascade","folder":"tf","game":"Team Fortress","app_id":440,"player_count":0,"max_players":24,"Bots":0,"server_type":"Dedicated","server_os":"Linux","password":true,"vac":true,"version":"7757534","steam_id":85568392925397958,"keywords":["cp","nocrits","nodmgspread","uncletopia"],"game_id":440,"stv_port":27046,"stv_name":"Uncletopia | Sydney | 4 | All Maps | STV","players":null},{"server_id":58,"name":"Uncletopia | Sydney | 5 | Stopwatch Beta","name_short":"syd-5","host":"syd-1.au.uncletopia.com","port":27055,"enabled":true,"region":"au","cc":"au","latitude":-33.865143,"longitude":151.2099,"reserved":0,"last_update":"0001-01-01T00:00:00Z","name_a2s":"Uncletopia | Sydney | 5 | Stopwatch Beta","protocol":17,"map":"koth_highpass","folder":"tf","game":"Team Fortress","app_id":440,"player_count":0,"max_players":24,"Bots":0,"server_type":"Dedicated","server_os":"Linux","password":true,"vac":true,"version":"7757534","steam_id":85568392925397959,"keywords":["cp","nocrits","nodmgspread","uncletopia"],"game_id":440,"stv_port":27056,"stv_name":"Uncletopia | Sydney | 5 | Stopwatch Beta | STV","players":null},{"server_id":59,"name":"Uncletopia | Sydney | 6 | Community","name_short":"syd-6","host":"syd-1.au.uncletopia.com","port":27065,"enabled":true,"region":"au","cc":"au","latitude":-33.865143,"longitude":151.2099,"reserved":0,"last_update":"0001-01-01T00:00:00Z","name_a2s":"Uncletopia | Sydney | 6 | Community","protocol":17,"map":"workshop/koth_bagel_rc5.ugc2514036946","folder":"tf","game":"Team Fortress","app_id":440,"player_count":0,"max_players":24,"Bots":0,"server_type":"Dedicated","server_os":"Linux","password":true,"vac":true,"version":"7757534","steam_id":85568392925397960,"keywords":["cp","nocrits","nodmgspread","uncletopia"],"game_id":440,"stv_port":27066,"stv_name":"Uncletopia | Sydney | 6 | Community | STV","players":null},{"server_id":49,"name":"Uncletopia | Warsaw | 1 | All Maps","name_short":"waw-1","host":"waw-1.pl.uncletopia.com","port":27015,"enabled":true,"region":"eu","cc":"pl","latitude":52.2297,"longitude":21.017532,"reserved":0,"last_update":"0001-01-01T00:00:00Z","name_a2s":"","protocol":0,"map":"","folder":"","game":"","app_id":0,"player_count":0,"max_players":0,"Bots":0,"server_type":"","server_os":"","password":false,"vac":false,"version":"","steam_id":0,"keywords":null,"game_id":0,"stv_port":0,"stv_name":"","players":null},{"server_id":50,"name":"Uncletopia | Warsaw | 2 | All Maps","name_short":"waw-2","host":"waw-1.pl.uncletopia.com","port":27025,"enabled":true,"region":"eu","cc":"pl","latitude":52.2297,"longitude":21.017532,"reserved":0,"last_update":"0001-01-01T00:00:00Z","name_a2s":"Uncletopia | Warsaw | 2 | All Maps","protocol":17,"map":"cp_dustbowl","folder":"tf","game":"Team Fortress","app_id":440,"player_count":0,"max_players":24,"Bots":0,"server_type":"Dedicated","server_os":"Linux","password":true,"vac":true,"version":"7757534","steam_id":85568392925397851,"keywords":["cp","nocrits","nodmgspread","uncletopia"],"game_id":440,"stv_port":27026,"stv_name":"Uncletopia | Warsaw | 2 | All Maps | STV","players":null},{"server_id":51,"name":"Uncletopia | Warsaw | 3 | All Maps","name_short":"waw-3","host":"waw-1.pl.uncletopia.com","port":27035,"enabled":true,"region":"eu","cc":"pl","latitude":52.2297,"longitude":21.017532,"reserved":0,"last_update":"0001-01-01T00:00:00Z","name_a2s":"Uncletopia | Warsaw | 3 | All Maps","protocol":17,"map":"pl_barnblitz","folder":"tf","game":"Team Fortress","app_id":440,"player_count":0,"max_players":24,"Bots":0,"server_type":"Dedicated","server_os":"Linux","password":true,"vac":true,"version":"7757534","steam_id":85568392925397852,"keywords":["nocrits","nodmgspread","payload","uncletopia"],"game_id":440,"stv_port":27036,"stv_name":"Uncletopia | Warsaw | 3 | All Maps | STV","players":null},{"server_id":52,"name":"Uncletopia | Warsaw | 4 | All Maps","name_short":"waw-4","host":"waw-1.pl.uncletopia.com","port":27045,"enabled":true,"region":"eu","cc":"pl","latitude":52.2297,"longitude":21.017532,"reserved":0,"last_update":"0001-01-01T00:00:00Z","name_a2s":"Uncletopia | Warsaw | 4 | All Maps","protocol":17,"map":"pl_snowycoast","folder":"tf","game":"Team Fortress","app_id":440,"player_count":0,"max_players":24,"Bots":0,"server_type":"Dedicated","server_os":"Linux","password":true,"vac":true,"version":"7757534","steam_id":85568392925397853,"keywords":["nocrits","nodmgspread","payload","uncletopia"],"game_id":440,"stv_port":27046,"stv_name":"Uncletopia | Warsaw | 4 | All Maps | STV","players":null},{"server_id":53,"name":"Uncletopia | Warsaw | 5 | Stopwatch Beta","name_short":"waw-5","host":"waw-1.pl.uncletopia.com","port":27055,"enabled":true,"region":"eu","cc":"pl","latitude":52.2297,"longitude":21.017532,"reserved":0,"last_update":"0001-01-01T00:00:00Z","name_a2s":"Uncletopia | Warsaw | 5 | Stopwatch Beta","protocol":17,"map":"pl_barnblitz","folder":"tf","game":"Team Fortress","app_id":440,"player_count":0,"max_players":24,"Bots":0,"server_type":"Dedicated","server_os":"Linux","password":true,"vac":true,"version":"7757534","steam_id":85568392925397854,"keywords":["nocrits","nodmgspread","payload","uncletopia"],"game_id":440,"stv_port":27056,"stv_name":"Uncletopia | Warsaw | 5 | Stopwatch Beta | STV","players":null},{"server_id":54,"name":"Uncletopia | Warsaw | 6 | Community","name_short":"waw-6","host":"waw-1.pl.uncletopia.com","port":27065,"enabled":true,"region":"eu","cc":"pl","latitude":52.2297,"longitude":21.017532,"reserved":0,"last_update":"0001-01-01T00:00:00Z","name_a2s":"Uncletopia | Warsaw | 6 | Community","protocol":17,"map":"pl_swiftwater_final1","folder":"tf","game":"Team Fortress","app_id":440,"player_count":0,"max_players":24,"Bots":0,"server_type":"Dedicated","server_os":"Linux","password":true,"vac":true,"version":"7757534","steam_id":85568392925397856,"keywords":["nocrits","nodmgspread","payload","uncletopia"],"game_id":440,"stv_port":27066,"stv_name":"Uncletopia | Warsaw | 6 | Community | STV","players":null}]}