{"status":true,"message":"","result":[{"server_id":9,"name":"Uncletopia | Atlanta | 1 | All Maps","name_short":"atl-1","host":"atl-1.us.uncletopia.com","port":27015,"enabled":true,"region":"us-east","cc":"us","latitude":33.753746,"longitude":-84.38633,"reserved":0,"last_update":"0001-01-01T00:00:00Z","name_a2s":"Uncletopia | Atlanta | 1 | All Maps","protocol":17,"map":"pl_wutville_event","folder":"tf","game":"Team Fortress","app_id":440,"player_count":22,"max_players":24,"Bots":0,"server_type":"Dedicated","server_os":"Linux","password":true,"vac":true,"version":"7723704","steam_id":85568392924469982,"keywords":["nocrits","nodmgspread","payload","uncletopia"],"game_id":440,"stv_port":27016,"stv_name":"Uncletopia | Atlanta | 1 | All Maps | STV","players":[{"user_id":507,"name":"ATL1 | merryy","steam_id":76561198968001329,"connected_time":1284000000000,"state":"active","ping":46},{"user_id":502,"name":"dudlee","steam_id":76561198192939841,"connected_time":1834000000000,"state":"active","ping":57},{"user_id":488,"name":"BORN IN GOOP RAISED IN POOP","steam_id":76561198095909397,"connected_time":3420000000000,"state":"active","ping":38},{"user_id":509,"name":"Phroliax","steam_id":76561198207075529,"connected_time":1259000000000,"state":"active","ping":103},{"user_id":510,"name":"Bozanimal","steam_id":76561198044096897,"connected_time":1238000000000,"state":"active","ping":63},{"user_id":508,"name":"Jellyboi","steam_id":76561197995758438,"connected_time":1274000000000,"state":"active","ping":68},{"user_id":505,"name":"Taste the Pain","steam_id":76561198081617990,"connected_time":1397000000000,"state":"active","ping":104},{"user_id":528,"name":"ATL1 | Lancer Fan Club","steam_id":76561198355495948,"connected_time":125000000000,"state":"active","ping":82},{"user_id":512,"name":"Summer","steam_id":76561198121692871,"connected_time":1179000000000,"state":"active","ping":71},{"user_id":513,"name":"bingle","steam_id":76561198359413453,"connected_time":1119000000000,"state":"active","ping":71},{"user_id":529,"name":"luxin","steam_id":76561198399383047,"connected_time":111000000000,"state":"active","ping":46},{"user_id":487,"name":"Dr. Birb","steam_id":76561198141939154,"connected_time":3666000000000,"state":"active","ping":63},{"user_id":519,"name":"Granny Krissy","steam_id":76561197960848174,"connected_time":984000000000,"state":"active","ping":65},{"user_id":521,"name":"Avo","steam_id":76561197993340494,"connected_time":939000000000,"state":"active","ping":60},{"user_id":517,"name":"Tyler\u0026Fingers","steam_id":76561198085154485,"connected_time":1077000000000,"state":"active","ping":68},{"user_id":484,"name":"Chipmunk Gaming","steam_id":76561198251851220,"connected_time":3933000000000,"state":"active","ping":53},{"user_id":527,"name":"Quietsharp","steam_id":76561198277968438,"connected_time":485000000000,"state":"active","ping":101},{"user_id":503,"name":"Singularity","steam_id":76561198000284742,"connected_time":1774000000000,"state":"active","ping":51},{"user_id":498,"name":"I CAN AND I WILL","steam_id":76561198337692867,"connected_time":2182000000000,"state":"active","ping":84},{"user_id":455,"name":"Nyle","steam_id":76561198045652639,"connected_time":6401000000000,"state":"active","ping":108},{"user_id":473,"name":"Dave5744","steam_id":76561198117207566,"connected_time":4353000000000,"state":"active","ping":62},{"user_id":453,"name":"Quiggles lft","steam_id":76561199177247655,"connected_time":6616000000000,"state":"active","ping":56}]},{"server_id":400,"name":"Uncletopia | Atlanta | 3 | Stopwatch Beta","name_short":"atl-3","host":"atl-1.us.uncletopia.com","port":27035,"enabled":true,"region":"us-east","cc":"us","latitude":33.753746,"longitude":-84.38633,"reserved":0,"last_update":"0001-01-01T00:00:00Z","name_a2s":"Uncletopia | Atlanta | 3 | Stopwatch Beta","protocol":17,"map":"koth_cascade","folder":"tf","game":"Team Fortress","app_id":440,"player_count":0,"max_players":24,"Bots":0,"server_type":"Dedicated","server_os":"Linux","password":true,"vac":true,"version":"7723704","steam_id":85568392924515187,"keywords":["cp","nocrits","nodmgspread","uncletopia"],"game_id":440,"stv_port":27036,"stv_name":"Uncletopia | Atlanta | 3 | Stopwatch Beta | STV","players":null},{"server_id":401,"name":"Uncletopia | Atlanta | 4 | No Payload","name_short":"atl-4","host":"atl-1.us.uncletopia.com","port":27045,"enabled":true,"region":"us-east","cc":"us","latitude":33.753746,"longitude":-84.38633,"reserved":0,"last_update":"0001-01-01T00:00:00Z","name_a2s":"Uncletopia | Atlanta | 4 | No Payload","protocol":17,"map":"pl_pier","folder":"tf","game":"Team Fortress","app_id":440,"player_count":0,"max_players":24,"Bots":0,"server_type":"Dedicated","server_os":"Linux","password":true,"vac":true,"version":"7723704","steam_id":85568392924515188,"keywords":["nocrits","nodmgspread","payload","uncletopia"],"game_id":440,"stv_port":27046,"stv_name":"Uncletopia | Atlanta | 4 | No Payload | STV","players":null},{"server_id":2,"name":"Uncletopia | Chicago | 1 | All Maps","name_short":"chi-1","host":"chi-1.us.uncletopia.com","port":27015,"enabled":true,"region":"us-central","cc":"us","latitude":41.881832,"longitude":-87.62318,"reserved":0,"last_update":"0001-01-01T00:00:00Z","name_a2s":"Uncletopia | Chicago | 1 | All Maps","protocol":17,"map":"pl_badwater","folder":"tf","game":"Team Fortress","app_id":440,"player_count":24,"max_players":24,"Bots":0,"server_type":"Dedicated","server_os":"Linux","password":true,"vac":true,"version":"7723704","steam_id":85568392924469984,"keywords":["nocrits","nodmgspread","payload","uncletopia"],"game_id":440,"stv_port":27016,"stv_name":"Uncletopia | Chicago | 1 | All Maps | STV","players":[{"user_id":233,"name":"|WS| Don't_Taze_Me_Bro","steam_id":76561198043289495,"connected_time":5227000000000,"state":"active","ping":69},{"user_id":271,"name":"ray","steam_id":76561198881434725,"connected_time":1289000000000,"state":"active","ping":70},{"user_id":275,"name":"Darkmaen","steam_id":76561198060543390,"connected_time":882000000000,"state":"active","ping":136},{"user_id":274,"name":"jimmy carter gaming","steam_id":76561198120851792,"connected_time":1277000000000,"state":"active","ping":59},{"user_id":238,"name":"Hylic","steam_id":76561199051314589,"connected_time":4737000000000,"state":"active","ping":63},{"user_id":277,"name":"daffodil","steam_id":76561198049480053,"connected_time":414000000000,"state":"active","ping":58},{"user_id":240,"name":"BeeMoe","steam_id":76561198002100697,"connected_time":4612000000000,"state":"active","ping":53},{"user_id":278,"name":"ferris","steam_id":76561198005721879,"connected_time":193000000000,"state":"active","ping":60},{"user_id":163,"name":"des","steam_id":76561198079226634,"connected_time":9215000000000,"state":"active","ping":80},{"user_id":150,"name":"TheToastingToaster","steam_id":76561198439391966,"connected_time":9763000000000,"state":"active","ping":59},{"user_id":241,"name":"Yoshimelon","steam_id":76561198253054325,"connected_time":4517000000000,"state":"active","ping":73},{"user_id":236,"name":"[slug]","steam_id":76561197989592178,"connected_time":4758000000000,"state":"active","ping":68},{"user_id":252,"name":"Draconic Ballad","steam_id":76561198027191515,"connected_time":3134000000000,"state":"active","ping":48},{"user_id":242,"name":"konrad","steam_id":76561198065356081,"connected_time":4511000000000,"state":"active","ping":108},{"user_id":272,"name":"Lia_Rein TTV","steam_id":76561198151569597,"connected_time":1288000000000,"state":"active","ping":150},{"user_id":260,"name":"CAdaverOusPRophet","steam_id":76561198045304110,"connected_time":2266000000000,"state":"active","ping":47},{"user_id":273,"name":"eWVra2Vy","steam_id":76561198453565942,"connected_time":1288000000000,"state":"active","ping":82},{"user_id":253,"name":"spinglebarp","steam_id":76561198091472345,"connected_time":3085000000000,"state":"active","ping":82},{"user_id":250,"name":"Danny Dongvito","steam_id":76561198050594512,"connected_time":3440000000000,"state":"active","ping":74},{"user_id":254,"name":"·πΩ‚ßâ cookie","steam_id":76561197998884823,"connected_time":3055000000000,"state":"active","ping":67},{"user_id":247,"name":"Apetometrist","steam_id":76561198045391635,"connected_time":3932000000000,"state":"active","ping":62},{"user_id":267,"name":"Your Fwend","steam_id":76561198154773643,"connected_time":1808000000000,"state":"active","ping":74},{"user_id":269,"name":"IGotTheLettuce","steam_id":76561198062473897,"connected_time":1329000000000,"state":"active","ping":79},{"user_id":270,"name":"the ape","steam_id":76561198097847998,"connected_time":1329000000000,"state":"active","ping":66}]},{"server_id":106,"name":"Uncletopia | Chicago | 2 | All Maps","name_short":"chi-2","host":"chi-1.us.uncletopia.com","port":27025,"enabled":true,"region":"us-central","cc":"us","latitude":41.881832,"longitude":-87.62318,"reserved":0,"last_update":"0001-01-01T00:00:00Z","name_a2s":"Uncletopia | Chicago | 2 | All Maps","protocol":17,"map":"cp_process_final","folder":"tf","game":"Team Fortress","app_id":440,"player_count":24,"max_players":24,"Bots":0,"server_type":"Dedicated","server_os":"Linux","password":true,"vac":true,"version":"7723704","steam_id":85568392924469985,"keywords":["cp","nocrits","nodmgspread","uncletopia"],"game_id":440,"stv_port":27026,"stv_name":"Uncletopia | Chicago | 2 | All Maps | STV","players":[{"user_id":50,"name":"exile","steam_id":76561198047813960,"connected_time":556000000000,"state":"active","ping":89},{"user_id":20,"name":"jerma enthusiast","steam_id":76561198359466264,"connected_time":1521000000000,"state":"active","ping":70},{"user_id":15,"name":"FROYO donovin","steam_id":76561198045679387,"connected_time":1717000000000,"state":"active","ping":41},{"user_id":55,"name":"Magician357","steam_id":76561198009308255,"connected_time":376000000000,"state":"active","ping":93},{"user_id":49,"name":"Cutlession","steam_id":76561198243124624,"connected_time":650000000000,"state":"active","ping":83},{"user_id":69,"name":"Ok","steam_id":76561198356826506,"connected_time":38000000000,"state":"spawning","ping":184},{"user_id":57,"name":"choi","steam_id":76561198053669887,"connected_time":257000000000,"state":"active","ping":114},{"user_id":21,"name":"The Real Jetpack Jackson","steam_id":76561199009471455,"connected_time":1486000000000,"state":"active","ping":98},{"user_id":32,"name":"Aerox","steam_id":76561198871081935,"connected_time":1273000000000,"state":"active","ping":156},{"user_id":58,"name":"Soyburg","steam_id":76561199220175718,"connected_time":252000000000,"state":"active","ping":126},{"user_id":51,"name":"¬≤‚Åπ¬≥Ts","steam_id":76561198217955315,"connected_time":482000000000,"state":"active","ping":67},{"user_id":25,"name":"Hunt_er#SaveTf2","steam_id":76561198325350546,"connected_time":1351000000000,"state":"active","ping":69},{"user_id":71,"name":"pr3d4tor","steam_id":76561198853269429,"connected_time":11000000000,"state":"spawning","ping":147},{"user_id":27,"name":"Asher","steam_id":76561198218499636,"connected_time":1344000000000,"state":"active","ping":66},{"user_id":60,"name":"Jeff Pesos","steam_id":76561198086379892,"connected_time":222000000000,"state":"active","ping":72},{"user_id":61,"name":"FlakkerSaber","steam_id":76561198103503066,"connected_time":160000000000,"state":"active","ping":95},{"user_id":48,"name":"Money Collector","steam_id":76561198046249467,"connected_time":693000000000,"state":"active","ping":56},{"user_id":64,"name":"soggymonki236","steam_id":76561198046953937,"connected_time":122000000000,"state":"active","ping":109},{"user_id":66,"name":"gonurlight","steam_id":76561198935839416,"connected_time":105000000000,"state":"active","ping":93},{"user_id":65,"name":"Chorizo Gaming","steam_id":76561199176457046,"connected_time":111000000000,"state":"active","ping":102},{"user_id":67,"name":"Renecup","steam_id":76561199021666883,"connected_time":102000000000,"state":"active","ping":61},{"user_id":68,"name":"Laundry","steam_id":76561198106170346,"connected_time":88000000000,"state":"active","ping":65},{"user_id":70,"name":"lamadre07","steam_id":76561198067337453,"connected_time":28000000000,"state":"spawning","ping":130},{"user_id":52,"name":"A Puppy","steam_id":76561198828184456,"connected_time":477000000000,"state":"active","ping":50}]},{"server_id":402,"name":"Uncletopia | Chicago | 3 | All Maps","name_short":"chi-3","host":"chi-1.us.uncletopia.com","port":27035,"enabled":true,"region":"us-central","cc":"us","latitude":41.881832,"longitude":-87.62318,"reserved":0,"last_update":"0001-01-01T00:00:00Z","name_a2s":"Uncletopia | Chicago | 3 | All Maps","protocol":17,"map":"koth_cascade","folder":"tf","game":"Team Fortress","app_id":440,"player_count":0,"max_players":24,"Bots":0,"server_type":"Dedicated","server_os":"Linux","password":true,"vac":true,"version":"7723704","steam_id":85568392924515191,"keywords":["cp","nocrits","nodmgspread","uncletopia"],"game_id":440,"stv_port":27036,"stv_name":"Uncletopia | Chicago | 3 | All Maps | STV","players":null},{"server_id":403,"name":"Uncletopia | Chicago | 4 | All Maps","name_short":"chi-4","host":"chi-1.us.uncletopia.com","port":27045,"enabled":true,"region":"us-central","cc":"us","latitude":41.881832,"longitude":-87.62318,"reserved":0,"last_update":"0001-01-01T00:00:00Z","name_a2s":"Uncletopia | Chicago | 4 | All Maps","protocol":17,"map":"pl_badwater","folder":"tf","game":"Team Fortress","app_id":440,"player_count":24,"max_players":24,"Bots":0,"server_type":"Dedicated","server_os":"Linux","password":true,"vac":true,"version":"7723704","steam_id":85568392924515193,"keywords":["nocrits","nodmgspread","payload","uncletopia"],"game_id":440,"stv_port":27046,"stv_name":"Uncletopia | Chicago | 4 | All Maps | STV","players":[{"user_id":67,"name":"Nen","steam_id":76561198893347370,"connected_time":1168000000000,"state":"active","ping":105},{"user_id":66,"name":"give me your baby faces blaster","steam_id":76561199013442982,"connected_time":1376000000000,"state":"active","ping":74},{"user_id":16,"name":"META.exe","steam_id":76561199067098696,"connected_time":4088000000000,"state":"active","ping":72},{"user_id":23,"name":"sprite at 9 am","steam_id":76561198064632642,"connected_time":3710000000000,"state":"active","ping":67},{"user_id":58,"name":"Seru","steam_id":76561199219827214,"connected_time":2321000000000,"state":"active","ping":94},{"user_id":73,"name":"CSharp","steam_id":76561199185191710,"connected_time":1044000000000,"state":"active","ping":158},{"user_id":63,"name":"Curly-Haired Rogue","steam_id":76561198101915594,"connected_time":1924000000000,"state":"active","ping":80},{"user_id":72,"name":"i will unheal your scars","steam_id":76561198067994868,"connected_time":1081000000000,"state":"active","ping":50},{"user_id":61,"name":"Kibeca the Weird","steam_id":76561198116534133,"connected_time":2254000000000,"state":"active","ping":66},{"user_id":68,"name":"lili.winters","steam_id":76561199391478575,"connected_time":1167000000000,"state":"active","ping":103},{"user_id":80,"name":"Mr.CheesyFondue","steam_id":76561198011489694,"connected_time":148000000000,"state":"spawning","ping":81},{"user_id":69,"name":"Depresso Amber","steam_id":76561198074209737,"connected_time":1158000000000,"state":"active","ping":60},{"user_id":64,"name":"Movlent","steam_id":76561198305751378,"connected_time":1441000000000,"state":"active","ping":68},{"user_id":31,"name":"ice spice","steam_id":76561198072657891,"connected_time":3324000000000,"state":"active","ping":49},{"user_id":60,"name":"Super Noob","steam_id":76561199179611350,"connected_time":2262000000000,"state":"active","ping":57},{"user_id":77,"name":"Mister36","steam_id":76561198019132100,"connected_time":385000000000,"state":"active","ping":94},{"user_id":83,"name":"Z4lTte","steam_id":76561198283258068,"connected_time":9000000000,"state":"spawning","ping":59},{"user_id":76,"name":"Lane","steam_id":76561197965828506,"connected_time":508000000000,"state":"active","ping":42},{"user_id":74,"name":"Chimpish","steam_id":76561199263493270,"connected_time":661000000000,"state":"active","ping":85},{"user_id":59,"name":"DoodleCultist","steam_id":76561198306927279,"connected_time":2318000000000,"state":"active","ping":73},{"user_id":81,"name":"double xp weekend","steam_id":76561198052950547,"connected_time":127000000000,"state":"active","ping":40},{"user_id":40,"name":"Stormartillery","steam_id":76561198408982577,"connected_time":2996000000000,"state":"active","ping":71},{"user_id":78,"name":"Cyberwhale","steam_id":76561198086305971,"connected_time":202000000000,"state":"active","ping":87},{"user_id":79,"name":"Blorgus_J_Blart","steam_id":76561198430926135,"connected_time":175000000000,"state":"active","ping":73}]},{"server_id":36,"name":"Uncletopia | Chicago | 5 | All Maps","name_short":"chi-5","host":"chi-2.us.uncletopia.com","port":27015,"enabled":true,"region":"us-central","cc":"us","latitude":41.881832,"longitude":-87.62318,"reserved":0,"last_update":"0001-01-01T00:00:00Z","name_a2s":"Uncletopia | Chicago | 5 | All Maps","protocol":17,"map":"koth_cascade","folder":"tf","game":"Team Fortress","app_id":440,"player_count":0,"max_players":24,"Bots":0,"server_type":"Dedicated","server_os":"Linux","password":true,"vac":true,"version":"7723704","steam_id":85568392924866362,"keywords":["cp","nocrits","nodmgspread","uncletopia"],"game_id":440,"stv_port":27016,"stv_name":"Uncletopia | Chicago | 5 | All Maps | STV","players":null},{"server_id":37,"name":"Uncletopia | Chicago | 6 | All Maps","name_short":"chi-6","host":"chi-2.us.uncletopia.com","port":27025,"enabled":true,"region":"us-central","cc":"us","latitude":41.881832,"longitude":-87.62318,"reserved":0,"last_update":"0001-01-01T00:00:00Z","name_a2s":"Uncletopia | Chicago | 6 | All Maps","protocol":17,"map":"pl_swiftwater_final1","folder":"tf","game":"Team Fortress","app_id":440,"player_count":0,"max_players":24,"Bots":0,"server_type":"Dedicated","server_os":"Linux","password":true,"vac":true,"version":"7723704","steam_id":85568392924866363,"keywords":["nocrits","nodmgspread","payload","uncletopia"],"game_id":440,"stv_port":27026,"stv_name":"Uncletopia | Chicago | 6 | All Maps | STV","players":null},{"server_id":38,"name":"Uncletopia | Chicago | 7 | Stopwatch Beta","name_short":"chi-7","host":"chi-2.us.uncletopia.com","port":27035,"enabled":true,"region":"us-central","cc":"us","latitude":41.881832,"longitude":-87.62318,"reserved":0,"last_update":"0001-01-01T00:00:00Z","name_a2s":"Uncletopia | Chicago | 7 | Stopwatch Beta","protocol":17,"map":"workshop/koth_clearcut_b15.ugc2107050255","folder":"tf","game":"Team Fortress","app_id":440,"player_count":0,"max_players":24,"Bots":0,"server_type":"Dedicated","server_os":"Linux","password":true,"vac":true,"version":"7723704","steam_id":85568392924866364,"keywords":["cp","nocrits","nodmgspread","uncletopia"],"game_id":440,"stv_port":27036,"stv_name":"Uncletopia | Chicago | 7 | Stopwatch Beta | STV","players":null},{"server_id":39,"name":"Uncletopia | Chicago | 8 | Community","name_short":"chi-8","host":"chi-2.us.uncletopia.com","port":27045,"enabled":true,"region":"us-central","cc":"us","latitude":41.881832,"longitude":-87.62318,"reserved":0,"last_update":"0001-01-01T00:00:00Z","name_a2s":"Uncletopia | Chicago | 8 | Community","protocol":17,"map":"pl_frontier_final","folder":"tf","game":"Team Fortress","app_id":440,"player_count":0,"max_players":24,"Bots":0,"server_type":"Dedicated","server_os":"Linux","password":true,"vac":true,"version":"7723704","steam_id":85568392924866365,"keywords":["nocrits","nodmgspread","payload","uncletopia"],"game_id":440,"stv_port":27046,"stv_name":"Uncletopia | Chicago | 8 | Community | STV","players":null},{"server_id":8,"name":"Uncletopia | Dallas | 1 | All Maps","name_short":"dal-1","host":"dal-1.us.uncletopia.com","port":27015,"enabled":true,"region":"us-central","cc":"us","latitude":32.779167,"longitude":-96.80889,"reserved":0,"last_update":"0001-01-01T00:00:00Z","name_a2s":"Uncletopia | Dallas | 1 | All Maps","protocol":17,"map":"pl_thundermountain","folder":"tf","game":"Team Fortress","app_id":440,"player_count":24,"max_players":24,"Bots":0,"server_type":"Dedicated","server_os":"Linux","password":true,"vac":true,"version":"7723704","steam_id":85568392924469986,"keywords":["nocrits","nodmgspread","payload","uncletopia"],"game_id":440,"stv_port":27016,"stv_name":"Uncletopia | Dallas | 1 | All Maps | STV","players":[{"user_id":170,"name":"Sheembs","steam_id":76561199010524390,"connected_time":2412000000000,"state":"active","ping":68},{"user_id":173,"name":"Brain","steam_id":76561198237850206,"connected_time":1972000000000,"state":"active","ping":60},{"user_id":183,"name":"Marc G","steam_id":76561198062650363,"connected_time":1110000000000,"state":"active","ping":45},{"user_id":147,"name":"R","steam_id":76561198309760791,"connected_time":4386000000000,"state":"active","ping":159},{"user_id":161,"name":"Joe SMS From Progressive","steam_id":76561198336597038,"connected_time":3393000000000,"state":"active","ping":63},{"user_id":162,"name":"davidwake2120","steam_id":76561199236238636,"connected_time":3388000000000,"state":"active","ping":68},{"user_id":131,"name":"KaiaDoggy","steam_id":76561197997096301,"connected_time":5601000000000,"state":"active","ping":51},{"user_id":174,"name":"wxndxrwhxreth3wxrldwxnt","steam_id":76561199409264244,"connected_time":1957000000000,"state":"active","ping":90},{"user_id":158,"name":"happy man!!! :D!!!!","steam_id":76561198128468316,"connected_time":3751000000000,"state":"active","ping":55},{"user_id":181,"name":"Riff","steam_id":76561198066921423,"connected_time":1204000000000,"state":"active","ping":62},{"user_id":190,"name":"Spy on cart","steam_id":76561198025466913,"connected_time":97000000000,"state":"active","ping":75},{"user_id":87,"name":"Eightyy  Fourr","steam_id":76561197960374225,"connected_time":9173000000000,"state":"active","ping":56},{"user_id":188,"name":"futmaus","steam_id":76561199063130278,"connected_time":439000000000,"state":"active","ping":82},{"user_id":178,"name":"Yakts","steam_id":76561198115044159,"connected_time":1674000000000,"state":"active","ping":98},{"user_id":151,"name":"Satori Komeiji","steam_id":76561198158211423,"connected_time":4316000000000,"state":"active","ping":72},{"user_id":184,"name":"Fredfredfood","steam_id":76561198072824802,"connected_time":1064000000000,"state":"active","ping":75},{"user_id":179,"name":"a Hippobottomus","steam_id":76561198126853441,"connected_time":1415000000000,"state":"active","ping":45},{"user_id":157,"name":"MerlinTheWizard","steam_id":76561198171472393,"connected_time":3963000000000,"state":"active","ping":64},{"user_id":189,"name":"Shark Sandwich","steam_id":76561198025007938,"connected_time":187000000000,"state":"active","ping":107},{"user_id":153,"name":"Arizona","steam_id":76561198113748347,"connected_time":4247000000000,"state":"active","ping":66},{"user_id":187,"name":"SweetLou","steam_id":76561198064569582,"connected_time":840000000000,"state":"active","ping":76},{"user_id":186,"name":"Target Audience","steam_id":76561198095536103,"connected_time":998000000000,"state":"active","ping":81},{"user_id":116,"name":"The Squid Gamer‚Ñ¢","steam_id":76561198340621517,"connected_time":7103000000000,"state":"active","ping":91},{"user_id":138,"name":"pinglefingle","steam_id":76561198216580197,"connected_time":5379000000000,"state":"active","ping":59}]},{"server_id":108,"name":"Uncletopia | Dallas | 2 | All Maps","name_short":"dal-2","host":"dal-1.us.uncletopia.com","port":27025,"enabled":true,"region":"us-central","cc":"us","latitude":32.779167,"longitude":-96.80889,"reserved":0,"last_update":"0001-01-01T00:00:00Z","name_a2s":"Uncletopia | Dallas | 2 | All Maps","protocol":17,"map":"pl_barnblitz","folder":"tf","game":"Team Fortress","app_id":440,"player_count":23,"max_players":24,"Bots":0,"server_type":"Dedicated","server_os":"Linux","password":true,"vac":true,"version":"7723704","steam_id":85568392924469988,"keywords":["nocrits","nodmgspread","payload","uncletopia"],"game_id":440,"stv_port":27026,"stv_name":"Uncletopia | Dallas | 2 | All Maps | STV","players":[{"user_id":110,"name":"Zero","steam_id":76561199383267408,"connected_time":1503000000000,"state":"active","ping":52},{"user_id":111,"name":"I like cheese (real)","steam_id":76561198882837408,"connected_time":1492000000000,"state":"active","ping":96},{"user_id":48,"name":"Cthulwho?","steam_id":76561198165550810,"connected_time":5491000000000,"state":"active","ping":86},{"user_id":115,"name":"Mellou","steam_id":76561198212048740,"connected_time":1187000000000,"state":"active","ping":43},{"user_id":126,"name":"AKKAWI","steam_id":76561198203159952,"connected_time":218000000000,"state":"active","ping":88},{"user_id":127,"name":"walrooos ‚úø","steam_id":76561198024521839,"connected_time":57000000000,"state":"active","ping":72},{"user_id":61,"name":"Shmoseph","steam_id":76561198354689252,"connected_time":4123000000000,"state":"active","ping":64},{"user_id":117,"name":"[]{}#^*+=","steam_id":76561198127039453,"connected_time":903000000000,"state":"active","ping":69},{"user_id":69,"name":"CBTgaeming","steam_id":76561199089290128,"connected_time":3992000000000,"state":"active","ping":151},{"user_id":98,"name":"Mudd","steam_id":76561199220612917,"connected_time":2041000000000,"state":"active","ping":87},{"user_id":105,"name":"hellohello","steam_id":76561198094058177,"connected_time":1928000000000,"state":"active","ping":67},{"user_id":112,"name":"Mr. Ruckus","steam_id":76561198339566190,"connected_time":1476000000000,"state":"active","ping":92},{"user_id":128,"name":"warscout101bro","steam_id":76561198813489938,"connected_time":21000000000,"state":"active","ping":104},{"user_id":121,"name":"little man","steam_id":76561198865971290,"connected_time":842000000000,"state":"active","ping":86},{"user_id":91,"name":"Volkan, Pervert Extraordinaire","steam_id":76561198004569575,"connected_time":2413000000000,"state":"active","ping":97},{"user_id":124,"name":"eldritch horror","steam_id":76561198228012244,"connected_time":580000000000,"state":"active","ping":158},{"user_id":103,"name":"ozymandias","steam_id":76561198983415087,"connected_time":1995000000000,"state":"active","ping":63},{"user_id":29,"name":"Lord Scrubling","steam_id":76561198263744445,"connected_time":6659000000000,"state":"active","ping":47},{"user_id":67,"name":"Winter the Witchie","steam_id":76561198151971178,"connected_time":4005000000000,"state":"active","ping":96},{"user_id":68,"name":"Brandino!","steam_id":76561198000446932,"connected_time":3998000000000,"state":"active","ping":104},{"user_id":106,"name":"the.land.of.avalon","steam_id":76561198245431668,"connected_time":1808000000000,"state":"active","ping":73},{"user_id":102,"name":"GuyGoom","steam_id":76561198254522178,"connected_time":2001000000000,"state":"active","ping":67},{"user_id":122,"name":"Cheese","steam_id":76561199435683727,"connected_time":749000000000,"state":"active","ping":133}]},{"server_id":5,"name":"Uncletopia | Frankfurt | 1 | All Maps","name_short":"frk-1","host":"frk-1.de.uncletopia.com","port":27015,"enabled":true,"region":"eu","cc":"de","latitude":50.110924,"longitude":8.682127,"reserved":0,"last_update":"0001-01-01T00:00:00Z","name_a2s":"Uncletopia | Frankfurt | 1 | All Maps","protocol":17,"map":"pl_goldrush","folder":"tf","game":"Team Fortress","app_id":440,"player_count":24,"max_players":24,"Bots":0,"server_type":"Dedicated","server_os":"Linux","password":true,"vac":true,"version":"7723704","steam_id":85568392924469989,"keywords":["nocrits","nodmgspread","payload","uncletopia"],"game_id":440,"stv_port":27016,"stv_name":"Uncletopia | Frankfurt | 1 | All Maps | STV","players":[{"user_id":315,"name":"OrangeBanana","steam_id":76561199230233875,"connected_time":3019000000000,"state":"active","ping":57},{"user_id":345,"name":"loveless","steam_id":76561198142256651,"connected_time":877000000000,"state":"active","ping":74},{"user_id":340,"name":"moser23","steam_id":76561197960543171,"connected_time":1377000000000,"state":"active","ping":36},{"user_id":348,"name":"The all seeing four eye","steam_id":76561198372971096,"connected_time":829000000000,"state":"active","ping":79},{"user_id":311,"name":"SealDealer","steam_id":76561198310852145,"connected_time":3405000000000,"state":"active","ping":65},{"user_id":312,"name":"Kitsune | uWu","steam_id":76561199051966564,"connected_time":3353000000000,"state":"active","ping":71},{"user_id":318,"name":"Derpanium","steam_id":76561198072557804,"connected_time":2902000000000,"state":"active","ping":60},{"user_id":343,"name":"Seargant Snagge","steam_id":76561198055227276,"connected_time":1018000000000,"state":"active","ping":83},{"user_id":321,"name":"King Nugget","steam_id":76561198134037464,"connected_time":2889000000000,"state":"active","ping":62},{"user_id":358,"name":"Moderob","steam_id":76561198087366044,"connected_time":22000000000,"state":"active","ping":82},{"user_id":323,"name":"Itai","steam_id":76561198804555329,"connected_time":2800000000000,"state":"active","ping":103},{"user_id":324,"name":"VioBeeyo","steam_id":76561198066258544,"connected_time":2772000000000,"state":"active","ping":59},{"user_id":325,"name":"Dark_Prelate","steam_id":76561199065671442,"connected_time":2741000000000,"state":"active","ping":51},{"user_id":351,"name":"The Spectre of Vladimir Lenin","steam_id":76561199438120787,"connected_time":749000000000,"state":"active","ping":70},{"user_id":352,"name":"Dr.Disrespect","steam_id":76561198043820228,"connected_time":684000000000,"state":"active","ping":48},{"user_id":328,"name":"Alich","steam_id":76561198054110232,"connected_time":2679000000000,"state":"active","ping":79},{"user_id":329,"name":"Ancient Mariner","steam_id":76561198209101861,"connected_time":2594000000000,"state":"active","ping":71},{"user_id":355,"name":"Techm32","steam_id":76561198317134994,"connected_time":340000000000,"state":"active","ping":60},{"user_id":331,"name":"Typical","steam_id":76561199009805172,"connected_time":2530000000000,"state":"active","ping":58},{"user_id":356,"name":"Hariboz","steam_id":76561198244468102,"connected_time":306000000000,"state":"active","ping":53},{"user_id":350,"name":"Monsteh","steam_id":76561198325898181,"connected_time":782000000000,"state":"active","ping":63},{"user_id":354,"name":"Moustache_Man","steam_id":76561198162727927,"connected_time":370000000000,"state":"active","ping":62},{"user_id":337,"name":"Mr.Schnittlauch","steam_id":76561198295868113,"connected_time":2343000000000,"state":"active","ping":49},{"user_id":286,"name":"romaingallo","steam_id":76561198268112907,"connected_time":5305000000000,"state":"active","ping":56}]},{"server_id":110,"name":"Uncletopia | Frankfurt | 2 | All Maps","name_short":"frk-2","host":"frk-1.de.uncletopia.com","port":27025,"enabled":true,"region":"eu","cc":"de","latitude":50.110924,"longitude":8.682127,"reserved":0,"last_update":"0001-01-01T00:00:00Z","name_a2s":"Uncletopia | Frankfurt | 2 | All Maps","protocol":17,"map":"pl_frontier_final","folder":"tf","game":"Team Fortress","app_id":440,"player_count":23,"max_players":24,"Bots":0,"server_type":"Dedicated","server_os":"Linux","password":true,"vac":true,"version":"7723704","steam_id":85568392924469990,"keywords":["nocrits","nodmgspread","payload","uncletopia"],"game_id":440,"stv_port":27026,"stv_name":"Uncletopia | Frankfurt | 2 | All Maps | STV","players":[{"user_id":288,"name":"Clumsy ‚ô•","steam_id":76561199049413586,"connected_time":3079000000000,"state":"active","ping":72},{"user_id":328,"name":"OmR","steam_id":76561198015792609,"connected_time":182000000000,"state":"active","ping":56},{"user_id":302,"name":"Rega Macist","steam_id":76561198446797116,"connected_time":2499000000000,"state":"active","ping":89},{"user_id":316,"name":"girth gremlin","steam_id":76561198436424012,"connected_time":1102000000000,"state":"active","ping":55},{"user_id":293,"name":"witxes","steam_id":76561199442579490,"connected_time":2708000000000,"state":"active","ping":53},{"user_id":317,"name":"busy busy bee :D","steam_id":76561198128222331,"connected_time":1095000000000,"state":"active","ping":144},{"user_id":262,"name":"C0d3s","steam_id":76561198093907544,"connected_time":4788000000000,"state":"active","ping":95},{"user_id":263,"name":"CAF_Semppo (The M is silent)","steam_id":76561198284961533,"connected_time":4618000000000,"state":"active","ping":84},{"user_id":295,"name":"GamingElek","steam_id":76561198253639367,"connected_time":2686000000000,"state":"active","ping":54},{"user_id":168,"name":"Rappin' Sebastian","steam_id":76561198453928256,"connected_time":12498000000000,"state":"active","ping":83},{"user_id":301,"name":"darkwater","steam_id":76561197986978738,"connected_time":2573000000000,"state":"active","ping":59},{"user_id":264,"name":"Bromoneto","steam_id":76561198876695014,"connected_time":4617000000000,"state":"active","ping":80},{"user_id":305,"name":"üÉî Nugg1t(sme/lly)","steam_id":76561198065652251,"connected_time":1814000000000,"state":"active","ping":43},{"user_id":306,"name":"hushhx","steam_id":76561198216200092,"connected_time":1786000000000,"state":"active","ping":63},{"user_id":321,"name":"HYA HYA FOOWAAH!","steam_id":76561198193357946,"connected_time":1017000000000,"state":"active","ping":128},{"user_id":276,"name":"CAF_Jahoth3","steam_id":76561198372187865,"connected_time":4371000000000,"state":"active","ping":104},{"user_id":327,"name":"sisto majesto","steam_id":76561198073532776,"connected_time":536000000000,"state":"active","ping":95},{"user_id":326,"name":"Fischer","steam_id":76561198301481739,"connected_time":821000000000,"state":"active","ping":45},{"user_id":284,"name":"waluigi","steam_id":76561198215809251,"connected_time":4072000000000,"state":"active","ping":55},{"user_id":277,"name":"giclure :;","steam_id":76561197986362828,"connected_time":4364000000000,"state":"active","ping":85},{"user_id":324,"name":"Celmss","steam_id":76561198101918358,"connected_time":972000000000,"state":"active","ping":78},{"user_id":280,"name":"CAF_Zerkku","steam_id":76561198216102419,"connected_time":4333000000000,"state":"active","ping":83},{"user_id":325,"name":"V1 is in my ass","steam_id":76561198107362485,"connected_time":894000000000,"state":"active","ping":87}]},{"server_id":308,"name":"Uncletopia | Frankfurt | 3 | All Maps","name_short":"frk-3","host":"frk-1.de.uncletopia.com","port":27035,"enabled":true,"region":"eu","cc":"de","latitude":50.110924,"longitude":8.682127,"reserved":0,"last_update":"0001-01-01T00:00:00Z","name_a2s":"Uncletopia | Frankfurt | 3 | All Maps","protocol":17,"map":"plr_hightower","folder":"tf","game":"Team Fortress","app_id":440,"player_count":22,"max_players":24,"Bots":0,"server_type":"Dedicated","server_os":"Linux","password":true,"vac":true,"version":"7723704","steam_id":85568392924504274,"keywords":["nocrits","nodmgspread","payload","uncletopia"],"game_id":440,"stv_port":27036,"stv_name":"Uncletopia | Frankfurt | 3 | All Maps | STV","players":[{"user_id":525,"name":"SgtRookie","steam_id":76561198030230427,"connected_time":887000000000,"state":"active","ping":88},{"user_id":533,"name":"Milten","steam_id":76561198191768569,"connected_time":496000000000,"state":"active","ping":67},{"user_id":522,"name":"bart","steam_id":76561198317737261,"connected_time":938000000000,"state":"active","ping":59},{"user_id":520,"name":"That Phlog mfer","steam_id":76561198050416948,"connected_time":1102000000000,"state":"active","ping":50},{"user_id":467,"name":"Evisnodim","steam_id":76561198210616983,"connected_time":6189000000000,"state":"active","ping":132},{"user_id":528,"name":"Milosz52","steam_id":76561199060940204,"connected_time":721000000000,"state":"active","ping":81},{"user_id":451,"name":"Yony","steam_id":76561199070569941,"connected_time":8018000000000,"state":"active","ping":57},{"user_id":526,"name":"Lukas","steam_id":76561198009118452,"connected_time":871000000000,"state":"active","ping":50},{"user_id":527,"name":"willem dafoe fan","steam_id":76561198795590054,"connected_time":751000000000,"state":"active","ping":81},{"user_id":536,"name":"Pyromana","steam_id":76561198088421655,"connected_time":268000000000,"state":"active","ping":56},{"user_id":517,"name":"MomoInTheBox","steam_id":76561197994150695,"connected_time":2298000000000,"state":"active","ping":75},{"user_id":530,"name":"Killian047","steam_id":76561198885574392,"connected_time":597000000000,"state":"active","ping":151},{"user_id":481,"name":"Pudd of The Pompous Tophats","steam_id":76561198014468443,"connected_time":4881000000000,"state":"active","ping":71},{"user_id":486,"name":"Octoblue64","steam_id":76561198388997283,"connected_time":4818000000000,"state":"active","ping":57},{"user_id":495,"name":"Mayor Wank from Wanker Town","steam_id":76561197998253588,"connected_time":3543000000000,"state":"active","ping":51},{"user_id":487,"name":"Lord of the Lockerroom","steam_id":76561198080619697,"connected_time":4633000000000,"state":"active","ping":102},{"user_id":494,"name":"Crossy","steam_id":76561198091702315,"connected_time":3662000000000,"state":"active","ping":71},{"user_id":537,"name":"ImABush","steam_id":76561198304471896,"connected_time":257000000000,"state":"active","ping":51},{"user_id":531,"name":"Barbatruc","steam_id":76561198119019916,"connected_time":576000000000,"state":"active","ping":63},{"user_id":518,"name":"Caliban","steam_id":76561197999696839,"connected_time":2088000000000,"state":"active","ping":97},{"user_id":532,"name":"SirNeeco \u003c3","steam_id":76561198103014203,"connected_time":538000000000,"state":"active","ping":59},{"user_id":534,"name":"Lewylow","steam_id":76561198005425686,"connected_time":481000000000,"state":"active","ping":68}]},{"server_id":309,"name":"Uncletopia | Frankfurt | 4 | All Maps","name_short":"frk-4","host":"frk-1.de.uncletopia.com","port":27045,"enabled":true,"region":"eu","cc":"de","latitude":50.110924,"longitude":8.682127,"reserved":0,"last_update":"0001-01-01T00:00:00Z","name_a2s":"Uncletopia | Frankfurt | 4 | All Maps","protocol":17,"map":"pl_borneo","folder":"tf","game":"Team Fortress","app_id":440,"player_count":17,"max_players":24,"Bots":0,"server_type":"Dedicated","server_os":"Linux","password":true,"vac":true,"version":"7723704","steam_id":85568392924504275,"keywords":["nocrits","nodmgspread","payload","uncletopia"],"game_id":440,"stv_port":27046,"stv_name":"Uncletopia | Frankfurt | 4 | All Maps | STV","players":[{"user_id":263,"name":"a bag of cement on mars","steam_id":76561198019402537,"connected_time":3059000000000,"state":"active","ping":79},{"user_id":295,"name":"Solid","steam_id":76561198357049292,"connected_time":6000000000,"state":"spawning","ping":113},{"user_id":266,"name":"Carry Krypl","steam_id":76561198136938121,"connected_time":2689000000000,"state":"active","ping":48},{"user_id":292,"name":"linkinparkfan123","steam_id":76561199033782005,"connected_time":222000000000,"state":"active","ping":155},{"user_id":281,"name":"Schizophrenia","steam_id":76561198315642032,"connected_time":1065000000000,"state":"active","ping":59},{"user_id":293,"name":"Johnny","steam_id":76561198880265246,"connected_time":169000000000,"state":"spawning","ping":97},{"user_id":294,"name":"Klik","steam_id":76561198891046692,"connected_time":159000000000,"state":"active","ping":60},{"user_id":279,"name":"Zoran Snajper","steam_id":76561198312564061,"connected_time":1220000000000,"state":"active","ping":71},{"user_id":254,"name":"zero","steam_id":76561198055365234,"connected_time":3751000000000,"state":"active","ping":70},{"user_id":282,"name":"Abe Lincoln","steam_id":76561198075232017,"connected_time":1003000000000,"state":"active","ping":49},{"user_id":283,"name":"Shane Rizz","steam_id":76561198402363748,"connected_time":1003000000000,"state":"active","ping":53},{"user_id":287,"name":"shr1mple","steam_id":76561198173537027,"connected_time":561000000000,"state":"active","ping":42},{"user_id":289,"name":".moral37-","steam_id":76561198102195119,"connected_time":513000000000,"state":"active","ping":72},{"user_id":285,"name":"Cippo95","steam_id":76561198255311582,"connected_time":911000000000,"state":"active","ping":62},{"user_id":276,"name":"–∏–≤–∞–Ω","steam_id":76561198072730591,"connected_time":1746000000000,"state":"active","ping":52},{"user_id":222,"name":"Jingleboob's 1# Elf","steam_id":76561198067204908,"connected_time":6003000000000,"state":"active","ping":65},{"user_id":228,"name":"W+M1","steam_id":76561198418538887,"connected_time":5437000000000,"state":"active","ping":91}]},{"server_id":310,"name":"Uncletopia | Frankfurt | 5 | All Maps","name_short":"frk-5","host":"frk-1.de.uncletopia.com","port":27055,"enabled":true,"region":"eu","cc":"de","latitude":50.110924,"longitude":8.682127,"reserved":0,"last_update":"0001-01-01T00:00:00Z","name_a2s":"Uncletopia | Frankfurt | 5 | All Maps","protocol":17,"map":"ctf_2fort","folder":"tf","game":"Team Fortress","app_id":440,"player_count":22,"max_players":24,"Bots":0,"server_type":"Dedicated","server_os":"Linux","password":true,"vac":true,"version":"7723704","steam_id":85568392924504277,"keywords":["ctf","nocrits","nodmgspread","uncletopia"],"game_id":440,"stv_port":27056,"stv_name":"Uncletopia | Frankfurt | 5 | All Maps | STV","players":[{"user_id":364,"name":"Brinier","steam_id":76561199012604288,"connected_time":127000000000,"state":"active","ping":53},{"user_id":359,"name":"peperbear","steam_id":76561199134693925,"connected_time":374000000000,"state":"active","ping":81},{"user_id":347,"name":"M76030","steam_id":76561198046651252,"connected_time":1146000000000,"state":"active","ping":43},{"user_id":331,"name":"Random Main \u003c3","steam_id":76561198341428449,"connected_time":2212000000000,"state":"active","ping":64},{"user_id":352,"name":"hamude.alsarhan2011","steam_id":76561199259727736,"connected_time":671000000000,"state":"active","ping":57},{"user_id":366,"name":"UnusualBrit","steam_id":76561198255679838,"connected_time":64000000000,"state":"active","ping":67},{"user_id":311,"name":"HanhiGaming","steam_id":76561198877007477,"connected_time":3401000000000,"state":"active","ping":88},{"user_id":367,"name":"Dino","steam_id":76561198886992363,"connected_time":50000000000,"state":"active","ping":76},{"user_id":265,"name":"Recurracy","steam_id":76561197993421597,"connected_time":6799000000000,"state":"active","ping":54},{"user_id":354,"name":"Michael","steam_id":76561198003146906,"connected_time":630000000000,"state":"active","ping":58},{"user_id":327,"name":"VK2124 :D","steam_id":76561198111130688,"connected_time":2905000000000,"state":"active","ping":53},{"user_id":356,"name":"quack","steam_id":76561198121003465,"connected_time":586000000000,"state":"active","ping":63},{"user_id":314,"name":"Mr. Gaming","steam_id":76561198159360685,"connected_time":3379000000000,"state":"active","ping":73},{"user_id":304,"name":"Frazzles","steam_id":76561199228009586,"connected_time":3583000000000,"state":"active","ping":63},{"user_id":362,"name":"Diarrhea 2","steam_id":76561198058694987,"connected_time":218000000000,"state":"active","ping":74},{"user_id":339,"name":"L√∂ys√§ Masa","steam_id":76561198343396172,"connected_time":1467000000000,"state":"active","ping":84},{"user_id":358,"name":"Give me not used stuff","steam_id":76561199065452899,"connected_time":454000000000,"state":"active","ping":95},{"user_id":264,"name":"Appelflap64","steam_id":76561198012819017,"connected_time":6883000000000,"state":"active","ping":66},{"user_id":342,"name":"‚òÅPootvich‚òÅ","steam_id":76561198227321732,"connected_time":1369000000000,"state":"active","ping":94},{"user_id":343,"name":"Puurokorva","steam_id":76561198363067072,"connected_time":1363000000000,"state":"active","ping":99},{"user_id":325,"name":"Sunkerdink","steam_id":76561197996757446,"connected_time":2949000000000,"state":"active","ping":88},{"user_id":345,"name":"SNAIDS","steam_id":76561198300211898,"connected_time":1354000000000,"state":"active","ping":83}]},{"server_id":311,"name":"Uncletopia | Frankfurt | 6 | All Maps","name_short":"frk-6","host":"frk-1.de.uncletopia.com","port":27065,"enabled":true,"region":"eu","cc":"de","latitude":50.110924,"longitude":8.682127,"reserved":0,"last_update":"0001-01-01T00:00:00Z","name_a2s":"Uncletopia | Frankfurt | 6 | All Maps","protocol":17,"map":"pl_borneo","folder":"tf","game":"Team Fortress","app_id":440,"player_count":24,"max_players":24,"Bots":0,"server_type":"Dedicated","server_os":"Linux","password":true,"vac":true,"version":"7723704","steam_id":85568392924504278,"keywords":["nocrits","nodmgspread","payload","uncletopia"],"game_id":440,"stv_port":27066,"stv_name":"Uncletopia | Frankfurt | 6 | All Maps | STV","players":[{"user_id":580,"name":"Nithle","steam_id":76561198025372740,"connected_time":1328000000000,"state":"active","ping":73},{"user_id":593,"name":"nothing,nowhere.","steam_id":76561199016117890,"connected_time":18000000000,"state":"active","ping":95},{"user_id":567,"name":"lulu","steam_id":76561199147764133,"connected_time":2003000000000,"state":"active","ping":76},{"user_id":526,"name":":(","steam_id":76561198044465070,"connected_time":5860000000000,"state":"active","ping":89},{"user_id":563,"name":"allegro","steam_id":76561198971389390,"connected_time":2581000000000,"state":"active","ping":69},{"user_id":538,"name":"Jin","steam_id":76561198248878364,"connected_time":4791000000000,"state":"active","ping":47},{"user_id":584,"name":"Hagrid","steam_id":76561198026276041,"connected_time":1236000000000,"state":"active","ping":67},{"user_id":569,"name":"Largo","steam_id":76561198844368927,"connected_time":1723000000000,"state":"active","ping":83},{"user_id":565,"name":"Suzi aka üçÜSexSymbolüçë","steam_id":76561198205350645,"connected_time":2278000000000,"state":"active","ping":81},{"user_id":539,"name":"Velarowo","steam_id":76561198349373445,"connected_time":4780000000000,"state":"active","ping":65},{"user_id":570,"name":"Alegz","steam_id":76561198287810139,"connected_time":1704000000000,"state":"active","ping":54},{"user_id":571,"name":"Ta–øgen","steam_id":76561198120329367,"connected_time":1685000000000,"state":"active","ping":89},{"user_id":586,"name":"lofi hip hop beats","steam_id":76561198348048790,"connected_time":1136000000000,"state":"active","ping":69},{"user_id":572,"name":"cez","steam_id":76561198361380956,"connected_time":1678000000000,"state":"active","ping":65},{"user_id":574,"name":"ZOGG FearLand","steam_id":76561198352683491,"connected_time":1659000000000,"state":"active","ping":57},{"user_id":591,"name":"a fresh pan of lemon squares","steam_id":76561197984071376,"connected_time":516000000000,"state":"active","ping":70},{"user_id":578,"name":"Borowka","steam_id":76561199095708127,"connected_time":1481000000000,"state":"active","ping":92},{"user_id":576,"name":"snsmac","steam_id":76561198082821185,"connected_time":1655000000000,"state":"active","ping":44},{"user_id":494,"name":"Irbynx","steam_id":76561197980421195,"connected_time":7901000000000,"state":"active","ping":85},{"user_id":588,"name":"OnniVonManni","steam_id":76561198012236005,"connected_time":1088000000000,"state":"active","ping":95},{"user_id":566,"name":"–ò–Ω—Å–ø–µ–∫—Ç–æ—Ä –ê—Ç–∞—Å","steam_id":76561199175688390,"connected_time":2247000000000,"state":"active","ping":83},{"user_id":562,"name":"tshirt","steam_id":76561198040757844,"connected_time":2883000000000,"state":"active","ping":78},{"user_id":592,"name":"Birger :-)","steam_id":76561198213763199,"connected_time":52000000000,"state":"active","ping":63},{"user_id":568,"name":"KoraSona","steam_id":76561199000322836,"connected_time":1757000000000,"state":"active","ping":89}]},{"server_id":23,"name":"Uncletopia | Frankfurt | 7 | Stopwatch Beta","name_short":"frk-7","host":"frk-1.de.uncletopia.com","port":27075,"enabled":true,"region":"eu","cc":"de","latitude":50.110924,"longitude":8.682127,"reserved":0,"last_update":"0001-01-01T00:00:00Z","name_a2s":"Uncletopia | Frankfurt | 7 | Stopwatch Beta","protocol":17,"map":"workshop/pl_barnblitz_pro7.ugc582280235","folder":"tf","game":"Team Fortress","app_id":440,"player_count":0,"max_players":24,"Bots":0,"server_type":"Dedicated","server_os":"Linux","password":true,"vac":true,"version":"7723704","steam_id":85568392924742827,"keywords":["nocrits","nodmgspread","payload","uncletopia"],"game_id":440,"stv_port":27076,"stv_name":"Uncletopia | Frankfurt | 7 | Stopwatch Beta | STV","players":null},{"server_id":24,"name":"Uncletopia | Frankfurt | 8 | Community","name_short":"frk-8","host":"frk-1.de.uncletopia.com","port":27085,"enabled":true,"region":"eu","cc":"de","latitude":50.110924,"longitude":8.682127,"reserved":0,"last_update":"0001-01-01T00:00:00Z","name_a2s":"Uncletopia | Frankfurt | 8 | Community","protocol":17,"map":"workshop/pl_eruption_b8c.ugc2865677281","folder":"tf","game":"Team Fortress","app_id":440,"player_count":0,"max_players":24,"Bots":0,"server_type":"Dedicated","server_os":"Linux","password":true,"vac":true,"version":"7723704","steam_id":85568392924742828,"keywords":["nocrits","nodmgspread","payload","uncletopia"],"game_id":440,"stv_port":27086,"stv_name":"Uncletopia | Frankfurt | 8 | Community | STV","players":null},{"server_id":202,"name":"Uncletopia | Hong Kong | 1 | All Maps","name_short":"hgk-1","host":"hgk-1.hk.uncletopia.com","port":27015,"enabled":true,"region":"asia","cc":"hk","latitude":22.302711,"longitude":114.177216,"reserved":0,"last_update":"0001-01-01T00:00:00Z","name_a2s":"Uncletopia | Hong Kong | 1 | All Maps","protocol":17,"map":"cp_snakewater_final1","folder":"tf","game":"Team Fortress","app_id":440,"player_count":0,"max_players":24,"Bots":0,"server_type":"Dedicated","server_os":"Linux","password":true,"vac":true,"version":"7723704","steam_id":85568392924494504,"keywords":["cp","nocrits","nodmgspread","uncletopia"],"game_id":440,"stv_port":27016,"stv_name":"Uncletopia | Hong Kong | 1 | All Maps | STV","players":null},{"server_id":1,"name":"Uncletopia | Los Angeles | 1 | All Maps","name_short":"lax-1","host":"lax-1.us.uncletopia.com","port":27015,"enabled":true,"region":"us-west","cc":"us","latitude":33.94279,"longitude":-118.41004,"reserved":0,"last_update":"0001-01-01T00:00:00Z","name_a2s":"Uncletopia | Los Angeles | 1 | All Maps","protocol":17,"map":"pl_pier","folder":"tf","game":"Team Fortress","app_id":440,"player_count":0,"max_players":24,"Bots":0,"server_type":"Dedicated","server_os":"Linux","password":true,"vac":true,"version":"7723704","steam_id":85568392924469991,"keywords":["nocrits","nodmgspread","payload","uncletopia"],"game_id":440,"stv_port":27016,"stv_name":"Uncletopia | Los Angeles | 1 | All Maps | STV","players":null},{"server_id":112,"name":"Uncletopia | Los Angeles | 2 | All Maps","name_short":"lax-2","host":"lax-1.us.uncletopia.com","port":27025,"enabled":true,"region":"us-west","cc":"us","latitude":33.94279,"longitude":-118.41004,"reserved":0,"last_update":"0001-01-01T00:00:00Z","name_a2s":"Uncletopia | Los Angeles | 2 | All Maps","protocol":17,"map":"koth_viaduct","folder":"tf","game":"Team Fortress","app_id":440,"player_count":0,"max_players":24,"Bots":0,"server_type":"Dedicated","server_os":"Linux","password":true,"vac":true,"version":"7723704","steam_id":85568392924469992,"keywords":["cp","nocrits","nodmgspread","uncletopia"],"game_id":440,"stv_port":27026,"stv_name":"Uncletopia | Los Angeles | 2 | All Maps | STV","players":null},{"server_id":324,"name":"Uncletopia | Los Angeles | 3 | All Maps","name_short":"lax-3","host":"lax-1.us.uncletopia.com","port":27035,"enabled":true,"region":"us-west","cc":"us","latitude":33.94279,"longitude":-118.41004,"reserved":0,"last_update":"0001-01-01T00:00:00Z","name_a2s":"Uncletopia | Los Angeles | 3 | All Maps","protocol":17,"map":"koth_viaduct","folder":"tf","game":"Team Fortress","app_id":440,"player_count":0,"max_players":24,"Bots":0,"server_type":"Dedicated","server_os":"Linux","password":true,"vac":true,"version":"7723704","steam_id":85568392924510198,"keywords":["cp","nocrits","nodmgspread","uncletopia"],"game_id":440,"stv_port":27036,"stv_name":"Uncletopia | Los Angeles | 3 | All Maps | STV","players":null},{"server_id":25,"name":"Uncletopia | Los Angeles | 4 | Stopwatch Beta","name_short":"lax-4","host":"lax-1.us.uncletopia.com","port":27045,"enabled":true,"region":"us-west","cc":"us","latitude":33.94279,"longitude":-118.41004,"reserved":0,"last_update":"0001-01-01T00:00:00Z","name_a2s":"Uncletopia | Los Angeles | 4 | Stopwatch Beta","protocol":17,"map":"cp_sunshine","folder":"tf","game":"Team Fortress","app_id":440,"player_count":0,"max_players":24,"Bots":0,"server_type":"Dedicated","server_os":"Linux","password":true,"vac":true,"version":"7723704","steam_id":85568392924510199,"keywords":["cp","nocrits","nodmgspread","uncletopia"],"game_id":440,"stv_port":27046,"stv_name":"Uncletopia | Los Angeles | 4 | Stopwatch Beta | STV","players":null},{"server_id":11,"name":"Uncletopia | London | 1 | All Maps","name_short":"lon-1","host":"lon-1.uk.uncletopia.com","port":27015,"enabled":true,"region":"eu","cc":"gb","latitude":51.509865,"longitude":-0.118092,"reserved":0,"last_update":"0001-01-01T00:00:00Z","name_a2s":"Uncletopia | London | 1 | All Maps","protocol":17,"map":"cp_sunshine","folder":"tf","game":"Team Fortress","app_id":440,"player_count":24,"max_players":24,"Bots":0,"server_type":"Dedicated","server_os":"Linux","password":true,"vac":true,"version":"7723704","steam_id":85568392924367362,"keywords":["cp","nocrits","nodmgspread","uncletopia"],"game_id":440,"stv_port":27016,"stv_name":"Uncletopia | London | 1 | All Maps | STV","players":[{"user_id":615,"name":"nudjura","steam_id":76561198281986139,"connected_time":1255000000000,"state":"active","ping":38},{"user_id":585,"name":"Luk3","steam_id":76561198340519063,"connected_time":4257000000000,"state":"active","ping":55},{"user_id":624,"name":"Discount Soundcloud Rapper","steam_id":76561198062045588,"connected_time":815000000000,"state":"active","ping":75},{"user_id":634,"name":"Xerxes","steam_id":76561199162269348,"connected_time":21000000000,"state":"active","ping":89},{"user_id":625,"name":"Sauerkraut","steam_id":76561197996241017,"connected_time":767000000000,"state":"active","ping":68},{"user_id":603,"name":"Hexagon","steam_id":76561198151205758,"connected_time":2451000000000,"state":"active","ping":59},{"user_id":599,"name":"markiplier 0","steam_id":76561198379362481,"connected_time":2502000000000,"state":"active","ping":60},{"user_id":632,"name":"Twin Fantasy (Mirror To Mirror)","steam_id":76561198397024973,"connected_time":289000000000,"state":"active","ping":36},{"user_id":619,"name":"sunsetteOS","steam_id":76561198030654079,"connected_time":949000000000,"state":"active","ping":113},{"user_id":596,"name":"MrXtr","steam_id":76561198966247397,"connected_time":2529000000000,"state":"active","ping":66},{"user_id":622,"name":"Cazulas","steam_id":76561198027460283,"connected_time":853000000000,"state":"active","ping":80},{"user_id":631,"name":"=flashpoint=","steam_id":76561197976774456,"connected_time":493000000000,"state":"active","ping":45},{"user_id":605,"name":"MAJAX","steam_id":76561198254828632,"connected_time":2226000000000,"state":"active","ping":46},{"user_id":629,"name":"ECS","steam_id":76561198058910121,"connected_time":544000000000,"state":"active","ping":47},{"user_id":626,"name":"f√©nix","steam_id":76561198083199151,"connected_time":752000000000,"state":"active","ping":53},{"user_id":562,"name":"Mango","steam_id":76561198139555709,"connected_time":6857000000000,"state":"active","ping":56},{"user_id":616,"name":"BroHood(active only in weekends","steam_id":76561198044766151,"connected_time":1213000000000,"state":"active","ping":104},{"user_id":630,"name":"Executor","steam_id":76561198195703822,"connected_time":532000000000,"state":"active","ping":46},{"user_id":633,"name":"festive jones","steam_id":76561198073975078,"connected_time":135000000000,"state":"active","ping":39},{"user_id":593,"name":"Hermitcrack","steam_id":76561198149216441,"connected_time":2954000000000,"state":"active","ping":77},{"user_id":602,"name":"Mr. Mundy","steam_id":76561198132008918,"connected_time":2480000000000,"state":"active","ping":86},{"user_id":628,"name":"Zazou","steam_id":76561198028076362,"connected_time":750000000000,"state":"active","ping":48},{"user_id":584,"name":"tomo","steam_id":76561199015097595,"connected_time":4296000000000,"state":"active","ping":44}]},{"server_id":114,"name":"Uncletopia | London | 2 | All Maps","name_short":"lon-2","host":"lon-1.uk.uncletopia.com","port":27025,"enabled":true,"region":"eu","cc":"gb","latitude":51.509865,"longitude":-0.118092,"reserved":0,"last_update":"0001-01-01T00:00:00Z","name_a2s":"Uncletopia | London | 2 | All Maps","protocol":17,"map":"pl_barnblitz","folder":"tf","game":"Team Fortress","app_id":440,"player_count":20,"max_players":24,"Bots":0,"server_type":"Dedicated","server_os":"Linux","password":true,"vac":true,"version":"7723704","steam_id":85568392924470941,"keywords":["nocrits","nodmgspread","payload","uncletopia"],"game_id":440,"stv_port":27026,"stv_name":"Uncletopia | London | 2 | All Maps | STV","players":[{"user_id":574,"name":"Kili","steam_id":76561198138456346,"connected_time":277000000000,"state":"active","ping":65},{"user_id":547,"name":"Yaire","steam_id":76561198017343510,"connected_time":2245000000000,"state":"active","ping":58},{"user_id":577,"name":"Hans Hartkot","steam_id":76561198047336277,"connected_time":78000000000,"state":"active","ping":59},{"user_id":548,"name":"Ged","steam_id":76561198079288943,"connected_time":2200000000000,"state":"active","ping":153},{"user_id":578,"name":"xcxxxcxcxcccxxxvƒ±","steam_id":76561198250755698,"connected_time":74000000000,"state":"active","ping":89},{"user_id":556,"name":"Lord of the Moon","steam_id":76561198014115769,"connected_time":1860000000000,"state":"active","ping":148},{"user_id":553,"name":"Florua","steam_id":76561198182297846,"connected_time":1932000000000,"state":"active","ping":60},{"user_id":539,"name":"[Sheep] Tomco","steam_id":76561198388549261,"connected_time":3171000000000,"state":"active","ping":42},{"user_id":579,"name":"Thorfinn","steam_id":76561198813640500,"connected_time":73000000000,"state":"active","ping":49},{"user_id":580,"name":"Lyell","steam_id":76561198350329389,"connected_time":73000000000,"state":"active","ping":73},{"user_id":575,"name":".quickfast.","steam_id":76561199438900919,"connected_time":198000000000,"state":"active","ping":53},{"user_id":558,"name":"s a i","steam_id":76561197970379754,"connected_time":1828000000000,"state":"active","ping":64},{"user_id":528,"name":"ashley","steam_id":76561198448551449,"connected_time":3696000000000,"state":"active","ping":52},{"user_id":536,"name":"lite.","steam_id":76561198036750896,"connected_time":3274000000000,"state":"active","ping":63},{"user_id":560,"name":"Pecka","steam_id":76561199121981645,"connected_time":1789000000000,"state":"active","ping":112},{"user_id":538,"name":"mordecai.nmc","steam_id":76561197997223851,"connected_time":3240000000000,"state":"active","ping":46},{"user_id":573,"name":"The Scoundrel","steam_id":76561199244090814,"connected_time":436000000000,"state":"active","ping":121},{"user_id":564,"name":"Festive Mythril","steam_id":76561198028488773,"connected_time":1434000000000,"state":"active","ping":118},{"user_id":570,"name":"nachtraaf","steam_id":76561197960473205,"connected_time":734000000000,"state":"active","ping":53},{"user_id":542,"name":"Furious Frenchman","steam_id":76561198082076952,"connected_time":2920000000000,"state":"active","ping":53}]},{"server_id":320,"name":"Uncletopia | London | 3 | All Maps","name_short":"lon-3","host":"lon-1.uk.uncletopia.com","port":27035,"enabled":true,"region":"eu","cc":"gb","latitude":51.509865,"longitude":-0.118092,"reserved":0,"last_update":"0001-01-01T00:00:00Z","name_a2s":"Uncletopia | London | 3 | All Maps","protocol":17,"map":"pl_pier","folder":"tf","game":"Team Fortress","app_id":440,"player_count":23,"max_players":24,"Bots":0,"server_type":"Dedicated","server_os":"Linux","password":true,"vac":true,"version":"7723704","steam_id":85568392924510192,"keywords":["nocrits","nodmgspread","payload","uncletopia"],"game_id":440,"stv_port":27036,"stv_name":"Uncletopia | London | 3 | All Maps | STV","players":[{"user_id":403,"name":"BenteBent","steam_id":76561198297920637,"connected_time":3938000000000,"state":"active","ping":76},{"user_id":459,"name":"Shadow the Hedgehog","steam_id":76561198032936750,"connected_time":188000000000,"state":"active","ping":104},{"user_id":416,"name":"w√∂rb","steam_id":76561198159517104,"connected_time":2988000000000,"state":"active","ping":65},{"user_id":460,"name":"Joegame555","steam_id":76561198241557442,"connected_time":171000000000,"state":"active","ping":56},{"user_id":437,"name":"Ecton","steam_id":76561198025103720,"connected_time":1953000000000,"state":"active","ping":54},{"user_id":461,"name":"Cak3","steam_id":76561198012633295,"connected_time":169000000000,"state":"active","ping":60},{"user_id":432,"name":"Dr. Funkenstein","steam_id":76561197977816210,"connected_time":2072000000000,"state":"active","ping":47},{"user_id":440,"name":"teddy","steam_id":76561198007436837,"connected_time":1901000000000,"state":"active","ping":43},{"user_id":427,"name":"i am bread","steam_id":76561199180277321,"connected_time":2643000000000,"state":"active","ping":53},{"user_id":452,"name":"Dispenser(Dispenser)","steam_id":76561199211831658,"connected_time":1020000000000,"state":"active","ping":48},{"user_id":433,"name":"Sandvich Gaming","steam_id":76561199079493666,"connected_time":2070000000000,"state":"active","ping":92},{"user_id":443,"name":"Kotlet schabowy","steam_id":76561198048983509,"connected_time":1781000000000,"state":"active","ping":79},{"user_id":453,"name":"Bagel","steam_id":76561198101328274,"connected_time":1005000000000,"state":"active","ping":38},{"user_id":466,"name":"Dondonz","steam_id":76561198111407893,"connected_time":55000000000,"state":"active","ping":52},{"user_id":463,"name":"Komandier - Planter Master","steam_id":76561198976871156,"connected_time":154000000000,"state":"active","ping":66},{"user_id":455,"name":"Polish Carrrot","steam_id":76561198139404261,"connected_time":901000000000,"state":"active","ping":44},{"user_id":446,"name":"Burpman","steam_id":76561198022897937,"connected_time":1707000000000,"state":"active","ping":46},{"user_id":467,"name":"Videogamer","steam_id":76561198106012909,"connected_time":14000000000,"state":"active","ping":76},{"user_id":439,"name":"Newax","steam_id":76561198020758511,"connected_time":1927000000000,"state":"active","ping":74},{"user_id":396,"name":"hmscole09","steam_id":76561198811362788,"connected_time":4648000000000,"state":"active","ping":48},{"user_id":444,"name":"ViktorYoshi","steam_id":76561199157555246,"connected_time":1762000000000,"state":"active","ping":53},{"user_id":449,"name":"rambo men","steam_id":76561199037754696,"connected_time":1437000000000,"state":"active","ping":100},{"user_id":457,"name":"Finbot24","steam_id":76561198357985898,"connected_time":877000000000,"state":"active","ping":58}]},{"server_id":321,"name":"Uncletopia | London | 4 | All Maps","name_short":"lon-4","host":"lon-1.uk.uncletopia.com","port":27045,"enabled":true,"region":"eu","cc":"gb","latitude":51.509865,"longitude":-0.118092,"reserved":0,"last_update":"0001-01-01T00:00:00Z","name_a2s":"Uncletopia | London | 4 | All Maps","protocol":17,"map":"pl_upward","folder":"tf","game":"Team Fortress","app_id":440,"player_count":23,"max_players":24,"Bots":0,"server_type":"Dedicated","server_os":"Linux","password":true,"vac":true,"version":"7723704","steam_id":85568392924510193,"keywords":["nocrits","nodmgspread","payload","uncletopia"],"game_id":440,"stv_port":27046,"stv_name":"Uncletopia | London | 4 | All Maps | STV","players":[{"user_id":107,"name":"McGov","steam_id":76561198211361463,"connected_time":1700000000000,"state":"connecting","ping":72},{"user_id":34,"name":"shoplifter","steam_id":76561198311044984,"connected_time":6760000000000,"state":"connecting","ping":82},{"user_id":35,"name":"ROBERTAIM","steam_id":76561198271798194,"connected_time":6744000000000,"state":"connecting","ping":91},{"user_id":55,"name":"mt","steam_id":76561197961319303,"connected_time":5631000000000,"state":"connecting","ping":75},{"user_id":117,"name":"|20BB)\u003eMach","steam_id":76561198952487564,"connected_time":1094000000000,"state":"connecting","ping":121},{"user_id":125,"name":"Dinkey","steam_id":76561199186315955,"connected_time":331000000000,"state":"connecting","ping":95},{"user_id":65,"name":"Foxyz","steam_id":76561198040642992,"connected_time":5342000000000,"state":"connecting","ping":121},{"user_id":100,"name":"Grimm","steam_id":76561198044684227,"connected_time":2089000000000,"state":"connecting","ping":62},{"user_id":106,"name":"Ross from F.R.I.E.N.D.S.","steam_id":76561198008511665,"connected_time":1734000000000,"state":"connecting","ping":73},{"user_id":96,"name":"Adam Sandler","steam_id":76561198310408309,"connected_time":2936000000000,"state":"connecting","ping":61},{"user_id":121,"name":"?","steam_id":76561199114927025,"connected_time":897000000000,"state":"connecting","ping":140},{"user_id":105,"name":"BASSLAU36 PLAYS TF2?","steam_id":76561198099594482,"connected_time":1793000000000,"state":"connecting","ping":101},{"user_id":118,"name":"Fran","steam_id":76561199070516960,"connected_time":1028000000000,"state":"connecting","ping":94},{"user_id":124,"name":"‚ò© Knightz ‚ò©","steam_id":76561198040936414,"connected_time":460000000000,"state":"connecting","ping":125},{"user_id":103,"name":"cum fart","steam_id":76561198382533813,"connected_time":1842000000000,"state":"connecting","ping":58},{"user_id":127,"name":"etf2l cryptid","steam_id":76561198010239925,"connected_time":120000000000,"state":"connecting","ping":58},{"user_id":113,"name":"generic alias","steam_id":76561198271607226,"connected_time":1616000000000,"state":"connecting","ping":103},{"user_id":114,"name":"uNem0_","steam_id":76561198836442412,"connected_time":1615000000000,"state":"connecting","ping":106},{"user_id":126,"name":"zinzyk","steam_id":76561198128011822,"connected_time":139000000000,"state":"connecting","ping":83},{"user_id":82,"name":"LOBZIK","steam_id":76561198114830120,"connected_time":3784000000000,"state":"connecting","ping":99},{"user_id":128,"name":"Insain Bolt!","steam_id":76561198025687726,"connected_time":89000000000,"state":"connecting","ping":75},{"user_id":104,"name":"Like Ahayo LXIX","steam_id":76561198368508349,"connected_time":1829000000000,"state":"connecting","ping":98}]},{"server_id":21,"name":"Uncletopia | London | 5 | All Maps","name_short":"lon-5","host":"lon-1.uk.uncletopia.com","port":27055,"enabled":true,"region":"eu","cc":"gb","latitude":51.509865,"longitude":-0.118092,"reserved":0,"last_update":"0001-01-01T00:00:00Z","name_a2s":"Uncletopia | London | 5 | All Maps","protocol":17,"map":"cp_mountainlab","folder":"tf","game":"Team Fortress","app_id":440,"player_count":0,"max_players":24,"Bots":0,"server_type":"Dedicated","server_os":"Linux","password":true,"vac":true,"version":"7723704","steam_id":85568392924742829,"keywords":["cp","nocrits","nodmgspread","uncletopia"],"game_id":440,"stv_port":27056,"stv_name":"Uncletopia | London | 5 | All Maps | STV","players":null},{"server_id":22,"name":"Uncletopia | London | 6 | All Maps","name_short":"lon-6","host":"lon-1.uk.uncletopia.com","port":27065,"enabled":true,"region":"eu","cc":"gb","latitude":51.509865,"longitude":-0.118092,"reserved":0,"last_update":"0001-01-01T00:00:00Z","name_a2s":"Uncletopia | London | 6 | All Maps","protocol":17,"map":"koth_lakeside_final","folder":"tf","game":"Team Fortress","app_id":440,"player_count":1,"max_players":24,"Bots":0,"server_type":"Dedicated","server_os":"Linux","password":true,"vac":true,"version":"7723704","steam_id":85568392924742830,"keywords":["cp","nocrits","nodmgspread","uncletopia"],"game_id":440,"stv_port":27066,"stv_name":"Uncletopia | London | 6 | All Maps | STV","players":[{"user_id":18,"name":"NoShield","steam_id":76561198831300551,"connected_time":255000000000,"state":"active","ping":121}]},{"server_id":40,"name":"Uncletopia | London | 7 | No Payload","name_short":"lon-7","host":"lon-1.uk.uncletopia.com","port":27075,"enabled":true,"region":"eu","cc":"gb","latitude":51.509865,"longitude":-0.118092,"reserved":0,"last_update":"0001-01-01T00:00:00Z","name_a2s":"Uncletopia | London | 7 | No Payload","protocol":17,"map":"cp_foundry","folder":"tf","game":"Team Fortress","app_id":440,"player_count":0,"max_players":24,"Bots":0,"server_type":"Dedicated","server_os":"Linux","password":true,"vac":true,"version":"7723704","steam_id":85568392924964314,"keywords":["cp","nocrits","nodmgspread","uncletopia"],"game_id":440,"stv_port":27076,"stv_name":"Uncletopia | London | 7 | No Payload | STV","players":null},{"server_id":41,"name":"Uncletopia | London | 8 | Community","name_short":"lon-8","host":"lon-1.uk.uncletopia.com","port":27085,"enabled":true,"region":"eu","cc":"gb","latitude":51.509865,"longitude":-0.118092,"reserved":0,"last_update":"0001-01-01T00:00:00Z","name_a2s":"Uncletopia | London | 8 | Community","protocol":17,"map":"workshop/koth_bagel_rc5.ugc2514036946","folder":"tf","game":"Team Fortress","app_id":440,"player_count":0,"max_players":24,"Bots":0,"server_type":"Dedicated","server_os":"Linux","password":true,"vac":true,"version":"7723704","steam_id":85568392924964315,"keywords":["cp","nocrits","nodmgspread","uncletopia"],"game_id":440,"stv_port":27086,"stv_name":"Uncletopia | London | 8 | Community | STV","players":null},{"server_id":300,"name":"Uncletopia | Montr√©al | 1 | All Maps","name_short":"mtl-1","host":"mtl-1.ca.uncletopia.com","port":27015,"enabled":true,"region":"us-east","cc":"ca","latitude":45.50889,"longitude":-73.56167,"reserved":0,"last_update":"0001-01-01T00:00:00Z","name_a2s":"Uncletopia | Montr√©al | 1 | All Maps","protocol":17,"map":"pl_snowycoast","folder":"tf","game":"Team Fortress","app_id":440,"player_count":0,"max_players":24,"Bots":0,"server_type":"Dedicated","server_os":"Linux","password":true,"vac":true,"version":"7723704","steam_id":85568392924500087,"keywords":["nocrits","nodmgspread","payload","uncletopia"],"game_id":440,"stv_port":27016,"stv_name":"Uncletopia | Montr√©al | 1 | All Maps | STV","players":null},{"server_id":301,"name":"Uncletopia | Montr√©al | 2 | All Maps","name_short":"mtl-2","host":"mtl-1.ca.uncletopia.com","port":27025,"enabled":true,"region":"us-east","cc":"ca","latitude":45.50889,"longitude":-73.56167,"reserved":0,"last_update":"0001-01-01T00:00:00Z","name_a2s":"Uncletopia | Montr√©al | 2 | All Maps","protocol":17,"map":"cp_process_final","folder":"tf","game":"Team Fortress","app_id":440,"player_count":0,"max_players":24,"Bots":0,"server_type":"Dedicated","server_os":"Linux","password":true,"vac":true,"version":"7723704","steam_id":85568392924500088,"keywords":["cp","nocrits","nodmgspread","uncletopia"],"game_id":440,"stv_port":27026,"stv_name":"Uncletopia | Montr√©al | 2 | All Maps | STV","players":null},{"server_id":302,"name":"Uncletopia | Montr√©al | 3 | All Maps","name_short":"mtl-3","host":"mtl-1.ca.uncletopia.com","port":27035,"enabled":true,"region":"us-east","cc":"ca","latitude":45.50889,"longitude":-73.56167,"reserved":0,"last_update":"0001-01-01T00:00:00Z","name_a2s":"Uncletopia | Montr√©al | 3 | All Maps","protocol":17,"map":"pl_barnblitz","folder":"tf","game":"Team Fortress","app_id":440,"player_count":0,"max_players":24,"Bots":0,"server_type":"Dedicated","server_os":"Linux","password":true,"vac":true,"version":"7723704","steam_id":85568392924500089,"keywords":["nocrits","nodmgspread","payload","uncletopia"],"game_id":440,"stv_port":27036,"stv_name":"Uncletopia | Montr√©al | 3 | All Maps | STV","players":null},{"server_id":303,"name":"Uncletopia | Montr√©al | 4 | No Payload","name_short":"mtl-4","host":"mtl-1.ca.uncletopia.com","port":27045,"enabled":true,"region":"us-east","cc":"ca","latitude":45.50889,"longitude":-73.56167,"reserved":0,"last_update":"0001-01-01T00:00:00Z","name_a2s":"Uncletopia | Montr√©al | 4 | No Payload","protocol":17,"map":"koth_cascade","folder":"tf","game":"Team Fortress","app_id":440,"player_count":0,"max_players":24,"Bots":0,"server_type":"Dedicated","server_os":"Linux","password":true,"vac":true,"version":"7723704","steam_id":85568392924500090,"keywords":["cp","nocrits","nodmgspread","uncletopia"],"game_id":440,"stv_port":27046,"stv_name":"Uncletopia | Montr√©al | 4 | No Payload | STV","players":null},{"server_id":13,"name":"Uncletopia | New York City | 1 | All Maps","name_short":"nyc-1","host":"nyc-1.us.uncletopia.com","port":27015,"enabled":true,"region":"us-east","cc":"us","latitude":40.73061,"longitude":-73.93524,"reserved":0,"last_update":"0001-01-01T00:00:00Z","name_a2s":"Uncletopia | New York City | 1 | All Maps","protocol":17,"map":"cp_mountainlab","folder":"tf","game":"Team Fortress","app_id":440,"player_count":0,"max_players":24,"Bots":0,"server_type":"Dedicated","server_os":"Linux","password":true,"vac":true,"version":"7723704","steam_id":85568392924469993,"keywords":["cp","nocrits","nodmgspread","uncletopia"],"game_id":440,"stv_port":27016,"stv_name":"Uncletopia | New York City | 1 | All Maps | STV","players":null},{"server_id":14,"name":"Uncletopia | New York City | 2 | All Maps","name_short":"nyc-2","host":"nyc-1.us.uncletopia.com","port":27025,"enabled":true,"region":"us-east","cc":"us","latitude":40.73061,"longitude":-73.93524,"reserved":0,"last_update":"0001-01-01T00:00:00Z","name_a2s":"Uncletopia | New York City | 2 | All Maps","protocol":17,"map":"pl_pier","folder":"tf","game":"Team Fortress","app_id":440,"player_count":0,"max_players":24,"Bots":0,"server_type":"Dedicated","server_os":"Linux","password":true,"vac":true,"version":"7723704","steam_id":85568392924469994,"keywords":["nocrits","nodmgspread","payload","uncletopia"],"game_id":440,"stv_port":27026,"stv_name":"Uncletopia | New York City | 2 | All Maps | STV","players":null},{"server_id":15,"name":"Uncletopia | New York City | 3 | Stopwatch Beta","name_short":"nyc-3","host":"nyc-1.us.uncletopia.com","port":27035,"enabled":true,"region":"us-east","cc":"us","latitude":40.73061,"longitude":-73.93524,"reserved":0,"last_update":"0001-01-01T00:00:00Z","name_a2s":"Uncletopia | New York City | 3 | Stopwatch Beta","protocol":17,"map":"cp_sunshine","folder":"tf","game":"Team Fortress","app_id":440,"player_count":0,"max_players":24,"Bots":0,"server_type":"Dedicated","server_os":"Linux","password":true,"vac":true,"version":"7723704","steam_id":85568392924742820,"keywords":["cp","nocrits","nodmgspread","uncletopia"],"game_id":440,"stv_port":27036,"stv_name":"Uncletopia | New York City | 3 | Stopwatch Beta | STV","players":null},{"server_id":16,"name":"Uncletopia | New York City | 4 | Community","name_short":"nyc-4","host":"nyc-1.us.uncletopia.com","port":27045,"enabled":true,"region":"us-east","cc":"us","latitude":40.73061,"longitude":-73.93524,"reserved":0,"last_update":"0001-01-01T00:00:00Z","name_a2s":"Uncletopia | New York City | 4 | Community","protocol":17,"map":"workshop/pl_barnblitz_pro7.ugc582280235","folder":"tf","game":"Team Fortress","app_id":440,"player_count":21,"max_players":24,"Bots":0,"server_type":"Dedicated","server_os":"Linux","password":true,"vac":true,"version":"7723704","steam_id":85568392924742821,"keywords":["nocrits","nodmgspread","payload","uncletopia"],"game_id":440,"stv_port":27046,"stv_name":"Uncletopia | New York City | 4 | Community | STV","players":[{"user_id":87,"name":"minihoog","steam_id":76561198102156780,"connected_time":855000000000,"state":"active","ping":47},{"user_id":70,"name":"Barry","steam_id":76561198371953939,"connected_time":1815000000000,"state":"active","ping":61},{"user_id":96,"name":"Dummy","steam_id":76561198349741126,"connected_time":143000000000,"state":"active","ping":133},{"user_id":94,"name":"Giraffe E.I.T.","steam_id":76561198030678560,"connected_time":311000000000,"state":"active","ping":99},{"user_id":9,"name":"Captain Red","steam_id":76561198191587983,"connected_time":5746000000000,"state":"active","ping":90},{"user_id":10,"name":"Tarkus","steam_id":76561198115938777,"connected_time":5742000000000,"state":"active","ping":161},{"user_id":95,"name":"Redbird","steam_id":76561199290214710,"connected_time":281000000000,"state":"active","ping":55},{"user_id":97,"name":"LocaKola","steam_id":76561198173435430,"connected_time":107000000000,"state":"active","ping":58},{"user_id":98,"name":"lego dildo","steam_id":76561199112856109,"connected_time":36000000000,"state":"active","ping":70},{"user_id":89,"name":"PirateKing12","steam_id":76561198992193468,"connected_time":766000000000,"state":"active","ping":60},{"user_id":18,"name":"2019","steam_id":76561198129785792,"connected_time":5452000000000,"state":"active","ping":126},{"user_id":84,"name":"ungr8t","steam_id":76561198063521721,"connected_time":1316000000000,"state":"active","ping":95},{"user_id":88,"name":"a_person_159","steam_id":76561199024416326,"connected_time":852000000000,"state":"active","ping":61},{"user_id":79,"name":"indi","steam_id":76561198045917538,"connected_time":1477000000000,"state":"active","ping":61},{"user_id":59,"name":"CassandraRC7 (She/her)","steam_id":76561198094123940,"connected_time":2386000000000,"state":"active","ping":68},{"user_id":90,"name":"babe","steam_id":76561199057373810,"connected_time":720000000000,"state":"active","ping":44},{"user_id":85,"name":"Funne Monke","steam_id":76561198147868601,"connected_time":1265000000000,"state":"active","ping":74},{"user_id":52,"name":"HotLatinoMale","steam_id":76561198272335425,"connected_time":2842000000000,"state":"active","ping":44},{"user_id":31,"name":"robbob","steam_id":76561198137375391,"connected_time":4566000000000,"state":"active","ping":151},{"user_id":82,"name":"Monkey","steam_id":76561198031015186,"connected_time":1388000000000,"state":"active","ping":58},{"user_id":62,"name":"Banana Patrick","steam_id":76561198258067237,"connected_time":2298000000000,"state":"active","ping":50}]},{"server_id":142,"name":"Uncletopia | S√£o Paulo | 1 | All Maps","name_short":"sao-1","host":"sao-1.br.uncletopia.com","port":27015,"enabled":true,"region":"sa","cc":"br","latitude":-23.533773,"longitude":-46.62529,"reserved":0,"last_update":"0001-01-01T00:00:00Z","name_a2s":"Uncletopia | S√£o Paulo | 1 | All Maps","protocol":17,"map":"pl_pier","folder":"tf","game":"Team Fortress","app_id":440,"player_count":0,"max_players":24,"Bots":0,"server_type":"Dedicated","server_os":"Linux","password":true,"vac":true,"version":"7723704","steam_id":85568392924469996,"keywords":["nocrits","nodmgspread","payload","uncletopia"],"game_id":440,"stv_port":27016,"stv_name":"Uncletopia | S√£o Paulo | 1 | All Maps | STV","players":null},{"server_id":143,"name":"Uncletopia | S√£o Paulo | 2 | All Maps","name_short":"sao-2","host":"sao-2.br.uncletopia.com","port":27015,"enabled":true,"region":"sa","cc":"br","latitude":-23.533773,"longitude":-46.62529,"reserved":0,"last_update":"0001-01-01T00:00:00Z","name_a2s":"Uncletopia | S√£o Paulo | 2 | All Maps","protocol":17,"map":"koth_viaduct","folder":"tf","game":"Team Fortress","app_id":440,"player_count":0,"max_players":24,"Bots":0,"server_type":"Dedicated","server_os":"Linux","password":true,"vac":true,"version":"7723704","steam_id":85568392924485349,"keywords":["cp","nocrits","nodmgspread","uncletopia"],"game_id":440,"stv_port":27016,"stv_name":"Uncletopia | S√£o Paulo | 2 | All Maps | STV","players":null},{"server_id":7,"name":"Uncletopia | Seattle | 1 | All Maps","name_short":"sea-1","host":"sea-1.us.uncletopia.com","port":27015,"enabled":true,"region":"us-west","cc":"us","latitude":47.608013,"longitude":-122.33517,"reserved":0,"last_update":"0001-01-01T00:00:00Z","name_a2s":"Uncletopia | Seattle | 1 | All Maps","protocol":17,"map":"pl_barnblitz","folder":"tf","game":"Team Fortress","app_id":440,"player_count":24,"max_players":24,"Bots":0,"server_type":"Dedicated","server_os":"Linux","password":true,"vac":true,"version":"7723704","steam_id":85568392924469997,"keywords":["nocrits","nodmgspread","payload","uncletopia"],"game_id":440,"stv_port":27016,"stv_name":"Uncletopia | Seattle | 1 | All Maps | STV","players":[{"user_id":304,"name":"laggy mcstab","steam_id":76561198106379962,"connected_time":2033000000000,"state":"active","ping":54},{"user_id":315,"name":"dogboy irl","steam_id":76561198210322871,"connected_time":1074000000000,"state":"active","ping":73},{"user_id":259,"name":"natem51","steam_id":76561198325006142,"connected_time":5169000000000,"state":"active","ping":63},{"user_id":316,"name":"Bonk Co.","steam_id":76561198009355408,"connected_time":1057000000000,"state":"active","ping":56},{"user_id":322,"name":"blue duck the 2nd","steam_id":76561198263142765,"connected_time":704000000000,"state":"active","ping":69},{"user_id":318,"name":"squid game","steam_id":76561199248960166,"connected_time":873000000000,"state":"active","ping":38},{"user_id":299,"name":"Sol","steam_id":76561198803824764,"connected_time":2768000000000,"state":"active","ping":73},{"user_id":317,"name":"ircycl","steam_id":76561198170693990,"connected_time":974000000000,"state":"active","ping":82},{"user_id":319,"name":"tavi","steam_id":76561198050192689,"connected_time":806000000000,"state":"active","ping":82},{"user_id":326,"name":"Gooby","steam_id":76561198063582381,"connected_time":519000000000,"state":"active","ping":75},{"user_id":293,"name":"MidgetFeats","steam_id":76561198044248113,"connected_time":3059000000000,"state":"active","ping":44},{"user_id":309,"name":"jennco","steam_id":76561198212421513,"connected_time":1800000000000,"state":"active","ping":75},{"user_id":328,"name":"Big Smoke","steam_id":76561198278375987,"connected_time":334000000000,"state":"active","ping":105},{"user_id":312,"name":"trackpad gaming | f2p","steam_id":76561198840414371,"connected_time":1717000000000,"state":"active","ping":53},{"user_id":258,"name":"Risky","steam_id":76561198231029328,"connected_time":5175000000000,"state":"active","ping":60},{"user_id":256,"name":"Sir Loincloth","steam_id":76561198033073991,"connected_time":5186000000000,"state":"active","ping":66},{"user_id":325,"name":"gc","steam_id":76561199162583201,"connected_time":640000000000,"state":"active","ping":134},{"user_id":286,"name":"mu","steam_id":76561197997530228,"connected_time":3415000000000,"state":"active","ping":63},{"user_id":329,"name":"/)+$ Alice ‚ô•","steam_id":76561198869945051,"connected_time":92000000000,"state":"active","ping":97},{"user_id":323,"name":"albertoRamirez.8.24","steam_id":76561198123216429,"connected_time":699000000000,"state":"active","ping":60},{"user_id":324,"name":"plutonium isotope","steam_id":76561198319442494,"connected_time":694000000000,"state":"active","ping":84},{"user_id":295,"name":"Serene Salamander","steam_id":76561198001094770,"connected_time":2956000000000,"state":"active","ping":86},{"user_id":303,"name":"ElShaggy","steam_id":76561198148870214,"connected_time":2673000000000,"state":"active","ping":77},{"user_id":308,"name":"the destroyer of worlds","steam_id":76561199033459002,"connected_time":1838000000000,"state":"active","ping":90}]},{"server_id":119,"name":"Uncletopia | Seattle | 2 | All Maps","name_short":"sea-2","host":"sea-1.us.uncletopia.com","port":27025,"enabled":true,"region":"us-west","cc":"us","latitude":47.608013,"longitude":-122.33517,"reserved":0,"last_update":"0001-01-01T00:00:00Z","name_a2s":"Uncletopia | Seattle | 2 | All Maps","protocol":17,"map":"pl_upward","folder":"tf","game":"Team Fortress","app_id":440,"player_count":5,"max_players":24,"Bots":0,"server_type":"Dedicated","server_os":"Linux","password":true,"vac":true,"version":"7723704","steam_id":85568392924469998,"keywords":["nocrits","nodmgspread","payload","uncletopia"],"game_id":440,"stv_port":27026,"stv_name":"Uncletopia | Seattle | 2 | All Maps | STV","players":[{"user_id":9,"name":"Christmas?!!!!1!11","steam_id":76561199100225735,"connected_time":534000000000,"state":"active","ping":44},{"user_id":8,"name":"Dark Souls fighter","steam_id":76561199242156853,"connected_time":672000000000,"state":"active","ping":54},{"user_id":10,"name":"Morse","steam_id":76561198039944542,"connected_time":418000000000,"state":"active","ping":46},{"user_id":11,"name":"ThePirateKenway","steam_id":76561198115156181,"connected_time":341000000000,"state":"active","ping":93},{"user_id":12,"name":"Skabbety","steam_id":76561198168044257,"connected_time":10000000000,"state":"spawning","ping":48}]},{"server_id":406,"name":"Uncletopia | Seattle | 3 | Stopwatch Beta","name_short":"sea-3","host":"sea-1.us.uncletopia.com","port":27035,"enabled":true,"region":"us-west","cc":"us","latitude":47.608013,"longitude":-122.33517,"reserved":0,"last_update":"0001-01-01T00:00:00Z","name_a2s":"Uncletopia | Seattle | 3 | Stopwatch Beta","protocol":17,"map":"cp_altitude","folder":"tf","game":"Team Fortress","app_id":440,"player_count":0,"max_players":24,"Bots":0,"server_type":"Dedicated","server_os":"Linux","password":true,"vac":false,"version":"7723704","steam_id":0,"keywords":["cp","nocrits","nodmgspread","uncletopia"],"game_id":440,"stv_port":27036,"stv_name":"Uncletopia | Seattle | 3 | Stopwatch Beta | STV","players":null},{"server_id":17,"name":"Uncletopia | San Francisco | 1 | All Maps","name_short":"sfo-1","host":"sfo-1.us.uncletopia.com","port":27015,"enabled":true,"region":"us-west","cc":"us","latitude":37.77397,"longitude":-122.4313,"reserved":0,"last_update":"0001-01-01T00:00:00Z","name_a2s":"Uncletopia | San Francisco | 1 | All Maps","protocol":17,"map":"pl_swiftwater_final1","folder":"tf","game":"Team Fortress","app_id":440,"player_count":0,"max_players":24,"Bots":0,"server_type":"Dedicated","server_os":"Linux","password":true,"vac":true,"version":"7723704","steam_id":85568392924469999,"keywords":["nocrits","nodmgspread","payload","uncletopia"],"game_id":440,"stv_port":27016,"stv_name":"Uncletopia | San Francisco | 1 | All Maps | STV","players":null},{"server_id":18,"name":"Uncletopia | San Francisco | 2 | All Maps","name_short":"sfo-2","host":"sfo-1.us.uncletopia.com","port":27025,"enabled":true,"region":"us-west","cc":"us","latitude":37.77397,"longitude":-122.4313,"reserved":0,"last_update":"0001-01-01T00:00:00Z","name_a2s":"Uncletopia | San Francisco | 2 | All Maps","protocol":17,"map":"koth_viaduct","folder":"tf","game":"Team Fortress","app_id":440,"player_count":3,"max_players":24,"Bots":0,"server_type":"Dedicated","server_os":"Linux","password":true,"vac":true,"version":"7723704","steam_id":85568392924470000,"keywords":["cp","nocrits","nodmgspread","uncletopia"],"game_id":440,"stv_port":27026,"stv_name":"Uncletopia | San Francisco | 2 | All Maps | STV","players":[{"user_id":12,"name":"The Gremlin","steam_id":76561198419066993,"connected_time":2437000000000,"state":"active","ping":69},{"user_id":24,"name":"Krow Lyngin (she/her)","steam_id":76561198085410622,"connected_time":1236000000000,"state":"active","ping":60},{"user_id":25,"name":"your favorite demoknight","steam_id":76561199042568405,"connected_time":1120000000000,"state":"active","ping":45}]},{"server_id":19,"name":"Uncletopia | San Francisco | 3 | Stopwatch Beta","name_short":"sfo-3","host":"sfo-1.us.uncletopia.com","port":27035,"enabled":true,"region":"us-west","cc":"us","latitude":37.77397,"longitude":-122.4313,"reserved":0,"last_update":"0001-01-01T00:00:00Z","name_a2s":"Uncletopia | San Francisco | 3 | Stopwatch Beta","protocol":17,"map":"pl_pier","folder":"tf","game":"Team Fortress","app_id":440,"player_count":0,"max_players":24,"Bots":0,"server_type":"Dedicated","server_os":"Linux","password":true,"vac":true,"version":"7723704","steam_id":85568392924742824,"keywords":["nocrits","nodmgspread","payload","uncletopia"],"game_id":440,"stv_port":27036,"stv_name":"Uncletopia | San Francisco | 3 | Stopwatch Beta | STV","players":null},{"server_id":20,"name":"Uncletopia | San Francisco | 4 | Community","name_short":"sfo-4","host":"sfo-1.us.uncletopia.com","port":27045,"enabled":true,"region":"us-west","cc":"us","latitude":37.77397,"longitude":-122.4313,"reserved":0,"last_update":"0001-01-01T00:00:00Z","name_a2s":"Uncletopia | San Francisco | 4 | Community","protocol":17,"map":"koth_cascade","folder":"tf","game":"Team Fortress","app_id":440,"player_count":0,"max_players":24,"Bots":0,"server_type":"Dedicated","server_os":"Linux","password":true,"vac":true,"version":"7723704","steam_id":85568392924742826,"keywords":["cp","nocrits","nodmgspread","uncletopia"],"game_id":440,"stv_port":27046,"stv_name":"Uncletopia | San Francisco | 4 | Community | STV","players":null},{"server_id":141,"name":"Uncletopia | Sydney | 1 | All Maps","name_short":"syd-1","host":"syd-1.au.uncletopia.com","port":27015,"enabled":true,"region":"au","cc":"au","latitude":-33.865143,"longitude":151.2099,"reserved":0,"last_update":"0001-01-01T00:00:00Z","name_a2s":"","protocol":0,"map":"","folder":"","game":"","app_id":0,"player_count":0,"max_players":0,"Bots":0,"server_type":"","server_os":"","password":false,"vac":false,"version":"","steam_id":0,"keywords":null,"game_id":0,"stv_port":0,"stv_name":"","players":null},{"server_id":123,"name":"Uncletopia | Sydney | 2 | All Maps","name_short":"syd-2","host":"syd-1.au.uncletopia.com","port":27025,"enabled":true,"region":"au","cc":"au","latitude":-33.865143,"longitude":151.2099,"reserved":0,"last_update":"0001-01-01T00:00:00Z","name_a2s":"","protocol":0,"map":"","folder":"","game":"","app_id":0,"player_count":0,"max_players":0,"Bots":0,"server_type":"","server_os":"","password":false,"vac":false,"version":"","steam_id":0,"keywords":null,"game_id":0,"stv_port":0,"stv_name":"","players":null},{"server_id":395,"name":"Uncletopia | Sydney | 3 | All Maps","name_short":"syd-3","host":"syd-1.au.uncletopia.com","port":27035,"enabled":true,"region":"au","cc":"au","latitude":-33.865143,"longitude":151.2099,"reserved":0,"last_update":"0001-01-01T00:00:00Z","name_a2s":"","protocol":0,"map":"","folder":"","game":"","app_id":0,"player_count":0,"max_players":0,"Bots":0,"server_type":"","server_os":"","password":false,"vac":false,"version":"","steam_id":0,"keywords":null,"game_id":0,"stv_port":0,"stv_name":"","players":null},{"server_id":396,"name":"Uncletopia | Sydney | 4 | All Maps","name_short":"syd-4","host":"syd-1.au.uncletopia.com","port":27045,"enabled":true,"region":"au","cc":"au","latitude":-33.865143,"longitude":151.2099,"reserved":0,"last_update":"0001-01-01T00:00:00Z","name_a2s":"","protocol":0,"map":"","folder":"","game":"","app_id":0,"player_count":0,"max_players":0,"Bots":0,"server_type":"","server_os":"","password":false,"vac":false,"version":"","steam_id":0,"keywords":null,"game_id":0,"stv_port":0,"stv_name":"","players":null},{"server_id":58,"name":"Uncletopia | Sydney | 5 | Stopwatch Beta","name_short":"syd-5","host":"syd-1.au.uncletopia.com","port":27055,"enabled":true,"region":"au","cc":"au","latitude":-33.865143,"longitude":151.2099,"reserved":0,"last_update":"0001-01-01T00:00:00Z","name_a2s":"","protocol":0,"map":"","folder":"","game":"","app_id":0,"player_count":0,"max_players":0,"Bots":0,"server_type":"","server_os":"","password":false,"vac":false,"version":"","steam_id":0,"keywords":null,"game_id":0,"stv_port":0,"stv_name":"","players":null},{"server_id":59,"name":"Uncletopia | Sydney | 6 | Community","name_short":"syd-6","host":"syd-1.au.uncletopia.com","port":27065,"enabled":true,"region":"au","cc":"au","latitude":-33.865143,"longitude":151.2099,"reserved":0,"last_update":"0001-01-01T00:00:00Z","name_a2s":"","protocol":0,"map":"","folder":"","game":"","app_id":0,"player_count":0,"max_players":0,"Bots":0,"server_type":"","server_os":"","password":false,"vac":false,"version":"","steam_id":0,"keywords":null,"game_id":0,"stv_port":0,"stv_name":"","players":null},{"server_id":49,"name":"Uncletopia | Warsaw | 1 | All Maps","name_short":"waw-1","host":"waw-1.pl.uncletopia.com","port":27015,"enabled":true,"region":"eu","cc":"pl","latitude":52.2297,"longitude":21.017532,"reserved":0,"last_update":"0001-01-01T00:00:00Z","name_a2s":"Uncletopia | Warsaw | 1 | All Maps","protocol":17,"map":"koth_cascade","folder":"tf","game":"Team Fortress","app_id":440,"player_count":0,"max_players":24,"Bots":0,"server_type":"Dedicated","server_os":"Linux","password":true,"vac":true,"version":"7723704","steam_id":85568392925397850,"keywords":["cp","nocrits","nodmgspread","uncletopia"],"game_id":440,"stv_port":27016,"stv_name":"Uncletopia | Warsaw | 1 | All Maps | STV","players":null},{"server_id":50,"name":"Uncletopia | Warsaw | 2 | All Maps","name_short":"waw-2","host":"waw-1.pl.uncletopia.com","port":27025,"enabled":true,"region":"eu","cc":"pl","latitude":52.2297,"longitude":21.017532,"reserved":0,"last_update":"0001-01-01T00:00:00Z","name_a2s":"Uncletopia | Warsaw | 2 | All Maps","protocol":17,"map":"koth_viaduct","folder":"tf","game":"Team Fortress","app_id":440,"player_count":0,"max_players":24,"Bots":0,"server_type":"Dedicated","server_os":"Linux","password":true,"vac":true,"version":"7723704","steam_id":85568392925397851,"keywords":["cp","nocrits","nodmgspread","uncletopia"],"game_id":440,"stv_port":27026,"stv_name":"Uncletopia | Warsaw | 2 | All Maps | STV","players":null},{"server_id":51,"name":"Uncletopia | Warsaw | 3 | All Maps","name_short":"waw-3","host":"waw-1.pl.uncletopia.com","port":27035,"enabled":true,"region":"eu","cc":"pl","latitude":52.2297,"longitude":21.017532,"reserved":0,"last_update":"0001-01-01T00:00:00Z","name_a2s":"Uncletopia | Warsaw | 3 | All Maps","protocol":17,"map":"koth_viaduct","folder":"tf","game":"Team Fortress","app_id":440,"player_count":0,"max_players":24,"Bots":0,"server_type":"Dedicated","server_os":"Linux","password":true,"vac":true,"version":"7723704","steam_id":85568392925397852,"keywords":["cp","nocrits","nodmgspread","uncletopia"],"game_id":440,"stv_port":27036,"stv_name":"Uncletopia | Warsaw | 3 | All Maps | STV","players":null},{"server_id":52,"name":"Uncletopia | Warsaw | 4 | All Maps","name_short":"waw-4","host":"waw-1.pl.uncletopia.com","port":27045,"enabled":true,"region":"eu","cc":"pl","latitude":52.2297,"longitude":21.017532,"reserved":0,"last_update":"0001-01-01T00:00:00Z","name_a2s":"Uncletopia | Warsaw | 4 | All Maps","protocol":17,"map":"cp_mountainlab","folder":"tf","game":"Team Fortress","app_id":440,"player_count":0,"max_players":24,"Bots":0,"server_type":"Dedicated","server_os":"Linux","password":true,"vac":true,"version":"7723704","steam_id":85568392925397853,"keywords":["cp","nocrits","nodmgspread","uncletopia"],"game_id":440,"stv_port":27046,"stv_name":"Uncletopia | Warsaw | 4 | All Maps | STV","players":null},{"server_id":53,"name":"Uncletopia | Warsaw | 5 | Stopwatch Beta","name_short":"waw-5","host":"waw-1.pl.uncletopia.com","port":27055,"enabled":true,"region":"eu","cc":"pl","latitude":52.2297,"longitude":21.017532,"reserved":0,"last_update":"0001-01-01T00:00:00Z","name_a2s":"Uncletopia | Warsaw | 5 | Stopwatch Beta","protocol":17,"map":"cp_sunshine","folder":"tf","game":"Team Fortress","app_id":440,"player_count":0,"max_players":24,"Bots":0,"server_type":"Dedicated","server_os":"Linux","password":true,"vac":true,"version":"7723704","steam_id":85568392925397854,"keywords":["cp","nocrits","nodmgspread","uncletopia"],"game_id":440,"stv_port":27056,"stv_name":"Uncletopia | Warsaw | 5 | Stopwatch Beta | STV","players":null},{"server_id":54,"name":"Uncletopia | Warsaw | 6 | Community","name_short":"waw-6","host":"waw-1.pl.uncletopia.com","port":27065,"enabled":true,"region":"eu","cc":"pl","latitude":52.2297,"longitude":21.017532,"reserved":0,"last_update":"0001-01-01T00:00:00Z","name_a2s":"Uncletopia | Warsaw | 6 | Community","protocol":17,"map":"workshop/koth_slaughter_rc1.ugc1712845210","folder":"tf","game":"Team Fortress","app_id":440,"player_count":0,"max_players":24,"Bots":0,"server_type":"Dedicated","server_os":"Linux","password":true,"vac":true,"version":"7723704","steam_id":85568392925397856,"keywords":["cp","nocrits","nodmgspread","uncletopia"],"game_id":440,"stv_port":27066,"stv_name":"Uncletopia | Warsaw | 6 | Community | STV","players":null}]}