{"status":true,"message":"","result":[{"server_id":9,"name":"Uncletopia | Atlanta | 1 | All Maps","name_short":"atl-1","host":"atl-1.us.uncletopia.com","port":27015,"enabled":true,"region":"us-east","cc":"us","latitude":33.753746,"longitude":-84.38633,"reserved":0,"last_update":"0001-01-01T00:00:00Z","name_a2s":"Uncletopia | Atlanta | 1 | All Maps","protocol":17,"map":"pl_upward","folder":"tf","game":"Team Fortress","app_id":440,"player_count":0,"max_players":24,"Bots":0,"server_type":"Dedicated","server_os":"Linux","password":true,"vac":true,"version":"7961495","steam_id":85568392924469982,"keywords":["nocrits","nodmgspread","payload","uncletopia"],"game_id":440,"stv_port":27016,"stv_name":"Uncletopia | Atlanta | 1 | All Maps | STV","players":null},{"server_id":104,"name":"Uncletopia | Atlanta | 2 | All Maps","name_short":"atl-2","host":"atl-1.us.uncletopia.com","port":27025,"enabled":true,"region":"us-east","cc":"us","latitude":33.753746,"longitude":-84.38633,"reserved":0,"last_update":"0001-01-01T00:00:00Z","name_a2s":"Uncletopia | Atlanta | 2 | All Maps","protocol":17,"map":"pl_hoodoo_final","folder":"tf","game":"Team Fortress","app_id":440,"player_count":13,"max_players":24,"Bots":0,"server_type":"Dedicated","server_os":"Linux","password":true,"vac":true,"version":"7961495","steam_id":85568392924469983,"keywords":["nocrits","nodmgspread","payload","uncletopia"],"game_id":440,"stv_port":27026,"stv_name":"Uncletopia | Atlanta | 2 | All Maps | STV","players":[{"user_id":528,"name":"lalman","steam_id":76561198196605887,"connected_time":429000000000,"state":"active","ping":67},{"user_id":530,"name":"DRUMMY GRAMMY","steam_id":76561198047642540,"connected_time":238000000000,"state":"active","ping":76},{"user_id":533,"name":"Gaming","steam_id":76561198107080532,"connected_time":170000000000,"state":"active","ping":65},{"user_id":520,"name":"Juanelo","steam_id":76561199096390505,"connected_time":929000000000,"state":"active","ping":71},{"user_id":471,"name":"Hipster_Giraffe","steam_id":76561198069701092,"connected_time":6215000000000,"state":"active","ping":70},{"user_id":513,"name":"The Notorious T.A.F.T.","steam_id":76561198073012352,"connected_time":1419000000000,"state":"active","ping":71},{"user_id":521,"name":"thugshaker6000","steam_id":76561198120458036,"connected_time":835000000000,"state":"active","ping":68},{"user_id":514,"name":"YaBoyUlyssesG","steam_id":76561198042482742,"connected_time":1386000000000,"state":"active","ping":89},{"user_id":526,"name":"Foolie","steam_id":76561198291741747,"connected_time":692000000000,"state":"active","ping":76},{"user_id":518,"name":"Steve (from Minecraft)","steam_id":76561198232026076,"connected_time":1213000000000,"state":"active","ping":63},{"user_id":532,"name":"Mexican from Mars","steam_id":76561198999625381,"connected_time":172000000000,"state":"active","ping":148},{"user_id":466,"name":"The Final Terminus","steam_id":76561197964985183,"connected_time":6586000000000,"state":"active","ping":52},{"user_id":456,"name":"Filthy Hobo","steam_id":76561198174373015,"connected_time":7499000000000,"state":"active","ping":98}]},{"server_id":400,"name":"Uncletopia | Atlanta | 3 | Stopwatch","name_short":"atl-3","host":"atl-1.us.uncletopia.com","port":27035,"enabled":true,"region":"us-east","cc":"us","latitude":33.753746,"longitude":-84.38633,"reserved":0,"last_update":"0001-01-01T00:00:00Z","name_a2s":"Uncletopia | Atlanta | 3 | Stopwatch","protocol":17,"map":"koth_highpass","folder":"tf","game":"Team Fortress","app_id":440,"player_count":0,"max_players":24,"Bots":0,"server_type":"Dedicated","server_os":"Linux","password":true,"vac":true,"version":"7961495","steam_id":85568392924515187,"keywords":["cp","nocrits","nodmgspread","uncletopia"],"game_id":440,"stv_port":27036,"stv_name":"Uncletopia | Atlanta | 3 | Stopwatch | STV","players":null},{"server_id":401,"name":"Uncletopia | Atlanta | 4 | Community","name_short":"atl-4","host":"atl-1.us.uncletopia.com","port":27045,"enabled":true,"region":"us-east","cc":"us","latitude":33.753746,"longitude":-84.38633,"reserved":0,"last_update":"0001-01-01T00:00:00Z","name_a2s":"Uncletopia | Atlanta | 4 | Community","protocol":17,"map":"workshop/cp_indulge.ugc528106646","folder":"tf","game":"Team Fortress","app_id":440,"player_count":0,"max_players":24,"Bots":0,"server_type":"Dedicated","server_os":"Linux","password":true,"vac":true,"version":"7961495","steam_id":85568392924515188,"keywords":["cp","nocrits","nodmgspread","uncletopia"],"game_id":440,"stv_port":27046,"stv_name":"Uncletopia | Atlanta | 4 | Community | STV","players":null},{"server_id":2,"name":"Uncletopia | Chicago | 1 | All Maps","name_short":"chi-1","host":"chi-1.us.uncletopia.com","port":27015,"enabled":true,"region":"us-central","cc":"us","latitude":41.881832,"longitude":-87.62318,"reserved":0,"last_update":"0001-01-01T00:00:00Z","name_a2s":"Uncletopia | Chicago | 1 | All Maps","protocol":17,"map":"pl_pier","folder":"tf","game":"Team Fortress","app_id":440,"player_count":24,"max_players":24,"Bots":0,"server_type":"Dedicated","server_os":"Linux","password":true,"vac":true,"version":"7961495","steam_id":85568392924469984,"keywords":["nocrits","nodmgspread","payload","uncletopia"],"game_id":440,"stv_port":27016,"stv_name":"Uncletopia | Chicago | 1 | All Maps | STV","players":[{"user_id":697,"name":"Chocc-_-","steam_id":76561198068070211,"connected_time":1084000000000,"state":"active","ping":101},{"user_id":705,"name":"Censure","steam_id":76561198850891374,"connected_time":768000000000,"state":"active","ping":62},{"user_id":670,"name":"Am Da Best","steam_id":76561198163825955,"connected_time":2227000000000,"state":"active","ping":123},{"user_id":669,"name":"rose","steam_id":76561198048882285,"connected_time":2264000000000,"state":"active","ping":60},{"user_id":698,"name":"Guitar Queero","steam_id":76561198880568662,"connected_time":1077000000000,"state":"active","ping":64},{"user_id":666,"name":"ms. capgras","steam_id":76561199080209996,"connected_time":2364000000000,"state":"active","ping":52},{"user_id":696,"name":"pah","steam_id":76561198065040540,"connected_time":1220000000000,"state":"active","ping":68},{"user_id":706,"name":"CF-TF2","steam_id":76561198145893044,"connected_time":672000000000,"state":"active","ping":79},{"user_id":686,"name":"gyat","steam_id":76561198043684960,"connected_time":1705000000000,"state":"active","ping":72},{"user_id":668,"name":"Sophie","steam_id":76561198170408057,"connected_time":2299000000000,"state":"active","ping":73},{"user_id":681,"name":"Poopisviel Von Einzbern","steam_id":76561198259260433,"connected_time":1830000000000,"state":"active","ping":86},{"user_id":605,"name":"robot with human hair","steam_id":76561198018691308,"connected_time":6607000000000,"state":"active","ping":79},{"user_id":659,"name":"exa*âœ©â€§â‚ŠËš","steam_id":76561198044511912,"connected_time":2505000000000,"state":"active","ping":101},{"user_id":660,"name":"eBay","steam_id":76561198061214569,"connected_time":2505000000000,"state":"active","ping":97},{"user_id":586,"name":"joseph stalin","steam_id":76561199230441293,"connected_time":7441000000000,"state":"active","ping":83},{"user_id":614,"name":"Dzhoshua","steam_id":76561198071915251,"connected_time":6399000000000,"state":"active","ping":67},{"user_id":704,"name":"Scrux","steam_id":76561198129763115,"connected_time":792000000000,"state":"active","ping":110},{"user_id":700,"name":"jayeezy","steam_id":76561198118562391,"connected_time":997000000000,"state":"active","ping":74},{"user_id":694,"name":"âˆ°","steam_id":76561198064424202,"connected_time":1318000000000,"state":"active","ping":60},{"user_id":667,"name":"DethSQRL","steam_id":76561199149628610,"connected_time":2322000000000,"state":"active","ping":77},{"user_id":631,"name":"saucy jack","steam_id":76561198307012859,"connected_time":4991000000000,"state":"active","ping":61},{"user_id":607,"name":"J O S HÂ³Â²","steam_id":76561198122603779,"connected_time":6594000000000,"state":"active","ping":99},{"user_id":707,"name":"AlmondMilk","steam_id":76561198151229725,"connected_time":634000000000,"state":"active","ping":108},{"user_id":701,"name":"Biscipline","steam_id":76561198019206178,"connected_time":992000000000,"state":"active","ping":81}]},{"server_id":106,"name":"Uncletopia | Chicago | 2 | All Maps","name_short":"chi-2","host":"chi-1.us.uncletopia.com","port":27025,"enabled":true,"region":"us-central","cc":"us","latitude":41.881832,"longitude":-87.62318,"reserved":0,"last_update":"0001-01-01T00:00:00Z","name_a2s":"Uncletopia | Chicago | 2 | All Maps","protocol":17,"map":"cp_mercenarypark","folder":"tf","game":"Team Fortress","app_id":440,"player_count":21,"max_players":24,"Bots":0,"server_type":"Dedicated","server_os":"Linux","password":true,"vac":true,"version":"7961495","steam_id":85568392924469985,"keywords":["cp","nocrits","nodmgspread","uncletopia"],"game_id":440,"stv_port":27026,"stv_name":"Uncletopia | Chicago | 2 | All Maps | STV","players":[{"user_id":434,"name":"44Ejkej77","steam_id":76561198117717593,"connected_time":480000000000,"state":"active","ping":162},{"user_id":422,"name":"Gray","steam_id":76561198387827743,"connected_time":1674000000000,"state":"active","ping":95},{"user_id":435,"name":"Baby Unicorn","steam_id":76561198155526516,"connected_time":247000000000,"state":"active","ping":60},{"user_id":436,"name":"misterspud","steam_id":76561198195306218,"connected_time":188000000000,"state":"active","ping":57},{"user_id":430,"name":"Crab","steam_id":76561198067628664,"connected_time":1008000000000,"state":"active","ping":98},{"user_id":424,"name":"Soup Fascist","steam_id":76561198801210525,"connected_time":1663000000000,"state":"active","ping":89},{"user_id":416,"name":"Octovaitor","steam_id":76561198004658451,"connected_time":1861000000000,"state":"active","ping":59},{"user_id":433,"name":"Patchy","steam_id":76561198008112883,"connected_time":612000000000,"state":"active","ping":84},{"user_id":348,"name":"Howard Hamlin","steam_id":76561198881039861,"connected_time":7699000000000,"state":"active","ping":109},{"user_id":381,"name":"Tobo","steam_id":76561198085846393,"connected_time":4996000000000,"state":"active","ping":76},{"user_id":429,"name":"kieÅ‚bas Å›lÄ…ski","steam_id":76561199130073764,"connected_time":1063000000000,"state":"active","ping":154},{"user_id":437,"name":"MILTYNINE","steam_id":76561198085520594,"connected_time":97000000000,"state":"active","ping":61},{"user_id":438,"name":"Twitch.tv/markblood2023tm","steam_id":76561198171746702,"connected_time":66000000000,"state":"active","ping":66},{"user_id":389,"name":"Probably George","steam_id":76561198320099889,"connected_time":3921000000000,"state":"active","ping":101},{"user_id":362,"name":"Ripley","steam_id":76561198064478354,"connected_time":6334000000000,"state":"active","ping":145},{"user_id":414,"name":"Gimme your Teeth","steam_id":76561198240523882,"connected_time":1893000000000,"state":"active","ping":95},{"user_id":439,"name":"brioche","steam_id":76561198111547419,"connected_time":29000000000,"state":"active","ping":73},{"user_id":418,"name":"xjlm","steam_id":76561198043497260,"connected_time":1840000000000,"state":"active","ping":109},{"user_id":427,"name":"Bruh Bubble","steam_id":76561199072479189,"connected_time":1176000000000,"state":"active","ping":146},{"user_id":440,"name":"Cxxrupt","steam_id":76561198343510062,"connected_time":4000000000,"state":"spawning","ping":92},{"user_id":441,"name":"Kimmyera","steam_id":76561198060317191,"connected_time":3000000000,"state":"spawning","ping":54}]},{"server_id":402,"name":"Uncletopia | Chicago | 3 | All Maps","name_short":"chi-3","host":"chi-1.us.uncletopia.com","port":27035,"enabled":true,"region":"us-central","cc":"us","latitude":41.881832,"longitude":-87.62318,"reserved":0,"last_update":"0001-01-01T00:00:00Z","name_a2s":"Uncletopia | Chicago | 3 | All Maps","protocol":17,"map":"pl_borneo","folder":"tf","game":"Team Fortress","app_id":440,"player_count":0,"max_players":24,"Bots":0,"server_type":"Dedicated","server_os":"Linux","password":true,"vac":true,"version":"7961495","steam_id":85568392924515191,"keywords":["nocrits","nodmgspread","payload","uncletopia"],"game_id":440,"stv_port":27036,"stv_name":"Uncletopia | Chicago | 3 | All Maps | STV","players":null},{"server_id":403,"name":"Uncletopia | Chicago | 4 | All Maps","name_short":"chi-4","host":"chi-1.us.uncletopia.com","port":27045,"enabled":true,"region":"us-central","cc":"us","latitude":41.881832,"longitude":-87.62318,"reserved":0,"last_update":"0001-01-01T00:00:00Z","name_a2s":"Uncletopia | Chicago | 4 | All Maps","protocol":17,"map":"cp_sunshine","folder":"tf","game":"Team Fortress","app_id":440,"player_count":23,"max_players":24,"Bots":0,"server_type":"Dedicated","server_os":"Linux","password":true,"vac":true,"version":"7961495","steam_id":85568392924515193,"keywords":["cp","nocrits","nodmgspread","uncletopia"],"game_id":440,"stv_port":27046,"stv_name":"Uncletopia | Chicago | 4 | All Maps | STV","players":[{"user_id":718,"name":"Pongallow","steam_id":76561198146876078,"connected_time":535000000000,"state":"active","ping":45},{"user_id":702,"name":"Hobo Shanker","steam_id":76561198001785187,"connected_time":1111000000000,"state":"active","ping":84},{"user_id":720,"name":"L1Spid","steam_id":76561199029194491,"connected_time":118000000000,"state":"active","ping":74},{"user_id":721,"name":"Bewty","steam_id":76561198146745998,"connected_time":46000000000,"state":"active","ping":62},{"user_id":708,"name":"Tazee","steam_id":76561198121023233,"connected_time":979000000000,"state":"active","ping":67},{"user_id":654,"name":"Kantamoe","steam_id":76561198046661611,"connected_time":4837000000000,"state":"active","ping":82},{"user_id":691,"name":"å¦‚é¡˜","steam_id":76561198038486613,"connected_time":1747000000000,"state":"active","ping":73},{"user_id":696,"name":"ouroya","steam_id":76561198269138985,"connected_time":1435000000000,"state":"active","ping":34},{"user_id":624,"name":"zpalmtree","steam_id":76561198134307620,"connected_time":6577000000000,"state":"active","ping":59},{"user_id":703,"name":"EvilPi99let","steam_id":76561197987243470,"connected_time":1095000000000,"state":"active","ping":74},{"user_id":714,"name":"Always Here for You","steam_id":76561198219252313,"connected_time":815000000000,"state":"active","ping":61},{"user_id":706,"name":"Thunder","steam_id":76561198097721532,"connected_time":1019000000000,"state":"active","ping":101},{"user_id":697,"name":"wetto makaveli","steam_id":76561198224811504,"connected_time":1400000000000,"state":"active","ping":61},{"user_id":676,"name":"Nexusuxen","steam_id":76561198117547131,"connected_time":2681000000000,"state":"active","ping":69},{"user_id":722,"name":"Who Am I?","steam_id":76561198098141967,"connected_time":4000000000,"state":"spawning","ping":104},{"user_id":667,"name":"mark","steam_id":76561198200380143,"connected_time":3823000000000,"state":"active","ping":122},{"user_id":717,"name":"honked off the bobo","steam_id":76561198123287268,"connected_time":663000000000,"state":"active","ping":54},{"user_id":693,"name":"keffers","steam_id":76561198202338796,"connected_time":1738000000000,"state":"active","ping":73},{"user_id":710,"name":"Sinta","steam_id":76561198098398841,"connected_time":967000000000,"state":"active","ping":74},{"user_id":712,"name":"Echo","steam_id":76561198072092594,"connected_time":914000000000,"state":"active","ping":72},{"user_id":680,"name":"Mufalito","steam_id":76561198951889482,"connected_time":2552000000000,"state":"active","ping":135},{"user_id":715,"name":"Pen-Y-Darren","steam_id":76561198873399959,"connected_time":747000000000,"state":"active","ping":45},{"user_id":704,"name":"kol.","steam_id":76561199151398882,"connected_time":1093000000000,"state":"active","ping":74}]},{"server_id":36,"name":"Uncletopia | Chicago | 5 | All Maps","name_short":"chi-5","host":"chi-2.us.uncletopia.com","port":27015,"enabled":true,"region":"us-central","cc":"us","latitude":41.881832,"longitude":-87.62318,"reserved":0,"last_update":"0001-01-01T00:00:00Z","name_a2s":"Uncletopia | Chicago | 5 | All Maps","protocol":17,"map":"ctf_turbine","folder":"tf","game":"Team Fortress","app_id":440,"player_count":0,"max_players":24,"Bots":0,"server_type":"Dedicated","server_os":"Linux","password":true,"vac":true,"version":"7961495","steam_id":85568392924866362,"keywords":["ctf","nocrits","nodmgspread","uncletopia"],"game_id":440,"stv_port":27016,"stv_name":"Uncletopia | Chicago | 5 | All Maps | STV","players":null},{"server_id":37,"name":"Uncletopia | Chicago | 6 | All Maps","name_short":"chi-6","host":"chi-2.us.uncletopia.com","port":27025,"enabled":true,"region":"us-central","cc":"us","latitude":41.881832,"longitude":-87.62318,"reserved":0,"last_update":"0001-01-01T00:00:00Z","name_a2s":"Uncletopia | Chicago | 6 | All Maps","protocol":17,"map":"koth_highpass","folder":"tf","game":"Team Fortress","app_id":440,"player_count":0,"max_players":24,"Bots":0,"server_type":"Dedicated","server_os":"Linux","password":true,"vac":true,"version":"7961495","steam_id":85568392924866363,"keywords":["cp","nocrits","nodmgspread","uncletopia"],"game_id":440,"stv_port":27026,"stv_name":"Uncletopia | Chicago | 6 | All Maps | STV","players":null},{"server_id":38,"name":"Uncletopia | Chicago | 7 | Stopwatch","name_short":"chi-7","host":"chi-2.us.uncletopia.com","port":27035,"enabled":true,"region":"us-central","cc":"us","latitude":41.881832,"longitude":-87.62318,"reserved":0,"last_update":"0001-01-01T00:00:00Z","name_a2s":"Uncletopia | Chicago | 7 | Stopwatch","protocol":17,"map":"workshop/koth_bagel_rc6.ugc2514036946","folder":"tf","game":"Team Fortress","app_id":440,"player_count":0,"max_players":24,"Bots":0,"server_type":"Dedicated","server_os":"Linux","password":true,"vac":true,"version":"7961495","steam_id":85568392924866364,"keywords":["cp","nocrits","nodmgspread","uncletopia"],"game_id":440,"stv_port":27036,"stv_name":"Uncletopia | Chicago | 7 | Stopwatch | STV","players":null},{"server_id":39,"name":"Uncletopia | Chicago | 8 | Community","name_short":"chi-8","host":"chi-2.us.uncletopia.com","port":27045,"enabled":true,"region":"us-central","cc":"us","latitude":41.881832,"longitude":-87.62318,"reserved":0,"last_update":"0001-01-01T00:00:00Z","name_a2s":"Uncletopia | Chicago | 8 | Community","protocol":17,"map":"workshop/koth_ashville_final.ugc2130459942","folder":"tf","game":"Team Fortress","app_id":440,"player_count":0,"max_players":24,"Bots":0,"server_type":"Dedicated","server_os":"Linux","password":true,"vac":true,"version":"7961495","steam_id":85568392924866365,"keywords":["cp","nocrits","nodmgspread","uncletopia"],"game_id":440,"stv_port":27046,"stv_name":"Uncletopia | Chicago | 8 | Community | STV","players":null},{"server_id":8,"name":"Uncletopia | Dallas | 1 | All Maps","name_short":"dal-1","host":"dal-1.us.uncletopia.com","port":27015,"enabled":true,"region":"us-central","cc":"us","latitude":32.779167,"longitude":-96.80889,"reserved":0,"last_update":"0001-01-01T00:00:00Z","name_a2s":"Uncletopia | Dallas | 1 | All Maps","protocol":17,"map":"pl_barnblitz","folder":"tf","game":"Team Fortress","app_id":440,"player_count":2,"max_players":24,"Bots":0,"server_type":"Dedicated","server_os":"Linux","password":true,"vac":true,"version":"7961495","steam_id":85568392924469986,"keywords":["nocrits","nodmgspread","payload","uncletopia"],"game_id":440,"stv_port":27016,"stv_name":"Uncletopia | Dallas | 1 | All Maps | STV","players":[{"user_id":493,"name":"Azazellotl","steam_id":76561198824814392,"connected_time":749000000000,"state":"active","ping":86},{"user_id":494,"name":"Hyden da kobobl","steam_id":76561198837931725,"connected_time":393000000000,"state":"active","ping":105}]},{"server_id":108,"name":"Uncletopia | Dallas | 2 | All Maps","name_short":"dal-2","host":"dal-1.us.uncletopia.com","port":27025,"enabled":true,"region":"us-central","cc":"us","latitude":32.779167,"longitude":-96.80889,"reserved":0,"last_update":"0001-01-01T00:00:00Z","name_a2s":"Uncletopia | Dallas | 2 | All Maps","protocol":17,"map":"koth_lakeside_final","folder":"tf","game":"Team Fortress","app_id":440,"player_count":5,"max_players":24,"Bots":0,"server_type":"Dedicated","server_os":"Linux","password":true,"vac":true,"version":"7961495","steam_id":85568392924469988,"keywords":["cp","nocrits","nodmgspread","uncletopia"],"game_id":440,"stv_port":27026,"stv_name":"Uncletopia | Dallas | 2 | All Maps | STV","players":[{"user_id":536,"name":"ShadowBolt","steam_id":76561198061610985,"connected_time":2457000000000,"state":"active","ping":104},{"user_id":537,"name":"cofferhead","steam_id":76561199191108449,"connected_time":1971000000000,"state":"active","ping":80},{"user_id":542,"name":"Kirbothebrony","steam_id":76561198971911330,"connected_time":931000000000,"state":"active","ping":63},{"user_id":539,"name":"Orange","steam_id":76561198169914315,"connected_time":1410000000000,"state":"active","ping":59},{"user_id":540,"name":"DudeBergs","steam_id":76561198399777833,"connected_time":1270000000000,"state":"active","ping":65}]},{"server_id":404,"name":"Uncletopia | Dallas | 3 | All Maps","name_short":"dal-3","host":"dal-1.us.uncletopia.com","port":27035,"enabled":true,"region":"us-central","cc":"us","latitude":32.779167,"longitude":-96.80889,"reserved":0,"last_update":"0001-01-01T00:00:00Z","name_a2s":"Uncletopia | Dallas | 3 | All Maps","protocol":17,"map":"cp_dustbowl","folder":"tf","game":"Team Fortress","app_id":440,"player_count":13,"max_players":24,"Bots":0,"server_type":"Dedicated","server_os":"Linux","password":true,"vac":true,"version":"7961495","steam_id":85568392924515219,"keywords":["cp","nocrits","nodmgspread","uncletopia"],"game_id":440,"stv_port":27036,"stv_name":"Uncletopia | Dallas | 3 | All Maps | STV","players":[{"user_id":879,"name":"U Ï‰ U","steam_id":76561198118802562,"connected_time":470000000000,"state":"active","ping":92},{"user_id":880,"name":"Stevelonk","steam_id":76561198088224665,"connected_time":424000000000,"state":"active","ping":83},{"user_id":873,"name":"Lord_Dabbatron","steam_id":76561199058480985,"connected_time":817000000000,"state":"active","ping":38},{"user_id":874,"name":"KingMando","steam_id":76561198462240323,"connected_time":794000000000,"state":"active","ping":72},{"user_id":881,"name":"Cheese","steam_id":76561199207081299,"connected_time":377000000000,"state":"active","ping":98},{"user_id":882,"name":"Full Throttle Axolotl","steam_id":76561198041836477,"connected_time":217000000000,"state":"active","ping":45},{"user_id":846,"name":"Burny Sanders","steam_id":76561197961879048,"connected_time":3556000000000,"state":"active","ping":44},{"user_id":876,"name":"American Dad","steam_id":76561198059711448,"connected_time":758000000000,"state":"active","ping":86},{"user_id":877,"name":"Gason Homoa","steam_id":76561199000180522,"connected_time":755000000000,"state":"active","ping":97},{"user_id":878,"name":"Gummy","steam_id":76561199200969139,"connected_time":749000000000,"state":"active","ping":101},{"user_id":836,"name":"ItsYaBoiScooter","steam_id":76561199028427897,"connected_time":4225000000000,"state":"active","ping":89},{"user_id":853,"name":"Bizsnitch","steam_id":76561198017936794,"connected_time":3212000000000,"state":"active","ping":60},{"user_id":857,"name":"jello_pudding","steam_id":76561198073844467,"connected_time":1755000000000,"state":"active","ping":104}]},{"server_id":405,"name":"Uncletopia | Dallas | 4 | Community","name_short":"dal-4","host":"dal-1.us.uncletopia.com","port":27045,"enabled":true,"region":"us-central","cc":"us","latitude":32.779167,"longitude":-96.80889,"reserved":0,"last_update":"0001-01-01T00:00:00Z","name_a2s":"Uncletopia | Dallas | 4 | Community","protocol":17,"map":"workshop/koth_kemptown_rc1.ugc767410655","folder":"tf","game":"Team Fortress","app_id":440,"player_count":0,"max_players":24,"Bots":0,"server_type":"Dedicated","server_os":"Linux","password":true,"vac":true,"version":"7961495","steam_id":85568392924515220,"keywords":["cp","nocrits","nodmgspread","uncletopia"],"game_id":440,"stv_port":27046,"stv_name":"Uncletopia | Dallas | 4 | Community | STV","players":null},{"server_id":5,"name":"Uncletopia | Frankfurt | 1 | All Maps","name_short":"frk-1","host":"frk-1.de.uncletopia.com","port":27015,"enabled":true,"region":"eu","cc":"de","latitude":50.110924,"longitude":8.682127,"reserved":0,"last_update":"0001-01-01T00:00:00Z","name_a2s":"Uncletopia | Frankfurt | 1 | All Maps","protocol":17,"map":"koth_highpass","folder":"tf","game":"Team Fortress","app_id":440,"player_count":0,"max_players":24,"Bots":0,"server_type":"Dedicated","server_os":"Linux","password":true,"vac":true,"version":"7961495","steam_id":85568392924469989,"keywords":["cp","nocrits","nodmgspread","uncletopia"],"game_id":440,"stv_port":27016,"stv_name":"Uncletopia | Frankfurt | 1 | All Maps | STV","players":null},{"server_id":110,"name":"Uncletopia | Frankfurt | 2 | All Maps","name_short":"frk-2","host":"frk-1.de.uncletopia.com","port":27025,"enabled":true,"region":"eu","cc":"de","latitude":50.110924,"longitude":8.682127,"reserved":0,"last_update":"0001-01-01T00:00:00Z","name_a2s":"Uncletopia | Frankfurt | 2 | All Maps","protocol":17,"map":"cp_dustbowl","folder":"tf","game":"Team Fortress","app_id":440,"player_count":0,"max_players":24,"Bots":0,"server_type":"Dedicated","server_os":"Linux","password":true,"vac":true,"version":"7961495","steam_id":85568392924469990,"keywords":["cp","nocrits","nodmgspread","uncletopia"],"game_id":440,"stv_port":27026,"stv_name":"Uncletopia | Frankfurt | 2 | All Maps | STV","players":null},{"server_id":308,"name":"Uncletopia | Frankfurt | 3 | All Maps","name_short":"frk-3","host":"frk-1.de.uncletopia.com","port":27035,"enabled":true,"region":"eu","cc":"de","latitude":50.110924,"longitude":8.682127,"reserved":0,"last_update":"0001-01-01T00:00:00Z","name_a2s":"Uncletopia | Frankfurt | 3 | All Maps","protocol":17,"map":"pl_swiftwater_final1","folder":"tf","game":"Team Fortress","app_id":440,"player_count":0,"max_players":24,"Bots":0,"server_type":"Dedicated","server_os":"Linux","password":true,"vac":true,"version":"7961495","steam_id":85568392924504274,"keywords":["nocrits","nodmgspread","payload","uncletopia"],"game_id":440,"stv_port":27036,"stv_name":"Uncletopia | Frankfurt | 3 | All Maps | STV","players":null},{"server_id":309,"name":"Uncletopia | Frankfurt | 4 | All Maps","name_short":"frk-4","host":"frk-1.de.uncletopia.com","port":27045,"enabled":true,"region":"eu","cc":"de","latitude":50.110924,"longitude":8.682127,"reserved":0,"last_update":"0001-01-01T00:00:00Z","name_a2s":"Uncletopia | Frankfurt | 4 | All Maps","protocol":17,"map":"koth_highpass","folder":"tf","game":"Team Fortress","app_id":440,"player_count":0,"max_players":24,"Bots":0,"server_type":"Dedicated","server_os":"Linux","password":true,"vac":true,"version":"7961495","steam_id":85568392924504275,"keywords":["cp","nocrits","nodmgspread","uncletopia"],"game_id":440,"stv_port":27046,"stv_name":"Uncletopia | Frankfurt | 4 | All Maps | STV","players":null},{"server_id":310,"name":"Uncletopia | Frankfurt | 5 | All Maps","name_short":"frk-5","host":"frk-1.de.uncletopia.com","port":27055,"enabled":true,"region":"eu","cc":"de","latitude":50.110924,"longitude":8.682127,"reserved":0,"last_update":"0001-01-01T00:00:00Z","name_a2s":"Uncletopia | Frankfurt | 5 | All Maps","protocol":17,"map":"koth_lakeside_final","folder":"tf","game":"Team Fortress","app_id":440,"player_count":0,"max_players":24,"Bots":0,"server_type":"Dedicated","server_os":"Linux","password":true,"vac":true,"version":"7961495","steam_id":85568392924504277,"keywords":["cp","nocrits","nodmgspread","uncletopia"],"game_id":440,"stv_port":27056,"stv_name":"Uncletopia | Frankfurt | 5 | All Maps | STV","players":null},{"server_id":311,"name":"Uncletopia | Frankfurt | 6 | All Maps","name_short":"frk-6","host":"frk-1.de.uncletopia.com","port":27065,"enabled":true,"region":"eu","cc":"de","latitude":50.110924,"longitude":8.682127,"reserved":0,"last_update":"0001-01-01T00:00:00Z","name_a2s":"Uncletopia | Frankfurt | 6 | All Maps","protocol":17,"map":"pl_borneo","folder":"tf","game":"Team Fortress","app_id":440,"player_count":0,"max_players":24,"Bots":0,"server_type":"Dedicated","server_os":"Linux","password":true,"vac":true,"version":"7961495","steam_id":85568392924504278,"keywords":["nocrits","nodmgspread","payload","uncletopia"],"game_id":440,"stv_port":27066,"stv_name":"Uncletopia | Frankfurt | 6 | All Maps | STV","players":null},{"server_id":23,"name":"Uncletopia | Frankfurt | 7 | Stopwatch","name_short":"frk-7","host":"frk-1.de.uncletopia.com","port":27075,"enabled":true,"region":"eu","cc":"de","latitude":50.110924,"longitude":8.682127,"reserved":0,"last_update":"0001-01-01T00:00:00Z","name_a2s":"Uncletopia | Frankfurt | 7 | Stopwatch","protocol":17,"map":"pl_frontier_final","folder":"tf","game":"Team Fortress","app_id":440,"player_count":0,"max_players":24,"Bots":0,"server_type":"Dedicated","server_os":"Linux","password":true,"vac":true,"version":"7961495","steam_id":85568392924742827,"keywords":["nocrits","nodmgspread","payload","uncletopia"],"game_id":440,"stv_port":27076,"stv_name":"Uncletopia | Frankfurt | 7 | Stopwatch | STV","players":null},{"server_id":24,"name":"Uncletopia | Frankfurt | 8 | Community","name_short":"frk-8","host":"frk-1.de.uncletopia.com","port":27085,"enabled":true,"region":"eu","cc":"de","latitude":50.110924,"longitude":8.682127,"reserved":0,"last_update":"0001-01-01T00:00:00Z","name_a2s":"Uncletopia | Frankfurt | 8 | Community","protocol":17,"map":"workshop/pl_emerge_rc2.ugc888027758","folder":"tf","game":"Team Fortress","app_id":440,"player_count":0,"max_players":24,"Bots":0,"server_type":"Dedicated","server_os":"Linux","password":true,"vac":true,"version":"7961495","steam_id":85568392924742828,"keywords":["nocrits","nodmgspread","payload","uncletopia"],"game_id":440,"stv_port":27086,"stv_name":"Uncletopia | Frankfurt | 8 | Community | STV","players":null},{"server_id":202,"name":"Uncletopia | Hong Kong | 1 | All Maps","name_short":"hgk-1","host":"hgk-1.hk.uncletopia.com","port":27015,"enabled":true,"region":"asia","cc":"hk","latitude":22.302711,"longitude":114.177216,"reserved":0,"last_update":"0001-01-01T00:00:00Z","name_a2s":"Uncletopia | Hong Kong | 1 | All Maps","protocol":17,"map":"pl_pier","folder":"tf","game":"Team Fortress","app_id":440,"player_count":0,"max_players":24,"Bots":0,"server_type":"Dedicated","server_os":"Linux","password":true,"vac":true,"version":"7961495","steam_id":85568392924494504,"keywords":["nocrits","nodmgspread","payload","uncletopia"],"game_id":440,"stv_port":27016,"stv_name":"Uncletopia | Hong Kong | 1 | All Maps | STV","players":null},{"server_id":1,"name":"Uncletopia | Los Angeles | 1 | All Maps","name_short":"lax-1","host":"lax-1.us.uncletopia.com","port":27015,"enabled":true,"region":"us-west","cc":"us","latitude":33.94279,"longitude":-118.41004,"reserved":0,"last_update":"0001-01-01T00:00:00Z","name_a2s":"Uncletopia | Los Angeles | 1 | All Maps","protocol":17,"map":"cp_sunshine","folder":"tf","game":"Team Fortress","app_id":440,"player_count":12,"max_players":24,"Bots":0,"server_type":"Dedicated","server_os":"Linux","password":true,"vac":true,"version":"7961495","steam_id":85568392924469991,"keywords":["cp","nocrits","nodmgspread","uncletopia"],"game_id":440,"stv_port":27016,"stv_name":"Uncletopia | Los Angeles | 1 | All Maps | STV","players":[{"user_id":248,"name":"charm quark","steam_id":76561198098770777,"connected_time":31000000000,"state":"spawning","ping":88},{"user_id":223,"name":"PROFILE NAME","steam_id":76561199438851854,"connected_time":3144000000000,"state":"spawning","ping":63},{"user_id":249,"name":"TechnoBear2099","steam_id":76561198238863596,"connected_time":9000000000,"state":"spawning","ping":78},{"user_id":113,"name":"Anon","steam_id":76561198109740776,"connected_time":11996000000000,"state":"spawning","ping":36},{"user_id":219,"name":"a chicken","steam_id":76561198313121580,"connected_time":3775000000000,"state":"spawning","ping":51},{"user_id":247,"name":"jimmy john","steam_id":76561198826558696,"connected_time":39000000000,"state":"spawning","ping":64},{"user_id":192,"name":"HAT-WEARINGâ„¢ Maggot Gamer Cat","steam_id":76561197973992705,"connected_time":5848000000000,"state":"spawning","ping":46},{"user_id":238,"name":"Evelyn!","steam_id":76561198881145760,"connected_time":1751000000000,"state":"spawning","ping":41},{"user_id":246,"name":"Looge","steam_id":76561198155483586,"connected_time":250000000000,"state":"spawning","ping":97},{"user_id":232,"name":"psi","steam_id":76561198061497429,"connected_time":2901000000000,"state":"spawning","ping":78},{"user_id":233,"name":"Ulysses Jack","steam_id":76561199497821434,"connected_time":2876000000000,"state":"spawning","ping":129},{"user_id":215,"name":"Midnight","steam_id":76561198115714484,"connected_time":5156000000000,"state":"spawning","ping":99}]},{"server_id":112,"name":"Uncletopia | Los Angeles | 2 | All Maps","name_short":"lax-2","host":"lax-1.us.uncletopia.com","port":27025,"enabled":true,"region":"us-west","cc":"us","latitude":33.94279,"longitude":-118.41004,"reserved":0,"last_update":"0001-01-01T00:00:00Z","name_a2s":"Uncletopia | Los Angeles | 2 | All Maps","protocol":17,"map":"cp_dustbowl","folder":"tf","game":"Team Fortress","app_id":440,"player_count":23,"max_players":24,"Bots":0,"server_type":"Dedicated","server_os":"Linux","password":true,"vac":true,"version":"7961495","steam_id":85568392924469992,"keywords":["cp","nocrits","nodmgspread","uncletopia"],"game_id":440,"stv_port":27026,"stv_name":"Uncletopia | Los Angeles | 2 | All Maps | STV","players":[{"user_id":248,"name":"Sterling Nano","steam_id":76561198048580088,"connected_time":518000000000,"state":"active","ping":65},{"user_id":194,"name":"filtered by cp_steel","steam_id":76561198031409921,"connected_time":4843000000000,"state":"active","ping":50},{"user_id":237,"name":"Dustin Bones","steam_id":76561198019314474,"connected_time":1509000000000,"state":"active","ping":78},{"user_id":240,"name":"Five","steam_id":76561198026640473,"connected_time":1319000000000,"state":"active","ping":56},{"user_id":249,"name":"Fray","steam_id":76561198030141282,"connected_time":56000000000,"state":"active","ping":86},{"user_id":246,"name":"The Comedian","steam_id":76561198037780226,"connected_time":1244000000000,"state":"active","ping":51},{"user_id":213,"name":"Whisper!","steam_id":76561198119609795,"connected_time":3369000000000,"state":"active","ping":51},{"user_id":196,"name":"Mr. Noodle","steam_id":76561198025280658,"connected_time":4824000000000,"state":"active","ping":55},{"user_id":197,"name":"lol","steam_id":76561198026491738,"connected_time":4821000000000,"state":"active","ping":70},{"user_id":244,"name":"FlyingCircus","steam_id":76561198242580912,"connected_time":1258000000000,"state":"active","ping":58},{"user_id":241,"name":"jon pickle water","steam_id":76561199036212135,"connected_time":1312000000000,"state":"active","ping":90},{"user_id":202,"name":"Skumpfsklub","steam_id":76561198045782334,"connected_time":4693000000000,"state":"active","ping":59},{"user_id":242,"name":"011sra","steam_id":76561199489542125,"connected_time":1294000000000,"state":"active","ping":78},{"user_id":226,"name":"Charles","steam_id":76561198155322277,"connected_time":2814000000000,"state":"active","ping":56},{"user_id":186,"name":"Lane","steam_id":76561197965828506,"connected_time":6243000000000,"state":"active","ping":81},{"user_id":212,"name":"Syrup","steam_id":76561198055850531,"connected_time":3565000000000,"state":"active","ping":54},{"user_id":231,"name":"Andrew Dice Gay","steam_id":76561198040736821,"connected_time":1925000000000,"state":"active","ping":58},{"user_id":229,"name":"Soggy Zogg","steam_id":76561198836316052,"connected_time":2730000000000,"state":"active","ping":54},{"user_id":217,"name":"rat ðŸ¥²ðŸ˜¶ðŸŒ«","steam_id":76561198130412963,"connected_time":3115000000000,"state":"active","ping":80},{"user_id":203,"name":"who","steam_id":76561198066091050,"connected_time":4584000000000,"state":"active","ping":88},{"user_id":218,"name":"generalnat","steam_id":76561198140394819,"connected_time":3046000000000,"state":"active","ping":109},{"user_id":247,"name":"Starry Platinum","steam_id":76561198041226814,"connected_time":898000000000,"state":"active","ping":56},{"user_id":245,"name":"Rennsellaer","steam_id":76561198096207580,"connected_time":1257000000000,"state":"active","ping":57}]},{"server_id":324,"name":"Uncletopia | Los Angeles | 3 | All Maps","name_short":"lax-3","host":"lax-1.us.uncletopia.com","port":27035,"enabled":true,"region":"us-west","cc":"us","latitude":33.94279,"longitude":-118.41004,"reserved":0,"last_update":"0001-01-01T00:00:00Z","name_a2s":"Uncletopia | Los Angeles | 3 | All Maps","protocol":17,"map":"koth_cascade","folder":"tf","game":"Team Fortress","app_id":440,"player_count":0,"max_players":24,"Bots":0,"server_type":"Dedicated","server_os":"Linux","password":true,"vac":true,"version":"7961495","steam_id":85568392924510198,"keywords":["cp","nocrits","nodmgspread","uncletopia"],"game_id":440,"stv_port":27036,"stv_name":"Uncletopia | Los Angeles | 3 | All Maps | STV","players":null},{"server_id":25,"name":"Uncletopia | Los Angeles | 4 | Stopwatch","name_short":"lax-4","host":"lax-1.us.uncletopia.com","port":27045,"enabled":true,"region":"us-west","cc":"us","latitude":33.94279,"longitude":-118.41004,"reserved":0,"last_update":"0001-01-01T00:00:00Z","name_a2s":"Uncletopia | Los Angeles | 4 | Stopwatch","protocol":17,"map":"workshop/koth_ashville_final.ugc2130459942","folder":"tf","game":"Team Fortress","app_id":440,"player_count":0,"max_players":24,"Bots":0,"server_type":"Dedicated","server_os":"Linux","password":true,"vac":true,"version":"7961495","steam_id":85568392924510199,"keywords":["cp","nocrits","nodmgspread","uncletopia"],"game_id":440,"stv_port":27046,"stv_name":"Uncletopia | Los Angeles | 4 | Stopwatch | STV","players":null},{"server_id":11,"name":"Uncletopia | London | 1 | All Maps","name_short":"lon-1","host":"lon-1.uk.uncletopia.com","port":27015,"enabled":true,"region":"eu","cc":"gb","latitude":51.509865,"longitude":-0.118092,"reserved":0,"last_update":"0001-01-01T00:00:00Z","name_a2s":"Uncletopia | London | 1 | All Maps","protocol":17,"map":"pl_pier","folder":"tf","game":"Team Fortress","app_id":440,"player_count":19,"max_players":24,"Bots":0,"server_type":"Dedicated","server_os":"Linux","password":true,"vac":true,"version":"7961495","steam_id":85568392924367362,"keywords":["nocrits","nodmgspread","payload","uncletopia"],"game_id":440,"stv_port":27016,"stv_name":"Uncletopia | London | 1 | All Maps | STV","players":[{"user_id":19,"name":"Ember The Drunk Femboy","steam_id":76561198139630565,"connected_time":2887000000000,"state":"active","ping":45},{"user_id":17,"name":"yuno appreciator","steam_id":76561198083286511,"connected_time":3077000000000,"state":"active","ping":46},{"user_id":33,"name":"kkk [AI]","steam_id":76561198117319649,"connected_time":1437000000000,"state":"active","ping":121},{"user_id":20,"name":"Femboy Foxi","steam_id":76561198108635769,"connected_time":2862000000000,"state":"active","ping":65},{"user_id":25,"name":"geroxe cruo","steam_id":76561199480942903,"connected_time":2194000000000,"state":"active","ping":75},{"user_id":46,"name":"the action gamemaster","steam_id":76561198007494744,"connected_time":375000000000,"state":"active","ping":48},{"user_id":45,"name":"Vinn0","steam_id":76561198987241284,"connected_time":587000000000,"state":"active","ping":60},{"user_id":34,"name":"6fx playgreen.","steam_id":76561198363855764,"connected_time":1348000000000,"state":"active","ping":66},{"user_id":23,"name":"76561199218760942","steam_id":76561199218760942,"connected_time":2612000000000,"state":"active","ping":56},{"user_id":29,"name":"hock3n","steam_id":76561198805431094,"connected_time":1851000000000,"state":"active","ping":150},{"user_id":48,"name":"John0309","steam_id":76561198447428162,"connected_time":220000000000,"state":"active","ping":70},{"user_id":31,"name":"thatmandan14","steam_id":76561199167911857,"connected_time":1709000000000,"state":"active","ping":37},{"user_id":47,"name":"Jboythemenace","steam_id":76561198102004539,"connected_time":307000000000,"state":"active","ping":45},{"user_id":50,"name":"Neato!","steam_id":76561198043548668,"connected_time":40000000000,"state":"spawning","ping":186},{"user_id":37,"name":"Doktor Drip","steam_id":76561198843329045,"connected_time":1204000000000,"state":"active","ping":106},{"user_id":41,"name":"Shadowmann","steam_id":76561198158608309,"connected_time":920000000000,"state":"active","ping":55},{"user_id":42,"name":"scarybeast","steam_id":76561198927694734,"connected_time":895000000000,"state":"active","ping":78},{"user_id":49,"name":"Manslayer","steam_id":76561198063956707,"connected_time":151000000000,"state":"active","ping":59},{"user_id":44,"name":"MrXtr","steam_id":76561198966247397,"connected_time":817000000000,"state":"active","ping":66}]},{"server_id":114,"name":"Uncletopia | London | 2 | All Maps","name_short":"lon-2","host":"lon-1.uk.uncletopia.com","port":27025,"enabled":true,"region":"eu","cc":"gb","latitude":51.509865,"longitude":-0.118092,"reserved":0,"last_update":"0001-01-01T00:00:00Z","name_a2s":"Uncletopia | London | 2 | All Maps","protocol":17,"map":"koth_lakeside_final","folder":"tf","game":"Team Fortress","app_id":440,"player_count":0,"max_players":24,"Bots":0,"server_type":"Dedicated","server_os":"Linux","password":true,"vac":true,"version":"7961495","steam_id":85568392924470941,"keywords":["cp","nocrits","nodmgspread","uncletopia"],"game_id":440,"stv_port":27026,"stv_name":"Uncletopia | London | 2 | All Maps | STV","players":null},{"server_id":320,"name":"Uncletopia | London | 3 | All Maps","name_short":"lon-3","host":"lon-1.uk.uncletopia.com","port":27035,"enabled":true,"region":"eu","cc":"gb","latitude":51.509865,"longitude":-0.118092,"reserved":0,"last_update":"0001-01-01T00:00:00Z","name_a2s":"Uncletopia | London | 3 | All Maps","protocol":17,"map":"cp_process_final","folder":"tf","game":"Team Fortress","app_id":440,"player_count":0,"max_players":24,"Bots":0,"server_type":"Dedicated","server_os":"Linux","password":true,"vac":true,"version":"7961495","steam_id":85568392924510192,"keywords":["cp","nocrits","nodmgspread","uncletopia"],"game_id":440,"stv_port":27036,"stv_name":"Uncletopia | London | 3 | All Maps | STV","players":null},{"server_id":321,"name":"Uncletopia | London | 4 | All Maps","name_short":"lon-4","host":"lon-1.uk.uncletopia.com","port":27045,"enabled":true,"region":"eu","cc":"gb","latitude":51.509865,"longitude":-0.118092,"reserved":0,"last_update":"0001-01-01T00:00:00Z","name_a2s":"Uncletopia | London | 4 | All Maps","protocol":17,"map":"koth_cascade","folder":"tf","game":"Team Fortress","app_id":440,"player_count":0,"max_players":24,"Bots":0,"server_type":"Dedicated","server_os":"Linux","password":true,"vac":true,"version":"7961495","steam_id":85568392924510193,"keywords":["cp","nocrits","nodmgspread","uncletopia"],"game_id":440,"stv_port":27046,"stv_name":"Uncletopia | London | 4 | All Maps | STV","players":null},{"server_id":21,"name":"Uncletopia | London | 5 | All Maps","name_short":"lon-5","host":"lon-1.uk.uncletopia.com","port":27055,"enabled":true,"region":"eu","cc":"gb","latitude":51.509865,"longitude":-0.118092,"reserved":0,"last_update":"0001-01-01T00:00:00Z","name_a2s":"Uncletopia | London | 5 | All Maps","protocol":17,"map":"koth_lakeside_final","folder":"tf","game":"Team Fortress","app_id":440,"player_count":0,"max_players":24,"Bots":0,"server_type":"Dedicated","server_os":"Linux","password":true,"vac":true,"version":"7961495","steam_id":85568392924742829,"keywords":["cp","nocrits","nodmgspread","uncletopia"],"game_id":440,"stv_port":27056,"stv_name":"Uncletopia | London | 5 | All Maps | STV","players":null},{"server_id":22,"name":"Uncletopia | London | 6 | All Maps","name_short":"lon-6","host":"lon-1.uk.uncletopia.com","port":27065,"enabled":true,"region":"eu","cc":"gb","latitude":51.509865,"longitude":-0.118092,"reserved":0,"last_update":"0001-01-01T00:00:00Z","name_a2s":"Uncletopia | London | 6 | All Maps","protocol":17,"map":"cp_dustbowl","folder":"tf","game":"Team Fortress","app_id":440,"player_count":0,"max_players":24,"Bots":0,"server_type":"Dedicated","server_os":"Linux","password":true,"vac":true,"version":"7961495","steam_id":85568392924742830,"keywords":["cp","nocrits","nodmgspread","uncletopia"],"game_id":440,"stv_port":27066,"stv_name":"Uncletopia | London | 6 | All Maps | STV","players":null},{"server_id":40,"name":"Uncletopia | London | 7 | Stopwatch","name_short":"lon-7","host":"lon-1.uk.uncletopia.com","port":27075,"enabled":true,"region":"eu","cc":"gb","latitude":51.509865,"longitude":-0.118092,"reserved":0,"last_update":"0001-01-01T00:00:00Z","name_a2s":"Uncletopia | London | 7 | Stopwatch","protocol":17,"map":"koth_lakeside_final","folder":"tf","game":"Team Fortress","app_id":440,"player_count":0,"max_players":24,"Bots":0,"server_type":"Dedicated","server_os":"Linux","password":true,"vac":true,"version":"7961495","steam_id":85568392924964314,"keywords":["cp","nocrits","nodmgspread","uncletopia"],"game_id":440,"stv_port":27076,"stv_name":"Uncletopia | London | 7 | Stopwatch | STV","players":null},{"server_id":41,"name":"Uncletopia | London | 8 | Community","name_short":"lon-8","host":"lon-1.uk.uncletopia.com","port":27085,"enabled":true,"region":"eu","cc":"gb","latitude":51.509865,"longitude":-0.118092,"reserved":0,"last_update":"0001-01-01T00:00:00Z","name_a2s":"Uncletopia | London | 8 | Community","protocol":17,"map":"cp_snakewater_final1","folder":"tf","game":"Team Fortress","app_id":440,"player_count":0,"max_players":24,"Bots":0,"server_type":"Dedicated","server_os":"Linux","password":true,"vac":true,"version":"7961495","steam_id":85568392924964315,"keywords":["cp","nocrits","nodmgspread","uncletopia"],"game_id":440,"stv_port":27086,"stv_name":"Uncletopia | London | 8 | Community | STV","players":null},{"server_id":300,"name":"Uncletopia | MontrÃ©al | 1 | One Thousand Uncles","name_short":"mtl-1","host":"mtl-1.ca.uncletopia.com","port":27015,"enabled":true,"region":"us-east","cc":"ca","latitude":45.50889,"longitude":-73.56167,"reserved":0,"last_update":"0001-01-01T00:00:00Z","name_a2s":"","protocol":0,"map":"","folder":"","game":"","app_id":0,"player_count":0,"max_players":0,"Bots":0,"server_type":"","server_os":"","password":false,"vac":false,"version":"","steam_id":0,"keywords":null,"game_id":0,"stv_port":0,"stv_name":"","players":null},{"server_id":301,"name":"Uncletopia | MontrÃ©al | 2 | One Thousand Uncles","name_short":"mtl-2","host":"mtl-1.ca.uncletopia.com","port":27025,"enabled":true,"region":"us-east","cc":"ca","latitude":45.50889,"longitude":-73.56167,"reserved":0,"last_update":"0001-01-01T00:00:00Z","name_a2s":"","protocol":0,"map":"","folder":"","game":"","app_id":0,"player_count":0,"max_players":0,"Bots":0,"server_type":"","server_os":"","password":false,"vac":false,"version":"","steam_id":0,"keywords":null,"game_id":0,"stv_port":0,"stv_name":"","players":null},{"server_id":302,"name":"Uncletopia | MontrÃ©al | 3 | One Thousand Uncles","name_short":"mtl-3","host":"mtl-1.ca.uncletopia.com","port":27035,"enabled":true,"region":"us-east","cc":"ca","latitude":45.50889,"longitude":-73.56167,"reserved":0,"last_update":"0001-01-01T00:00:00Z","name_a2s":"","protocol":0,"map":"","folder":"","game":"","app_id":0,"player_count":0,"max_players":0,"Bots":0,"server_type":"","server_os":"","password":false,"vac":false,"version":"","steam_id":0,"keywords":null,"game_id":0,"stv_port":0,"stv_name":"","players":null},{"server_id":13,"name":"Uncletopia | New York City | 1 | All Maps","name_short":"nyc-1","host":"nyc-1.us.uncletopia.com","port":27015,"enabled":true,"region":"us-east","cc":"us","latitude":40.73061,"longitude":-73.93524,"reserved":0,"last_update":"0001-01-01T00:00:00Z","name_a2s":"Uncletopia | New York City | 1 | All Maps","protocol":17,"map":"koth_highpass","folder":"tf","game":"Team Fortress","app_id":440,"player_count":0,"max_players":24,"Bots":0,"server_type":"Dedicated","server_os":"Linux","password":true,"vac":true,"version":"7961495","steam_id":85568392924469993,"keywords":["cp","nocrits","nodmgspread","uncletopia"],"game_id":440,"stv_port":27016,"stv_name":"Uncletopia | New York City | 1 | All Maps | STV","players":null},{"server_id":14,"name":"Uncletopia | New York City | 2 | All Maps","name_short":"nyc-2","host":"nyc-1.us.uncletopia.com","port":27025,"enabled":true,"region":"us-east","cc":"us","latitude":40.73061,"longitude":-73.93524,"reserved":0,"last_update":"0001-01-01T00:00:00Z","name_a2s":"Uncletopia | New York City | 2 | All Maps","protocol":17,"map":"koth_viaduct","folder":"tf","game":"Team Fortress","app_id":440,"player_count":0,"max_players":24,"Bots":0,"server_type":"Dedicated","server_os":"Linux","password":true,"vac":true,"version":"7961495","steam_id":85568392924469994,"keywords":["cp","nocrits","nodmgspread","uncletopia"],"game_id":440,"stv_port":27026,"stv_name":"Uncletopia | New York City | 2 | All Maps | STV","players":null},{"server_id":15,"name":"Uncletopia | New York City | 3 | Stopwatch","name_short":"nyc-3","host":"nyc-1.us.uncletopia.com","port":27035,"enabled":true,"region":"us-east","cc":"us","latitude":40.73061,"longitude":-73.93524,"reserved":0,"last_update":"0001-01-01T00:00:00Z","name_a2s":"Uncletopia | New York City | 3 | Stopwatch","protocol":17,"map":"pl_upward","folder":"tf","game":"Team Fortress","app_id":440,"player_count":0,"max_players":24,"Bots":0,"server_type":"Dedicated","server_os":"Linux","password":true,"vac":true,"version":"7961495","steam_id":85568392924742820,"keywords":["nocrits","nodmgspread","payload","uncletopia"],"game_id":440,"stv_port":27036,"stv_name":"Uncletopia | New York City | 3 | Stopwatch | STV","players":null},{"server_id":16,"name":"Uncletopia | New York City | 4 | Community","name_short":"nyc-4","host":"nyc-1.us.uncletopia.com","port":27045,"enabled":true,"region":"us-east","cc":"us","latitude":40.73061,"longitude":-73.93524,"reserved":0,"last_update":"0001-01-01T00:00:00Z","name_a2s":"Uncletopia | New York City | 4 | Community","protocol":17,"map":"workshop/koth_bagel_rc6.ugc2514036946","folder":"tf","game":"Team Fortress","app_id":440,"player_count":0,"max_players":24,"Bots":0,"server_type":"Dedicated","server_os":"Linux","password":true,"vac":true,"version":"7961495","steam_id":85568392924742821,"keywords":["cp","nocrits","nodmgspread","uncletopia"],"game_id":440,"stv_port":27046,"stv_name":"Uncletopia | New York City | 4 | Community | STV","players":null},{"server_id":142,"name":"Uncletopia | SÃ£o Paulo | 1 | All Maps","name_short":"sao-1","host":"sao-1.br.uncletopia.com","port":27015,"enabled":true,"region":"sa","cc":"br","latitude":-23.533773,"longitude":-46.62529,"reserved":0,"last_update":"0001-01-01T00:00:00Z","name_a2s":"Uncletopia | SÃ£o Paulo | 1 | All Maps","protocol":17,"map":"koth_highpass","folder":"tf","game":"Team Fortress","app_id":440,"player_count":0,"max_players":24,"Bots":0,"server_type":"Dedicated","server_os":"Linux","password":true,"vac":true,"version":"7961495","steam_id":85568392924469996,"keywords":["cp","nocrits","nodmgspread","uncletopia"],"game_id":440,"stv_port":27016,"stv_name":"Uncletopia | SÃ£o Paulo | 1 | All Maps | STV","players":null},{"server_id":143,"name":"Uncletopia | SÃ£o Paulo | 2 | Community","name_short":"sao-2","host":"sao-2.br.uncletopia.com","port":27015,"enabled":true,"region":"sa","cc":"br","latitude":-23.533773,"longitude":-46.62529,"reserved":0,"last_update":"0001-01-01T00:00:00Z","name_a2s":"Uncletopia | SÃ£o Paulo | 2 | Community","protocol":17,"map":"workshop/koth_bagel_rc6.ugc2514036946","folder":"tf","game":"Team Fortress","app_id":440,"player_count":0,"max_players":24,"Bots":0,"server_type":"Dedicated","server_os":"Linux","password":true,"vac":true,"version":"7961495","steam_id":85568392924485349,"keywords":["cp","nocrits","nodmgspread","uncletopia"],"game_id":440,"stv_port":27016,"stv_name":"Uncletopia | SÃ£o Paulo | 2 | Community | STV","players":null},{"server_id":7,"name":"Uncletopia | Seattle | 1 | All Maps","name_short":"sea-1","host":"sea-1.us.uncletopia.com","port":27015,"enabled":true,"region":"us-west","cc":"us","latitude":47.608013,"longitude":-122.33517,"reserved":0,"last_update":"0001-01-01T00:00:00Z","name_a2s":"Uncletopia | Seattle | 1 | All Maps","protocol":17,"map":"koth_sawmill","folder":"tf","game":"Team Fortress","app_id":440,"player_count":24,"max_players":24,"Bots":0,"server_type":"Dedicated","server_os":"Linux","password":true,"vac":true,"version":"7961495","steam_id":85568392924469997,"keywords":["cp","nocrits","nodmgspread","uncletopia"],"game_id":440,"stv_port":27016,"stv_name":"Uncletopia | Seattle | 1 | All Maps | STV","players":[{"user_id":1054,"name":"bocchi the shlock (real)","steam_id":76561198844648825,"connected_time":2279000000000,"state":"active","ping":46},{"user_id":1034,"name":"Dog","steam_id":76561198041841128,"connected_time":3556000000000,"state":"active","ping":65},{"user_id":1037,"name":"Truffles","steam_id":76561198095868800,"connected_time":3522000000000,"state":"active","ping":95},{"user_id":1067,"name":"nÃ¸bu","steam_id":76561198100614981,"connected_time":840000000000,"state":"active","ping":48},{"user_id":1062,"name":"Gobbie","steam_id":76561198004352408,"connected_time":1644000000000,"state":"active","ping":31},{"user_id":1065,"name":"Dextersbrain","steam_id":76561198011831579,"connected_time":967000000000,"state":"active","ping":53},{"user_id":1070,"name":"âœ¿ PoutyBun âœ¿","steam_id":76561197965762847,"connected_time":293000000000,"state":"active","ping":30},{"user_id":1000,"name":"Cheezbeargur","steam_id":76561198164702899,"connected_time":6592000000000,"state":"active","ping":60},{"user_id":1056,"name":"{907}DarkestFury","steam_id":76561198103662458,"connected_time":2185000000000,"state":"active","ping":74},{"user_id":1010,"name":"Noah1k","steam_id":76561199428633514,"connected_time":5386000000000,"state":"active","ping":55},{"user_id":940,"name":"waggyaggy","steam_id":76561197998241407,"connected_time":11612000000000,"state":"active","ping":75},{"user_id":1026,"name":"you just got dyked on","steam_id":76561198018977723,"connected_time":4168000000000,"state":"active","ping":54},{"user_id":1017,"name":"Hog Rider","steam_id":76561198275999294,"connected_time":4653000000000,"state":"active","ping":47},{"user_id":1008,"name":"Melly","steam_id":76561198045867175,"connected_time":6084000000000,"state":"active","ping":61},{"user_id":1046,"name":"kill me","steam_id":76561198032625036,"connected_time":2490000000000,"state":"active","ping":59},{"user_id":1063,"name":"Warhead","steam_id":76561198067746049,"connected_time":1449000000000,"state":"active","ping":51},{"user_id":1052,"name":"Tuna Man","steam_id":76561198039977972,"connected_time":2295000000000,"state":"active","ping":46},{"user_id":995,"name":"Daz","steam_id":76561198041431938,"connected_time":7102000000000,"state":"active","ping":53},{"user_id":1057,"name":"Mitchell","steam_id":76561197972922328,"connected_time":2047000000000,"state":"active","ping":136},{"user_id":1064,"name":"Arsonist Goose","steam_id":76561198147441830,"connected_time":1429000000000,"state":"active","ping":75},{"user_id":966,"name":"HopeTheNeko","steam_id":76561199159285465,"connected_time":9556000000000,"state":"active","ping":78},{"user_id":1068,"name":"mobe","steam_id":76561198121633820,"connected_time":618000000000,"state":"active","ping":66},{"user_id":1069,"name":"PopcornBucketGames","steam_id":76561199089562026,"connected_time":466000000000,"state":"active","ping":42},{"user_id":1060,"name":"a","steam_id":76561198074209737,"connected_time":1808000000000,"state":"active","ping":90}]},{"server_id":119,"name":"Uncletopia | Seattle | 2 | All Maps","name_short":"sea-2","host":"sea-1.us.uncletopia.com","port":27025,"enabled":true,"region":"us-west","cc":"us","latitude":47.608013,"longitude":-122.33517,"reserved":0,"last_update":"0001-01-01T00:00:00Z","name_a2s":"Uncletopia | Seattle | 2 | All Maps","protocol":17,"map":"koth_lakeside_final","folder":"tf","game":"Team Fortress","app_id":440,"player_count":24,"max_players":24,"Bots":0,"server_type":"Dedicated","server_os":"Linux","password":true,"vac":true,"version":"7961495","steam_id":85568392924469998,"keywords":["cp","nocrits","nodmgspread","uncletopia"],"game_id":440,"stv_port":27026,"stv_name":"Uncletopia | Seattle | 2 | All Maps | STV","players":[{"user_id":322,"name":"Drone #0432 (they/it)\u0026","steam_id":76561198027321950,"connected_time":3332000000000,"state":"active","ping":91},{"user_id":301,"name":"NOT FRIENDLY","steam_id":76561198041327231,"connected_time":4893000000000,"state":"active","ping":45},{"user_id":339,"name":"Furikuri","steam_id":76561197998277739,"connected_time":965000000000,"state":"active","ping":31},{"user_id":336,"name":"spiderland","steam_id":76561198335992132,"connected_time":1461000000000,"state":"active","ping":39},{"user_id":342,"name":"allahsdroptop (Bag/Chaser)","steam_id":76561198133195238,"connected_time":668000000000,"state":"active","ping":59},{"user_id":348,"name":"Mexican Muselk","steam_id":76561199289676387,"connected_time":336000000000,"state":"active","ping":106},{"user_id":324,"name":"Silly Shark","steam_id":76561198130714378,"connected_time":3170000000000,"state":"active","ping":58},{"user_id":275,"name":"Breast Expansion Bertha","steam_id":76561198225766444,"connected_time":6720000000000,"state":"active","ping":51},{"user_id":344,"name":"The Horselords and Animal Gods","steam_id":76561197975094050,"connected_time":482000000000,"state":"active","ping":75},{"user_id":345,"name":"Dova","steam_id":76561198079481047,"connected_time":467000000000,"state":"active","ping":75},{"user_id":330,"name":"Spam The Alien","steam_id":76561199122290968,"connected_time":2677000000000,"state":"active","ping":81},{"user_id":346,"name":"Cooked","steam_id":76561198988846527,"connected_time":407000000000,"state":"active","ping":60},{"user_id":311,"name":"Be Gay, Do Crimes, Smoke Weed!","steam_id":76561198092419868,"connected_time":4117000000000,"state":"active","ping":92},{"user_id":321,"name":"The New Bob","steam_id":76561199122072556,"connected_time":3446000000000,"state":"active","ping":128},{"user_id":347,"name":"Stev the Hypergamous Pebble","steam_id":76561197999442625,"connected_time":371000000000,"state":"active","ping":48},{"user_id":288,"name":"Facepalm","steam_id":76561198001935226,"connected_time":6192000000000,"state":"active","ping":62},{"user_id":328,"name":"como hacer dinero facil","steam_id":76561198356414514,"connected_time":2924000000000,"state":"active","ping":122},{"user_id":341,"name":"2 Point Tom","steam_id":76561198087617008,"connected_time":838000000000,"state":"active","ping":54},{"user_id":333,"name":"jasus","steam_id":76561198088035919,"connected_time":1929000000000,"state":"active","ping":44},{"user_id":349,"name":"Bus!","steam_id":76561199082304859,"connected_time":322000000000,"state":"active","ping":52},{"user_id":296,"name":"moonboy","steam_id":76561198172113657,"connected_time":5389000000000,"state":"active","ping":125},{"user_id":338,"name":"type \"bad med\" to kick","steam_id":76561198076402476,"connected_time":1140000000000,"state":"active","ping":81},{"user_id":350,"name":"Rafl","steam_id":76561198055222756,"connected_time":253000000000,"state":"active","ping":102},{"user_id":351,"name":"eemy!","steam_id":76561198271992832,"connected_time":149000000000,"state":"active","ping":49}]},{"server_id":406,"name":"Uncletopia | Seattle | 3 | Stopwatch","name_short":"sea-3","host":"sea-1.us.uncletopia.com","port":27035,"enabled":true,"region":"us-west","cc":"us","latitude":47.608013,"longitude":-122.33517,"reserved":0,"last_update":"0001-01-01T00:00:00Z","name_a2s":"Uncletopia | Seattle | 3 | Stopwatch","protocol":17,"map":"cp_gullywash_final1","folder":"tf","game":"Team Fortress","app_id":440,"player_count":0,"max_players":24,"Bots":0,"server_type":"Dedicated","server_os":"Linux","password":true,"vac":true,"version":"7961495","steam_id":85568392924515217,"keywords":["cp","nocrits","nodmgspread","uncletopia"],"game_id":440,"stv_port":27036,"stv_name":"Uncletopia | Seattle | 3 | Stopwatch | STV","players":null},{"server_id":17,"name":"Uncletopia | San Francisco | 1 | All Maps","name_short":"sfo-1","host":"sfo-1.us.uncletopia.com","port":27015,"enabled":true,"region":"us-west","cc":"us","latitude":37.77397,"longitude":-122.4313,"reserved":0,"last_update":"0001-01-01T00:00:00Z","name_a2s":"Uncletopia | San Francisco | 1 | All Maps","protocol":17,"map":"pl_badwater","folder":"tf","game":"Team Fortress","app_id":440,"player_count":24,"max_players":24,"Bots":0,"server_type":"Dedicated","server_os":"Linux","password":true,"vac":true,"version":"7961495","steam_id":85568392924469999,"keywords":["nocrits","nodmgspread","payload","uncletopia"],"game_id":440,"stv_port":27016,"stv_name":"Uncletopia | San Francisco | 1 | All Maps | STV","players":[{"user_id":359,"name":"1000 Ping","steam_id":76561198098330939,"connected_time":59000000000,"state":"active","ping":82},{"user_id":339,"name":"loco503","steam_id":76561198827495121,"connected_time":2209000000000,"state":"active","ping":65},{"user_id":303,"name":"Poladroid","steam_id":76561198032005291,"connected_time":4630000000000,"state":"active","ping":64},{"user_id":360,"name":"A_Un1t_0","steam_id":76561197966223353,"connected_time":54000000000,"state":"active","ping":57},{"user_id":328,"name":"Mr. Carfox","steam_id":76561198041664428,"connected_time":2890000000000,"state":"active","ping":45},{"user_id":324,"name":"tie dye die guy","steam_id":76561198049845337,"connected_time":3067000000000,"state":"active","ping":73},{"user_id":344,"name":"crazey","steam_id":76561198286510667,"connected_time":1602000000000,"state":"active","ping":56},{"user_id":361,"name":"Meskoozy","steam_id":76561198102394479,"connected_time":33000000000,"state":"active","ping":116},{"user_id":345,"name":"Gawin Goodman","steam_id":76561198192661585,"connected_time":1571000000000,"state":"active","ping":73},{"user_id":298,"name":"Cave Dweller","steam_id":76561198374825685,"connected_time":5628000000000,"state":"active","ping":59},{"user_id":343,"name":"mobtownUSA","steam_id":76561198393054672,"connected_time":1619000000000,"state":"active","ping":86},{"user_id":302,"name":"The Fairy Love Sniper","steam_id":76561198049358645,"connected_time":4642000000000,"state":"active","ping":100},{"user_id":330,"name":"cepi","steam_id":76561198120385184,"connected_time":2812000000000,"state":"active","ping":60},{"user_id":332,"name":"greg","steam_id":76561198878022971,"connected_time":2799000000000,"state":"active","ping":149},{"user_id":362,"name":"Nine Inch Ð˜ipples","steam_id":76561198149413947,"connected_time":32000000000,"state":"spawning","ping":44},{"user_id":333,"name":"delight","steam_id":76561197980280272,"connected_time":2687000000000,"state":"active","ping":66},{"user_id":363,"name":"Rich Homie Rob","steam_id":76561198046570914,"connected_time":21000000000,"state":"active","ping":49},{"user_id":358,"name":"cajun thotsauce","steam_id":76561198101636066,"connected_time":905000000000,"state":"active","ping":55},{"user_id":364,"name":"Maid 'n' China","steam_id":76561198423392976,"connected_time":15000000000,"state":"active","ping":116},{"user_id":348,"name":"chesterwnimitz","steam_id":76561198062664377,"connected_time":1445000000000,"state":"active","ping":92},{"user_id":336,"name":"endo","steam_id":76561197995204381,"connected_time":2679000000000,"state":"active","ping":69},{"user_id":355,"name":"Caramel_Chalice","steam_id":76561198307609692,"connected_time":1259000000000,"state":"active","ping":70},{"user_id":315,"name":"darren","steam_id":76561199050155136,"connected_time":4185000000000,"state":"active","ping":49},{"user_id":323,"name":"owl","steam_id":76561198088403016,"connected_time":3247000000000,"state":"active","ping":140}]},{"server_id":18,"name":"Uncletopia | San Francisco | 2 | All Maps","name_short":"sfo-2","host":"sfo-1.us.uncletopia.com","port":27025,"enabled":true,"region":"us-west","cc":"us","latitude":37.77397,"longitude":-122.4313,"reserved":0,"last_update":"0001-01-01T00:00:00Z","name_a2s":"Uncletopia | San Francisco | 2 | All Maps","protocol":17,"map":"cp_altitude","folder":"tf","game":"Team Fortress","app_id":440,"player_count":0,"max_players":24,"Bots":0,"server_type":"Dedicated","server_os":"Linux","password":true,"vac":true,"version":"7961495","steam_id":85568392924470000,"keywords":["cp","nocrits","nodmgspread","uncletopia"],"game_id":440,"stv_port":27026,"stv_name":"Uncletopia | San Francisco | 2 | All Maps | STV","players":null},{"server_id":19,"name":"Uncletopia | San Francisco | 3 | Stopwatch","name_short":"sfo-3","host":"sfo-1.us.uncletopia.com","port":27035,"enabled":true,"region":"us-west","cc":"us","latitude":37.77397,"longitude":-122.4313,"reserved":0,"last_update":"0001-01-01T00:00:00Z","name_a2s":"Uncletopia | San Francisco | 3 | Stopwatch","protocol":17,"map":"workshop/koth_ashville_final.ugc2130459942","folder":"tf","game":"Team Fortress","app_id":440,"player_count":0,"max_players":24,"Bots":0,"server_type":"Dedicated","server_os":"Linux","password":true,"vac":true,"version":"7961495","steam_id":85568392924742824,"keywords":["cp","nocrits","nodmgspread","uncletopia"],"game_id":440,"stv_port":27036,"stv_name":"Uncletopia | San Francisco | 3 | Stopwatch | STV","players":null},{"server_id":20,"name":"Uncletopia | San Francisco | 4 | Community","name_short":"sfo-4","host":"sfo-1.us.uncletopia.com","port":27045,"enabled":true,"region":"us-west","cc":"us","latitude":37.77397,"longitude":-122.4313,"reserved":0,"last_update":"0001-01-01T00:00:00Z","name_a2s":"Uncletopia | San Francisco | 4 | Community","protocol":17,"map":"workshop/koth_bagel_rc6.ugc2514036946","folder":"tf","game":"Team Fortress","app_id":440,"player_count":0,"max_players":24,"Bots":0,"server_type":"Dedicated","server_os":"Linux","password":true,"vac":true,"version":"7961495","steam_id":85568392924742826,"keywords":["cp","nocrits","nodmgspread","uncletopia"],"game_id":440,"stv_port":27046,"stv_name":"Uncletopia | San Francisco | 4 | Community | STV","players":null},{"server_id":141,"name":"Uncletopia | Sydney | 1 | All Maps","name_short":"syd-1","host":"syd-1.au.uncletopia.com","port":27015,"enabled":true,"region":"au","cc":"au","latitude":-33.865143,"longitude":151.2099,"reserved":0,"last_update":"0001-01-01T00:00:00Z","name_a2s":"Uncletopia | Sydney | 1 | All Maps","protocol":17,"map":"pl_borneo","folder":"tf","game":"Team Fortress","app_id":440,"player_count":25,"max_players":24,"Bots":0,"server_type":"Dedicated","server_os":"Linux","password":true,"vac":true,"version":"7961495","steam_id":85568392924470001,"keywords":["nocrits","nodmgspread","payload","uncletopia"],"game_id":440,"stv_port":27016,"stv_name":"Uncletopia | Sydney | 1 | All Maps | STV","players":[{"user_id":72,"name":"P. Ness (Length/Girth)","steam_id":76561198037664265,"connected_time":549000000000,"state":"active","ping":60},{"user_id":75,"name":"Bobby Bigman","steam_id":76561198044679656,"connected_time":438000000000,"state":"active","ping":65},{"user_id":34,"name":"Two Fortress Enjoyer","steam_id":76561198039845750,"connected_time":2282000000000,"state":"active","ping":52},{"user_id":62,"name":"the a million glove!!","steam_id":76561198025225448,"connected_time":936000000000,"state":"active","ping":78},{"user_id":63,"name":"stuck with me","steam_id":76561198132937542,"connected_time":928000000000,"state":"active","ping":56},{"user_id":30,"name":"Alright","steam_id":76561198075411902,"connected_time":2563000000000,"state":"active","ping":58},{"user_id":31,"name":"Lord Saladman","steam_id":76561199363661936,"connected_time":2514000000000,"state":"active","ping":60},{"user_id":68,"name":"Blondie","steam_id":76561198046977058,"connected_time":705000000000,"state":"active","ping":70},{"user_id":36,"name":"Skree'kaw","steam_id":76561199415758131,"connected_time":2181000000000,"state":"active","ping":67},{"user_id":38,"name":"Raven","steam_id":76561198428025966,"connected_time":2093000000000,"state":"active","ping":61},{"user_id":79,"name":"Lords Resistance Army","steam_id":76561198010870577,"connected_time":111000000000,"state":"active","ping":103},{"user_id":76,"name":"Overlold","steam_id":76561197978635495,"connected_time":242000000000,"state":"active","ping":82},{"user_id":55,"name":"P","steam_id":76561198304514505,"connected_time":1318000000000,"state":"active","ping":171},{"user_id":46,"name":"Gas Passer (sliced toast)","steam_id":76561199220276252,"connected_time":1730000000000,"state":"active","ping":70},{"user_id":49,"name":"Fresh Produce Gaming","steam_id":76561198358483352,"connected_time":1684000000000,"state":"active","ping":61},{"user_id":51,"name":"JP","steam_id":76561198026221737,"connected_time":1590000000000,"state":"active","ping":55},{"user_id":52,"name":"flow","steam_id":76561198113244106,"connected_time":1558000000000,"state":"active","ping":45},{"user_id":56,"name":"â±£ðŒ„Å¤ðŒ„Ò° (cock/balls)","steam_id":76561199140764838,"connected_time":1305000000000,"state":"active","ping":60},{"user_id":77,"name":"Andreas Vesalius","steam_id":76561198950692005,"connected_time":122000000000,"state":"active","ping":45},{"user_id":65,"name":"Granoler","steam_id":76561198059129270,"connected_time":876000000000,"state":"active","ping":69},{"user_id":59,"name":"yaero","steam_id":76561198047462865,"connected_time":1180000000000,"state":"active","ping":47},{"user_id":67,"name":"Scopic","steam_id":76561199236845261,"connected_time":862000000000,"state":"active","ping":92},{"user_id":78,"name":"webbadon, the horrid á˜›âÌ¤\ufffd\ufffd","steam_id":76561198061998379,"connected_time":116000000000,"state":"active","ping":49},{"user_id":80,"name":"Jeko","steam_id":76561199097567707,"connected_time":5000000000,"state":"spawning","ping":155},{"user_id":74,"name":"you can lead a Horace to water","steam_id":76561198301282416,"connected_time":510000000000,"state":"active","ping":55}]},{"server_id":123,"name":"Uncletopia | Sydney | 2 | All Maps","name_short":"syd-2","host":"syd-1.au.uncletopia.com","port":27025,"enabled":true,"region":"au","cc":"au","latitude":-33.865143,"longitude":151.2099,"reserved":0,"last_update":"0001-01-01T00:00:00Z","name_a2s":"Uncletopia | Sydney | 2 | All Maps","protocol":17,"map":"koth_lakeside_final","folder":"tf","game":"Team Fortress","app_id":440,"player_count":0,"max_players":24,"Bots":0,"server_type":"Dedicated","server_os":"Linux","password":true,"vac":true,"version":"7961495","steam_id":85568392924470002,"keywords":["cp","nocrits","nodmgspread","uncletopia"],"game_id":440,"stv_port":27026,"stv_name":"Uncletopia | Sydney | 2 | All Maps | STV","players":null},{"server_id":395,"name":"Uncletopia | Sydney | 3 | All Maps","name_short":"syd-3","host":"syd-1.au.uncletopia.com","port":27035,"enabled":true,"region":"au","cc":"au","latitude":-33.865143,"longitude":151.2099,"reserved":0,"last_update":"0001-01-01T00:00:00Z","name_a2s":"Uncletopia | Sydney | 3 | All Maps","protocol":17,"map":"pl_frontier_final","folder":"tf","game":"Team Fortress","app_id":440,"player_count":1,"max_players":24,"Bots":0,"server_type":"Dedicated","server_os":"Linux","password":true,"vac":true,"version":"7961495","steam_id":85568392925194467,"keywords":["nocrits","nodmgspread","payload","uncletopia"],"game_id":440,"stv_port":27036,"stv_name":"Uncletopia | Sydney | 3 | All Maps | STV","players":[{"user_id":3,"name":"STANKY hydro","steam_id":76561199043480847,"connected_time":163000000000,"state":"active","ping":45}]},{"server_id":396,"name":"Uncletopia | Sydney | 4 | All Maps","name_short":"syd-4","host":"syd-1.au.uncletopia.com","port":27045,"enabled":true,"region":"au","cc":"au","latitude":-33.865143,"longitude":151.2099,"reserved":0,"last_update":"0001-01-01T00:00:00Z","name_a2s":"Uncletopia | Sydney | 4 | All Maps","protocol":17,"map":"cp_mountainlab","folder":"tf","game":"Team Fortress","app_id":440,"player_count":0,"max_players":24,"Bots":0,"server_type":"Dedicated","server_os":"Linux","password":true,"vac":true,"version":"7961495","steam_id":85568392925397958,"keywords":["cp","nocrits","nodmgspread","uncletopia"],"game_id":440,"stv_port":27046,"stv_name":"Uncletopia | Sydney | 4 | All Maps | STV","players":null},{"server_id":58,"name":"Uncletopia | Sydney | 5 | Stopwatch","name_short":"syd-5","host":"syd-1.au.uncletopia.com","port":27055,"enabled":true,"region":"au","cc":"au","latitude":-33.865143,"longitude":151.2099,"reserved":0,"last_update":"0001-01-01T00:00:00Z","name_a2s":"Uncletopia | Sydney | 5 | Stopwatch","protocol":17,"map":"cp_metalworks","folder":"tf","game":"Team Fortress","app_id":440,"player_count":0,"max_players":24,"Bots":0,"server_type":"Dedicated","server_os":"Linux","password":true,"vac":true,"version":"7961495","steam_id":85568392925397959,"keywords":["cp","nocrits","nodmgspread","uncletopia"],"game_id":440,"stv_port":27056,"stv_name":"Uncletopia | Sydney | 5 | Stopwatch | STV","players":null},{"server_id":59,"name":"Uncletopia | Sydney | 6 | Community","name_short":"syd-6","host":"syd-1.au.uncletopia.com","port":27065,"enabled":true,"region":"au","cc":"au","latitude":-33.865143,"longitude":151.2099,"reserved":0,"last_update":"0001-01-01T00:00:00Z","name_a2s":"Uncletopia | Sydney | 6 | Community","protocol":17,"map":"cp_sunshine","folder":"tf","game":"Team Fortress","app_id":440,"player_count":0,"max_players":24,"Bots":0,"server_type":"Dedicated","server_os":"Linux","password":true,"vac":true,"version":"7961495","steam_id":85568392925397960,"keywords":["cp","nocrits","nodmgspread","uncletopia"],"game_id":440,"stv_port":27066,"stv_name":"Uncletopia | Sydney | 6 | Community | STV","players":null},{"server_id":49,"name":"Uncletopia | Warsaw | 1 | One Thousand Uncles","name_short":"waw-1","host":"waw-1.pl.uncletopia.com","port":27015,"enabled":true,"region":"eu","cc":"pl","latitude":52.2297,"longitude":21.017532,"reserved":0,"last_update":"0001-01-01T00:00:00Z","name_a2s":"Uncletopia | Warsaw | 1 | One Thousand Uncles","protocol":17,"map":"pl_hoodoo_final","folder":"tf","game":"Team Fortress","app_id":440,"player_count":0,"max_players":32,"Bots":0,"server_type":"Dedicated","server_os":"Linux","password":true,"vac":true,"version":"7961495","steam_id":85568392925397850,"keywords":["alltalk","danepve","increased_maxplayers","nocrits","norespawntime","payload","uncletopia"],"game_id":440,"stv_port":0,"stv_name":"","players":null},{"server_id":50,"name":"Uncletopia | Warsaw | 2 | One Thousand Uncles","name_short":"waw-2","host":"waw-1.pl.uncletopia.com","port":27025,"enabled":true,"region":"eu","cc":"pl","latitude":52.2297,"longitude":21.017532,"reserved":0,"last_update":"0001-01-01T00:00:00Z","name_a2s":"Uncletopia | Warsaw | 2 | One Thousand Uncles","protocol":17,"map":"pl_goldrush","folder":"tf","game":"Team Fortress","app_id":440,"player_count":0,"max_players":32,"Bots":0,"server_type":"Dedicated","server_os":"Linux","password":true,"vac":true,"version":"7961495","steam_id":85568392925397851,"keywords":["alltalk","danepve","increased_maxplayers","nocrits","norespawntime","payload","uncletopia"],"game_id":440,"stv_port":0,"stv_name":"","players":null},{"server_id":51,"name":"Uncletopia | Warsaw | 3 | All Maps","name_short":"waw-3","host":"waw-1.pl.uncletopia.com","port":27035,"enabled":true,"region":"eu","cc":"pl","latitude":52.2297,"longitude":21.017532,"reserved":0,"last_update":"0001-01-01T00:00:00Z","name_a2s":"Uncletopia | Warsaw | 3 | All Maps","protocol":17,"map":"plr_pipeline","folder":"tf","game":"Team Fortress","app_id":440,"player_count":0,"max_players":24,"Bots":0,"server_type":"Dedicated","server_os":"Linux","password":true,"vac":true,"version":"7961495","steam_id":85568392925397852,"keywords":["nocrits","nodmgspread","payload","uncletopia"],"game_id":440,"stv_port":27036,"stv_name":"Uncletopia | Warsaw | 3 | All Maps | STV","players":null},{"server_id":52,"name":"Uncletopia | Warsaw | 4 | All Maps","name_short":"waw-4","host":"waw-1.pl.uncletopia.com","port":27045,"enabled":true,"region":"eu","cc":"pl","latitude":52.2297,"longitude":21.017532,"reserved":0,"last_update":"0001-01-01T00:00:00Z","name_a2s":"Uncletopia | Warsaw | 4 | All Maps","protocol":17,"map":"cp_coldfront","folder":"tf","game":"Team Fortress","app_id":440,"player_count":0,"max_players":24,"Bots":0,"server_type":"Dedicated","server_os":"Linux","password":true,"vac":true,"version":"7961495","steam_id":85568392925397853,"keywords":["cp","nocrits","nodmgspread","uncletopia"],"game_id":440,"stv_port":27046,"stv_name":"Uncletopia | Warsaw | 4 | All Maps | STV","players":null},{"server_id":53,"name":"Uncletopia | Warsaw | 5 | Stopwatch","name_short":"waw-5","host":"waw-1.pl.uncletopia.com","port":27055,"enabled":true,"region":"eu","cc":"pl","latitude":52.2297,"longitude":21.017532,"reserved":0,"last_update":"0001-01-01T00:00:00Z","name_a2s":"Uncletopia | Warsaw | 5 | Stopwatch","protocol":17,"map":"workshop/koth_bagel_rc6.ugc2514036946","folder":"tf","game":"Team Fortress","app_id":440,"player_count":0,"max_players":24,"Bots":0,"server_type":"Dedicated","server_os":"Linux","password":true,"vac":true,"version":"7961495","steam_id":85568392925397854,"keywords":["cp","nocrits","nodmgspread","uncletopia"],"game_id":440,"stv_port":27056,"stv_name":"Uncletopia | Warsaw | 5 | Stopwatch | STV","players":null},{"server_id":54,"name":"Uncletopia | Warsaw | 6 | Community","name_short":"waw-6","host":"waw-1.pl.uncletopia.com","port":27065,"enabled":true,"region":"eu","cc":"pl","latitude":52.2297,"longitude":21.017532,"reserved":0,"last_update":"0001-01-01T00:00:00Z","name_a2s":"Uncletopia | Warsaw | 6 | Community","protocol":17,"map":"workshop/pl_badwater_pro_v12.ugc2142942074","folder":"tf","game":"Team Fortress","app_id":440,"player_count":0,"max_players":24,"Bots":0,"server_type":"Dedicated","server_os":"Linux","password":true,"vac":true,"version":"7961495","steam_id":85568392925397856,"keywords":["nocrits","nodmgspread","payload","uncletopia"],"game_id":440,"stv_port":27066,"stv_name":"Uncletopia | Warsaw | 6 | Community | STV","players":null}]}