{"status":true,"message":"","result":[{"server_id":9,"name":"Uncletopia | Atlanta | 1 | All Maps","name_short":"atl-1","host":"atl-1.us.uncletopia.com","port":27015,"enabled":true,"region":"us-east","cc":"us","latitude":33.753746,"longitude":-84.38633,"reserved":0,"last_update":"0001-01-01T00:00:00Z","name_a2s":"Uncletopia | Atlanta | 1 | All Maps","protocol":17,"map":"koth_viaduct","folder":"tf","game":"Team Fortress","app_id":440,"player_count":0,"max_players":24,"Bots":0,"server_type":"Dedicated","server_os":"Linux","password":true,"vac":true,"version":"7882260","steam_id":85568392924469982,"keywords":["cp","nocrits","nodmgspread","uncletopia"],"game_id":440,"stv_port":27016,"stv_name":"Uncletopia | Atlanta | 1 | All Maps | STV","players":null},{"server_id":104,"name":"Uncletopia | Atlanta | 2 | All Maps","name_short":"atl-2","host":"atl-1.us.uncletopia.com","port":27025,"enabled":true,"region":"us-east","cc":"us","latitude":33.753746,"longitude":-84.38633,"reserved":0,"last_update":"0001-01-01T00:00:00Z","name_a2s":"Uncletopia | Atlanta | 2 | All Maps","protocol":17,"map":"cp_process_final","folder":"tf","game":"Team Fortress","app_id":440,"player_count":0,"max_players":24,"Bots":0,"server_type":"Dedicated","server_os":"Linux","password":true,"vac":true,"version":"7882260","steam_id":85568392924469983,"keywords":["cp","nocrits","nodmgspread","uncletopia"],"game_id":440,"stv_port":27026,"stv_name":"Uncletopia | Atlanta | 2 | All Maps | STV","players":null},{"server_id":400,"name":"Uncletopia | Atlanta | 3 | Community","name_short":"atl-3","host":"atl-1.us.uncletopia.com","port":27035,"enabled":true,"region":"us-east","cc":"us","latitude":33.753746,"longitude":-84.38633,"reserved":0,"last_update":"0001-01-01T00:00:00Z","name_a2s":"Uncletopia | Atlanta | 3 | Community","protocol":17,"map":"cp_sunshine","folder":"tf","game":"Team Fortress","app_id":440,"player_count":0,"max_players":24,"Bots":0,"server_type":"Dedicated","server_os":"Linux","password":true,"vac":true,"version":"7882260","steam_id":85568392924515187,"keywords":["cp","nocrits","nodmgspread","uncletopia"],"game_id":440,"stv_port":27036,"stv_name":"Uncletopia | Atlanta | 3 | Community | STV","players":null},{"server_id":401,"name":"Uncletopia | Atlanta | 4 | No Payload","name_short":"atl-4","host":"atl-1.us.uncletopia.com","port":27045,"enabled":true,"region":"us-east","cc":"us","latitude":33.753746,"longitude":-84.38633,"reserved":0,"last_update":"0001-01-01T00:00:00Z","name_a2s":"","protocol":0,"map":"","folder":"","game":"","app_id":0,"player_count":0,"max_players":0,"Bots":0,"server_type":"","server_os":"","password":false,"vac":false,"version":"","steam_id":0,"keywords":null,"game_id":0,"stv_port":0,"stv_name":"","players":null},{"server_id":2,"name":"Uncletopia | Chicago | 1 | All Maps","name_short":"chi-1","host":"chi-1.us.uncletopia.com","port":27015,"enabled":true,"region":"us-central","cc":"us","latitude":41.881832,"longitude":-87.62318,"reserved":0,"last_update":"0001-01-01T00:00:00Z","name_a2s":"Uncletopia | Chicago | 1 | All Maps","protocol":17,"map":"cp_snakewater_final1","folder":"tf","game":"Team Fortress","app_id":440,"player_count":0,"max_players":24,"Bots":0,"server_type":"Dedicated","server_os":"Linux","password":true,"vac":true,"version":"7882260","steam_id":85568392924469984,"keywords":["cp","nocrits","nodmgspread","uncletopia"],"game_id":440,"stv_port":27016,"stv_name":"Uncletopia | Chicago | 1 | All Maps | STV","players":null},{"server_id":106,"name":"Uncletopia | Chicago | 2 | All Maps","name_short":"chi-2","host":"chi-1.us.uncletopia.com","port":27025,"enabled":true,"region":"us-central","cc":"us","latitude":41.881832,"longitude":-87.62318,"reserved":0,"last_update":"0001-01-01T00:00:00Z","name_a2s":"Uncletopia | Chicago | 2 | All Maps","protocol":17,"map":"pl_swiftwater_final1","folder":"tf","game":"Team Fortress","app_id":440,"player_count":0,"max_players":24,"Bots":0,"server_type":"Dedicated","server_os":"Linux","password":true,"vac":true,"version":"7882260","steam_id":85568392924469985,"keywords":["nocrits","nodmgspread","payload","uncletopia"],"game_id":440,"stv_port":27026,"stv_name":"Uncletopia | Chicago | 2 | All Maps | STV","players":null},{"server_id":402,"name":"Uncletopia | Chicago | 3 | All Maps","name_short":"chi-3","host":"chi-1.us.uncletopia.com","port":27035,"enabled":true,"region":"us-central","cc":"us","latitude":41.881832,"longitude":-87.62318,"reserved":0,"last_update":"0001-01-01T00:00:00Z","name_a2s":"Uncletopia | Chicago | 3 | All Maps","protocol":17,"map":"koth_viaduct","folder":"tf","game":"Team Fortress","app_id":440,"player_count":0,"max_players":24,"Bots":0,"server_type":"Dedicated","server_os":"Linux","password":true,"vac":true,"version":"7882260","steam_id":85568392924515191,"keywords":["cp","nocrits","nodmgspread","uncletopia"],"game_id":440,"stv_port":27036,"stv_name":"Uncletopia | Chicago | 3 | All Maps | STV","players":null},{"server_id":403,"name":"Uncletopia | Chicago | 4 | All Maps","name_short":"chi-4","host":"chi-1.us.uncletopia.com","port":27045,"enabled":true,"region":"us-central","cc":"us","latitude":41.881832,"longitude":-87.62318,"reserved":0,"last_update":"0001-01-01T00:00:00Z","name_a2s":"Uncletopia | Chicago | 4 | All Maps","protocol":17,"map":"pl_barnblitz","folder":"tf","game":"Team Fortress","app_id":440,"player_count":0,"max_players":24,"Bots":0,"server_type":"Dedicated","server_os":"Linux","password":true,"vac":true,"version":"7882260","steam_id":85568392924515193,"keywords":["nocrits","nodmgspread","payload","uncletopia"],"game_id":440,"stv_port":27046,"stv_name":"Uncletopia | Chicago | 4 | All Maps | STV","players":null},{"server_id":36,"name":"Uncletopia | Chicago | 5 | All Maps","name_short":"chi-5","host":"chi-2.us.uncletopia.com","port":27015,"enabled":true,"region":"us-central","cc":"us","latitude":41.881832,"longitude":-87.62318,"reserved":0,"last_update":"0001-01-01T00:00:00Z","name_a2s":"Uncletopia | Chicago | 5 | All Maps","protocol":17,"map":"plr_pipeline","folder":"tf","game":"Team Fortress","app_id":440,"player_count":24,"max_players":24,"Bots":0,"server_type":"Dedicated","server_os":"Linux","password":true,"vac":true,"version":"7882260","steam_id":85568392924866362,"keywords":["nocrits","nodmgspread","payload","uncletopia"],"game_id":440,"stv_port":27016,"stv_name":"Uncletopia | Chicago | 5 | All Maps | STV","players":[{"user_id":676,"name":"watchfull","steam_id":76561198433266742,"connected_time":1305000000000,"state":"active","ping":93},{"user_id":689,"name":"roo the observer","steam_id":76561198120684348,"connected_time":300000000000,"state":"active","ping":45},{"user_id":678,"name":"Griffin","steam_id":76561198159339442,"connected_time":1297000000000,"state":"active","ping":66},{"user_id":675,"name":"「Moody-Blues」","steam_id":76561198026558681,"connected_time":1631000000000,"state":"active","ping":76},{"user_id":671,"name":"Scooter O'Boyl","steam_id":76561197971687069,"connected_time":1724000000000,"state":"active","ping":75},{"user_id":643,"name":"Smoker Lung","steam_id":76561198077167395,"connected_time":4312000000000,"state":"active","ping":48},{"user_id":657,"name":"inin de benninging","steam_id":76561199234026881,"connected_time":3082000000000,"state":"active","ping":78},{"user_id":658,"name":"mexico2020","steam_id":76561198872675645,"connected_time":3059000000000,"state":"active","ping":89},{"user_id":693,"name":"2003 chevy malibu","steam_id":76561199075669125,"connected_time":48000000000,"state":"active","ping":101},{"user_id":686,"name":"Larkaldi","steam_id":76561198029668456,"connected_time":476000000000,"state":"active","ping":45},{"user_id":681,"name":".Cassius.","steam_id":76561199181383832,"connected_time":1110000000000,"state":"active","ping":60},{"user_id":626,"name":"a 1930s robber","steam_id":76561198125237406,"connected_time":5066000000000,"state":"active","ping":79},{"user_id":692,"name":"cobble_stun","steam_id":76561198826748850,"connected_time":66000000000,"state":"active","ping":58},{"user_id":694,"name":"sylvyy","steam_id":76561198976976583,"connected_time":37000000000,"state":"active","ping":81},{"user_id":688,"name":"tetra","steam_id":76561198353462102,"connected_time":420000000000,"state":"active","ping":49},{"user_id":687,"name":"biblo","steam_id":76561198413125750,"connected_time":444000000000,"state":"active","ping":71},{"user_id":627,"name":"KunveX","steam_id":76561197978022896,"connected_time":5010000000000,"state":"active","ping":60},{"user_id":628,"name":"MeowMeth","steam_id":76561198056620931,"connected_time":5010000000000,"state":"active","ping":76},{"user_id":668,"name":"you will answer for your sins","steam_id":76561198008332777,"connected_time":1996000000000,"state":"active","ping":79},{"user_id":683,"name":"pudl","steam_id":76561198043726592,"connected_time":1053000000000,"state":"active","ping":64},{"user_id":669,"name":"GoatVHS","steam_id":76561198050859478,"connected_time":1956000000000,"state":"active","ping":58},{"user_id":690,"name":"επιλέγω","steam_id":76561198076639682,"connected_time":220000000000,"state":"active","ping":74},{"user_id":691,"name":"Sergeant_Umbreon","steam_id":76561198084188758,"connected_time":180000000000,"state":"active","ping":96},{"user_id":674,"name":"On The Bright Side...","steam_id":76561198168785883,"connected_time":1676000000000,"state":"active","ping":47}]},{"server_id":37,"name":"Uncletopia | Chicago | 6 | All Maps","name_short":"chi-6","host":"chi-2.us.uncletopia.com","port":27025,"enabled":true,"region":"us-central","cc":"us","latitude":41.881832,"longitude":-87.62318,"reserved":0,"last_update":"0001-01-01T00:00:00Z","name_a2s":"Uncletopia | Chicago | 6 | All Maps","protocol":17,"map":"cp_altitude","folder":"tf","game":"Team Fortress","app_id":440,"player_count":0,"max_players":24,"Bots":0,"server_type":"Dedicated","server_os":"Linux","password":true,"vac":true,"version":"7882260","steam_id":85568392924866363,"keywords":["cp","nocrits","nodmgspread","uncletopia"],"game_id":440,"stv_port":27026,"stv_name":"Uncletopia | Chicago | 6 | All Maps | STV","players":null},{"server_id":38,"name":"Uncletopia | Chicago | 7 | Stopwatch Beta","name_short":"chi-7","host":"chi-2.us.uncletopia.com","port":27035,"enabled":true,"region":"us-central","cc":"us","latitude":41.881832,"longitude":-87.62318,"reserved":0,"last_update":"0001-01-01T00:00:00Z","name_a2s":"Uncletopia | Chicago | 7 | Stopwatch Beta","protocol":17,"map":"workshop/koth_ramjam_rc1.ugc459778887","folder":"tf","game":"Team Fortress","app_id":440,"player_count":0,"max_players":24,"Bots":0,"server_type":"Dedicated","server_os":"Linux","password":true,"vac":true,"version":"7882260","steam_id":85568392924866364,"keywords":["cp","nocrits","nodmgspread","uncletopia"],"game_id":440,"stv_port":27036,"stv_name":"Uncletopia | Chicago | 7 | Stopwatch Beta | STV","players":null},{"server_id":39,"name":"Uncletopia | Chicago | 8 | Community","name_short":"chi-8","host":"chi-2.us.uncletopia.com","port":27045,"enabled":true,"region":"us-central","cc":"us","latitude":41.881832,"longitude":-87.62318,"reserved":0,"last_update":"0001-01-01T00:00:00Z","name_a2s":"Uncletopia | Chicago | 8 | Community","protocol":17,"map":"workshop/koth_synthetic_rc6a.ugc1549817316","folder":"tf","game":"Team Fortress","app_id":440,"player_count":0,"max_players":24,"Bots":0,"server_type":"Dedicated","server_os":"Linux","password":true,"vac":true,"version":"7882260","steam_id":85568392924866365,"keywords":["cp","nocrits","nodmgspread","uncletopia"],"game_id":440,"stv_port":27046,"stv_name":"Uncletopia | Chicago | 8 | Community | STV","players":null},{"server_id":8,"name":"Uncletopia | Dallas | 1 | All Maps","name_short":"dal-1","host":"dal-1.us.uncletopia.com","port":27015,"enabled":true,"region":"us-central","cc":"us","latitude":32.779167,"longitude":-96.80889,"reserved":0,"last_update":"0001-01-01T00:00:00Z","name_a2s":"Uncletopia | Dallas | 1 | All Maps","protocol":17,"map":"pl_badwater","folder":"tf","game":"Team Fortress","app_id":440,"player_count":24,"max_players":24,"Bots":0,"server_type":"Dedicated","server_os":"Linux","password":true,"vac":true,"version":"7882260","steam_id":85568392924469986,"keywords":["nocrits","nodmgspread","payload","uncletopia"],"game_id":440,"stv_port":27016,"stv_name":"Uncletopia | Dallas | 1 | All Maps | STV","players":[{"user_id":790,"name":"Doc{MDW}","steam_id":76561198075049640,"connected_time":930000000000,"state":"active","ping":72},{"user_id":773,"name":"Sartupial","steam_id":76561198443169940,"connected_time":2018000000000,"state":"active","ping":43},{"user_id":655,"name":"Joe Swanson","steam_id":76561199089907740,"connected_time":13902000000000,"state":"active","ping":73},{"user_id":750,"name":"Victor","steam_id":76561198848984975,"connected_time":4733000000000,"state":"active","ping":79},{"user_id":772,"name":"Milo","steam_id":76561198870491380,"connected_time":2247000000000,"state":"active","ping":52},{"user_id":762,"name":"Kazmirl [Youtube]","steam_id":76561198116008410,"connected_time":3524000000000,"state":"active","ping":106},{"user_id":778,"name":"Jimmy","steam_id":76561198133680783,"connected_time":1529000000000,"state":"active","ping":179},{"user_id":791,"name":"Satan-2","steam_id":76561199231742764,"connected_time":754000000000,"state":"active","ping":87},{"user_id":760,"name":"76561198145451856","steam_id":76561198145451856,"connected_time":3863000000000,"state":"active","ping":88},{"user_id":796,"name":"noel","steam_id":76561198128280883,"connected_time":247000000000,"state":"active","ping":101},{"user_id":775,"name":"farrapo","steam_id":76561198031088039,"connected_time":1720000000000,"state":"active","ping":188},{"user_id":782,"name":"stall","steam_id":76561199152861652,"connected_time":1472000000000,"state":"active","ping":74},{"user_id":797,"name":"s0ulful","steam_id":76561198109721532,"connected_time":175000000000,"state":"active","ping":68},{"user_id":777,"name":"marvxpensiv3","steam_id":76561199020502894,"connected_time":1614000000000,"state":"active","ping":135},{"user_id":798,"name":"ChaoticAngel","steam_id":76561198293528217,"connected_time":153000000000,"state":"active","ping":75},{"user_id":781,"name":"Requiem for a Pizza Demoman","steam_id":76561198257241799,"connected_time":1503000000000,"state":"active","ping":45},{"user_id":768,"name":"Cynicalrage #TF2center","steam_id":76561198085805532,"connected_time":3164000000000,"state":"active","ping":63},{"user_id":786,"name":"Green","steam_id":76561199013593390,"connected_time":1231000000000,"state":"active","ping":99},{"user_id":783,"name":"wugmup","steam_id":76561199096287734,"connected_time":1441000000000,"state":"active","ping":97},{"user_id":789,"name":"the funny shit","steam_id":76561199097344668,"connected_time":1022000000000,"state":"active","ping":68},{"user_id":744,"name":"dobby","steam_id":76561198012274834,"connected_time":4958000000000,"state":"active","ping":65},{"user_id":787,"name":"slimjim557","steam_id":76561199094710853,"connected_time":1185000000000,"state":"active","ping":87},{"user_id":788,"name":"melatoninpeek^_^","steam_id":76561198126358045,"connected_time":1172000000000,"state":"active","ping":86},{"user_id":792,"name":"floofy","steam_id":76561198389769098,"connected_time":753000000000,"state":"active","ping":82}]},{"server_id":108,"name":"Uncletopia | Dallas | 2 | All Maps","name_short":"dal-2","host":"dal-1.us.uncletopia.com","port":27025,"enabled":true,"region":"us-central","cc":"us","latitude":32.779167,"longitude":-96.80889,"reserved":0,"last_update":"0001-01-01T00:00:00Z","name_a2s":"Uncletopia | Dallas | 2 | All Maps","protocol":17,"map":"pl_upward","folder":"tf","game":"Team Fortress","app_id":440,"player_count":0,"max_players":24,"Bots":0,"server_type":"Dedicated","server_os":"Linux","password":true,"vac":true,"version":"7882260","steam_id":85568392924469988,"keywords":["nocrits","nodmgspread","payload","uncletopia"],"game_id":440,"stv_port":27026,"stv_name":"Uncletopia | Dallas | 2 | All Maps | STV","players":null},{"server_id":5,"name":"Uncletopia | Frankfurt | 1 | All Maps","name_short":"frk-1","host":"frk-1.de.uncletopia.com","port":27015,"enabled":true,"region":"eu","cc":"de","latitude":50.110924,"longitude":8.682127,"reserved":0,"last_update":"0001-01-01T00:00:00Z","name_a2s":"Uncletopia | Frankfurt | 1 | All Maps","protocol":17,"map":"pl_swiftwater_final1","folder":"tf","game":"Team Fortress","app_id":440,"player_count":4,"max_players":24,"Bots":0,"server_type":"Dedicated","server_os":"Linux","password":true,"vac":true,"version":"7882260","steam_id":85568392924469989,"keywords":["nocrits","nodmgspread","payload","uncletopia"],"game_id":440,"stv_port":27016,"stv_name":"Uncletopia | Frankfurt | 1 | All Maps | STV","players":[{"user_id":5,"name":"FanFish","steam_id":76561199389558024,"connected_time":853000000000,"state":"active","ping":59},{"user_id":6,"name":"♥ImWithMilk","steam_id":76561198269577569,"connected_time":743000000000,"state":"active","ping":75},{"user_id":7,"name":"V60","steam_id":76561198133192305,"connected_time":367000000000,"state":"active","ping":126},{"user_id":8,"name":"Noiloi","steam_id":76561199124220205,"connected_time":71000000000,"state":"active","ping":75}]},{"server_id":110,"name":"Uncletopia | Frankfurt | 2 | All Maps","name_short":"frk-2","host":"frk-1.de.uncletopia.com","port":27025,"enabled":true,"region":"eu","cc":"de","latitude":50.110924,"longitude":8.682127,"reserved":0,"last_update":"0001-01-01T00:00:00Z","name_a2s":"Uncletopia | Frankfurt | 2 | All Maps","protocol":17,"map":"cp_dustbowl","folder":"tf","game":"Team Fortress","app_id":440,"player_count":0,"max_players":24,"Bots":0,"server_type":"Dedicated","server_os":"Linux","password":true,"vac":true,"version":"7882260","steam_id":85568392924469990,"keywords":["cp","nocrits","nodmgspread","uncletopia"],"game_id":440,"stv_port":27026,"stv_name":"Uncletopia | Frankfurt | 2 | All Maps | STV","players":null},{"server_id":308,"name":"Uncletopia | Frankfurt | 3 | All Maps","name_short":"frk-3","host":"frk-1.de.uncletopia.com","port":27035,"enabled":true,"region":"eu","cc":"de","latitude":50.110924,"longitude":8.682127,"reserved":0,"last_update":"0001-01-01T00:00:00Z","name_a2s":"Uncletopia | Frankfurt | 3 | All Maps","protocol":17,"map":"pl_swiftwater_final1","folder":"tf","game":"Team Fortress","app_id":440,"player_count":24,"max_players":24,"Bots":0,"server_type":"Dedicated","server_os":"Linux","password":true,"vac":true,"version":"7882260","steam_id":85568392924504274,"keywords":["nocrits","nodmgspread","payload","uncletopia"],"game_id":440,"stv_port":27036,"stv_name":"Uncletopia | Frankfurt | 3 | All Maps | STV","players":[{"user_id":81,"name":"Choirboy (He/Hymn)","steam_id":76561198183949987,"connected_time":3429000000000,"state":"active","ping":71},{"user_id":96,"name":"Close One!","steam_id":76561198986060392,"connected_time":1402000000000,"state":"active","ping":81},{"user_id":73,"name":"Carrot (woman)","steam_id":76561198139404261,"connected_time":4491000000000,"state":"active","ping":62},{"user_id":49,"name":"mefrfr","steam_id":76561198187770103,"connected_time":6709000000000,"state":"active","ping":89},{"user_id":50,"name":"nhtson","steam_id":76561199113295118,"connected_time":6681000000000,"state":"active","ping":70},{"user_id":8,"name":"nemelex","steam_id":76561198958005865,"connected_time":8656000000000,"state":"active","ping":59},{"user_id":89,"name":"M2rtRa","steam_id":76561198111036466,"connected_time":2588000000000,"state":"active","ping":60},{"user_id":52,"name":"Psychicpie","steam_id":76561198126065206,"connected_time":6596000000000,"state":"active","ping":48},{"user_id":53,"name":"Rin-Nakaret","steam_id":76561197971051188,"connected_time":6582000000000,"state":"active","ping":70},{"user_id":74,"name":"Mr_Pulse_","steam_id":76561198095001602,"connected_time":4433000000000,"state":"active","ping":86},{"user_id":86,"name":"1ggy","steam_id":76561199051285912,"connected_time":3138000000000,"state":"active","ping":76},{"user_id":98,"name":"bad at tf2 episode 2","steam_id":76561198002451113,"connected_time":1114000000000,"state":"active","ping":92},{"user_id":100,"name":"Carrot","steam_id":76561198119340863,"connected_time":927000000000,"state":"active","ping":64},{"user_id":94,"name":".::[SerafeTTiN]::.","steam_id":76561198009471724,"connected_time":1492000000000,"state":"active","ping":83},{"user_id":97,"name":"Greyhunter","steam_id":76561197960884202,"connected_time":1145000000000,"state":"active","ping":58},{"user_id":105,"name":"Renolox","steam_id":76561198036590182,"connected_time":107000000000,"state":"active","ping":69},{"user_id":34,"name":"Tison","steam_id":76561199127635841,"connected_time":7970000000000,"state":"active","ping":44},{"user_id":84,"name":"Varsk","steam_id":76561198061398890,"connected_time":3253000000000,"state":"active","ping":67},{"user_id":104,"name":"Cookies and Bakies","steam_id":76561198017442928,"connected_time":183000000000,"state":"active","ping":84},{"user_id":102,"name":"Marchioly","steam_id":76561198335079215,"connected_time":288000000000,"state":"active","ping":104},{"user_id":61,"name":"Fat Pigeon","steam_id":76561198817940142,"connected_time":5450000000000,"state":"active","ping":60},{"user_id":101,"name":"csnipery","steam_id":76561199435280050,"connected_time":412000000000,"state":"active","ping":67},{"user_id":59,"name":"Dabman","steam_id":76561199207417437,"connected_time":6383000000000,"state":"active","ping":104},{"user_id":103,"name":"yangus","steam_id":76561198075157560,"connected_time":271000000000,"state":"active","ping":60}]},{"server_id":309,"name":"Uncletopia | Frankfurt | 4 | All Maps","name_short":"frk-4","host":"frk-1.de.uncletopia.com","port":27045,"enabled":true,"region":"eu","cc":"de","latitude":50.110924,"longitude":8.682127,"reserved":0,"last_update":"0001-01-01T00:00:00Z","name_a2s":"Uncletopia | Frankfurt | 4 | All Maps","protocol":17,"map":"koth_lakeside_final","folder":"tf","game":"Team Fortress","app_id":440,"player_count":0,"max_players":24,"Bots":0,"server_type":"Dedicated","server_os":"Linux","password":true,"vac":true,"version":"7882260","steam_id":85568392924504275,"keywords":["cp","nocrits","nodmgspread","uncletopia"],"game_id":440,"stv_port":27046,"stv_name":"Uncletopia | Frankfurt | 4 | All Maps | STV","players":null},{"server_id":310,"name":"Uncletopia | Frankfurt | 5 | All Maps","name_short":"frk-5","host":"frk-1.de.uncletopia.com","port":27055,"enabled":true,"region":"eu","cc":"de","latitude":50.110924,"longitude":8.682127,"reserved":0,"last_update":"0001-01-01T00:00:00Z","name_a2s":"Uncletopia | Frankfurt | 5 | All Maps","protocol":17,"map":"cp_mountainlab","folder":"tf","game":"Team Fortress","app_id":440,"player_count":0,"max_players":24,"Bots":0,"server_type":"Dedicated","server_os":"Linux","password":true,"vac":true,"version":"7882260","steam_id":85568392924504277,"keywords":["cp","nocrits","nodmgspread","uncletopia"],"game_id":440,"stv_port":27056,"stv_name":"Uncletopia | Frankfurt | 5 | All Maps | STV","players":null},{"server_id":311,"name":"Uncletopia | Frankfurt | 6 | All Maps","name_short":"frk-6","host":"frk-1.de.uncletopia.com","port":27065,"enabled":true,"region":"eu","cc":"de","latitude":50.110924,"longitude":8.682127,"reserved":0,"last_update":"0001-01-01T00:00:00Z","name_a2s":"Uncletopia | Frankfurt | 6 | All Maps","protocol":17,"map":"pl_barnblitz","folder":"tf","game":"Team Fortress","app_id":440,"player_count":24,"max_players":24,"Bots":0,"server_type":"Dedicated","server_os":"Linux","password":true,"vac":true,"version":"7882260","steam_id":85568392924504278,"keywords":["nocrits","nodmgspread","payload","uncletopia"],"game_id":440,"stv_port":27066,"stv_name":"Uncletopia | Frankfurt | 6 | All Maps | STV","players":[{"user_id":190,"name":"quickfast","steam_id":76561199438900919,"connected_time":794000000000,"state":"active","ping":53},{"user_id":193,"name":"✪ qua ✪","steam_id":76561198066408333,"connected_time":582000000000,"state":"active","ping":60},{"user_id":192,"name":"WaterFk??","steam_id":76561198080419334,"connected_time":684000000000,"state":"active","ping":53},{"user_id":178,"name":"Pipper","steam_id":76561197970326616,"connected_time":1466000000000,"state":"active","ping":75},{"user_id":194,"name":"SaltyCupcakes","steam_id":76561198256386417,"connected_time":191000000000,"state":"active","ping":60},{"user_id":169,"name":"G/3","steam_id":76561198234844188,"connected_time":2299000000000,"state":"active","ping":60},{"user_id":181,"name":"Mon pote est un femboy","steam_id":76561198173218318,"connected_time":1366000000000,"state":"active","ping":55},{"user_id":95,"name":"Charmedelf","steam_id":76561197993611881,"connected_time":7544000000000,"state":"active","ping":60},{"user_id":183,"name":"Qubyte","steam_id":76561199476788495,"connected_time":1345000000000,"state":"active","ping":61},{"user_id":189,"name":"XPullaHiiri","steam_id":76561198031652375,"connected_time":1113000000000,"state":"active","ping":98},{"user_id":182,"name":"Ennard777","steam_id":76561198965409493,"connected_time":1354000000000,"state":"active","ping":108},{"user_id":116,"name":"hungry burger","steam_id":76561198064342804,"connected_time":5667000000000,"state":"active","ping":78},{"user_id":184,"name":"I have no ass and I must fart","steam_id":76561198388750592,"connected_time":1345000000000,"state":"active","ping":59},{"user_id":170,"name":"Panique","steam_id":76561197993239675,"connected_time":2060000000000,"state":"active","ping":75},{"user_id":144,"name":"hichem","steam_id":76561198056197307,"connected_time":4132000000000,"state":"active","ping":62},{"user_id":174,"name":"Mac Bean","steam_id":76561198133782205,"connected_time":1492000000000,"state":"active","ping":117},{"user_id":172,"name":"Deacon Dracul","steam_id":76561198046880663,"connected_time":1598000000000,"state":"active","ping":114},{"user_id":136,"name":"NitPig","steam_id":76561198212991935,"connected_time":4631000000000,"state":"active","ping":121},{"user_id":171,"name":"The Butterman#SaveTF2","steam_id":76561198065057086,"connected_time":2054000000000,"state":"active","ping":94},{"user_id":186,"name":"DoDonPachi","steam_id":76561199085984801,"connected_time":1287000000000,"state":"active","ping":69},{"user_id":195,"name":"Providence","steam_id":76561198003920270,"connected_time":168000000000,"state":"active","ping":94},{"user_id":188,"name":"sugma","steam_id":76561198091486930,"connected_time":1251000000000,"state":"active","ping":83},{"user_id":165,"name":"ijustsmokeandcry","steam_id":76561198044189114,"connected_time":2650000000000,"state":"active","ping":59},{"user_id":176,"name":"G6 sherlock","steam_id":76561198802967796,"connected_time":1469000000000,"state":"active","ping":122}]},{"server_id":23,"name":"Uncletopia | Frankfurt | 7 | Stopwatch Beta","name_short":"frk-7","host":"frk-1.de.uncletopia.com","port":27075,"enabled":true,"region":"eu","cc":"de","latitude":50.110924,"longitude":8.682127,"reserved":0,"last_update":"0001-01-01T00:00:00Z","name_a2s":"Uncletopia | Frankfurt | 7 | Stopwatch Beta","protocol":17,"map":"cp_dustbowl","folder":"tf","game":"Team Fortress","app_id":440,"player_count":0,"max_players":24,"Bots":0,"server_type":"Dedicated","server_os":"Linux","password":true,"vac":true,"version":"7882260","steam_id":85568392924742827,"keywords":["cp","nocrits","nodmgspread","uncletopia"],"game_id":440,"stv_port":27076,"stv_name":"Uncletopia | Frankfurt | 7 | Stopwatch Beta | STV","players":null},{"server_id":24,"name":"Uncletopia | Frankfurt | 8 | Community","name_short":"frk-8","host":"frk-1.de.uncletopia.com","port":27085,"enabled":true,"region":"eu","cc":"de","latitude":50.110924,"longitude":8.682127,"reserved":0,"last_update":"0001-01-01T00:00:00Z","name_a2s":"Uncletopia | Frankfurt | 8 | Community","protocol":17,"map":"koth_cascade","folder":"tf","game":"Team Fortress","app_id":440,"player_count":0,"max_players":24,"Bots":0,"server_type":"Dedicated","server_os":"Linux","password":true,"vac":true,"version":"7882260","steam_id":85568392924742828,"keywords":["cp","nocrits","nodmgspread","uncletopia"],"game_id":440,"stv_port":27086,"stv_name":"Uncletopia | Frankfurt | 8 | Community | STV","players":null},{"server_id":202,"name":"Uncletopia | Hong Kong | 1 | All Maps","name_short":"hgk-1","host":"hgk-1.hk.uncletopia.com","port":27015,"enabled":true,"region":"asia","cc":"hk","latitude":22.302711,"longitude":114.177216,"reserved":0,"last_update":"0001-01-01T00:00:00Z","name_a2s":"Uncletopia | Hong Kong | 1 | All Maps","protocol":17,"map":"cp_dustbowl","folder":"tf","game":"Team Fortress","app_id":440,"player_count":24,"max_players":24,"Bots":0,"server_type":"Dedicated","server_os":"Linux","password":true,"vac":true,"version":"7882260","steam_id":85568392924494504,"keywords":["cp","nocrits","nodmgspread","uncletopia"],"game_id":440,"stv_port":27016,"stv_name":"Uncletopia | Hong Kong | 1 | All Maps | STV","players":[{"user_id":204,"name":"Milk❤","steam_id":76561198163911560,"connected_time":850000000000,"state":"active","ping":183},{"user_id":171,"name":"loki :D","steam_id":76561198127985312,"connected_time":2783000000000,"state":"active","ping":91},{"user_id":188,"name":"MeetTeMedic99","steam_id":76561199208706868,"connected_time":1944000000000,"state":"active","ping":87},{"user_id":158,"name":"monkeyman536","steam_id":76561197997717737,"connected_time":3427000000000,"state":"active","ping":126},{"user_id":176,"name":"DellToNite","steam_id":76561199068666377,"connected_time":2575000000000,"state":"active","ping":114},{"user_id":172,"name":"Lynax","steam_id":76561198384987334,"connected_time":2779000000000,"state":"active","ping":89},{"user_id":209,"name":"tunathefish","steam_id":76561198805998419,"connected_time":482000000000,"state":"active","ping":102},{"user_id":210,"name":"Batbob","steam_id":76561198999413123,"connected_time":172000000000,"state":"active","ping":78},{"user_id":197,"name":"Worst player ever","steam_id":76561199245124028,"connected_time":1187000000000,"state":"active","ping":127},{"user_id":185,"name":"FAKESOUND","steam_id":76561199076712919,"connected_time":2150000000000,"state":"active","ping":175},{"user_id":196,"name":"E","steam_id":76561199173781370,"connected_time":1228000000000,"state":"active","ping":103},{"user_id":163,"name":"phd in ejaculation and foodpand","steam_id":76561198138187921,"connected_time":3271000000000,"state":"active","ping":53},{"user_id":129,"name":"FragmantizedLemon","steam_id":76561198313580674,"connected_time":7147000000000,"state":"active","ping":71},{"user_id":202,"name":"Sophia the librarian werewolf","steam_id":76561199131651798,"connected_time":940000000000,"state":"active","ping":84},{"user_id":192,"name":"i am a F2P and my aim is shit","steam_id":76561199475974790,"connected_time":1615000000000,"state":"active","ping":88},{"user_id":199,"name":"ConHoshi","steam_id":76561199387718733,"connected_time":1127000000000,"state":"active","ping":80},{"user_id":183,"name":"Ivan Dickevich Rektanov","steam_id":76561198201473205,"connected_time":2215000000000,"state":"active","ping":100},{"user_id":190,"name":"D.B.","steam_id":76561198045413690,"connected_time":1874000000000,"state":"active","ping":136},{"user_id":189,"name":"flying rocket","steam_id":76561199401766251,"connected_time":1888000000000,"state":"active","ping":76},{"user_id":206,"name":"ksvk","steam_id":76561198152588681,"connected_time":783000000000,"state":"active","ping":103},{"user_id":150,"name":"TomCat","steam_id":76561198133744053,"connected_time":4090000000000,"state":"active","ping":118},{"user_id":144,"name":"urotsuki with da doobie","steam_id":76561198074339034,"connected_time":5312000000000,"state":"active","ping":78},{"user_id":203,"name":"ChoboUnjeon","steam_id":76561198806095977,"connected_time":932000000000,"state":"active","ping":96},{"user_id":208,"name":"bamboozled","steam_id":76561199032258535,"connected_time":540000000000,"state":"active","ping":57}]},{"server_id":1,"name":"Uncletopia | Los Angeles | 1 | All Maps","name_short":"lax-1","host":"lax-1.us.uncletopia.com","port":27015,"enabled":true,"region":"us-west","cc":"us","latitude":33.94279,"longitude":-118.41004,"reserved":0,"last_update":"0001-01-01T00:00:00Z","name_a2s":"Uncletopia | Los Angeles | 1 | All Maps","protocol":17,"map":"pl_upward","folder":"tf","game":"Team Fortress","app_id":440,"player_count":0,"max_players":24,"Bots":0,"server_type":"Dedicated","server_os":"Linux","password":true,"vac":true,"version":"7882260","steam_id":85568392924469991,"keywords":["nocrits","nodmgspread","payload","uncletopia"],"game_id":440,"stv_port":27016,"stv_name":"Uncletopia | Los Angeles | 1 | All Maps | STV","players":null},{"server_id":112,"name":"Uncletopia | Los Angeles | 2 | All Maps","name_short":"lax-2","host":"lax-1.us.uncletopia.com","port":27025,"enabled":true,"region":"us-west","cc":"us","latitude":33.94279,"longitude":-118.41004,"reserved":0,"last_update":"0001-01-01T00:00:00Z","name_a2s":"Uncletopia | Los Angeles | 2 | All Maps","protocol":17,"map":"pl_borneo","folder":"tf","game":"Team Fortress","app_id":440,"player_count":24,"max_players":24,"Bots":0,"server_type":"Dedicated","server_os":"Linux","password":true,"vac":true,"version":"7882260","steam_id":85568392924469992,"keywords":["nocrits","nodmgspread","payload","uncletopia"],"game_id":440,"stv_port":27026,"stv_name":"Uncletopia | Los Angeles | 2 | All Maps | STV","players":[{"user_id":915,"name":"hotpocket","steam_id":76561199070028098,"connected_time":13545000000000,"state":"active","ping":70},{"user_id":1021,"name":"Mak","steam_id":76561198089197922,"connected_time":1868000000000,"state":"active","ping":82},{"user_id":1013,"name":"Velvety","steam_id":76561198081922813,"connected_time":3216000000000,"state":"active","ping":59},{"user_id":1007,"name":"Jimmy","steam_id":76561198857959855,"connected_time":3547000000000,"state":"active","ping":35},{"user_id":1044,"name":"beaten to mental retardation","steam_id":76561198152139282,"connected_time":146000000000,"state":"active","ping":126},{"user_id":1004,"name":"Sand Pirate","steam_id":76561198009589068,"connected_time":3706000000000,"state":"active","ping":100},{"user_id":1023,"name":"Headmouth","steam_id":76561198019789855,"connected_time":1833000000000,"state":"active","ping":177},{"user_id":982,"name":"zaza rizzington","steam_id":76561199187337967,"connected_time":5787000000000,"state":"active","ping":105},{"user_id":981,"name":"ena - d","steam_id":76561198072329335,"connected_time":5846000000000,"state":"active","ping":98},{"user_id":1032,"name":"mawji","steam_id":76561199147740808,"connected_time":710000000000,"state":"active","ping":89},{"user_id":1015,"name":"UnknownError42","steam_id":76561198087467339,"connected_time":2826000000000,"state":"active","ping":111},{"user_id":1020,"name":"a chicken","steam_id":76561198313121580,"connected_time":2070000000000,"state":"active","ping":52},{"user_id":1041,"name":"zapato","steam_id":76561198142278437,"connected_time":208000000000,"state":"active","ping":97},{"user_id":1033,"name":"Dunkin' Ponuts","steam_id":76561198082382465,"connected_time":686000000000,"state":"active","ping":89},{"user_id":1024,"name":"sans","steam_id":76561198859444420,"connected_time":1809000000000,"state":"active","ping":70},{"user_id":1028,"name":"mjr","steam_id":76561198148301033,"connected_time":1515000000000,"state":"active","ping":93},{"user_id":1042,"name":"Ferrin","steam_id":76561198071757444,"connected_time":198000000000,"state":"active","ping":102},{"user_id":1016,"name":"Rudeo","steam_id":76561198043210662,"connected_time":2808000000000,"state":"active","ping":115},{"user_id":1025,"name":"Jolton","steam_id":76561198855914093,"connected_time":1803000000000,"state":"active","ping":68},{"user_id":994,"name":"ham","steam_id":76561198275808586,"connected_time":4927000000000,"state":"active","ping":77},{"user_id":1026,"name":"HTA","steam_id":76561198043879140,"connected_time":1668000000000,"state":"active","ping":107},{"user_id":1027,"name":"quack_ | BigNuts.tf","steam_id":76561198141963602,"connected_time":1655000000000,"state":"active","ping":74},{"user_id":995,"name":"MondoSchnoz","steam_id":76561198354925907,"connected_time":4917000000000,"state":"active","ping":108},{"user_id":1043,"name":"KentYardAssociate","steam_id":76561198290499758,"connected_time":181000000000,"state":"active","ping":131}]},{"server_id":324,"name":"Uncletopia | Los Angeles | 3 | All Maps","name_short":"lax-3","host":"lax-1.us.uncletopia.com","port":27035,"enabled":true,"region":"us-west","cc":"us","latitude":33.94279,"longitude":-118.41004,"reserved":0,"last_update":"0001-01-01T00:00:00Z","name_a2s":"Uncletopia | Los Angeles | 3 | All Maps","protocol":17,"map":"pl_barnblitz","folder":"tf","game":"Team Fortress","app_id":440,"player_count":0,"max_players":24,"Bots":0,"server_type":"Dedicated","server_os":"Linux","password":true,"vac":true,"version":"7882260","steam_id":85568392924510198,"keywords":["nocrits","nodmgspread","payload","uncletopia"],"game_id":440,"stv_port":27036,"stv_name":"Uncletopia | Los Angeles | 3 | All Maps | STV","players":null},{"server_id":25,"name":"Uncletopia | Los Angeles | 4 | Stopwatch Beta","name_short":"lax-4","host":"lax-1.us.uncletopia.com","port":27045,"enabled":true,"region":"us-west","cc":"us","latitude":33.94279,"longitude":-118.41004,"reserved":0,"last_update":"0001-01-01T00:00:00Z","name_a2s":"Uncletopia | Los Angeles | 4 | Stopwatch Beta","protocol":17,"map":"workshop/pl_barnblitz_pro7.ugc582280235","folder":"tf","game":"Team Fortress","app_id":440,"player_count":0,"max_players":24,"Bots":0,"server_type":"Dedicated","server_os":"Linux","password":true,"vac":true,"version":"7882260","steam_id":85568392924510199,"keywords":["nocrits","nodmgspread","payload","uncletopia"],"game_id":440,"stv_port":27046,"stv_name":"Uncletopia | Los Angeles | 4 | Stopwatch Beta | STV","players":null},{"server_id":11,"name":"Uncletopia | London | 1 | All Maps","name_short":"lon-1","host":"lon-1.uk.uncletopia.com","port":27015,"enabled":true,"region":"eu","cc":"gb","latitude":51.509865,"longitude":-0.118092,"reserved":0,"last_update":"0001-01-01T00:00:00Z","name_a2s":"Uncletopia | London | 1 | All Maps","protocol":17,"map":"koth_lakeside_final","folder":"tf","game":"Team Fortress","app_id":440,"player_count":20,"max_players":24,"Bots":0,"server_type":"Dedicated","server_os":"Linux","password":true,"vac":true,"version":"7882260","steam_id":85568392924367362,"keywords":["cp","nocrits","nodmgspread","uncletopia"],"game_id":440,"stv_port":27016,"stv_name":"Uncletopia | London | 1 | All Maps | STV","players":[{"user_id":8,"name":"Brinier","steam_id":76561199012604288,"connected_time":669000000000,"state":"active","ping":75},{"user_id":14,"name":"Dr.bero","steam_id":76561198843629859,"connected_time":465000000000,"state":"active","ping":104},{"user_id":9,"name":"1 toke 4 mars bars","steam_id":76561198056460000,"connected_time":658000000000,"state":"active","ping":46},{"user_id":7,"name":"Salty_shark","steam_id":76561198300798280,"connected_time":748000000000,"state":"active","ping":91},{"user_id":10,"name":"Olvustin","steam_id":76561198272011453,"connected_time":657000000000,"state":"active","ping":108},{"user_id":11,"name":"cherri","steam_id":76561198146570384,"connected_time":594000000000,"state":"active","ping":90},{"user_id":12,"name":"Gordon","steam_id":76561198303652059,"connected_time":574000000000,"state":"active","ping":70},{"user_id":13,"name":"MatarArg","steam_id":76561198280246498,"connected_time":539000000000,"state":"active","ping":113},{"user_id":16,"name":"Hans","steam_id":76561198030061999,"connected_time":452000000000,"state":"active","ping":89},{"user_id":17,"name":"Alice can't hit pipes","steam_id":76561198052410860,"connected_time":444000000000,"state":"active","ping":152},{"user_id":18,"name":"InfamousAxe","steam_id":76561198099504739,"connected_time":417000000000,"state":"active","ping":130},{"user_id":19,"name":"Lario","steam_id":76561199194109193,"connected_time":322000000000,"state":"active","ping":64},{"user_id":20,"name":"favela_fan","steam_id":76561198086464040,"connected_time":259000000000,"state":"active","ping":60},{"user_id":22,"name":"Dio","steam_id":76561198117685434,"connected_time":158000000000,"state":"active","ping":97},{"user_id":23,"name":"_6e3_MoHuTopa_","steam_id":76561198980795064,"connected_time":104000000000,"state":"active","ping":105},{"user_id":24,"name":"lore","steam_id":76561198120984188,"connected_time":91000000000,"state":"active","ping":83},{"user_id":25,"name":"Kokos","steam_id":76561198085501501,"connected_time":56000000000,"state":"active","ping":88},{"user_id":26,"name":"Dagadt","steam_id":76561198798893357,"connected_time":18000000000,"state":"active","ping":74},{"user_id":27,"name":"engie?","steam_id":76561198331852832,"connected_time":4000000000,"state":"spawning","ping":42},{"user_id":28,"name":"doopsuiker","steam_id":76561198025916703,"connected_time":1000000000,"state":"spawning","ping":33}]},{"server_id":114,"name":"Uncletopia | London | 2 | All Maps","name_short":"lon-2","host":"lon-1.uk.uncletopia.com","port":27025,"enabled":true,"region":"eu","cc":"gb","latitude":51.509865,"longitude":-0.118092,"reserved":0,"last_update":"0001-01-01T00:00:00Z","name_a2s":"Uncletopia | London | 2 | All Maps","protocol":17,"map":"pl_swiftwater_final1","folder":"tf","game":"Team Fortress","app_id":440,"player_count":0,"max_players":24,"Bots":0,"server_type":"Dedicated","server_os":"Linux","password":true,"vac":true,"version":"7882260","steam_id":85568392924470941,"keywords":["nocrits","nodmgspread","payload","uncletopia"],"game_id":440,"stv_port":27026,"stv_name":"Uncletopia | London | 2 | All Maps | STV","players":null},{"server_id":320,"name":"Uncletopia | London | 3 | All Maps","name_short":"lon-3","host":"lon-1.uk.uncletopia.com","port":27035,"enabled":true,"region":"eu","cc":"gb","latitude":51.509865,"longitude":-0.118092,"reserved":0,"last_update":"0001-01-01T00:00:00Z","name_a2s":"Uncletopia | London | 3 | All Maps","protocol":17,"map":"pl_upward","folder":"tf","game":"Team Fortress","app_id":440,"player_count":24,"max_players":24,"Bots":0,"server_type":"Dedicated","server_os":"Linux","password":true,"vac":true,"version":"7882260","steam_id":85568392924510192,"keywords":["nocrits","nodmgspread","payload","uncletopia"],"game_id":440,"stv_port":27036,"stv_name":"Uncletopia | London | 3 | All Maps | STV","players":[{"user_id":60,"name":"schmick h_stt 0","steam_id":76561198039537958,"connected_time":1348000000000,"state":"active","ping":45},{"user_id":68,"name":"Mong","steam_id":76561198254497427,"connected_time":937000000000,"state":"active","ping":36},{"user_id":78,"name":"Lyell","steam_id":76561198350329389,"connected_time":339000000000,"state":"active","ping":85},{"user_id":73,"name":"Quiet Kid","steam_id":76561199134800446,"connected_time":514000000000,"state":"active","ping":106},{"user_id":61,"name":"Hedge Knight","steam_id":76561198989449047,"connected_time":1299000000000,"state":"active","ping":127},{"user_id":18,"name":"plont","steam_id":76561198060105180,"connected_time":4241000000000,"state":"active","ping":60},{"user_id":20,"name":"Setiago","steam_id":76561198060770498,"connected_time":3896000000000,"state":"active","ping":73},{"user_id":59,"name":"your ex","steam_id":76561198210179771,"connected_time":1394000000000,"state":"active","ping":85},{"user_id":63,"name":"sokige","steam_id":76561198167112371,"connected_time":1080000000000,"state":"active","ping":107},{"user_id":58,"name":"Show me your gun","steam_id":76561198368339225,"connected_time":1447000000000,"state":"active","ping":118},{"user_id":62,"name":"astra","steam_id":76561198042980579,"connected_time":1148000000000,"state":"active","ping":75},{"user_id":45,"name":"Dude Time","steam_id":76561198092991160,"connected_time":2025000000000,"state":"active","ping":163},{"user_id":70,"name":"The SEX Master","steam_id":76561198812424933,"connected_time":704000000000,"state":"active","ping":69},{"user_id":37,"name":"Jan.","steam_id":76561197974066329,"connected_time":2532000000000,"state":"active","ping":65},{"user_id":74,"name":"Noosie","steam_id":76561198108612349,"connected_time":499000000000,"state":"active","ping":60},{"user_id":39,"name":"Magirby","steam_id":76561198818777390,"connected_time":2501000000000,"state":"active","ping":114},{"user_id":57,"name":"lol","steam_id":76561198104438656,"connected_time":1462000000000,"state":"active","ping":70},{"user_id":66,"name":"Dark ^^","steam_id":76561198036241064,"connected_time":991000000000,"state":"active","ping":78},{"user_id":50,"name":"Floris Kakadoris","steam_id":76561198258458741,"connected_time":1861000000000,"state":"active","ping":71},{"user_id":51,"name":"Stayprone","steam_id":76561197963491785,"connected_time":1860000000000,"state":"active","ping":66},{"user_id":52,"name":"Cipher Guy","steam_id":76561198987064749,"connected_time":1822000000000,"state":"active","ping":71},{"user_id":79,"name":"Sylvanas","steam_id":76561198154904165,"connected_time":178000000000,"state":"active","ping":113},{"user_id":80,"name":"Ｒ Ｏ Ｂ Ｂ Ｅ Ｒ Ｔ","steam_id":76561198134404830,"connected_time":157000000000,"state":"active","ping":144},{"user_id":75,"name":"Sonic","steam_id":76561198081692577,"connected_time":493000000000,"state":"active","ping":65}]},{"server_id":321,"name":"Uncletopia | London | 4 | All Maps","name_short":"lon-4","host":"lon-1.uk.uncletopia.com","port":27045,"enabled":true,"region":"eu","cc":"gb","latitude":51.509865,"longitude":-0.118092,"reserved":0,"last_update":"0001-01-01T00:00:00Z","name_a2s":"Uncletopia | London | 4 | All Maps","protocol":17,"map":"pl_upward","folder":"tf","game":"Team Fortress","app_id":440,"player_count":0,"max_players":24,"Bots":0,"server_type":"Dedicated","server_os":"Linux","password":true,"vac":true,"version":"7882260","steam_id":85568392924510193,"keywords":["nocrits","nodmgspread","payload","uncletopia"],"game_id":440,"stv_port":27046,"stv_name":"Uncletopia | London | 4 | All Maps | STV","players":null},{"server_id":21,"name":"Uncletopia | London | 5 | All Maps","name_short":"lon-5","host":"lon-1.uk.uncletopia.com","port":27055,"enabled":true,"region":"eu","cc":"gb","latitude":51.509865,"longitude":-0.118092,"reserved":0,"last_update":"0001-01-01T00:00:00Z","name_a2s":"Uncletopia | London | 5 | All Maps","protocol":17,"map":"pl_frontier_final","folder":"tf","game":"Team Fortress","app_id":440,"player_count":0,"max_players":24,"Bots":0,"server_type":"Dedicated","server_os":"Linux","password":true,"vac":true,"version":"7882260","steam_id":85568392924742829,"keywords":["nocrits","nodmgspread","payload","uncletopia"],"game_id":440,"stv_port":27056,"stv_name":"Uncletopia | London | 5 | All Maps | STV","players":null},{"server_id":22,"name":"Uncletopia | London | 6 | All Maps","name_short":"lon-6","host":"lon-1.uk.uncletopia.com","port":27065,"enabled":true,"region":"eu","cc":"gb","latitude":51.509865,"longitude":-0.118092,"reserved":0,"last_update":"0001-01-01T00:00:00Z","name_a2s":"Uncletopia | London | 6 | All Maps","protocol":17,"map":"cp_altitude","folder":"tf","game":"Team Fortress","app_id":440,"player_count":0,"max_players":24,"Bots":0,"server_type":"Dedicated","server_os":"Linux","password":true,"vac":true,"version":"7882260","steam_id":85568392924742830,"keywords":["cp","nocrits","nodmgspread","uncletopia"],"game_id":440,"stv_port":27066,"stv_name":"Uncletopia | London | 6 | All Maps | STV","players":null},{"server_id":40,"name":"Uncletopia | London | 7 | No Payload","name_short":"lon-7","host":"lon-1.uk.uncletopia.com","port":27075,"enabled":true,"region":"eu","cc":"gb","latitude":51.509865,"longitude":-0.118092,"reserved":0,"last_update":"0001-01-01T00:00:00Z","name_a2s":"Uncletopia | London | 7 | No Payload","protocol":17,"map":"koth_harvest_final","folder":"tf","game":"Team Fortress","app_id":440,"player_count":0,"max_players":24,"Bots":0,"server_type":"Dedicated","server_os":"Linux","password":true,"vac":true,"version":"7882260","steam_id":85568392924964314,"keywords":["cp","nocrits","nodmgspread","uncletopia"],"game_id":440,"stv_port":27076,"stv_name":"Uncletopia | London | 7 | No Payload | STV","players":null},{"server_id":41,"name":"Uncletopia | London | 8 | Community","name_short":"lon-8","host":"lon-1.uk.uncletopia.com","port":27085,"enabled":true,"region":"eu","cc":"gb","latitude":51.509865,"longitude":-0.118092,"reserved":0,"last_update":"0001-01-01T00:00:00Z","name_a2s":"Uncletopia | London | 8 | Community","protocol":17,"map":"pl_swiftwater_final1","folder":"tf","game":"Team Fortress","app_id":440,"player_count":0,"max_players":24,"Bots":0,"server_type":"Dedicated","server_os":"Linux","password":true,"vac":true,"version":"7882260","steam_id":85568392924964315,"keywords":["nocrits","nodmgspread","payload","uncletopia"],"game_id":440,"stv_port":27086,"stv_name":"Uncletopia | London | 8 | Community | STV","players":null},{"server_id":300,"name":"Uncletopia | Montréal | 1 | All Maps","name_short":"mtl-1","host":"mtl-1.ca.uncletopia.com","port":27015,"enabled":true,"region":"us-east","cc":"ca","latitude":45.50889,"longitude":-73.56167,"reserved":0,"last_update":"0001-01-01T00:00:00Z","name_a2s":"Uncletopia | Montréal | 1 | All Maps","protocol":17,"map":"pl_snowycoast","folder":"tf","game":"Team Fortress","app_id":440,"player_count":0,"max_players":24,"Bots":0,"server_type":"Dedicated","server_os":"Linux","password":true,"vac":true,"version":"7882260","steam_id":85568392924500087,"keywords":["nocrits","nodmgspread","payload","uncletopia"],"game_id":440,"stv_port":27016,"stv_name":"Uncletopia | Montréal | 1 | All Maps | STV","players":null},{"server_id":301,"name":"Uncletopia | Montréal | 2 | All Maps","name_short":"mtl-2","host":"mtl-1.ca.uncletopia.com","port":27025,"enabled":true,"region":"us-east","cc":"ca","latitude":45.50889,"longitude":-73.56167,"reserved":0,"last_update":"0001-01-01T00:00:00Z","name_a2s":"Uncletopia | Montréal | 2 | All Maps","protocol":17,"map":"cp_sunshine","folder":"tf","game":"Team Fortress","app_id":440,"player_count":0,"max_players":24,"Bots":0,"server_type":"Dedicated","server_os":"Linux","password":true,"vac":true,"version":"7882260","steam_id":85568392924500088,"keywords":["cp","nocrits","nodmgspread","uncletopia"],"game_id":440,"stv_port":27026,"stv_name":"Uncletopia | Montréal | 2 | All Maps | STV","players":null},{"server_id":302,"name":"Uncletopia | Montréal | 3 | All Maps","name_short":"mtl-3","host":"mtl-1.ca.uncletopia.com","port":27035,"enabled":true,"region":"us-east","cc":"ca","latitude":45.50889,"longitude":-73.56167,"reserved":0,"last_update":"0001-01-01T00:00:00Z","name_a2s":"Uncletopia | Montréal | 3 | All Maps","protocol":17,"map":"pl_borneo","folder":"tf","game":"Team Fortress","app_id":440,"player_count":0,"max_players":24,"Bots":0,"server_type":"Dedicated","server_os":"Linux","password":true,"vac":true,"version":"7882260","steam_id":85568392924500089,"keywords":["nocrits","nodmgspread","payload","uncletopia"],"game_id":440,"stv_port":27036,"stv_name":"Uncletopia | Montréal | 3 | All Maps | STV","players":null},{"server_id":303,"name":"Uncletopia | Montréal | 4 | No Payload","name_short":"mtl-4","host":"mtl-1.ca.uncletopia.com","port":27045,"enabled":true,"region":"us-east","cc":"ca","latitude":45.50889,"longitude":-73.56167,"reserved":0,"last_update":"0001-01-01T00:00:00Z","name_a2s":"Uncletopia | Montréal | 4 | No Payload","protocol":17,"map":"cp_altitude","folder":"tf","game":"Team Fortress","app_id":440,"player_count":0,"max_players":24,"Bots":0,"server_type":"Dedicated","server_os":"Linux","password":true,"vac":true,"version":"7882260","steam_id":85568392924500090,"keywords":["cp","nocrits","nodmgspread","uncletopia"],"game_id":440,"stv_port":27046,"stv_name":"Uncletopia | Montréal | 4 | No Payload | STV","players":null},{"server_id":13,"name":"Uncletopia | New York City | 1 | All Maps","name_short":"nyc-1","host":"nyc-1.us.uncletopia.com","port":27015,"enabled":true,"region":"us-east","cc":"us","latitude":40.73061,"longitude":-73.93524,"reserved":0,"last_update":"0001-01-01T00:00:00Z","name_a2s":"Uncletopia | New York City | 1 | All Maps","protocol":17,"map":"pl_borneo","folder":"tf","game":"Team Fortress","app_id":440,"player_count":0,"max_players":24,"Bots":0,"server_type":"Dedicated","server_os":"Linux","password":true,"vac":true,"version":"7882260","steam_id":85568392924469993,"keywords":["nocrits","nodmgspread","payload","uncletopia"],"game_id":440,"stv_port":27016,"stv_name":"Uncletopia | New York City | 1 | All Maps | STV","players":null},{"server_id":14,"name":"Uncletopia | New York City | 2 | All Maps","name_short":"nyc-2","host":"nyc-1.us.uncletopia.com","port":27025,"enabled":true,"region":"us-east","cc":"us","latitude":40.73061,"longitude":-73.93524,"reserved":0,"last_update":"0001-01-01T00:00:00Z","name_a2s":"Uncletopia | New York City | 2 | All Maps","protocol":17,"map":"pl_upward","folder":"tf","game":"Team Fortress","app_id":440,"player_count":0,"max_players":24,"Bots":0,"server_type":"Dedicated","server_os":"Linux","password":true,"vac":true,"version":"7882260","steam_id":85568392924469994,"keywords":["nocrits","nodmgspread","payload","uncletopia"],"game_id":440,"stv_port":27026,"stv_name":"Uncletopia | New York City | 2 | All Maps | STV","players":null},{"server_id":15,"name":"Uncletopia | New York City | 3 | Stopwatch Beta","name_short":"nyc-3","host":"nyc-1.us.uncletopia.com","port":27035,"enabled":true,"region":"us-east","cc":"us","latitude":40.73061,"longitude":-73.93524,"reserved":0,"last_update":"0001-01-01T00:00:00Z","name_a2s":"Uncletopia | New York City | 3 | Stopwatch Beta","protocol":17,"map":"koth_lakeside_final","folder":"tf","game":"Team Fortress","app_id":440,"player_count":0,"max_players":24,"Bots":0,"server_type":"Dedicated","server_os":"Linux","password":true,"vac":true,"version":"7882260","steam_id":85568392924742820,"keywords":["cp","nocrits","nodmgspread","uncletopia"],"game_id":440,"stv_port":27036,"stv_name":"Uncletopia | New York City | 3 | Stopwatch Beta | STV","players":null},{"server_id":16,"name":"Uncletopia | New York City | 4 | Community","name_short":"nyc-4","host":"nyc-1.us.uncletopia.com","port":27045,"enabled":true,"region":"us-east","cc":"us","latitude":40.73061,"longitude":-73.93524,"reserved":0,"last_update":"0001-01-01T00:00:00Z","name_a2s":"Uncletopia | New York City | 4 | Community","protocol":17,"map":"pl_badwater","folder":"tf","game":"Team Fortress","app_id":440,"player_count":0,"max_players":24,"Bots":0,"server_type":"Dedicated","server_os":"Linux","password":true,"vac":true,"version":"7882260","steam_id":85568392924742821,"keywords":["nocrits","nodmgspread","payload","uncletopia"],"game_id":440,"stv_port":27046,"stv_name":"Uncletopia | New York City | 4 | Community | STV","players":null},{"server_id":142,"name":"Uncletopia | São Paulo | 1 | All Maps","name_short":"sao-1","host":"sao-1.br.uncletopia.com","port":27015,"enabled":true,"region":"sa","cc":"br","latitude":-23.533773,"longitude":-46.62529,"reserved":0,"last_update":"0001-01-01T00:00:00Z","name_a2s":"Uncletopia | São Paulo | 1 | All Maps","protocol":17,"map":"cp_process_final","folder":"tf","game":"Team Fortress","app_id":440,"player_count":0,"max_players":24,"Bots":0,"server_type":"Dedicated","server_os":"Linux","password":true,"vac":true,"version":"7882260","steam_id":85568392924469996,"keywords":["cp","nocrits","nodmgspread","uncletopia"],"game_id":440,"stv_port":27016,"stv_name":"Uncletopia | São Paulo | 1 | All Maps | STV","players":null},{"server_id":143,"name":"Uncletopia | São Paulo | 2 | All Maps","name_short":"sao-2","host":"sao-2.br.uncletopia.com","port":27015,"enabled":true,"region":"sa","cc":"br","latitude":-23.533773,"longitude":-46.62529,"reserved":0,"last_update":"0001-01-01T00:00:00Z","name_a2s":"Uncletopia | São Paulo | 2 | All Maps","protocol":17,"map":"pl_pier","folder":"tf","game":"Team Fortress","app_id":440,"player_count":0,"max_players":24,"Bots":0,"server_type":"Dedicated","server_os":"Linux","password":true,"vac":true,"version":"7882260","steam_id":85568392924485349,"keywords":["nocrits","nodmgspread","payload","uncletopia"],"game_id":440,"stv_port":27016,"stv_name":"Uncletopia | São Paulo | 2 | All Maps | STV","players":null},{"server_id":7,"name":"Uncletopia | Seattle | 1 | All Maps","name_short":"sea-1","host":"sea-1.us.uncletopia.com","port":27015,"enabled":true,"region":"us-west","cc":"us","latitude":47.608013,"longitude":-122.33517,"reserved":0,"last_update":"0001-01-01T00:00:00Z","name_a2s":"Uncletopia | Seattle | 1 | All Maps","protocol":17,"map":"koth_highpass","folder":"tf","game":"Team Fortress","app_id":440,"player_count":6,"max_players":24,"Bots":0,"server_type":"Dedicated","server_os":"Linux","password":true,"vac":true,"version":"7882260","steam_id":85568392924469997,"keywords":["cp","nocrits","nodmgspread","uncletopia"],"game_id":440,"stv_port":27016,"stv_name":"Uncletopia | Seattle | 1 | All Maps | STV","players":[{"user_id":727,"name":"Katie4","steam_id":76561198041841960,"connected_time":527000000000,"state":"active","ping":33},{"user_id":728,"name":"ASINISTERTACO","steam_id":76561198101919157,"connected_time":513000000000,"state":"active","ping":77},{"user_id":729,"name":"piner","steam_id":76561198051635910,"connected_time":500000000000,"state":"active","ping":75},{"user_id":730,"name":"Rain","steam_id":76561198065612273,"connected_time":471000000000,"state":"active","ping":45},{"user_id":731,"name":"acab","steam_id":76561198062240177,"connected_time":437000000000,"state":"active","ping":90},{"user_id":705,"name":"Underscore Paul","steam_id":76561198070300902,"connected_time":3380000000000,"state":"active","ping":58}]},{"server_id":119,"name":"Uncletopia | Seattle | 2 | All Maps","name_short":"sea-2","host":"sea-1.us.uncletopia.com","port":27025,"enabled":true,"region":"us-west","cc":"us","latitude":47.608013,"longitude":-122.33517,"reserved":0,"last_update":"0001-01-01T00:00:00Z","name_a2s":"Uncletopia | Seattle | 2 | All Maps","protocol":17,"map":"pl_barnblitz","folder":"tf","game":"Team Fortress","app_id":440,"player_count":0,"max_players":24,"Bots":0,"server_type":"Dedicated","server_os":"Linux","password":true,"vac":true,"version":"7882260","steam_id":85568392924469998,"keywords":["nocrits","nodmgspread","payload","uncletopia"],"game_id":440,"stv_port":27026,"stv_name":"Uncletopia | Seattle | 2 | All Maps | STV","players":null},{"server_id":406,"name":"Uncletopia | Seattle | 3 | Stopwatch Beta","name_short":"sea-3","host":"sea-1.us.uncletopia.com","port":27035,"enabled":true,"region":"us-west","cc":"us","latitude":47.608013,"longitude":-122.33517,"reserved":0,"last_update":"0001-01-01T00:00:00Z","name_a2s":"Uncletopia | Seattle | 3 | Stopwatch Beta","protocol":17,"map":"workshop/koth_product_final.ugc454272353","folder":"tf","game":"Team Fortress","app_id":440,"player_count":0,"max_players":24,"Bots":0,"server_type":"Dedicated","server_os":"Linux","password":true,"vac":true,"version":"7882260","steam_id":85568392924515217,"keywords":["cp","nocrits","nodmgspread","uncletopia"],"game_id":440,"stv_port":27036,"stv_name":"Uncletopia | Seattle | 3 | Stopwatch Beta | STV","players":null},{"server_id":17,"name":"Uncletopia | San Francisco | 1 | All Maps","name_short":"sfo-1","host":"sfo-1.us.uncletopia.com","port":27015,"enabled":true,"region":"us-west","cc":"us","latitude":37.77397,"longitude":-122.4313,"reserved":0,"last_update":"0001-01-01T00:00:00Z","name_a2s":"Uncletopia | San Francisco | 1 | All Maps","protocol":17,"map":"cp_process_final","folder":"tf","game":"Team Fortress","app_id":440,"player_count":0,"max_players":24,"Bots":0,"server_type":"Dedicated","server_os":"Linux","password":true,"vac":true,"version":"7757534","steam_id":85568392924469999,"keywords":["cp","nocrits","nodmgspread","uncletopia"],"game_id":440,"stv_port":27016,"stv_name":"Uncletopia | San Francisco | 1 | All Maps | STV","players":null},{"server_id":18,"name":"Uncletopia | San Francisco | 2 | All Maps","name_short":"sfo-2","host":"sfo-1.us.uncletopia.com","port":27025,"enabled":true,"region":"us-west","cc":"us","latitude":37.77397,"longitude":-122.4313,"reserved":0,"last_update":"0001-01-01T00:00:00Z","name_a2s":"Uncletopia | San Francisco | 2 | All Maps","protocol":17,"map":"koth_highpass","folder":"tf","game":"Team Fortress","app_id":440,"player_count":0,"max_players":24,"Bots":0,"server_type":"Dedicated","server_os":"Linux","password":true,"vac":true,"version":"7757534","steam_id":85568392924470000,"keywords":["cp","nocrits","nodmgspread","uncletopia"],"game_id":440,"stv_port":27026,"stv_name":"Uncletopia | San Francisco | 2 | All Maps | STV","players":null},{"server_id":19,"name":"Uncletopia | San Francisco | 3 | Stopwatch Beta","name_short":"sfo-3","host":"sfo-1.us.uncletopia.com","port":27035,"enabled":true,"region":"us-west","cc":"us","latitude":37.77397,"longitude":-122.4313,"reserved":0,"last_update":"0001-01-01T00:00:00Z","name_a2s":"Uncletopia | San Francisco | 3 | Stopwatch Beta","protocol":17,"map":"koth_lakeside_final","folder":"tf","game":"Team Fortress","app_id":440,"player_count":0,"max_players":24,"Bots":0,"server_type":"Dedicated","server_os":"Linux","password":true,"vac":true,"version":"7757534","steam_id":85568392924742824,"keywords":["cp","nocrits","nodmgspread","uncletopia"],"game_id":440,"stv_port":27036,"stv_name":"Uncletopia | San Francisco | 3 | Stopwatch Beta | STV","players":null},{"server_id":20,"name":"Uncletopia | San Francisco | 4 | Community","name_short":"sfo-4","host":"sfo-1.us.uncletopia.com","port":27045,"enabled":true,"region":"us-west","cc":"us","latitude":37.77397,"longitude":-122.4313,"reserved":0,"last_update":"0001-01-01T00:00:00Z","name_a2s":"Uncletopia | San Francisco | 4 | Community","protocol":17,"map":"cp_altitude","folder":"tf","game":"Team Fortress","app_id":440,"player_count":0,"max_players":24,"Bots":0,"server_type":"Dedicated","server_os":"Linux","password":true,"vac":true,"version":"7757534","steam_id":85568392924742826,"keywords":["cp","nocrits","nodmgspread","uncletopia"],"game_id":440,"stv_port":27046,"stv_name":"Uncletopia | San Francisco | 4 | Community | STV","players":null},{"server_id":141,"name":"Uncletopia | Sydney | 1 | All Maps","name_short":"syd-1","host":"syd-1.au.uncletopia.com","port":27015,"enabled":true,"region":"au","cc":"au","latitude":-33.865143,"longitude":151.2099,"reserved":0,"last_update":"0001-01-01T00:00:00Z","name_a2s":"Uncletopia | Sydney | 1 | All Maps","protocol":17,"map":"pl_upward","folder":"tf","game":"Team Fortress","app_id":440,"player_count":20,"max_players":24,"Bots":0,"server_type":"Dedicated","server_os":"Linux","password":true,"vac":true,"version":"7882260","steam_id":85568392924470001,"keywords":["nocrits","nodmgspread","payload","uncletopia"],"game_id":440,"stv_port":27016,"stv_name":"Uncletopia | Sydney | 1 | All Maps | STV","players":[{"user_id":290,"name":"weezer","steam_id":76561199439508788,"connected_time":5887000000000,"state":"active","ping":62},{"user_id":324,"name":"toblue","steam_id":76561198189137465,"connected_time":2278000000000,"state":"active","ping":77},{"user_id":317,"name":"bingus","steam_id":76561198110899890,"connected_time":3492000000000,"state":"active","ping":132},{"user_id":336,"name":"qhohh","steam_id":76561198042494076,"connected_time":993000000000,"state":"active","ping":35},{"user_id":333,"name":"SamK #AnnexTF2","steam_id":76561198149051619,"connected_time":1254000000000,"state":"active","ping":59},{"user_id":298,"name":"Squishy","steam_id":76561198985769205,"connected_time":5471000000000,"state":"active","ping":50},{"user_id":337,"name":"burfdae boi","steam_id":76561199000827969,"connected_time":827000000000,"state":"active","ping":34},{"user_id":283,"name":"Distilledrain41","steam_id":76561198272717119,"connected_time":6949000000000,"state":"active","ping":45},{"user_id":328,"name":"iSmile02","steam_id":76561198003851119,"connected_time":2011000000000,"state":"active","ping":51},{"user_id":344,"name":"Kenos234","steam_id":76561199183803664,"connected_time":41000000000,"state":"active","ping":177},{"user_id":341,"name":"R","steam_id":76561197996963023,"connected_time":469000000000,"state":"active","ping":60},{"user_id":332,"name":"Ganome Chilled","steam_id":76561198064898965,"connected_time":1810000000000,"state":"active","ping":70},{"user_id":321,"name":"Quatz","steam_id":76561198048810399,"connected_time":2346000000000,"state":"active","ping":60},{"user_id":309,"name":"doctor sex (she/her)","steam_id":76561199076015267,"connected_time":3940000000000,"state":"active","ping":109},{"user_id":308,"name":"ToxicImpulse","steam_id":76561198329937988,"connected_time":4188000000000,"state":"active","ping":75},{"user_id":323,"name":"BamBoozled","steam_id":76561199065491364,"connected_time":2288000000000,"state":"active","ping":69},{"user_id":232,"name":"Pompadouraus","steam_id":76561198327530525,"connected_time":11302000000000,"state":"active","ping":75},{"user_id":329,"name":"Jiffy360","steam_id":76561198149550772,"connected_time":1992000000000,"state":"active","ping":93},{"user_id":334,"name":"[FTW] RonnieD'","steam_id":76561197993957267,"connected_time":1234000000000,"state":"active","ping":46},{"user_id":343,"name":"Giant Rat","steam_id":76561198133242690,"connected_time":81000000000,"state":"active","ping":192}]},{"server_id":123,"name":"Uncletopia | Sydney | 2 | All Maps","name_short":"syd-2","host":"syd-1.au.uncletopia.com","port":27025,"enabled":true,"region":"au","cc":"au","latitude":-33.865143,"longitude":151.2099,"reserved":0,"last_update":"0001-01-01T00:00:00Z","name_a2s":"Uncletopia | Sydney | 2 | All Maps","protocol":17,"map":"pl_frontier_final","folder":"tf","game":"Team Fortress","app_id":440,"player_count":24,"max_players":24,"Bots":0,"server_type":"Dedicated","server_os":"Linux","password":true,"vac":true,"version":"7882260","steam_id":85568392924470002,"keywords":["nocrits","nodmgspread","payload","uncletopia"],"game_id":440,"stv_port":27026,"stv_name":"Uncletopia | Sydney | 2 | All Maps | STV","players":[{"user_id":171,"name":"whiteshaq","steam_id":76561198131988811,"connected_time":3083000000000,"state":"active","ping":47},{"user_id":192,"name":"Distracted Chibi","steam_id":76561198033546650,"connected_time":449000000000,"state":"active","ping":44},{"user_id":185,"name":"Infinite Realm of Incomprehensi","steam_id":76561199099744527,"connected_time":1821000000000,"state":"active","ping":47},{"user_id":176,"name":"River","steam_id":76561198075056237,"connected_time":2498000000000,"state":"active","ping":83},{"user_id":187,"name":"Gnat","steam_id":76561198109747863,"connected_time":1315000000000,"state":"active","ping":101},{"user_id":81,"name":"Jdn","steam_id":76561198293079232,"connected_time":8945000000000,"state":"active","ping":60},{"user_id":177,"name":"jump 8","steam_id":76561198048064049,"connected_time":2469000000000,"state":"active","ping":76},{"user_id":165,"name":"Leekduck","steam_id":76561198201978381,"connected_time":3127000000000,"state":"active","ping":71},{"user_id":191,"name":"Tanky","steam_id":76561198179309667,"connected_time":637000000000,"state":"active","ping":149},{"user_id":162,"name":"google search MONEY SEARCH","steam_id":76561198836003115,"connected_time":3706000000000,"state":"active","ping":63},{"user_id":193,"name":"Hawk","steam_id":76561198135164277,"connected_time":437000000000,"state":"active","ping":57},{"user_id":125,"name":"Kremmen","steam_id":76561198051368641,"connected_time":6402000000000,"state":"active","ping":70},{"user_id":184,"name":"Weak","steam_id":76561198161322716,"connected_time":2142000000000,"state":"active","ping":64},{"user_id":194,"name":"(ノಠ益ಠ)ノ","steam_id":76561198409853978,"connected_time":301000000000,"state":"active","ping":40},{"user_id":199,"name":"SkoKiE","steam_id":76561198283542986,"connected_time":136000000000,"state":"active","ping":65},{"user_id":200,"name":"tim88435","steam_id":76561198089653987,"connected_time":49000000000,"state":"active","ping":70},{"user_id":144,"name":"dumbvent","steam_id":76561198190062810,"connected_time":4901000000000,"state":"active","ping":66},{"user_id":178,"name":"skrag the gnoblar","steam_id":76561198063481761,"connected_time":2463000000000,"state":"active","ping":45},{"user_id":156,"name":"scrungo beepis","steam_id":76561198079351541,"connected_time":4108000000000,"state":"active","ping":45},{"user_id":148,"name":"the frail","steam_id":76561198025099660,"connected_time":4708000000000,"state":"active","ping":33},{"user_id":189,"name":"Smae ⎊ ⎊","steam_id":76561198161497327,"connected_time":1070000000000,"state":"active","ping":66},{"user_id":183,"name":"Frog Friend","steam_id":76561198054505772,"connected_time":2254000000000,"state":"active","ping":54},{"user_id":164,"name":"Overlold","steam_id":76561197978635495,"connected_time":3268000000000,"state":"active","ping":85},{"user_id":170,"name":"ZU TITAN REGIGIGAS ÜN ÜN ÜN","steam_id":76561198067978287,"connected_time":3093000000000,"state":"active","ping":97}]},{"server_id":395,"name":"Uncletopia | Sydney | 3 | All Maps","name_short":"syd-3","host":"syd-1.au.uncletopia.com","port":27035,"enabled":true,"region":"au","cc":"au","latitude":-33.865143,"longitude":151.2099,"reserved":0,"last_update":"0001-01-01T00:00:00Z","name_a2s":"Uncletopia | Sydney | 3 | All Maps","protocol":17,"map":"koth_cascade","folder":"tf","game":"Team Fortress","app_id":440,"player_count":0,"max_players":24,"Bots":0,"server_type":"Dedicated","server_os":"Linux","password":true,"vac":true,"version":"7882260","steam_id":85568392925194467,"keywords":["cp","nocrits","nodmgspread","uncletopia"],"game_id":440,"stv_port":27036,"stv_name":"Uncletopia | Sydney | 3 | All Maps | STV","players":null},{"server_id":396,"name":"Uncletopia | Sydney | 4 | All Maps","name_short":"syd-4","host":"syd-1.au.uncletopia.com","port":27045,"enabled":true,"region":"au","cc":"au","latitude":-33.865143,"longitude":151.2099,"reserved":0,"last_update":"0001-01-01T00:00:00Z","name_a2s":"Uncletopia | Sydney | 4 | All Maps","protocol":17,"map":"cp_dustbowl","folder":"tf","game":"Team Fortress","app_id":440,"player_count":0,"max_players":24,"Bots":0,"server_type":"Dedicated","server_os":"Linux","password":true,"vac":true,"version":"7882260","steam_id":85568392925397958,"keywords":["cp","nocrits","nodmgspread","uncletopia"],"game_id":440,"stv_port":27046,"stv_name":"Uncletopia | Sydney | 4 | All Maps | STV","players":null},{"server_id":58,"name":"Uncletopia | Sydney | 5 | Stopwatch Beta","name_short":"syd-5","host":"syd-1.au.uncletopia.com","port":27055,"enabled":true,"region":"au","cc":"au","latitude":-33.865143,"longitude":151.2099,"reserved":0,"last_update":"0001-01-01T00:00:00Z","name_a2s":"Uncletopia | Sydney | 5 | Stopwatch Beta","protocol":17,"map":"workshop/pl_barnblitz_pro7.ugc582280235","folder":"tf","game":"Team Fortress","app_id":440,"player_count":0,"max_players":24,"Bots":0,"server_type":"Dedicated","server_os":"Linux","password":true,"vac":true,"version":"7882260","steam_id":85568392925397959,"keywords":["nocrits","nodmgspread","payload","uncletopia"],"game_id":440,"stv_port":27056,"stv_name":"Uncletopia | Sydney | 5 | Stopwatch Beta | STV","players":null},{"server_id":59,"name":"Uncletopia | Sydney | 6 | Community","name_short":"syd-6","host":"syd-1.au.uncletopia.com","port":27065,"enabled":true,"region":"au","cc":"au","latitude":-33.865143,"longitude":151.2099,"reserved":0,"last_update":"0001-01-01T00:00:00Z","name_a2s":"Uncletopia | Sydney | 6 | Community","protocol":17,"map":"workshop/rd_asteroid_redux_b1.ugc2154902912","folder":"tf","game":"Team Fortress","app_id":440,"player_count":0,"max_players":24,"Bots":0,"server_type":"Dedicated","server_os":"Linux","password":true,"vac":true,"version":"7882260","steam_id":85568392925397960,"keywords":["beta","nocrits","nodmgspread","rd","uncletopia"],"game_id":440,"stv_port":27066,"stv_name":"Uncletopia | Sydney | 6 | Community | STV","players":null},{"server_id":49,"name":"Uncletopia | Warsaw | 1 | All Maps","name_short":"waw-1","host":"waw-1.pl.uncletopia.com","port":27015,"enabled":true,"region":"eu","cc":"pl","latitude":52.2297,"longitude":21.017532,"reserved":0,"last_update":"0001-01-01T00:00:00Z","name_a2s":"","protocol":0,"map":"","folder":"","game":"","app_id":0,"player_count":0,"max_players":0,"Bots":0,"server_type":"","server_os":"","password":false,"vac":false,"version":"","steam_id":0,"keywords":null,"game_id":0,"stv_port":0,"stv_name":"","players":null},{"server_id":50,"name":"Uncletopia | Warsaw | 2 | All Maps","name_short":"waw-2","host":"waw-1.pl.uncletopia.com","port":27025,"enabled":true,"region":"eu","cc":"pl","latitude":52.2297,"longitude":21.017532,"reserved":0,"last_update":"0001-01-01T00:00:00Z","name_a2s":"Uncletopia | Warsaw | 2 | All Maps","protocol":17,"map":"pl_swiftwater_final1","folder":"tf","game":"Team Fortress","app_id":440,"player_count":0,"max_players":24,"Bots":0,"server_type":"Dedicated","server_os":"Linux","password":true,"vac":true,"version":"7882260","steam_id":85568392925397851,"keywords":["nocrits","nodmgspread","payload","uncletopia"],"game_id":440,"stv_port":27026,"stv_name":"Uncletopia | Warsaw | 2 | All Maps | STV","players":null},{"server_id":51,"name":"Uncletopia | Warsaw | 3 | All Maps","name_short":"waw-3","host":"waw-1.pl.uncletopia.com","port":27035,"enabled":true,"region":"eu","cc":"pl","latitude":52.2297,"longitude":21.017532,"reserved":0,"last_update":"0001-01-01T00:00:00Z","name_a2s":"Uncletopia | Warsaw | 3 | All Maps","protocol":17,"map":"koth_viaduct","folder":"tf","game":"Team Fortress","app_id":440,"player_count":0,"max_players":24,"Bots":0,"server_type":"Dedicated","server_os":"Linux","password":true,"vac":true,"version":"7882260","steam_id":85568392925397852,"keywords":["cp","nocrits","nodmgspread","uncletopia"],"game_id":440,"stv_port":27036,"stv_name":"Uncletopia | Warsaw | 3 | All Maps | STV","players":null},{"server_id":52,"name":"Uncletopia | Warsaw | 4 | All Maps","name_short":"waw-4","host":"waw-1.pl.uncletopia.com","port":27045,"enabled":true,"region":"eu","cc":"pl","latitude":52.2297,"longitude":21.017532,"reserved":0,"last_update":"0001-01-01T00:00:00Z","name_a2s":"Uncletopia | Warsaw | 4 | All Maps","protocol":17,"map":"koth_highpass","folder":"tf","game":"Team Fortress","app_id":440,"player_count":0,"max_players":24,"Bots":0,"server_type":"Dedicated","server_os":"Linux","password":true,"vac":true,"version":"7882260","steam_id":85568392925397853,"keywords":["cp","nocrits","nodmgspread","uncletopia"],"game_id":440,"stv_port":27046,"stv_name":"Uncletopia | Warsaw | 4 | All Maps | STV","players":null},{"server_id":53,"name":"Uncletopia | Warsaw | 5 | Stopwatch Beta","name_short":"waw-5","host":"waw-1.pl.uncletopia.com","port":27055,"enabled":true,"region":"eu","cc":"pl","latitude":52.2297,"longitude":21.017532,"reserved":0,"last_update":"0001-01-01T00:00:00Z","name_a2s":"Uncletopia | Warsaw | 5 | Stopwatch Beta","protocol":17,"map":"cp_mountainlab","folder":"tf","game":"Team Fortress","app_id":440,"player_count":0,"max_players":24,"Bots":0,"server_type":"Dedicated","server_os":"Linux","password":true,"vac":true,"version":"7882260","steam_id":85568392925397854,"keywords":["cp","nocrits","nodmgspread","uncletopia"],"game_id":440,"stv_port":27056,"stv_name":"Uncletopia | Warsaw | 5 | Stopwatch Beta | STV","players":null},{"server_id":54,"name":"Uncletopia | Warsaw | 6 | Community","name_short":"waw-6","host":"waw-1.pl.uncletopia.com","port":27065,"enabled":true,"region":"eu","cc":"pl","latitude":52.2297,"longitude":21.017532,"reserved":0,"last_update":"0001-01-01T00:00:00Z","name_a2s":"Uncletopia | Warsaw | 6 | Community","protocol":17,"map":"koth_viaduct","folder":"tf","game":"Team Fortress","app_id":440,"player_count":0,"max_players":24,"Bots":0,"server_type":"Dedicated","server_os":"Linux","password":true,"vac":true,"version":"7882260","steam_id":85568392925397856,"keywords":["cp","nocrits","nodmgspread","uncletopia"],"game_id":440,"stv_port":27066,"stv_name":"Uncletopia | Warsaw | 6 | Community | STV","players":null}]}