{"status":true,"message":"","result":[{"server_id":9,"name":"Uncletopia | Atlanta | 1 | All Maps","name_short":"atl-1","host":"atl-1.us.uncletopia.com","port":27015,"enabled":true,"region":"us-east","cc":"us","latitude":33.753746,"longitude":-84.38633,"reserved":0,"last_update":"0001-01-01T00:00:00Z","name_a2s":"Uncletopia | Atlanta | 1 | All Maps","protocol":17,"map":"ctf_turbine","folder":"tf","game":"Team Fortress","app_id":440,"player_count":24,"max_players":24,"Bots":0,"server_type":"Dedicated","server_os":"Linux","password":true,"vac":true,"version":"7882260","steam_id":85568392924469982,"keywords":["ctf","nocrits","nodmgspread","uncletopia"],"game_id":440,"stv_port":27016,"stv_name":"Uncletopia | Atlanta | 1 | All Maps | STV","players":[{"user_id":445,"name":"Bag","steam_id":76561198012395490,"connected_time":988000000000,"state":"active","ping":58},{"user_id":431,"name":"robokitten55","steam_id":76561199153659003,"connected_time":1611000000000,"state":"active","ping":76},{"user_id":392,"name":"1 2fort sized Chihuahua","steam_id":76561198130772096,"connected_time":2384000000000,"state":"active","ping":54},{"user_id":432,"name":"Rex","steam_id":76561198138365053,"connected_time":1581000000000,"state":"active","ping":108},{"user_id":430,"name":"inax","steam_id":76561198398677744,"connected_time":1672000000000,"state":"active","ping":105},{"user_id":238,"name":"joe","steam_id":76561198045781320,"connected_time":8516000000000,"state":"active","ping":62},{"user_id":443,"name":"Onyx","steam_id":76561198275349640,"connected_time":1109000000000,"state":"active","ping":132},{"user_id":460,"name":"Non-Euclidian Beatdown","steam_id":76561199443302709,"connected_time":155000000000,"state":"active","ping":84},{"user_id":458,"name":"Loashes","steam_id":76561198119608299,"connected_time":277000000000,"state":"active","ping":75},{"user_id":459,"name":"bruhmajorL69","steam_id":76561198870063561,"connected_time":266000000000,"state":"active","ping":74},{"user_id":461,"name":"malarkeyman","steam_id":76561198844473584,"connected_time":137000000000,"state":"active","ping":80},{"user_id":457,"name":"Bones Jones","steam_id":76561198077257915,"connected_time":388000000000,"state":"active","ping":76},{"user_id":388,"name":"baconandx","steam_id":76561198355074004,"connected_time":2452000000000,"state":"active","ping":84},{"user_id":451,"name":"The Juicer","steam_id":76561198027247542,"connected_time":497000000000,"state":"active","ping":81},{"user_id":453,"name":"Shwa","steam_id":76561198122613101,"connected_time":458000000000,"state":"active","ping":76},{"user_id":450,"name":"xSloshua","steam_id":76561198268409369,"connected_time":520000000000,"state":"active","ping":67},{"user_id":439,"name":"chubbbo","steam_id":76561198943598378,"connected_time":1471000000000,"state":"active","ping":37},{"user_id":455,"name":"AllPantsNoSkill","steam_id":76561198049655464,"connected_time":448000000000,"state":"active","ping":100},{"user_id":448,"name":"GibbusGod","steam_id":76561199232436690,"connected_time":694000000000,"state":"active","ping":54},{"user_id":444,"name":"SLOPMASTER_69","steam_id":76561198080130096,"connected_time":1074000000000,"state":"active","ping":78},{"user_id":420,"name":"Animal Slices","steam_id":76561198137545511,"connected_time":1844000000000,"state":"active","ping":74},{"user_id":446,"name":"system + Cave","steam_id":76561199014848255,"connected_time":837000000000,"state":"active","ping":80},{"user_id":438,"name":"Master Of Whales","steam_id":76561198349104889,"connected_time":1499000000000,"state":"active","ping":121},{"user_id":288,"name":"Waffle Wannabe","steam_id":76561198064510650,"connected_time":4195000000000,"state":"active","ping":60}]},{"server_id":104,"name":"Uncletopia | Atlanta | 2 | All Maps","name_short":"atl-2","host":"atl-1.us.uncletopia.com","port":27025,"enabled":true,"region":"us-east","cc":"us","latitude":33.753746,"longitude":-84.38633,"reserved":0,"last_update":"0001-01-01T00:00:00Z","name_a2s":"Uncletopia | Atlanta | 2 | All Maps","protocol":17,"map":"pl_barnblitz","folder":"tf","game":"Team Fortress","app_id":440,"player_count":24,"max_players":24,"Bots":0,"server_type":"Dedicated","server_os":"Linux","password":true,"vac":true,"version":"7882260","steam_id":85568392924469983,"keywords":["nocrits","nodmgspread","payload","uncletopia"],"game_id":440,"stv_port":27026,"stv_name":"Uncletopia | Atlanta | 2 | All Maps | STV","players":[{"user_id":235,"name":"ƒ†1 ‚ô¶ Synth","steam_id":76561198058660228,"connected_time":2813000000000,"state":"active","ping":44},{"user_id":236,"name":"RoboWarrior0410a","steam_id":76561199106531261,"connected_time":2797000000000,"state":"active","ping":54},{"user_id":270,"name":"troll","steam_id":76561198040890252,"connected_time":1267000000000,"state":"active","ping":54},{"user_id":247,"name":"Peter McKay","steam_id":76561198842221188,"connected_time":2573000000000,"state":"active","ping":76},{"user_id":269,"name":"Weerk","steam_id":76561199209543551,"connected_time":1353000000000,"state":"active","ping":83},{"user_id":259,"name":"freak ya nature","steam_id":76561198310502474,"connected_time":1803000000000,"state":"active","ping":88},{"user_id":239,"name":"Wang of Wall St","steam_id":76561198047460598,"connected_time":2769000000000,"state":"active","ping":82},{"user_id":165,"name":"Notsocreative","steam_id":76561198236372202,"connected_time":6761000000000,"state":"active","ping":81},{"user_id":254,"name":"Ypuoi","steam_id":76561198170203261,"connected_time":2006000000000,"state":"active","ping":122},{"user_id":273,"name":"drevott74","steam_id":76561199262592779,"connected_time":477000000000,"state":"active","ping":107},{"user_id":272,"name":"LeadHickory","steam_id":76561198219756521,"connected_time":507000000000,"state":"active","ping":99},{"user_id":274,"name":"aiming with drawing tablet","steam_id":76561198397662124,"connected_time":312000000000,"state":"active","ping":92},{"user_id":251,"name":"Professionalidiot","steam_id":76561198994182750,"connected_time":2347000000000,"state":"active","ping":133},{"user_id":249,"name":"mork","steam_id":76561198279396425,"connected_time":2526000000000,"state":"active","ping":66},{"user_id":209,"name":"Sysadmin Stress Release","steam_id":76561197997326384,"connected_time":4572000000000,"state":"active","ping":65},{"user_id":242,"name":"OwlNoir","steam_id":76561198331895751,"connected_time":2709000000000,"state":"active","ping":83},{"user_id":271,"name":"FenderBender","steam_id":76561198106379456,"connected_time":892000000000,"state":"active","ping":114},{"user_id":261,"name":"Shattered Glass","steam_id":76561198116835391,"connected_time":1776000000000,"state":"active","ping":89},{"user_id":268,"name":"Hope","steam_id":76561199201900779,"connected_time":1682000000000,"state":"active","ping":90},{"user_id":252,"name":"George Bossington","steam_id":76561197993127608,"connected_time":2338000000000,"state":"active","ping":84},{"user_id":264,"name":"QuesaDiaz","steam_id":76561198355667850,"connected_time":1729000000000,"state":"active","ping":104},{"user_id":265,"name":"Tsar of the World","steam_id":76561198276730011,"connected_time":1728000000000,"state":"active","ping":63},{"user_id":224,"name":"Ezakt","steam_id":76561199099132304,"connected_time":4187000000000,"state":"active","ping":62},{"user_id":253,"name":"Detective KOnan","steam_id":76561198046702519,"connected_time":2211000000000,"state":"active","ping":62}]},{"server_id":400,"name":"Uncletopia | Atlanta | 3 | Community","name_short":"atl-3","host":"atl-1.us.uncletopia.com","port":27035,"enabled":true,"region":"us-east","cc":"us","latitude":33.753746,"longitude":-84.38633,"reserved":0,"last_update":"0001-01-01T00:00:00Z","name_a2s":"Uncletopia | Atlanta | 3 | Community","protocol":17,"map":"workshop/cp_villa_b19.ugc2113052569","folder":"tf","game":"Team Fortress","app_id":440,"player_count":6,"max_players":24,"Bots":0,"server_type":"Dedicated","server_os":"Linux","password":true,"vac":true,"version":"7882260","steam_id":85568392924515187,"keywords":["cp","nocrits","nodmgspread","uncletopia"],"game_id":440,"stv_port":27036,"stv_name":"Uncletopia | Atlanta | 3 | Community | STV","players":[{"user_id":25,"name":"Sgt. Satire","steam_id":76561198104193483,"connected_time":191000000000,"state":"active","ping":114},{"user_id":26,"name":"Ghozerono","steam_id":76561198056433718,"connected_time":189000000000,"state":"active","ping":55},{"user_id":27,"name":"Kxiled_2","steam_id":76561199049123448,"connected_time":156000000000,"state":"active","ping":70},{"user_id":29,"name":"Benis Gonzalez","steam_id":76561198799391259,"connected_time":109000000000,"state":"active","ping":112},{"user_id":30,"name":"epicgameslauncherplaer878","steam_id":76561198360279519,"connected_time":107000000000,"state":"active","ping":117},{"user_id":31,"name":"PoggedGlobe1431","steam_id":76561199445351905,"connected_time":20000000000,"state":"spawning","ping":750}]},{"server_id":401,"name":"Uncletopia | Atlanta | 4 | No Payload","name_short":"atl-4","host":"atl-1.us.uncletopia.com","port":27045,"enabled":true,"region":"us-east","cc":"us","latitude":33.753746,"longitude":-84.38633,"reserved":0,"last_update":"0001-01-01T00:00:00Z","name_a2s":"","protocol":0,"map":"","folder":"","game":"","app_id":0,"player_count":0,"max_players":0,"Bots":0,"server_type":"","server_os":"","password":false,"vac":false,"version":"","steam_id":0,"keywords":null,"game_id":0,"stv_port":0,"stv_name":"","players":null},{"server_id":2,"name":"Uncletopia | Chicago | 1 | All Maps","name_short":"chi-1","host":"chi-1.us.uncletopia.com","port":27015,"enabled":true,"region":"us-central","cc":"us","latitude":41.881832,"longitude":-87.62318,"reserved":0,"last_update":"0001-01-01T00:00:00Z","name_a2s":"Uncletopia | Chicago | 1 | All Maps","protocol":17,"map":"koth_lakeside_final","folder":"tf","game":"Team Fortress","app_id":440,"player_count":24,"max_players":24,"Bots":0,"server_type":"Dedicated","server_os":"Linux","password":true,"vac":true,"version":"7882260","steam_id":85568392924469984,"keywords":["cp","nocrits","nodmgspread","uncletopia"],"game_id":440,"stv_port":27016,"stv_name":"Uncletopia | Chicago | 1 | All Maps | STV","players":[{"user_id":645,"name":"Knavish","steam_id":76561198073434372,"connected_time":737000000000,"state":"active","ping":93},{"user_id":643,"name":"Greg Boberton 2012","steam_id":76561198983566026,"connected_time":777000000000,"state":"active","ping":60},{"user_id":559,"name":"dabob","steam_id":76561198133102865,"connected_time":2314000000000,"state":"active","ping":65},{"user_id":561,"name":"(WR) Sex Solo Speedrun[Expert]","steam_id":76561198103496593,"connected_time":2305000000000,"state":"active","ping":67},{"user_id":678,"name":"Tyco","steam_id":76561197978414167,"connected_time":187000000000,"state":"active","ping":74},{"user_id":557,"name":"creeeeeee","steam_id":76561198392539722,"connected_time":2372000000000,"state":"active","ping":83},{"user_id":550,"name":"Maverick","steam_id":76561198322829814,"connected_time":2867000000000,"state":"active","ping":80},{"user_id":674,"name":"gideon nav my beloved","steam_id":76561198259092181,"connected_time":480000000000,"state":"active","ping":65},{"user_id":529,"name":"MellowBoy-2354","steam_id":76561199080630632,"connected_time":5125000000000,"state":"active","ping":91},{"user_id":672,"name":"God's Drunkest Driver","steam_id":76561198165175875,"connected_time":502000000000,"state":"active","ping":49},{"user_id":556,"name":"blob","steam_id":76561198122375328,"connected_time":2451000000000,"state":"active","ping":57},{"user_id":569,"name":"wf modus","steam_id":76561197984579630,"connected_time":2100000000000,"state":"active","ping":103},{"user_id":640,"name":"Evolution","steam_id":76561198144767370,"connected_time":792000000000,"state":"active","ping":53},{"user_id":642,"name":"Icaras","steam_id":76561198416724843,"connected_time":782000000000,"state":"active","ping":134},{"user_id":677,"name":"shitting","steam_id":76561198098781227,"connected_time":356000000000,"state":"active","ping":90},{"user_id":564,"name":"jesus (steezus) christ","steam_id":76561198079488962,"connected_time":2300000000000,"state":"active","ping":94},{"user_id":644,"name":"\u003cS\u003e","steam_id":76561198050136796,"connected_time":771000000000,"state":"active","ping":86},{"user_id":647,"name":"DootDoot!","steam_id":76561198108054777,"connected_time":714000000000,"state":"active","ping":74},{"user_id":353,"name":"Ras","steam_id":76561198123546775,"connected_time":11540000000000,"state":"active","ping":77},{"user_id":536,"name":"Adam (Cursed Confetti Creature)","steam_id":76561198317690197,"connected_time":3926000000000,"state":"active","ping":45},{"user_id":554,"name":"Lia_Rein","steam_id":76561198151569597,"connected_time":2710000000000,"state":"active","ping":146},{"user_id":671,"name":"freyja","steam_id":76561198249206656,"connected_time":511000000000,"state":"active","ping":69},{"user_id":543,"name":"AYAYA!!!","steam_id":76561198992102180,"connected_time":3360000000000,"state":"active","ping":52},{"user_id":606,"name":"useless","steam_id":76561198277979851,"connected_time":1278000000000,"state":"active","ping":91}]},{"server_id":106,"name":"Uncletopia | Chicago | 2 | All Maps","name_short":"chi-2","host":"chi-1.us.uncletopia.com","port":27025,"enabled":true,"region":"us-central","cc":"us","latitude":41.881832,"longitude":-87.62318,"reserved":0,"last_update":"0001-01-01T00:00:00Z","name_a2s":"Uncletopia | Chicago | 2 | All Maps","protocol":17,"map":"pl_snowycoast","folder":"tf","game":"Team Fortress","app_id":440,"player_count":25,"max_players":24,"Bots":0,"server_type":"Dedicated","server_os":"Linux","password":true,"vac":true,"version":"7882260","steam_id":85568392924469985,"keywords":["nocrits","nodmgspread","payload","uncletopia"],"game_id":440,"stv_port":27026,"stv_name":"Uncletopia | Chicago | 2 | All Maps | STV","players":[{"user_id":433,"name":"TruffleShuffl","steam_id":76561198833742625,"connected_time":970000000000,"state":"active","ping":72},{"user_id":427,"name":"Ballsack Shaver","steam_id":76561199011739378,"connected_time":1355000000000,"state":"active","ping":69},{"user_id":425,"name":"PotatoTheCarrot","steam_id":76561198014089484,"connected_time":1388000000000,"state":"active","ping":62},{"user_id":430,"name":"Jfrvl Gvl","steam_id":76561199013465852,"connected_time":1132000000000,"state":"active","ping":65},{"user_id":436,"name":"peakmeta","steam_id":76561199053600691,"connected_time":460000000000,"state":"active","ping":65},{"user_id":407,"name":"Awesome_Alec1","steam_id":76561198071026552,"connected_time":2679000000000,"state":"active","ping":86},{"user_id":389,"name":"peep! qki","steam_id":76561198056198168,"connected_time":3486000000000,"state":"active","ping":60},{"user_id":409,"name":"Elevator","steam_id":76561198974286387,"connected_time":2660000000000,"state":"active","ping":70},{"user_id":435,"name":"e7","steam_id":76561198154265084,"connected_time":675000000000,"state":"active","ping":90},{"user_id":406,"name":"Van","steam_id":76561198073518712,"connected_time":2717000000000,"state":"active","ping":61},{"user_id":408,"name":"lexi","steam_id":76561198176299759,"connected_time":2674000000000,"state":"active","ping":82},{"user_id":394,"name":"richarven","steam_id":76561198189429665,"connected_time":3351000000000,"state":"active","ping":75},{"user_id":419,"name":"put my hand in the cash registe","steam_id":76561198062991744,"connected_time":2126000000000,"state":"active","ping":61},{"user_id":438,"name":"gravid baby","steam_id":76561198318646867,"connected_time":243000000000,"state":"active","ping":61},{"user_id":439,"name":"Dzhoshua","steam_id":76561198071915251,"connected_time":185000000000,"state":"active","ping":70},{"user_id":432,"name":"Rick Assley","steam_id":76561198365019199,"connected_time":1109000000000,"state":"active","ping":66},{"user_id":426,"name":"friendly bird","steam_id":76561199091130683,"connected_time":1373000000000,"state":"active","ping":87},{"user_id":422,"name":"YesMargaret","steam_id":76561198127971751,"connected_time":1916000000000,"state":"active","ping":66},{"user_id":415,"name":"0","steam_id":76561198046055673,"connected_time":2641000000000,"state":"active","ping":75},{"user_id":414,"name":"Toasted","steam_id":76561198981232201,"connected_time":2644000000000,"state":"active","ping":73},{"user_id":416,"name":"Clit Connoisseur","steam_id":76561198166880794,"connected_time":2637000000000,"state":"active","ping":64},{"user_id":424,"name":"exile","steam_id":76561198047813960,"connected_time":1534000000000,"state":"active","ping":91},{"user_id":437,"name":"H C N","steam_id":76561198106290021,"connected_time":344000000000,"state":"active","ping":71},{"user_id":434,"name":"FiddyFoMike","steam_id":76561198057072581,"connected_time":921000000000,"state":"active","ping":94},{"user_id":440,"name":"Trevor","steam_id":76561198127387322,"connected_time":16000000000,"state":"spawning","ping":190}]},{"server_id":402,"name":"Uncletopia | Chicago | 3 | All Maps","name_short":"chi-3","host":"chi-1.us.uncletopia.com","port":27035,"enabled":true,"region":"us-central","cc":"us","latitude":41.881832,"longitude":-87.62318,"reserved":0,"last_update":"0001-01-01T00:00:00Z","name_a2s":"Uncletopia | Chicago | 3 | All Maps","protocol":17,"map":"pl_frontier_final","folder":"tf","game":"Team Fortress","app_id":440,"player_count":24,"max_players":24,"Bots":0,"server_type":"Dedicated","server_os":"Linux","password":true,"vac":true,"version":"7882260","steam_id":85568392924515191,"keywords":["nocrits","nodmgspread","payload","uncletopia"],"game_id":440,"stv_port":27036,"stv_name":"Uncletopia | Chicago | 3 | All Maps | STV","players":[{"user_id":546,"name":"6kre_1t","steam_id":76561198106157810,"connected_time":1251000000000,"state":"active","ping":60},{"user_id":527,"name":"Sigiferd","steam_id":76561198148788110,"connected_time":2476000000000,"state":"active","ping":121},{"user_id":517,"name":"Roy","steam_id":76561198069735882,"connected_time":3344000000000,"state":"active","ping":71},{"user_id":530,"name":"CrunchyHemorrhoids","steam_id":76561198868849673,"connected_time":2305000000000,"state":"active","ping":83},{"user_id":547,"name":"Fredrick","steam_id":76561197981419964,"connected_time":1240000000000,"state":"active","ping":68},{"user_id":537,"name":"send dudes","steam_id":76561198084277762,"connected_time":1927000000000,"state":"active","ping":53},{"user_id":566,"name":"TJThomas","steam_id":76561198038292405,"connected_time":276000000000,"state":"active","ping":63},{"user_id":438,"name":"Menacing Pile of Frogs","steam_id":76561198360134800,"connected_time":8122000000000,"state":"active","ping":72},{"user_id":484,"name":"Ringo x Seiran","steam_id":76561198357437908,"connected_time":5083000000000,"state":"active","ping":61},{"user_id":548,"name":"uhooter","steam_id":76561198007829078,"connected_time":1231000000000,"state":"active","ping":48},{"user_id":549,"name":"Foreskin Reattachment service","steam_id":76561198060342804,"connected_time":1213000000000,"state":"active","ping":78},{"user_id":563,"name":"(no monitor) (no tongue) ayylie","steam_id":76561198042127970,"connected_time":525000000000,"state":"active","ping":77},{"user_id":562,"name":"Mehman","steam_id":76561199020244051,"connected_time":584000000000,"state":"active","ping":101},{"user_id":556,"name":"lemon","steam_id":76561198282764599,"connected_time":1122000000000,"state":"active","ping":45},{"user_id":561,"name":"minecraft","steam_id":76561198104345201,"connected_time":658000000000,"state":"active","ping":81},{"user_id":542,"name":"jessicamustdie \u003c3","steam_id":76561198045230921,"connected_time":1593000000000,"state":"active","ping":53},{"user_id":564,"name":"Zionight","steam_id":76561199453431468,"connected_time":423000000000,"state":"active","ping":65},{"user_id":544,"name":"my mom","steam_id":76561199225201569,"connected_time":1564000000000,"state":"active","ping":77},{"user_id":560,"name":"Quibbli","steam_id":76561199214866732,"connected_time":715000000000,"state":"active","ping":70},{"user_id":565,"name":"Strangelove","steam_id":76561198353773611,"connected_time":392000000000,"state":"active","ping":86},{"user_id":554,"name":"Elora","steam_id":76561198040510572,"connected_time":1160000000000,"state":"active","ping":135},{"user_id":555,"name":"OneManEnsemble","steam_id":76561198200890163,"connected_time":1151000000000,"state":"active","ping":76},{"user_id":533,"name":"Bee","steam_id":76561198074681324,"connected_time":2054000000000,"state":"active","ping":61},{"user_id":526,"name":"Tick","steam_id":76561198184161214,"connected_time":2609000000000,"state":"active","ping":46}]},{"server_id":403,"name":"Uncletopia | Chicago | 4 | All Maps","name_short":"chi-4","host":"chi-1.us.uncletopia.com","port":27045,"enabled":true,"region":"us-central","cc":"us","latitude":41.881832,"longitude":-87.62318,"reserved":0,"last_update":"0001-01-01T00:00:00Z","name_a2s":"Uncletopia | Chicago | 4 | All Maps","protocol":17,"map":"pl_enclosure_final","folder":"tf","game":"Team Fortress","app_id":440,"player_count":21,"max_players":24,"Bots":0,"server_type":"Dedicated","server_os":"Linux","password":true,"vac":true,"version":"7882260","steam_id":85568392924515193,"keywords":["nocrits","nodmgspread","payload","uncletopia"],"game_id":440,"stv_port":27046,"stv_name":"Uncletopia | Chicago | 4 | All Maps | STV","players":[{"user_id":123,"name":"StevenSpectacle","steam_id":76561198070587773,"connected_time":34000000000,"state":"active","ping":62},{"user_id":76,"name":"Iron Argus","steam_id":76561198181088245,"connected_time":3204000000000,"state":"active","ping":71},{"user_id":94,"name":"Tenerance Love","steam_id":76561199132268907,"connected_time":2076000000000,"state":"active","ping":76},{"user_id":111,"name":"Sexual Butt","steam_id":76561198102241399,"connected_time":808000000000,"state":"active","ping":63},{"user_id":108,"name":"Kronk","steam_id":76561198063092125,"connected_time":1189000000000,"state":"active","ping":74},{"user_id":109,"name":"NUKE beef.","steam_id":76561198326987939,"connected_time":1105000000000,"state":"active","ping":69},{"user_id":97,"name":"emily","steam_id":76561198051872256,"connected_time":2048000000000,"state":"active","ping":57},{"user_id":98,"name":"bophadese (platos cousin)","steam_id":76561198063305359,"connected_time":2036000000000,"state":"active","ping":68},{"user_id":110,"name":"[ZF] Trollzord776","steam_id":76561198071038389,"connected_time":854000000000,"state":"active","ping":76},{"user_id":113,"name":"Fish Lambert","steam_id":76561198098279668,"connected_time":768000000000,"state":"active","ping":86},{"user_id":65,"name":"Viennetta","steam_id":76561198044088335,"connected_time":3982000000000,"state":"active","ping":75},{"user_id":100,"name":"Testiclees Peesaschmidt","steam_id":76561198050582941,"connected_time":2022000000000,"state":"active","ping":57},{"user_id":120,"name":"Waddlehi","steam_id":76561198072553840,"connected_time":228000000000,"state":"active","ping":57},{"user_id":101,"name":"Stryder","steam_id":76561199387418697,"connected_time":2020000000000,"state":"active","ping":91},{"user_id":80,"name":"Aeonspassed","steam_id":76561198014016451,"connected_time":2937000000000,"state":"active","ping":53},{"user_id":115,"name":"Peri","steam_id":76561198255311543,"connected_time":614000000000,"state":"active","ping":75},{"user_id":119,"name":"noobscrub","steam_id":76561198072500359,"connected_time":234000000000,"state":"active","ping":58},{"user_id":66,"name":"thai","steam_id":76561198052462287,"connected_time":3976000000000,"state":"active","ping":90},{"user_id":118,"name":"Derplish","steam_id":76561198831714443,"connected_time":384000000000,"state":"active","ping":85},{"user_id":122,"name":"Eve","steam_id":76561198052472822,"connected_time":150000000000,"state":"active","ping":67},{"user_id":51,"name":"MAXIMUM OVERDRIVE","steam_id":76561198113992547,"connected_time":4714000000000,"state":"active","ping":80}]},{"server_id":36,"name":"Uncletopia | Chicago | 5 | All Maps","name_short":"chi-5","host":"chi-2.us.uncletopia.com","port":27015,"enabled":true,"region":"us-central","cc":"us","latitude":41.881832,"longitude":-87.62318,"reserved":0,"last_update":"0001-01-01T00:00:00Z","name_a2s":"Uncletopia | Chicago | 5 | All Maps","protocol":17,"map":"pl_pier","folder":"tf","game":"Team Fortress","app_id":440,"player_count":22,"max_players":24,"Bots":0,"server_type":"Dedicated","server_os":"Linux","password":true,"vac":true,"version":"7882260","steam_id":85568392924866362,"keywords":["nocrits","nodmgspread","payload","uncletopia"],"game_id":440,"stv_port":27016,"stv_name":"Uncletopia | Chicago | 5 | All Maps | STV","players":[{"user_id":47,"name":"bug o1","steam_id":76561198126386686,"connected_time":2639000000000,"state":"active","ping":51},{"user_id":18,"name":"SunNc","steam_id":76561198097711843,"connected_time":3694000000000,"state":"active","ping":118},{"user_id":49,"name":"MrVegasAguitar","steam_id":76561198084466946,"connected_time":2517000000000,"state":"active","ping":73},{"user_id":75,"name":"_normal","steam_id":76561198338505734,"connected_time":31000000000,"state":"active","ping":52},{"user_id":79,"name":"Neacrock","steam_id":76561199178338856,"connected_time":12000000000,"state":"spawning","ping":52},{"user_id":76,"name":"Dev","steam_id":76561198388276870,"connected_time":31000000000,"state":"active","ping":90},{"user_id":20,"name":"CareFree Brie","steam_id":76561198868697407,"connected_time":3622000000000,"state":"active","ping":112},{"user_id":72,"name":"Shady Businessman","steam_id":76561198143855968,"connected_time":201000000000,"state":"spawning","ping":392},{"user_id":22,"name":"Cadet","steam_id":76561198068141943,"connected_time":3464000000000,"state":"active","ping":67},{"user_id":24,"name":"maze","steam_id":76561198068443860,"connected_time":3404000000000,"state":"active","ping":104},{"user_id":37,"name":"Girl [Big Gock Edition]","steam_id":76561198276385778,"connected_time":2963000000000,"state":"active","ping":98},{"user_id":63,"name":"GoofyAhGamingGuy","steam_id":76561199331315881,"connected_time":1490000000000,"state":"spawning","ping":99},{"user_id":74,"name":"‚ô• kiss me! ‚ô•","steam_id":76561198014557455,"connected_time":49000000000,"state":"active","ping":63},{"user_id":68,"name":"smellyloser86","steam_id":76561199198703435,"connected_time":1094000000000,"state":"spawning","ping":60},{"user_id":54,"name":"haxxorman","steam_id":76561199155156400,"connected_time":1887000000000,"state":"active","ping":67},{"user_id":73,"name":"b√ºddeh","steam_id":76561198070735936,"connected_time":61000000000,"state":"active","ping":52},{"user_id":56,"name":"uberslak","steam_id":76561198064715241,"connected_time":1863000000000,"state":"active","ping":113},{"user_id":41,"name":"Anti-Drip-Hazard","steam_id":76561199038566105,"connected_time":2890000000000,"state":"active","ping":120},{"user_id":77,"name":"SirDigbyChickenCaesar","steam_id":76561197998612788,"connected_time":20000000000,"state":"active","ping":53},{"user_id":69,"name":"Skele Ton of Fun","steam_id":76561198154574280,"connected_time":1073000000000,"state":"active","ping":67},{"user_id":70,"name":"Ginger Jesus","steam_id":76561198052386458,"connected_time":990000000000,"state":"active","ping":77},{"user_id":71,"name":"KillerBiller69","steam_id":76561198048912756,"connected_time":989000000000,"state":"spawning","ping":95}]},{"server_id":37,"name":"Uncletopia | Chicago | 6 | All Maps","name_short":"chi-6","host":"chi-2.us.uncletopia.com","port":27025,"enabled":true,"region":"us-central","cc":"us","latitude":41.881832,"longitude":-87.62318,"reserved":0,"last_update":"0001-01-01T00:00:00Z","name_a2s":"Uncletopia | Chicago | 6 | All Maps","protocol":17,"map":"cp_dustbowl","folder":"tf","game":"Team Fortress","app_id":440,"player_count":24,"max_players":24,"Bots":0,"server_type":"Dedicated","server_os":"Linux","password":true,"vac":true,"version":"7882260","steam_id":85568392924866363,"keywords":["cp","nocrits","nodmgspread","uncletopia"],"game_id":440,"stv_port":27026,"stv_name":"Uncletopia | Chicago | 6 | All Maps | STV","players":[{"user_id":558,"name":"durag","steam_id":76561198119787959,"connected_time":961000000000,"state":"active","ping":109},{"user_id":511,"name":"Argo","steam_id":76561198353725622,"connected_time":4276000000000,"state":"active","ping":77},{"user_id":578,"name":"Glad","steam_id":76561199388372220,"connected_time":77000000000,"state":"active","ping":69},{"user_id":559,"name":"BagelsAreDope","steam_id":76561198288641740,"connected_time":954000000000,"state":"active","ping":92},{"user_id":488,"name":"Quebec","steam_id":76561198865760503,"connected_time":6459000000000,"state":"active","ping":70},{"user_id":553,"name":"Alfonso Molestro","steam_id":76561197998677099,"connected_time":1351000000000,"state":"active","ping":75},{"user_id":533,"name":"Cole Boye","steam_id":76561198282449106,"connected_time":3333000000000,"state":"active","ping":63},{"user_id":551,"name":"Michaelpc1","steam_id":76561198088365519,"connected_time":2019000000000,"state":"active","ping":75},{"user_id":555,"name":"BooceMaster","steam_id":76561198148520318,"connected_time":1152000000000,"state":"active","ping":69},{"user_id":560,"name":"dj magdogrozen","steam_id":76561198984131011,"connected_time":941000000000,"state":"active","ping":57},{"user_id":576,"name":"Com1Cozy","steam_id":76561198092190117,"connected_time":401000000000,"state":"active","ping":115},{"user_id":574,"name":"ZofoJackson","steam_id":76561197998366861,"connected_time":622000000000,"state":"active","ping":60},{"user_id":579,"name":"BigNugs","steam_id":76561198056402610,"connected_time":27000000000,"state":"active","ping":126},{"user_id":572,"name":"7","steam_id":76561198418622751,"connected_time":698000000000,"state":"active","ping":55},{"user_id":539,"name":"TheXenoKing","steam_id":76561198127424141,"connected_time":2971000000000,"state":"active","ping":100},{"user_id":573,"name":"LV VIK","steam_id":76561198075168633,"connected_time":649000000000,"state":"active","ping":71},{"user_id":566,"name":"Chris P. Bacon","steam_id":76561198000851038,"connected_time":799000000000,"state":"active","ping":82},{"user_id":567,"name":"Goomby","steam_id":76561198079416561,"connected_time":798000000000,"state":"active","ping":112},{"user_id":549,"name":"Mecha","steam_id":76561198014927379,"connected_time":2046000000000,"state":"active","ping":74},{"user_id":569,"name":"bean goblin #savetf2","steam_id":76561199185148234,"connected_time":779000000000,"state":"active","ping":119},{"user_id":544,"name":"bubbles","steam_id":76561198974276335,"connected_time":2343000000000,"state":"active","ping":58},{"user_id":550,"name":"jpuzza","steam_id":76561198035535731,"connected_time":2042000000000,"state":"active","ping":70},{"user_id":575,"name":"T9 Raincool","steam_id":76561198042953645,"connected_time":609000000000,"state":"active","ping":74},{"user_id":570,"name":"ElJuren","steam_id":76561199204654872,"connected_time":761000000000,"state":"active","ping":98}]},{"server_id":38,"name":"Uncletopia | Chicago | 7 | Stopwatch Beta","name_short":"chi-7","host":"chi-2.us.uncletopia.com","port":27035,"enabled":true,"region":"us-central","cc":"us","latitude":41.881832,"longitude":-87.62318,"reserved":0,"last_update":"0001-01-01T00:00:00Z","name_a2s":"Uncletopia | Chicago | 7 | Stopwatch Beta","protocol":17,"map":"workshop/koth_clearcut_b15.ugc2107050255","folder":"tf","game":"Team Fortress","app_id":440,"player_count":0,"max_players":24,"Bots":0,"server_type":"Dedicated","server_os":"Linux","password":true,"vac":true,"version":"7882260","steam_id":85568392924866364,"keywords":["cp","nocrits","nodmgspread","uncletopia"],"game_id":440,"stv_port":27036,"stv_name":"Uncletopia | Chicago | 7 | Stopwatch Beta | STV","players":null},{"server_id":39,"name":"Uncletopia | Chicago | 8 | Community","name_short":"chi-8","host":"chi-2.us.uncletopia.com","port":27045,"enabled":true,"region":"us-central","cc":"us","latitude":41.881832,"longitude":-87.62318,"reserved":0,"last_update":"0001-01-01T00:00:00Z","name_a2s":"Uncletopia | Chicago | 8 | Community","protocol":17,"map":"workshop/pl_fifthcurve_rc1.ugc648227046","folder":"tf","game":"Team Fortress","app_id":440,"player_count":0,"max_players":24,"Bots":0,"server_type":"Dedicated","server_os":"Linux","password":true,"vac":true,"version":"7882260","steam_id":85568392924866365,"keywords":["nocrits","nodmgspread","payload","uncletopia"],"game_id":440,"stv_port":27046,"stv_name":"Uncletopia | Chicago | 8 | Community | STV","players":null},{"server_id":8,"name":"Uncletopia | Dallas | 1 | All Maps","name_short":"dal-1","host":"dal-1.us.uncletopia.com","port":27015,"enabled":true,"region":"us-central","cc":"us","latitude":32.779167,"longitude":-96.80889,"reserved":0,"last_update":"0001-01-01T00:00:00Z","name_a2s":"Uncletopia | Dallas | 1 | All Maps","protocol":17,"map":"koth_harvest_final","folder":"tf","game":"Team Fortress","app_id":440,"player_count":24,"max_players":24,"Bots":0,"server_type":"Dedicated","server_os":"Linux","password":true,"vac":true,"version":"7882260","steam_id":85568392924469986,"keywords":["cp","nocrits","nodmgspread","uncletopia"],"game_id":440,"stv_port":27016,"stv_name":"Uncletopia | Dallas | 1 | All Maps | STV","players":[{"user_id":378,"name":"Ferguson","steam_id":76561198121349387,"connected_time":1046000000000,"state":"active","ping":55},{"user_id":393,"name":"Ahri ‚ô•","steam_id":76561198152499595,"connected_time":500000000000,"state":"active","ping":128},{"user_id":342,"name":"Sableye","steam_id":76561198061247147,"connected_time":3393000000000,"state":"active","ping":69},{"user_id":392,"name":"Sixrow","steam_id":76561198269289716,"connected_time":543000000000,"state":"active","ping":44},{"user_id":326,"name":"inzang","steam_id":76561198088318074,"connected_time":4288000000000,"state":"active","ping":45},{"user_id":360,"name":"Man Weed","steam_id":76561198133467786,"connected_time":1966000000000,"state":"active","ping":77},{"user_id":382,"name":"lost in spaaaaace","steam_id":76561199085974120,"connected_time":896000000000,"state":"active","ping":86},{"user_id":286,"name":"HAT-WEARING‚Ñ¢ Maggot Gamer Cat","steam_id":76561197973992705,"connected_time":6633000000000,"state":"active","ping":94},{"user_id":395,"name":"farmville Grandma_JoJo","steam_id":76561198943944502,"connected_time":335000000000,"state":"active","ping":50},{"user_id":368,"name":"Dr. Tropen","steam_id":76561198405271669,"connected_time":1528000000000,"state":"active","ping":64},{"user_id":381,"name":"Moonadoo","steam_id":76561198133377546,"connected_time":984000000000,"state":"active","ping":74},{"user_id":352,"name":"EmeraldCola","steam_id":76561198066663687,"connected_time":2852000000000,"state":"active","ping":84},{"user_id":363,"name":"NOT Susie Deltarune (not real)","steam_id":76561199007365488,"connected_time":1746000000000,"state":"active","ping":63},{"user_id":362,"name":"Admiral Angry","steam_id":76561198058199206,"connected_time":1793000000000,"state":"active","ping":85},{"user_id":356,"name":"yitz","steam_id":76561198375575841,"connected_time":2815000000000,"state":"active","ping":73},{"user_id":340,"name":"Horsecat","steam_id":76561198061653283,"connected_time":3431000000000,"state":"active","ping":89},{"user_id":328,"name":"ZeeGee","steam_id":76561198063348060,"connected_time":4237000000000,"state":"active","ping":96},{"user_id":367,"name":"mola","steam_id":76561198036283992,"connected_time":1545000000000,"state":"active","ping":85},{"user_id":387,"name":"Kid B8","steam_id":76561198086764710,"connected_time":733000000000,"state":"active","ping":76},{"user_id":380,"name":"p.k","steam_id":76561198307917606,"connected_time":1038000000000,"state":"active","ping":93},{"user_id":376,"name":"Garbo","steam_id":76561198192120869,"connected_time":1161000000000,"state":"active","ping":34},{"user_id":388,"name":"TheHiddenBlade","steam_id":76561199129787866,"connected_time":729000000000,"state":"active","ping":98},{"user_id":370,"name":"Bogey","steam_id":76561198096227944,"connected_time":1393000000000,"state":"active","ping":45},{"user_id":389,"name":"sharkbyt3","steam_id":76561197985793803,"connected_time":711000000000,"state":"active","ping":98}]},{"server_id":108,"name":"Uncletopia | Dallas | 2 | All Maps","name_short":"dal-2","host":"dal-1.us.uncletopia.com","port":27025,"enabled":true,"region":"us-central","cc":"us","latitude":32.779167,"longitude":-96.80889,"reserved":0,"last_update":"0001-01-01T00:00:00Z","name_a2s":"Uncletopia | Dallas | 2 | All Maps","protocol":17,"map":"pl_frontier_final","folder":"tf","game":"Team Fortress","app_id":440,"player_count":24,"max_players":24,"Bots":0,"server_type":"Dedicated","server_os":"Linux","password":true,"vac":true,"version":"7882260","steam_id":85568392924469988,"keywords":["nocrits","nodmgspread","payload","uncletopia"],"game_id":440,"stv_port":27026,"stv_name":"Uncletopia | Dallas | 2 | All Maps | STV","players":[{"user_id":414,"name":"ozbulu! troutsupply.net","steam_id":76561198067176829,"connected_time":2137000000000,"state":"active","ping":82},{"user_id":449,"name":"spacetoven","steam_id":76561198115821131,"connected_time":177000000000,"state":"active","ping":86},{"user_id":441,"name":"Soyuna","steam_id":76561199198717725,"connected_time":668000000000,"state":"active","ping":76},{"user_id":438,"name":"Pussy Punisher","steam_id":76561198032321388,"connected_time":854000000000,"state":"active","ping":111},{"user_id":423,"name":"[DATS‚û°] Sugar Meowth","steam_id":76561197995251793,"connected_time":1397000000000,"state":"active","ping":91},{"user_id":374,"name":"Chatot","steam_id":76561198197352885,"connected_time":5380000000000,"state":"active","ping":52},{"user_id":431,"name":"A Rubber Duck","steam_id":76561198278965023,"connected_time":1087000000000,"state":"active","ping":89},{"user_id":430,"name":"S·¥ús ú…™‚ç®T Ä·¥Äs ú„ã°","steam_id":76561198099466934,"connected_time":1100000000000,"state":"active","ping":144},{"user_id":302,"name":"troutsupply.net | shitass","steam_id":76561198210572481,"connected_time":11157000000000,"state":"active","ping":60},{"user_id":407,"name":"Rin \"Hindwing\" Redtail","steam_id":76561199074865638,"connected_time":2767000000000,"state":"active","ping":48},{"user_id":445,"name":"White_Wizard_Named_Corona","steam_id":76561198055652735,"connected_time":313000000000,"state":"active","ping":96},{"user_id":447,"name":"Fightin Cow","steam_id":76561198080941486,"connected_time":294000000000,"state":"active","ping":61},{"user_id":397,"name":"TeriyakiDynamite","steam_id":76561198050049346,"connected_time":3800000000000,"state":"active","ping":154},{"user_id":443,"name":"Penguinodle","steam_id":76561199082347306,"connected_time":365000000000,"state":"active","ping":43},{"user_id":440,"name":"HOODOO_LOVER_2007","steam_id":76561199087691214,"connected_time":831000000000,"state":"active","ping":95},{"user_id":451,"name":"Ozzyhalen","steam_id":76561198025207814,"connected_time":51000000000,"state":"active","ping":76},{"user_id":446,"name":"King Baldski","steam_id":76561198359568400,"connected_time":313000000000,"state":"active","ping":134},{"user_id":442,"name":"seeyouauntie","steam_id":76561198045852999,"connected_time":487000000000,"state":"active","ping":96},{"user_id":391,"name":"DMM","steam_id":76561198065426171,"connected_time":4168000000000,"state":"active","ping":47},{"user_id":412,"name":"lil cock ass","steam_id":76561198242842394,"connected_time":2199000000000,"state":"active","ping":56},{"user_id":420,"name":"Doomagedden","steam_id":76561198272589475,"connected_time":1673000000000,"state":"active","ping":62},{"user_id":427,"name":"shittystripper","steam_id":76561198101012071,"connected_time":1378000000000,"state":"active","ping":105},{"user_id":437,"name":"Lord Scrubling","steam_id":76561198263744445,"connected_time":933000000000,"state":"active","ping":45},{"user_id":428,"name":"Biscuits39","steam_id":76561198170056543,"connected_time":1347000000000,"state":"active","ping":98}]},{"server_id":5,"name":"Uncletopia | Frankfurt | 1 | All Maps","name_short":"frk-1","host":"frk-1.de.uncletopia.com","port":27015,"enabled":true,"region":"eu","cc":"de","latitude":50.110924,"longitude":8.682127,"reserved":0,"last_update":"0001-01-01T00:00:00Z","name_a2s":"Uncletopia | Frankfurt | 1 | All Maps","protocol":17,"map":"pl_borneo","folder":"tf","game":"Team Fortress","app_id":440,"player_count":23,"max_players":24,"Bots":0,"server_type":"Dedicated","server_os":"Linux","password":true,"vac":true,"version":"7882260","steam_id":85568392924469989,"keywords":["nocrits","nodmgspread","payload","uncletopia"],"game_id":440,"stv_port":27016,"stv_name":"Uncletopia | Frankfurt | 1 | All Maps | STV","players":[{"user_id":712,"name":"ff:ff:ff:ff:ff:ff","steam_id":76561198072122983,"connected_time":3161000000000,"state":"active","ping":72},{"user_id":730,"name":"mob","steam_id":76561198099696876,"connected_time":1604000000000,"state":"active","ping":60},{"user_id":751,"name":"Tusho","steam_id":76561198115447383,"connected_time":130000000000,"state":"active","ping":83},{"user_id":696,"name":"generic alias","steam_id":76561198271607226,"connected_time":5042000000000,"state":"active","ping":96},{"user_id":726,"name":"„Éï„Ç°„ÉÉ„Ç´„Éñ„É´„Éª„Éâ„É©„Ç¥","steam_id":76561198016649655,"connected_time":1674000000000,"state":"active","ping":89},{"user_id":692,"name":"·µê·µÉ ≥·∂ú","steam_id":76561198018694332,"connected_time":5410000000000,"state":"active","ping":66},{"user_id":745,"name":"NeiroüëΩ·ó©YY ·í™·ó∞·ó©O","steam_id":76561198046743985,"connected_time":577000000000,"state":"active","ping":79},{"user_id":737,"name":"koziol","steam_id":76561198014716232,"connected_time":1096000000000,"state":"active","ping":62},{"user_id":718,"name":"The Mask...","steam_id":76561198052402891,"connected_time":2296000000000,"state":"active","ping":56},{"user_id":687,"name":"Mata_FM","steam_id":76561198044824504,"connected_time":5585000000000,"state":"active","ping":58},{"user_id":743,"name":"Men Fortress 2","steam_id":76561197999459536,"connected_time":655000000000,"state":"active","ping":74},{"user_id":724,"name":"Chen","steam_id":76561198440363619,"connected_time":1956000000000,"state":"active","ping":52},{"user_id":731,"name":"Haha?","steam_id":76561198056882245,"connected_time":1556000000000,"state":"active","ping":54},{"user_id":625,"name":"hadeS","steam_id":76561199435854673,"connected_time":9893000000000,"state":"active","ping":60},{"user_id":742,"name":"Consuelo Shelton","steam_id":76561198152392309,"connected_time":675000000000,"state":"active","ping":45},{"user_id":688,"name":"Bull","steam_id":76561199233979726,"connected_time":5574000000000,"state":"active","ping":80},{"user_id":689,"name":"lacurio","steam_id":76561198059701776,"connected_time":5573000000000,"state":"active","ping":55},{"user_id":744,"name":"Adena","steam_id":76561197962487357,"connected_time":646000000000,"state":"active","ping":54},{"user_id":732,"name":"M2rtRa","steam_id":76561198111036466,"connected_time":1458000000000,"state":"active","ping":62},{"user_id":746,"name":"Russenluster","steam_id":76561198118016220,"connected_time":573000000000,"state":"active","ping":46},{"user_id":711,"name":"Segador","steam_id":76561199101669414,"connected_time":3992000000000,"state":"active","ping":58},{"user_id":749,"name":"Tickleshits","steam_id":76561198159197241,"connected_time":444000000000,"state":"active","ping":64},{"user_id":748,"name":"mrK_","steam_id":76561198120166752,"connected_time":553000000000,"state":"active","ping":77}]},{"server_id":110,"name":"Uncletopia | Frankfurt | 2 | All Maps","name_short":"frk-2","host":"frk-1.de.uncletopia.com","port":27025,"enabled":true,"region":"eu","cc":"de","latitude":50.110924,"longitude":8.682127,"reserved":0,"last_update":"0001-01-01T00:00:00Z","name_a2s":"Uncletopia | Frankfurt | 2 | All Maps","protocol":17,"map":"koth_viaduct","folder":"tf","game":"Team Fortress","app_id":440,"player_count":0,"max_players":24,"Bots":0,"server_type":"Dedicated","server_os":"Linux","password":true,"vac":true,"version":"7882260","steam_id":85568392924469990,"keywords":["cp","nocrits","nodmgspread","uncletopia"],"game_id":440,"stv_port":27026,"stv_name":"Uncletopia | Frankfurt | 2 | All Maps | STV","players":null},{"server_id":308,"name":"Uncletopia | Frankfurt | 3 | All Maps","name_short":"frk-3","host":"frk-1.de.uncletopia.com","port":27035,"enabled":true,"region":"eu","cc":"de","latitude":50.110924,"longitude":8.682127,"reserved":0,"last_update":"0001-01-01T00:00:00Z","name_a2s":"Uncletopia | Frankfurt | 3 | All Maps","protocol":17,"map":"koth_viaduct","folder":"tf","game":"Team Fortress","app_id":440,"player_count":0,"max_players":24,"Bots":0,"server_type":"Dedicated","server_os":"Linux","password":true,"vac":true,"version":"7882260","steam_id":85568392924504274,"keywords":["cp","nocrits","nodmgspread","uncletopia"],"game_id":440,"stv_port":27036,"stv_name":"Uncletopia | Frankfurt | 3 | All Maps | STV","players":null},{"server_id":309,"name":"Uncletopia | Frankfurt | 4 | All Maps","name_short":"frk-4","host":"frk-1.de.uncletopia.com","port":27045,"enabled":true,"region":"eu","cc":"de","latitude":50.110924,"longitude":8.682127,"reserved":0,"last_update":"0001-01-01T00:00:00Z","name_a2s":"Uncletopia | Frankfurt | 4 | All Maps","protocol":17,"map":"pl_barnblitz","folder":"tf","game":"Team Fortress","app_id":440,"player_count":0,"max_players":24,"Bots":0,"server_type":"Dedicated","server_os":"Linux","password":true,"vac":true,"version":"7882260","steam_id":85568392924504275,"keywords":["nocrits","nodmgspread","payload","uncletopia"],"game_id":440,"stv_port":27046,"stv_name":"Uncletopia | Frankfurt | 4 | All Maps | STV","players":null},{"server_id":310,"name":"Uncletopia | Frankfurt | 5 | All Maps","name_short":"frk-5","host":"frk-1.de.uncletopia.com","port":27055,"enabled":true,"region":"eu","cc":"de","latitude":50.110924,"longitude":8.682127,"reserved":0,"last_update":"0001-01-01T00:00:00Z","name_a2s":"Uncletopia | Frankfurt | 5 | All Maps","protocol":17,"map":"pl_snowycoast","folder":"tf","game":"Team Fortress","app_id":440,"player_count":0,"max_players":24,"Bots":0,"server_type":"Dedicated","server_os":"Linux","password":true,"vac":true,"version":"7882260","steam_id":85568392924504277,"keywords":["nocrits","nodmgspread","payload","uncletopia"],"game_id":440,"stv_port":27056,"stv_name":"Uncletopia | Frankfurt | 5 | All Maps | STV","players":null},{"server_id":311,"name":"Uncletopia | Frankfurt | 6 | All Maps","name_short":"frk-6","host":"frk-1.de.uncletopia.com","port":27065,"enabled":true,"region":"eu","cc":"de","latitude":50.110924,"longitude":8.682127,"reserved":0,"last_update":"0001-01-01T00:00:00Z","name_a2s":"Uncletopia | Frankfurt | 6 | All Maps","protocol":17,"map":"pl_badwater","folder":"tf","game":"Team Fortress","app_id":440,"player_count":6,"max_players":24,"Bots":0,"server_type":"Dedicated","server_os":"Linux","password":true,"vac":true,"version":"7882260","steam_id":85568392924504278,"keywords":["nocrits","nodmgspread","payload","uncletopia"],"game_id":440,"stv_port":27066,"stv_name":"Uncletopia | Frankfurt | 6 | All Maps | STV","players":[{"user_id":596,"name":"mythicalg√∏ds","steam_id":76561198163884996,"connected_time":275000000000,"state":"active","ping":75},{"user_id":509,"name":"Piteras","steam_id":76561198858532207,"connected_time":7364000000000,"state":"active","ping":72},{"user_id":565,"name":"Homicidal Tendencies","steam_id":76561198828681043,"connected_time":4227000000000,"state":"active","ping":54},{"user_id":569,"name":"Chillrend | #SaveTF2","steam_id":76561198452963141,"connected_time":3624000000000,"state":"active","ping":72},{"user_id":574,"name":"WillyDrengen","steam_id":76561197971902025,"connected_time":3117000000000,"state":"active","ping":58}]},{"server_id":23,"name":"Uncletopia | Frankfurt | 7 | Stopwatch Beta","name_short":"frk-7","host":"frk-1.de.uncletopia.com","port":27075,"enabled":true,"region":"eu","cc":"de","latitude":50.110924,"longitude":8.682127,"reserved":0,"last_update":"0001-01-01T00:00:00Z","name_a2s":"Uncletopia | Frankfurt | 7 | Stopwatch Beta","protocol":17,"map":"workshop/koth_bagel_rc6.ugc2514036946","folder":"tf","game":"Team Fortress","app_id":440,"player_count":0,"max_players":24,"Bots":0,"server_type":"Dedicated","server_os":"Linux","password":true,"vac":true,"version":"7882260","steam_id":85568392924742827,"keywords":["cp","nocrits","nodmgspread","uncletopia"],"game_id":440,"stv_port":27076,"stv_name":"Uncletopia | Frankfurt | 7 | Stopwatch Beta | STV","players":null},{"server_id":24,"name":"Uncletopia | Frankfurt | 8 | Community","name_short":"frk-8","host":"frk-1.de.uncletopia.com","port":27085,"enabled":true,"region":"eu","cc":"de","latitude":50.110924,"longitude":8.682127,"reserved":0,"last_update":"0001-01-01T00:00:00Z","name_a2s":"Uncletopia | Frankfurt | 8 | Community","protocol":17,"map":"workshop/pl_corrode_rc2.ugc546577989","folder":"tf","game":"Team Fortress","app_id":440,"player_count":0,"max_players":24,"Bots":0,"server_type":"Dedicated","server_os":"Linux","password":true,"vac":true,"version":"7882260","steam_id":85568392924742828,"keywords":["nocrits","nodmgspread","payload","uncletopia"],"game_id":440,"stv_port":27086,"stv_name":"Uncletopia | Frankfurt | 8 | Community | STV","players":null},{"server_id":202,"name":"Uncletopia | Hong Kong | 1 | All Maps","name_short":"hgk-1","host":"hgk-1.hk.uncletopia.com","port":27015,"enabled":true,"region":"asia","cc":"hk","latitude":22.302711,"longitude":114.177216,"reserved":0,"last_update":"0001-01-01T00:00:00Z","name_a2s":"Uncletopia | Hong Kong | 1 | All Maps","protocol":17,"map":"koth_viaduct","folder":"tf","game":"Team Fortress","app_id":440,"player_count":0,"max_players":24,"Bots":0,"server_type":"Dedicated","server_os":"Linux","password":true,"vac":true,"version":"7882260","steam_id":85568392924494504,"keywords":["cp","nocrits","nodmgspread","uncletopia"],"game_id":440,"stv_port":27016,"stv_name":"Uncletopia | Hong Kong | 1 | All Maps | STV","players":null},{"server_id":1,"name":"Uncletopia | Los Angeles | 1 | All Maps","name_short":"lax-1","host":"lax-1.us.uncletopia.com","port":27015,"enabled":true,"region":"us-west","cc":"us","latitude":33.94279,"longitude":-118.41004,"reserved":0,"last_update":"0001-01-01T00:00:00Z","name_a2s":"Uncletopia | Los Angeles | 1 | All Maps","protocol":17,"map":"pl_upward","folder":"tf","game":"Team Fortress","app_id":440,"player_count":24,"max_players":24,"Bots":0,"server_type":"Dedicated","server_os":"Linux","password":true,"vac":true,"version":"7882260","steam_id":85568392924469991,"keywords":["nocrits","nodmgspread","payload","uncletopia"],"game_id":440,"stv_port":27016,"stv_name":"Uncletopia | Los Angeles | 1 | All Maps | STV","players":[{"user_id":259,"name":"JohnnyGitGud","steam_id":76561198401455467,"connected_time":1135000000000,"state":"active","ping":56},{"user_id":241,"name":"All 24 Pok√©mon movies at once","steam_id":76561198164738311,"connected_time":3102000000000,"state":"active","ping":123},{"user_id":247,"name":"KingOmegaVolt","steam_id":76561199187481231,"connected_time":2174000000000,"state":"active","ping":104},{"user_id":262,"name":"RashestHen75","steam_id":76561199229427395,"connected_time":562000000000,"state":"active","ping":83},{"user_id":232,"name":"greenpeace","steam_id":76561197983221708,"connected_time":3519000000000,"state":"active","ping":58},{"user_id":227,"name":"cringy","steam_id":76561198323000455,"connected_time":3729000000000,"state":"active","ping":57},{"user_id":203,"name":"GIGAHAXX","steam_id":76561197993714726,"connected_time":5122000000000,"state":"active","ping":59},{"user_id":263,"name":"Taffy","steam_id":76561198276612538,"connected_time":507000000000,"state":"active","ping":57},{"user_id":250,"name":"samvaluez","steam_id":76561199213743808,"connected_time":2089000000000,"state":"active","ping":74},{"user_id":231,"name":"adios muchacho","steam_id":76561198068113347,"connected_time":3545000000000,"state":"active","ping":45},{"user_id":239,"name":"Oh No! It's Twister!","steam_id":76561198016791916,"connected_time":3289000000000,"state":"active","ping":105},{"user_id":218,"name":"poggerchamp","steam_id":76561199145124973,"connected_time":4431000000000,"state":"active","ping":99},{"user_id":206,"name":"TTV/ChadMorningWood","steam_id":76561198139832291,"connected_time":4676000000000,"state":"active","ping":48},{"user_id":246,"name":"vuldrin","steam_id":76561198383695069,"connected_time":2452000000000,"state":"active","ping":89},{"user_id":257,"name":"June","steam_id":76561198141803658,"connected_time":1505000000000,"state":"active","ping":50},{"user_id":261,"name":"Hoodie Deku","steam_id":76561199123163113,"connected_time":654000000000,"state":"active","ping":48},{"user_id":256,"name":"mae","steam_id":76561199263128928,"connected_time":1939000000000,"state":"active","ping":74},{"user_id":260,"name":"BrightOrangeMango","steam_id":76561198023144607,"connected_time":1111000000000,"state":"active","ping":60},{"user_id":253,"name":"NFL.com","steam_id":76561198113405376,"connected_time":2030000000000,"state":"active","ping":54},{"user_id":254,"name":"FruitsBasket2004","steam_id":76561199483951635,"connected_time":2016000000000,"state":"active","ping":80},{"user_id":234,"name":"Tocha","steam_id":76561198119725400,"connected_time":3487000000000,"state":"active","ping":102},{"user_id":245,"name":"lethal poison","steam_id":76561199001918194,"connected_time":2529000000000,"state":"active","ping":63},{"user_id":255,"name":"Hound_","steam_id":76561199389781834,"connected_time":2009000000000,"state":"active","ping":65},{"user_id":200,"name":"azureglxy","steam_id":76561198861388315,"connected_time":5543000000000,"state":"active","ping":42}]},{"server_id":112,"name":"Uncletopia | Los Angeles | 2 | All Maps","name_short":"lax-2","host":"lax-1.us.uncletopia.com","port":27025,"enabled":true,"region":"us-west","cc":"us","latitude":33.94279,"longitude":-118.41004,"reserved":0,"last_update":"0001-01-01T00:00:00Z","name_a2s":"Uncletopia | Los Angeles | 2 | All Maps","protocol":17,"map":"pl_pier","folder":"tf","game":"Team Fortress","app_id":440,"player_count":24,"max_players":24,"Bots":0,"server_type":"Dedicated","server_os":"Linux","password":true,"vac":true,"version":"7882260","steam_id":85568392924469992,"keywords":["nocrits","nodmgspread","payload","uncletopia"],"game_id":440,"stv_port":27026,"stv_name":"Uncletopia | Los Angeles | 2 | All Maps | STV","players":[{"user_id":16,"name":"Shalom","steam_id":76561198410005222,"connected_time":1622000000000,"state":"active","ping":76},{"user_id":20,"name":"themadlad67","steam_id":76561199309554436,"connected_time":1211000000000,"state":"active","ping":61},{"user_id":21,"name":"‡ºò ‚ãÜÀöüéßCaffeine‚òï*Àñ¬∞","steam_id":76561199259309294,"connected_time":758000000000,"state":"active","ping":137},{"user_id":15,"name":"The Legolord","steam_id":76561199101367611,"connected_time":2129000000000,"state":"active","ping":89},{"user_id":17,"name":"Golden","steam_id":76561198099617491,"connected_time":1611000000000,"state":"active","ping":66},{"user_id":22,"name":"MonkeyNobody","steam_id":76561199451266605,"connected_time":717000000000,"state":"active","ping":53},{"user_id":23,"name":"Belmore","steam_id":76561198009355231,"connected_time":692000000000,"state":"active","ping":54},{"user_id":26,"name":"The bees","steam_id":76561199015078035,"connected_time":403000000000,"state":"active","ping":103},{"user_id":25,"name":"e doctor","steam_id":76561198081851446,"connected_time":533000000000,"state":"active","ping":106},{"user_id":38,"name":"New joycon is drifting","steam_id":76561199085815961,"connected_time":230000000000,"state":"active","ping":126},{"user_id":28,"name":"Flex Pexico","steam_id":76561198041838930,"connected_time":389000000000,"state":"active","ping":53},{"user_id":29,"name":"Green Icicle","steam_id":76561198069624529,"connected_time":381000000000,"state":"active","ping":66},{"user_id":45,"name":"professional sucker double gawk","steam_id":76561199039152146,"connected_time":15000000000,"state":"spawning","ping":129},{"user_id":32,"name":"Potato Knishes","steam_id":76561198063539547,"connected_time":309000000000,"state":"active","ping":86},{"user_id":33,"name":"Wolfer","steam_id":76561198098153246,"connected_time":304000000000,"state":"active","ping":75},{"user_id":44,"name":"illumina","steam_id":76561198388123421,"connected_time":85000000000,"state":"active","ping":45},{"user_id":35,"name":"nori_420","steam_id":76561199117134203,"connected_time":288000000000,"state":"active","ping":58},{"user_id":36,"name":"Tortellini","steam_id":76561198211521176,"connected_time":273000000000,"state":"active","ping":88},{"user_id":37,"name":"Zenire","steam_id":76561199087298510,"connected_time":268000000000,"state":"active","ping":87},{"user_id":39,"name":"Mentally Braindead","steam_id":76561199443759836,"connected_time":227000000000,"state":"active","ping":111},{"user_id":40,"name":"free infinite gems glitch punja","steam_id":76561198361326855,"connected_time":217000000000,"state":"active","ping":103},{"user_id":43,"name":"A UsedNom","steam_id":76561198402832756,"connected_time":105000000000,"state":"active","ping":45},{"user_id":46,"name":"yellow ·óúÀ¨·óú","steam_id":76561198366474647,"connected_time":7000000000,"state":"spawning","ping":32}]},{"server_id":324,"name":"Uncletopia | Los Angeles | 3 | All Maps","name_short":"lax-3","host":"lax-1.us.uncletopia.com","port":27035,"enabled":true,"region":"us-west","cc":"us","latitude":33.94279,"longitude":-118.41004,"reserved":0,"last_update":"0001-01-01T00:00:00Z","name_a2s":"Uncletopia | Los Angeles | 3 | All Maps","protocol":17,"map":"pl_borneo","folder":"tf","game":"Team Fortress","app_id":440,"player_count":0,"max_players":24,"Bots":0,"server_type":"Dedicated","server_os":"Linux","password":true,"vac":true,"version":"7882260","steam_id":85568392924510198,"keywords":["nocrits","nodmgspread","payload","uncletopia"],"game_id":440,"stv_port":27036,"stv_name":"Uncletopia | Los Angeles | 3 | All Maps | STV","players":null},{"server_id":25,"name":"Uncletopia | Los Angeles | 4 | Stopwatch Beta","name_short":"lax-4","host":"lax-1.us.uncletopia.com","port":27045,"enabled":true,"region":"us-west","cc":"us","latitude":33.94279,"longitude":-118.41004,"reserved":0,"last_update":"0001-01-01T00:00:00Z","name_a2s":"Uncletopia | Los Angeles | 4 | Stopwatch Beta","protocol":17,"map":"koth_viaduct","folder":"tf","game":"Team Fortress","app_id":440,"player_count":0,"max_players":24,"Bots":0,"server_type":"Dedicated","server_os":"Linux","password":true,"vac":true,"version":"7882260","steam_id":85568392924510199,"keywords":["cp","nocrits","nodmgspread","uncletopia"],"game_id":440,"stv_port":27046,"stv_name":"Uncletopia | Los Angeles | 4 | Stopwatch Beta | STV","players":null},{"server_id":11,"name":"Uncletopia | London | 1 | All Maps","name_short":"lon-1","host":"lon-1.uk.uncletopia.com","port":27015,"enabled":true,"region":"eu","cc":"gb","latitude":51.509865,"longitude":-0.118092,"reserved":0,"last_update":"0001-01-01T00:00:00Z","name_a2s":"Uncletopia | London | 1 | All Maps","protocol":17,"map":"pl_borneo","folder":"tf","game":"Team Fortress","app_id":440,"player_count":21,"max_players":24,"Bots":0,"server_type":"Dedicated","server_os":"Linux","password":true,"vac":true,"version":"7882260","steam_id":85568392924367362,"keywords":["nocrits","nodmgspread","payload","uncletopia"],"game_id":440,"stv_port":27016,"stv_name":"Uncletopia | London | 1 | All Maps | STV","players":[{"user_id":958,"name":"Shadow the Hedgehog","steam_id":76561198032936750,"connected_time":84000000000,"state":"active","ping":89},{"user_id":930,"name":"xXSilverwolf44Xx","steam_id":76561198353037792,"connected_time":2666000000000,"state":"active","ping":44},{"user_id":931,"name":"Bob's your Uncle","steam_id":76561197995230744,"connected_time":2661000000000,"state":"active","ping":131},{"user_id":951,"name":"ashley","steam_id":76561198448551449,"connected_time":1114000000000,"state":"active","ping":34},{"user_id":953,"name":"ack","steam_id":76561198139796077,"connected_time":1055000000000,"state":"active","ping":52},{"user_id":957,"name":"***FoRgIvEn***","steam_id":76561199216222247,"connected_time":702000000000,"state":"active","ping":171},{"user_id":941,"name":"1 toke 4 mars bars","steam_id":76561198056460000,"connected_time":1976000000000,"state":"active","ping":50},{"user_id":880,"name":"Son Goku","steam_id":76561199383437138,"connected_time":5955000000000,"state":"active","ping":157},{"user_id":926,"name":"beebo","steam_id":76561199120277007,"connected_time":3011000000000,"state":"active","ping":43},{"user_id":954,"name":"Kristianma","steam_id":76561198021772843,"connected_time":995000000000,"state":"active","ping":75},{"user_id":916,"name":"sgt Bytheway","steam_id":76561198094169965,"connected_time":4008000000000,"state":"active","ping":74},{"user_id":934,"name":"≈†tƒõp√°n","steam_id":76561198275742101,"connected_time":2625000000000,"state":"active","ping":70},{"user_id":921,"name":"SOPHIIEE","steam_id":76561198443798981,"connected_time":3486000000000,"state":"active","ping":53},{"user_id":924,"name":"Mr_Pulse_","steam_id":76561198095001602,"connected_time":3095000000000,"state":"active","ping":111},{"user_id":927,"name":"cowboy","steam_id":76561198080361351,"connected_time":2984000000000,"state":"active","ping":55},{"user_id":935,"name":"Smoker","steam_id":76561198129454909,"connected_time":2617000000000,"state":"active","ping":83},{"user_id":906,"name":"Bassachusetts","steam_id":76561198073769916,"connected_time":4306000000000,"state":"active","ping":46},{"user_id":928,"name":"Bonca","steam_id":76561198137503531,"connected_time":2933000000000,"state":"active","ping":84},{"user_id":947,"name":"gnarly business","steam_id":76561198832688767,"connected_time":1627000000000,"state":"active","ping":55},{"user_id":914,"name":"Warped","steam_id":76561197989916494,"connected_time":4126000000000,"state":"active","ping":45},{"user_id":949,"name":"REN","steam_id":76561198000596385,"connected_time":1487000000000,"state":"active","ping":81}]},{"server_id":114,"name":"Uncletopia | London | 2 | All Maps","name_short":"lon-2","host":"lon-1.uk.uncletopia.com","port":27025,"enabled":true,"region":"eu","cc":"gb","latitude":51.509865,"longitude":-0.118092,"reserved":0,"last_update":"0001-01-01T00:00:00Z","name_a2s":"Uncletopia | London | 2 | All Maps","protocol":17,"map":"pl_barnblitz","folder":"tf","game":"Team Fortress","app_id":440,"player_count":20,"max_players":24,"Bots":0,"server_type":"Dedicated","server_os":"Linux","password":true,"vac":true,"version":"7882260","steam_id":85568392924470941,"keywords":["nocrits","nodmgspread","payload","uncletopia"],"game_id":440,"stv_port":27026,"stv_name":"Uncletopia | London | 2 | All Maps | STV","players":[{"user_id":459,"name":"birb","steam_id":76561198084891833,"connected_time":2804000000000,"state":"active","ping":50},{"user_id":461,"name":"BONA FIDE PISS","steam_id":76561198130020929,"connected_time":2702000000000,"state":"active","ping":40},{"user_id":502,"name":"KoumeChan","steam_id":76561199052513609,"connected_time":486000000000,"state":"active","ping":117},{"user_id":463,"name":"SirNeeco \u003c3","steam_id":76561198103014203,"connected_time":2483000000000,"state":"active","ping":69},{"user_id":508,"name":"Comorito","steam_id":76561198183143669,"connected_time":97000000000,"state":"active","ping":76},{"user_id":505,"name":"Peanut","steam_id":76561198018865486,"connected_time":378000000000,"state":"active","ping":73},{"user_id":435,"name":"Twiggu","steam_id":76561198070853128,"connected_time":4804000000000,"state":"active","ping":81},{"user_id":465,"name":"Psychicpie","steam_id":76561198126065206,"connected_time":2452000000000,"state":"active","ping":52},{"user_id":496,"name":"Steen","steam_id":76561198122992510,"connected_time":557000000000,"state":"active","ping":36},{"user_id":468,"name":"Jeremy Elbertson","steam_id":76561198153974095,"connected_time":2276000000000,"state":"active","ping":36},{"user_id":497,"name":"Lavir","steam_id":76561198008619442,"connected_time":533000000000,"state":"active","ping":114},{"user_id":458,"name":"ethan","steam_id":76561198119495513,"connected_time":2973000000000,"state":"active","ping":43},{"user_id":499,"name":"hud_saytext_time 0","steam_id":76561198010327228,"connected_time":508000000000,"state":"active","ping":56},{"user_id":486,"name":"DeaTh¬°X","steam_id":76561198370404546,"connected_time":896000000000,"state":"active","ping":102},{"user_id":488,"name":"tm`","steam_id":76561197993580412,"connected_time":893000000000,"state":"active","ping":60},{"user_id":506,"name":"cuba","steam_id":76561197999119363,"connected_time":224000000000,"state":"active","ping":60},{"user_id":507,"name":"GroGroudonDu31","steam_id":76561198155106297,"connected_time":206000000000,"state":"active","ping":60},{"user_id":475,"name":"Sofuskaka","steam_id":76561198079340749,"connected_time":2072000000000,"state":"active","ping":60},{"user_id":491,"name":"Valen","steam_id":76561198049614521,"connected_time":851000000000,"state":"active","ping":75},{"user_id":485,"name":"elijah","steam_id":76561198093936708,"connected_time":980000000000,"state":"active","ping":59}]},{"server_id":320,"name":"Uncletopia | London | 3 | All Maps","name_short":"lon-3","host":"lon-1.uk.uncletopia.com","port":27035,"enabled":true,"region":"eu","cc":"gb","latitude":51.509865,"longitude":-0.118092,"reserved":0,"last_update":"0001-01-01T00:00:00Z","name_a2s":"Uncletopia | London | 3 | All Maps","protocol":17,"map":"koth_lakeside_final","folder":"tf","game":"Team Fortress","app_id":440,"player_count":0,"max_players":24,"Bots":0,"server_type":"Dedicated","server_os":"Linux","password":true,"vac":true,"version":"7882260","steam_id":85568392924510192,"keywords":["cp","nocrits","nodmgspread","uncletopia"],"game_id":440,"stv_port":27036,"stv_name":"Uncletopia | London | 3 | All Maps | STV","players":null},{"server_id":321,"name":"Uncletopia | London | 4 | All Maps","name_short":"lon-4","host":"lon-1.uk.uncletopia.com","port":27045,"enabled":true,"region":"eu","cc":"gb","latitude":51.509865,"longitude":-0.118092,"reserved":0,"last_update":"0001-01-01T00:00:00Z","name_a2s":"Uncletopia | London | 4 | All Maps","protocol":17,"map":"pl_frontier_final","folder":"tf","game":"Team Fortress","app_id":440,"player_count":24,"max_players":24,"Bots":0,"server_type":"Dedicated","server_os":"Linux","password":true,"vac":true,"version":"7882260","steam_id":85568392924510193,"keywords":["nocrits","nodmgspread","payload","uncletopia"],"game_id":440,"stv_port":27046,"stv_name":"Uncletopia | London | 4 | All Maps | STV","players":[{"user_id":386,"name":"TheSaladProphet","steam_id":76561198391723085,"connected_time":563000000000,"state":"active","ping":151},{"user_id":387,"name":"Mr. Goodvibes","steam_id":76561198051014734,"connected_time":542000000000,"state":"active","ping":145},{"user_id":394,"name":"we shall all be healed","steam_id":76561198054429412,"connected_time":289000000000,"state":"active","ping":57},{"user_id":374,"name":"Blobbaz","steam_id":76561198031076278,"connected_time":1682000000000,"state":"active","ping":50},{"user_id":388,"name":"nicco","steam_id":76561198046217866,"connected_time":518000000000,"state":"active","ping":45},{"user_id":397,"name":"BuzzBees ‚ù§","steam_id":76561198101502273,"connected_time":22000000000,"state":"active","ping":56},{"user_id":365,"name":"bowchika wowa #SlavaUkraine","steam_id":76561198159564550,"connected_time":2034000000000,"state":"active","ping":67},{"user_id":379,"name":"Lubrsi","steam_id":76561198040208195,"connected_time":1381000000000,"state":"active","ping":52},{"user_id":390,"name":"The Great G.B.A","steam_id":76561198002022998,"connected_time":486000000000,"state":"active","ping":57},{"user_id":391,"name":"DispenserComponent.tsx","steam_id":76561198303429751,"connected_time":482000000000,"state":"active","ping":50},{"user_id":348,"name":"Charmedelf","steam_id":76561197993611881,"connected_time":3991000000000,"state":"active","ping":58},{"user_id":377,"name":"C.H.E.R.E.P.","steam_id":76561198026938595,"connected_time":1590000000000,"state":"active","ping":77},{"user_id":392,"name":"shoko","steam_id":76561198377055815,"connected_time":479000000000,"state":"active","ping":71},{"user_id":393,"name":"Tyranitar","steam_id":76561198094473194,"connected_time":382000000000,"state":"active","ping":71},{"user_id":355,"name":"Regan","steam_id":76561198100631086,"connected_time":3381000000000,"state":"active","ping":53},{"user_id":395,"name":"ChPerette üéÆ","steam_id":76561198060004887,"connected_time":286000000000,"state":"active","ping":45},{"user_id":385,"name":"thanus","steam_id":76561199091889576,"connected_time":907000000000,"state":"active","ping":46},{"user_id":334,"name":"sora :3","steam_id":76561198096547662,"connected_time":5061000000000,"state":"active","ping":51},{"user_id":321,"name":"Suetolog","steam_id":76561199053090212,"connected_time":6378000000000,"state":"active","ping":66},{"user_id":335,"name":"RuneShine","steam_id":76561198007098323,"connected_time":5061000000000,"state":"active","ping":60},{"user_id":368,"name":"Davey","steam_id":76561198256879107,"connected_time":1971000000000,"state":"active","ping":77},{"user_id":396,"name":"KittyKate ‚ù§","steam_id":76561198116340817,"connected_time":252000000000,"state":"active","ping":61},{"user_id":359,"name":"Choruptian","steam_id":76561198017686366,"connected_time":2694000000000,"state":"active","ping":66},{"user_id":373,"name":"Watermelon","steam_id":76561198078349914,"connected_time":1730000000000,"state":"active","ping":35}]},{"server_id":21,"name":"Uncletopia | London | 5 | All Maps","name_short":"lon-5","host":"lon-1.uk.uncletopia.com","port":27055,"enabled":true,"region":"eu","cc":"gb","latitude":51.509865,"longitude":-0.118092,"reserved":0,"last_update":"0001-01-01T00:00:00Z","name_a2s":"Uncletopia | London | 5 | All Maps","protocol":17,"map":"pl_frontier_final","folder":"tf","game":"Team Fortress","app_id":440,"player_count":24,"max_players":24,"Bots":0,"server_type":"Dedicated","server_os":"Linux","password":true,"vac":true,"version":"7882260","steam_id":85568392924742829,"keywords":["nocrits","nodmgspread","payload","uncletopia"],"game_id":440,"stv_port":27056,"stv_name":"Uncletopia | London | 5 | All Maps | STV","players":[{"user_id":670,"name":"scott steiners strongest warrio","steam_id":76561198148888622,"connected_time":349000000000,"state":"active","ping":56},{"user_id":605,"name":"antnt","steam_id":76561198112546748,"connected_time":4000000000000,"state":"active","ping":49},{"user_id":662,"name":"GabeTheGoldfish","steam_id":76561198153408011,"connected_time":861000000000,"state":"active","ping":74},{"user_id":665,"name":"XL54M15Y","steam_id":76561198048250715,"connected_time":787000000000,"state":"active","ping":61},{"user_id":666,"name":"Lag","steam_id":76561198159360376,"connected_time":721000000000,"state":"active","ping":50},{"user_id":621,"name":"Birdseye","steam_id":76561198025852216,"connected_time":3630000000000,"state":"active","ping":46},{"user_id":656,"name":"Jouppi","steam_id":76561198063725468,"connected_time":1151000000000,"state":"active","ping":93},{"user_id":672,"name":"Li√∏nHeart","steam_id":76561198081370704,"connected_time":173000000000,"state":"active","ping":62},{"user_id":630,"name":"DarthMurloc_OW","steam_id":76561198075577711,"connected_time":3089000000000,"state":"active","ping":85},{"user_id":671,"name":"Alice in Rubberland","steam_id":76561198087328346,"connected_time":342000000000,"state":"active","ping":132},{"user_id":657,"name":"frosty","steam_id":76561198094560834,"connected_time":1055000000000,"state":"active","ping":45},{"user_id":663,"name":"IndigoJones","steam_id":76561198050284262,"connected_time":843000000000,"state":"active","ping":47},{"user_id":668,"name":"Stinko","steam_id":76561198142619873,"connected_time":629000000000,"state":"active","ping":176},{"user_id":646,"name":"MaxVegas","steam_id":76561197987524887,"connected_time":2324000000000,"state":"active","ping":54},{"user_id":619,"name":"Owler","steam_id":76561198162156175,"connected_time":3694000000000,"state":"active","ping":85},{"user_id":624,"name":"Mike Rotch","steam_id":76561198111232378,"connected_time":3482000000000,"state":"active","ping":85},{"user_id":640,"name":"A Pigeon","steam_id":76561198114090555,"connected_time":2612000000000,"state":"active","ping":81},{"user_id":628,"name":"Phalcon","steam_id":76561197987051394,"connected_time":3107000000000,"state":"active","ping":85},{"user_id":658,"name":"Jon","steam_id":76561199380849468,"connected_time":1044000000000,"state":"active","ping":62},{"user_id":659,"name":"cinny","steam_id":76561198832112629,"connected_time":1028000000000,"state":"active","ping":105},{"user_id":661,"name":"My Mom","steam_id":76561198067844169,"connected_time":938000000000,"state":"active","ping":89},{"user_id":635,"name":"Kibby","steam_id":76561197990056450,"connected_time":2864000000000,"state":"active","ping":54},{"user_id":636,"name":"Purps","steam_id":76561198053886680,"connected_time":2845000000000,"state":"active","ping":43},{"user_id":648,"name":"Enderpanda24","steam_id":76561199461170521,"connected_time":2246000000000,"state":"active","ping":68}]},{"server_id":22,"name":"Uncletopia | London | 6 | All Maps","name_short":"lon-6","host":"lon-1.uk.uncletopia.com","port":27065,"enabled":true,"region":"eu","cc":"gb","latitude":51.509865,"longitude":-0.118092,"reserved":0,"last_update":"0001-01-01T00:00:00Z","name_a2s":"Uncletopia | London | 6 | All Maps","protocol":17,"map":"pl_upward","folder":"tf","game":"Team Fortress","app_id":440,"player_count":20,"max_players":24,"Bots":0,"server_type":"Dedicated","server_os":"Linux","password":true,"vac":true,"version":"7882260","steam_id":85568392924742830,"keywords":["nocrits","nodmgspread","payload","uncletopia"],"game_id":440,"stv_port":27066,"stv_name":"Uncletopia | London | 6 | All Maps | STV","players":[{"user_id":541,"name":"Hyppy ja liipasin pohjaan :D","steam_id":76561198080669698,"connected_time":245000000000,"state":"active","ping":92},{"user_id":529,"name":"Soloman","steam_id":76561199212054667,"connected_time":1340000000000,"state":"active","ping":45},{"user_id":500,"name":"D0kai","steam_id":76561198389271720,"connected_time":3374000000000,"state":"active","ping":46},{"user_id":371,"name":"DelaNo","steam_id":76561199125086655,"connected_time":12275000000000,"state":"active","ping":40},{"user_id":530,"name":"AVOID EVERYONE","steam_id":76561198051852765,"connected_time":1177000000000,"state":"active","ping":75},{"user_id":531,"name":"Sammeh","steam_id":76561198001926428,"connected_time":1141000000000,"state":"active","ping":74},{"user_id":532,"name":":P","steam_id":76561198106399430,"connected_time":1131000000000,"state":"active","ping":45},{"user_id":533,"name":"_k_i","steam_id":76561198184881255,"connected_time":1077000000000,"state":"active","ping":70},{"user_id":482,"name":"Erin in Soup","steam_id":76561198416493306,"connected_time":5630000000000,"state":"active","ping":57},{"user_id":502,"name":"joachym","steam_id":76561198428579761,"connected_time":3320000000000,"state":"active","ping":75},{"user_id":296,"name":"Paladin","steam_id":76561198042593027,"connected_time":15652000000000,"state":"active","ping":100},{"user_id":524,"name":"Not Sussy Tanuki","steam_id":76561198137289375,"connected_time":1596000000000,"state":"active","ping":104},{"user_id":513,"name":"klizeƒái","steam_id":76561198073320621,"connected_time":2354000000000,"state":"active","ping":110},{"user_id":535,"name":"Larry Penus","steam_id":76561198207546233,"connected_time":962000000000,"state":"active","ping":44},{"user_id":536,"name":"Yuka","steam_id":76561198152009749,"connected_time":962000000000,"state":"active","ping":50},{"user_id":497,"name":"oxtail","steam_id":76561198144462222,"connected_time":3451000000000,"state":"active","ping":121},{"user_id":537,"name":"212","steam_id":76561198091360047,"connected_time":938000000000,"state":"active","ping":42},{"user_id":527,"name":"Imagine","steam_id":76561198036641497,"connected_time":1541000000000,"state":"active","ping":120},{"user_id":518,"name":"Pariah","steam_id":76561198300479600,"connected_time":1944000000000,"state":"active","ping":122},{"user_id":538,"name":"Royal","steam_id":76561198157621024,"connected_time":922000000000,"state":"active","ping":44}]},{"server_id":40,"name":"Uncletopia | London | 7 | No Payload","name_short":"lon-7","host":"lon-1.uk.uncletopia.com","port":27075,"enabled":true,"region":"eu","cc":"gb","latitude":51.509865,"longitude":-0.118092,"reserved":0,"last_update":"0001-01-01T00:00:00Z","name_a2s":"Uncletopia | London | 7 | No Payload","protocol":17,"map":"koth_viaduct","folder":"tf","game":"Team Fortress","app_id":440,"player_count":0,"max_players":24,"Bots":0,"server_type":"Dedicated","server_os":"Linux","password":true,"vac":true,"version":"7882260","steam_id":85568392924964314,"keywords":["cp","nocrits","nodmgspread","uncletopia"],"game_id":440,"stv_port":27076,"stv_name":"Uncletopia | London | 7 | No Payload | STV","players":null},{"server_id":41,"name":"Uncletopia | London | 8 | Community","name_short":"lon-8","host":"lon-1.uk.uncletopia.com","port":27085,"enabled":true,"region":"eu","cc":"gb","latitude":51.509865,"longitude":-0.118092,"reserved":0,"last_update":"0001-01-01T00:00:00Z","name_a2s":"Uncletopia | London | 8 | Community","protocol":17,"map":"workshop/koth_bagel_rc6.ugc2514036946","folder":"tf","game":"Team Fortress","app_id":440,"player_count":0,"max_players":24,"Bots":0,"server_type":"Dedicated","server_os":"Linux","password":true,"vac":true,"version":"7882260","steam_id":85568392924964315,"keywords":["cp","nocrits","nodmgspread","uncletopia"],"game_id":440,"stv_port":27086,"stv_name":"Uncletopia | London | 8 | Community | STV","players":null},{"server_id":300,"name":"Uncletopia | Montr√©al | 1 | All Maps","name_short":"mtl-1","host":"mtl-1.ca.uncletopia.com","port":27015,"enabled":true,"region":"us-east","cc":"ca","latitude":45.50889,"longitude":-73.56167,"reserved":0,"last_update":"0001-01-01T00:00:00Z","name_a2s":"Uncletopia | Montr√©al | 1 | All Maps","protocol":17,"map":"koth_cascade","folder":"tf","game":"Team Fortress","app_id":440,"player_count":0,"max_players":24,"Bots":0,"server_type":"Dedicated","server_os":"Linux","password":true,"vac":true,"version":"7882260","steam_id":85568392924500087,"keywords":["cp","nocrits","nodmgspread","uncletopia"],"game_id":440,"stv_port":27016,"stv_name":"Uncletopia | Montr√©al | 1 | All Maps | STV","players":null},{"server_id":301,"name":"Uncletopia | Montr√©al | 2 | All Maps","name_short":"mtl-2","host":"mtl-1.ca.uncletopia.com","port":27025,"enabled":true,"region":"us-east","cc":"ca","latitude":45.50889,"longitude":-73.56167,"reserved":0,"last_update":"0001-01-01T00:00:00Z","name_a2s":"Uncletopia | Montr√©al | 2 | All Maps","protocol":17,"map":"pl_snowycoast","folder":"tf","game":"Team Fortress","app_id":440,"player_count":0,"max_players":24,"Bots":0,"server_type":"Dedicated","server_os":"Linux","password":true,"vac":true,"version":"7882260","steam_id":85568392924500088,"keywords":["nocrits","nodmgspread","payload","uncletopia"],"game_id":440,"stv_port":27026,"stv_name":"Uncletopia | Montr√©al | 2 | All Maps | STV","players":null},{"server_id":302,"name":"Uncletopia | Montr√©al | 3 | All Maps","name_short":"mtl-3","host":"mtl-1.ca.uncletopia.com","port":27035,"enabled":true,"region":"us-east","cc":"ca","latitude":45.50889,"longitude":-73.56167,"reserved":0,"last_update":"0001-01-01T00:00:00Z","name_a2s":"Uncletopia | Montr√©al | 3 | All Maps","protocol":17,"map":"koth_viaduct","folder":"tf","game":"Team Fortress","app_id":440,"player_count":0,"max_players":24,"Bots":0,"server_type":"Dedicated","server_os":"Linux","password":true,"vac":true,"version":"7882260","steam_id":85568392924500089,"keywords":["cp","nocrits","nodmgspread","uncletopia"],"game_id":440,"stv_port":27036,"stv_name":"Uncletopia | Montr√©al | 3 | All Maps | STV","players":null},{"server_id":303,"name":"Uncletopia | Montr√©al | 4 | No Payload","name_short":"mtl-4","host":"mtl-1.ca.uncletopia.com","port":27045,"enabled":true,"region":"us-east","cc":"ca","latitude":45.50889,"longitude":-73.56167,"reserved":0,"last_update":"0001-01-01T00:00:00Z","name_a2s":"Uncletopia | Montr√©al | 4 | No Payload","protocol":17,"map":"koth_highpass","folder":"tf","game":"Team Fortress","app_id":440,"player_count":0,"max_players":24,"Bots":0,"server_type":"Dedicated","server_os":"Linux","password":true,"vac":true,"version":"7882260","steam_id":85568392924500090,"keywords":["cp","nocrits","nodmgspread","uncletopia"],"game_id":440,"stv_port":27046,"stv_name":"Uncletopia | Montr√©al | 4 | No Payload | STV","players":null},{"server_id":13,"name":"Uncletopia | New York City | 1 | All Maps","name_short":"nyc-1","host":"nyc-1.us.uncletopia.com","port":27015,"enabled":true,"region":"us-east","cc":"us","latitude":40.73061,"longitude":-73.93524,"reserved":0,"last_update":"0001-01-01T00:00:00Z","name_a2s":"Uncletopia | New York City | 1 | All Maps","protocol":17,"map":"pl_barnblitz","folder":"tf","game":"Team Fortress","app_id":440,"player_count":24,"max_players":24,"Bots":0,"server_type":"Dedicated","server_os":"Linux","password":true,"vac":true,"version":"7882260","steam_id":85568392924469993,"keywords":["nocrits","nodmgspread","payload","uncletopia"],"game_id":440,"stv_port":27016,"stv_name":"Uncletopia | New York City | 1 | All Maps | STV","players":[{"user_id":11,"name":"Mochi","steam_id":76561199151314140,"connected_time":16869000000000,"state":"active","ping":37},{"user_id":203,"name":"INKED!","steam_id":76561198208926572,"connected_time":1367000000000,"state":"active","ping":48},{"user_id":132,"name":"SoftballSteven44","steam_id":76561198065842276,"connected_time":7415000000000,"state":"active","ping":47},{"user_id":202,"name":"Pockets","steam_id":76561198001742296,"connected_time":1401000000000,"state":"active","ping":74},{"user_id":205,"name":"DiscoTraveler","steam_id":76561199240168088,"connected_time":1141000000000,"state":"active","ping":49},{"user_id":189,"name":"Michael #BLM #ACAB","steam_id":76561198070380404,"connected_time":2641000000000,"state":"active","ping":45},{"user_id":218,"name":"GLAAD","steam_id":76561198119587971,"connected_time":20000000000,"state":"spawning","ping":93},{"user_id":190,"name":"SHADY SWEATER SALESMAN","steam_id":76561198014616865,"connected_time":2577000000000,"state":"active","ping":39},{"user_id":201,"name":"SublunarFox","steam_id":76561198886387474,"connected_time":1928000000000,"state":"active","ping":55},{"user_id":216,"name":"CaptainPigeon","steam_id":76561198020541863,"connected_time":753000000000,"state":"active","ping":61},{"user_id":211,"name":"goldgardian","steam_id":76561198319471339,"connected_time":888000000000,"state":"active","ping":77},{"user_id":206,"name":"TheLonliestThelonius","steam_id":76561198097657243,"connected_time":1134000000000,"state":"active","ping":82},{"user_id":207,"name":"Brick Outhouse","steam_id":76561197976661072,"connected_time":1129000000000,"state":"active","ping":45},{"user_id":197,"name":"Flowers","steam_id":76561198031669899,"connected_time":2336000000000,"state":"active","ping":70},{"user_id":208,"name":"PhatBoi","steam_id":76561198055859578,"connected_time":1094000000000,"state":"active","ping":87},{"user_id":209,"name":"‚í∑‚ì™‚ì™‚ì£‚ì®‚ìí‚ìê‚ìö‚ìî‚ì¢","steam_id":76561198088776421,"connected_time":1092000000000,"state":"active","ping":78},{"user_id":109,"name":"homer","steam_id":76561198171491110,"connected_time":8506000000000,"state":"active","ping":48},{"user_id":200,"name":"AJTarcza","steam_id":76561198070800190,"connected_time":2048000000000,"state":"active","ping":69},{"user_id":210,"name":"onetickledpickle","steam_id":76561199445983352,"connected_time":1091000000000,"state":"active","ping":75},{"user_id":204,"name":"Mr. Durian","steam_id":76561198093813212,"connected_time":1153000000000,"state":"active","ping":68},{"user_id":212,"name":"Donkey","steam_id":76561197968155896,"connected_time":886000000000,"state":"active","ping":77},{"user_id":186,"name":"Fishandfish","steam_id":76561198298483804,"connected_time":2836000000000,"state":"active","ping":119},{"user_id":214,"name":"3 dogs n' a trenchcoat","steam_id":76561198330205913,"connected_time":881000000000,"state":"active","ping":58},{"user_id":217,"name":"Mrs.Donkey","steam_id":76561197970143019,"connected_time":752000000000,"state":"active","ping":79}]},{"server_id":14,"name":"Uncletopia | New York City | 2 | All Maps","name_short":"nyc-2","host":"nyc-1.us.uncletopia.com","port":27025,"enabled":true,"region":"us-east","cc":"us","latitude":40.73061,"longitude":-73.93524,"reserved":0,"last_update":"0001-01-01T00:00:00Z","name_a2s":"Uncletopia | New York City | 2 | All Maps","protocol":17,"map":"pl_barnblitz","folder":"tf","game":"Team Fortress","app_id":440,"player_count":23,"max_players":24,"Bots":0,"server_type":"Dedicated","server_os":"Linux","password":true,"vac":true,"version":"7882260","steam_id":85568392924469994,"keywords":["nocrits","nodmgspread","payload","uncletopia"],"game_id":440,"stv_port":27026,"stv_name":"Uncletopia | New York City | 2 | All Maps | STV","players":[{"user_id":75,"name":"Purplesphere","steam_id":76561198202786833,"connected_time":9115000000000,"state":"active","ping":178},{"user_id":163,"name":"Chiki","steam_id":76561198063590320,"connected_time":1891000000000,"state":"active","ping":74},{"user_id":175,"name":"alex","steam_id":76561198095203229,"connected_time":398000000000,"state":"active","ping":88},{"user_id":134,"name":"Krobalt","steam_id":76561198167570971,"connected_time":4465000000000,"state":"active","ping":119},{"user_id":154,"name":"Brawmario","steam_id":76561198025313430,"connected_time":3013000000000,"state":"active","ping":167},{"user_id":36,"name":"bimbo blow up doll! \u003c3","steam_id":76561198959541006,"connected_time":10800000000000,"state":"active","ping":71},{"user_id":168,"name":"yougotsauled","steam_id":76561198880754695,"connected_time":1698000000000,"state":"active","ping":45},{"user_id":160,"name":"yub tubs","steam_id":76561198283284361,"connected_time":2273000000000,"state":"active","ping":56},{"user_id":164,"name":"Discourse","steam_id":76561198984286678,"connected_time":1834000000000,"state":"active","ping":74},{"user_id":165,"name":"Spy Milestones Speedrun WR","steam_id":76561199486530786,"connected_time":1793000000000,"state":"active","ping":36},{"user_id":105,"name":"Bocchi the Gock","steam_id":76561198152455316,"connected_time":7499000000000,"state":"active","ping":153},{"user_id":159,"name":"Nerrrd_","steam_id":76561198870129960,"connected_time":2287000000000,"state":"active","ping":44},{"user_id":47,"name":"10KO!","steam_id":76561199134895220,"connected_time":10465000000000,"state":"active","ping":61},{"user_id":156,"name":"Virtual Zorua","steam_id":76561198196180302,"connected_time":2416000000000,"state":"active","ping":61},{"user_id":157,"name":"tooth","steam_id":76561197986437643,"connected_time":2391000000000,"state":"active","ping":88},{"user_id":176,"name":"laoshu50500fangrl","steam_id":76561198008264703,"connected_time":386000000000,"state":"active","ping":54},{"user_id":173,"name":"YoshiBobby","steam_id":76561198069600171,"connected_time":794000000000,"state":"active","ping":47},{"user_id":137,"name":"Eeb","steam_id":76561198120935174,"connected_time":4410000000000,"state":"active","ping":68},{"user_id":170,"name":"Tony hawks pro skater 2 dlc","steam_id":76561198243387974,"connected_time":1603000000000,"state":"active","ping":52},{"user_id":169,"name":"Bing Bong","steam_id":76561198136502483,"connected_time":1696000000000,"state":"active","ping":81},{"user_id":174,"name":"you forgot the sauce","steam_id":76561198387016713,"connected_time":402000000000,"state":"active","ping":51},{"user_id":177,"name":"pisslow peter","steam_id":76561198153669555,"connected_time":377000000000,"state":"active","ping":73}]},{"server_id":15,"name":"Uncletopia | New York City | 3 | Stopwatch Beta","name_short":"nyc-3","host":"nyc-1.us.uncletopia.com","port":27035,"enabled":true,"region":"us-east","cc":"us","latitude":40.73061,"longitude":-73.93524,"reserved":0,"last_update":"0001-01-01T00:00:00Z","name_a2s":"Uncletopia | New York City | 3 | Stopwatch Beta","protocol":17,"map":"pl_borneo","folder":"tf","game":"Team Fortress","app_id":440,"player_count":0,"max_players":24,"Bots":0,"server_type":"Dedicated","server_os":"Linux","password":true,"vac":true,"version":"7882260","steam_id":85568392924742820,"keywords":["nocrits","nodmgspread","payload","uncletopia"],"game_id":440,"stv_port":27036,"stv_name":"Uncletopia | New York City | 3 | Stopwatch Beta | STV","players":null},{"server_id":16,"name":"Uncletopia | New York City | 4 | Community","name_short":"nyc-4","host":"nyc-1.us.uncletopia.com","port":27045,"enabled":true,"region":"us-east","cc":"us","latitude":40.73061,"longitude":-73.93524,"reserved":0,"last_update":"0001-01-01T00:00:00Z","name_a2s":"Uncletopia | New York City | 4 | Community","protocol":17,"map":"workshop/pl_cactuscanyon_redux_final2.ugc2579644293","folder":"tf","game":"Team Fortress","app_id":440,"player_count":0,"max_players":24,"Bots":0,"server_type":"Dedicated","server_os":"Linux","password":true,"vac":true,"version":"7882260","steam_id":85568392924742821,"keywords":["nocrits","nodmgspread","payload","uncletopia"],"game_id":440,"stv_port":27046,"stv_name":"Uncletopia | New York City | 4 | Community | STV","players":null},{"server_id":142,"name":"Uncletopia | S√£o Paulo | 1 | All Maps","name_short":"sao-1","host":"sao-1.br.uncletopia.com","port":27015,"enabled":true,"region":"sa","cc":"br","latitude":-23.533773,"longitude":-46.62529,"reserved":0,"last_update":"0001-01-01T00:00:00Z","name_a2s":"Uncletopia | S√£o Paulo | 1 | All Maps","protocol":17,"map":"pl_pier","folder":"tf","game":"Team Fortress","app_id":440,"player_count":0,"max_players":24,"Bots":0,"server_type":"Dedicated","server_os":"Linux","password":true,"vac":true,"version":"7882260","steam_id":85568392924469996,"keywords":["nocrits","nodmgspread","payload","uncletopia"],"game_id":440,"stv_port":27016,"stv_name":"Uncletopia | S√£o Paulo | 1 | All Maps | STV","players":null},{"server_id":143,"name":"Uncletopia | S√£o Paulo | 2 | All Maps","name_short":"sao-2","host":"sao-2.br.uncletopia.com","port":27015,"enabled":true,"region":"sa","cc":"br","latitude":-23.533773,"longitude":-46.62529,"reserved":0,"last_update":"0001-01-01T00:00:00Z","name_a2s":"Uncletopia | S√£o Paulo | 2 | All Maps","protocol":17,"map":"koth_cascade","folder":"tf","game":"Team Fortress","app_id":440,"player_count":9,"max_players":24,"Bots":0,"server_type":"Dedicated","server_os":"Linux","password":true,"vac":true,"version":"7882260","steam_id":85568392924485349,"keywords":["cp","nocrits","nodmgspread","uncletopia"],"game_id":440,"stv_port":27016,"stv_name":"Uncletopia | S√£o Paulo | 2 | All Maps | STV","players":[{"user_id":16,"name":"burrildo_11","steam_id":76561199163140389,"connected_time":1158000000000,"state":"active","ping":61},{"user_id":20,"name":"Pedro","steam_id":76561198873002791,"connected_time":896000000000,"state":"active","ping":67},{"user_id":21,"name":"RHD BRAZIL [\u003c O \u003e]","steam_id":76561198028190080,"connected_time":889000000000,"state":"active","ping":41},{"user_id":23,"name":"Jello","steam_id":76561199200877559,"connected_time":541000000000,"state":"active","ping":106},{"user_id":24,"name":"Suco_de_Sab√£o","steam_id":76561198260569890,"connected_time":384000000000,"state":"active","ping":190},{"user_id":25,"name":"cavaleiro no deserto","steam_id":76561198869886282,"connected_time":346000000000,"state":"active","ping":83},{"user_id":27,"name":"RaposaDePel√∫cia","steam_id":76561199051404580,"connected_time":200000000000,"state":"active","ping":49},{"user_id":28,"name":"Frans„ÉÉ","steam_id":76561198207928860,"connected_time":118000000000,"state":"active","ping":32},{"user_id":29,"name":"Rick Astley Gaming","steam_id":76561199088485755,"connected_time":92000000000,"state":"active","ping":77}]},{"server_id":7,"name":"Uncletopia | Seattle | 1 | All Maps","name_short":"sea-1","host":"sea-1.us.uncletopia.com","port":27015,"enabled":true,"region":"us-west","cc":"us","latitude":47.608013,"longitude":-122.33517,"reserved":0,"last_update":"0001-01-01T00:00:00Z","name_a2s":"Uncletopia | Seattle | 1 | All Maps","protocol":17,"map":"pl_pier","folder":"tf","game":"Team Fortress","app_id":440,"player_count":24,"max_players":24,"Bots":0,"server_type":"Dedicated","server_os":"Linux","password":true,"vac":true,"version":"7882260","steam_id":85568392924469997,"keywords":["nocrits","nodmgspread","payload","uncletopia"],"game_id":440,"stv_port":27016,"stv_name":"Uncletopia | Seattle | 1 | All Maps | STV","players":[{"user_id":272,"name":"Bagoool","steam_id":76561198065368286,"connected_time":7393000000000,"state":"active","ping":71},{"user_id":337,"name":"ZEKKER","steam_id":76561197967968980,"connected_time":1855000000000,"state":"active","ping":49},{"user_id":339,"name":"NEBULA","steam_id":76561198086878595,"connected_time":1651000000000,"state":"active","ping":73},{"user_id":334,"name":"Raian","steam_id":76561199138048671,"connected_time":2271000000000,"state":"active","ping":64},{"user_id":301,"name":"Baltimore CA-68","steam_id":76561198313517179,"connected_time":4975000000000,"state":"active","ping":91},{"user_id":329,"name":"LilTushay","steam_id":76561199420014250,"connected_time":3166000000000,"state":"active","ping":63},{"user_id":325,"name":"Daz","steam_id":76561198041431938,"connected_time":3543000000000,"state":"active","ping":53},{"user_id":320,"name":"SolarusD","steam_id":76561198029279861,"connected_time":4024000000000,"state":"active","ping":62},{"user_id":352,"name":"Wildabeazt","steam_id":76561198257243073,"connected_time":704000000000,"state":"active","ping":119},{"user_id":359,"name":"spiderguy","steam_id":76561198412074955,"connected_time":44000000000,"state":"active","ping":118},{"user_id":349,"name":"‚ô•krystal301‚ô•","steam_id":76561198118772664,"connected_time":766000000000,"state":"active","ping":78},{"user_id":277,"name":"evilOlive","steam_id":76561198106222025,"connected_time":6669000000000,"state":"active","ping":79},{"user_id":360,"name":"Captain Underbelly","steam_id":76561198811270935,"connected_time":20000000000,"state":"spawning","ping":249},{"user_id":350,"name":"YourFriendJessie #savetf2","steam_id":76561198176883097,"connected_time":756000000000,"state":"active","ping":117},{"user_id":333,"name":"jayeskae","steam_id":76561198144220801,"connected_time":2328000000000,"state":"active","ping":49},{"user_id":353,"name":"Overvote","steam_id":76561198067641129,"connected_time":696000000000,"state":"active","ping":57},{"user_id":347,"name":"The Scatman","steam_id":76561198071693469,"connected_time":800000000000,"state":"active","ping":46},{"user_id":357,"name":"kerpkek","steam_id":76561198062581880,"connected_time":208000000000,"state":"active","ping":70},{"user_id":331,"name":"fwoov","steam_id":76561198129166260,"connected_time":2803000000000,"state":"active","ping":84},{"user_id":348,"name":"BlazedBunny","steam_id":76561198243610560,"connected_time":788000000000,"state":"active","ping":70},{"user_id":351,"name":"krd","steam_id":76561198347660282,"connected_time":742000000000,"state":"active","ping":77},{"user_id":358,"name":"Saint Pablo","steam_id":76561198083300159,"connected_time":52000000000,"state":"active","ping":71},{"user_id":332,"name":"MacchuPeachu","steam_id":76561199093242587,"connected_time":2485000000000,"state":"active","ping":61},{"user_id":341,"name":"Skabbety","steam_id":76561198168044257,"connected_time":1038000000000,"state":"active","ping":45}]},{"server_id":119,"name":"Uncletopia | Seattle | 2 | All Maps","name_short":"sea-2","host":"sea-1.us.uncletopia.com","port":27025,"enabled":true,"region":"us-west","cc":"us","latitude":47.608013,"longitude":-122.33517,"reserved":0,"last_update":"0001-01-01T00:00:00Z","name_a2s":"Uncletopia | Seattle | 2 | All Maps","protocol":17,"map":"pl_badwater","folder":"tf","game":"Team Fortress","app_id":440,"player_count":24,"max_players":24,"Bots":0,"server_type":"Dedicated","server_os":"Linux","password":true,"vac":true,"version":"7882260","steam_id":85568392924469998,"keywords":["nocrits","nodmgspread","payload","uncletopia"],"game_id":440,"stv_port":27026,"stv_name":"Uncletopia | Seattle | 2 | All Maps | STV","players":[{"user_id":188,"name":"Moonkey","steam_id":76561199013741389,"connected_time":876000000000,"state":"active","ping":105},{"user_id":177,"name":"jregueiro08","steam_id":76561199251785909,"connected_time":1333000000000,"state":"active","ping":109},{"user_id":176,"name":"gumcuzzler","steam_id":76561198118644686,"connected_time":1523000000000,"state":"active","ping":78},{"user_id":184,"name":"NoLights!","steam_id":76561197981106761,"connected_time":1114000000000,"state":"active","ping":137},{"user_id":140,"name":"carpet","steam_id":76561198207881077,"connected_time":3826000000000,"state":"active","ping":100},{"user_id":196,"name":"Not Slavoj ≈Ωi≈æek","steam_id":76561198004619616,"connected_time":423000000000,"state":"active","ping":92},{"user_id":174,"name":"ohgodthepain","steam_id":76561198334256974,"connected_time":1590000000000,"state":"active","ping":102},{"user_id":178,"name":"Uncle Feathers McGraw","steam_id":76561198046442707,"connected_time":1283000000000,"state":"active","ping":46},{"user_id":163,"name":"Headmouth","steam_id":76561198019789855,"connected_time":2363000000000,"state":"active","ping":166},{"user_id":198,"name":"viaklegsmf","steam_id":76561198025295263,"connected_time":116000000000,"state":"active","ping":112},{"user_id":189,"name":"S√°bado Gigante","steam_id":76561197994685971,"connected_time":876000000000,"state":"active","ping":93},{"user_id":193,"name":"gloobern","steam_id":76561198341190679,"connected_time":684000000000,"state":"active","ping":68},{"user_id":195,"name":"BillyWithaT","steam_id":76561199427729136,"connected_time":437000000000,"state":"active","ping":124},{"user_id":152,"name":"K2f","steam_id":76561198049600563,"connected_time":3283000000000,"state":"active","ping":71},{"user_id":165,"name":"Corpe","steam_id":76561198054490549,"connected_time":2343000000000,"state":"active","ping":52},{"user_id":180,"name":"shadow wizard money gang","steam_id":76561198418414338,"connected_time":1254000000000,"state":"active","ping":113},{"user_id":190,"name":"spiderland","steam_id":76561198335992132,"connected_time":860000000000,"state":"active","ping":54},{"user_id":194,"name":"Sil","steam_id":76561199029535430,"connected_time":601000000000,"state":"active","ping":56},{"user_id":175,"name":"Glar","steam_id":76561198341907150,"connected_time":1568000000000,"state":"active","ping":41},{"user_id":197,"name":"Surprise Garlic Bread Party","steam_id":76561197995246546,"connected_time":422000000000,"state":"active","ping":69},{"user_id":155,"name":"Chairdog","steam_id":76561197980385816,"connected_time":3006000000000,"state":"active","ping":69},{"user_id":191,"name":"moe","steam_id":76561198929586245,"connected_time":815000000000,"state":"active","ping":88},{"user_id":192,"name":"BuncusBeffer","steam_id":76561198285936616,"connected_time":808000000000,"state":"active","ping":73},{"user_id":183,"name":"Mr.matt neon","steam_id":76561198207551757,"connected_time":1159000000000,"state":"active","ping":84}]},{"server_id":406,"name":"Uncletopia | Seattle | 3 | Stopwatch Beta","name_short":"sea-3","host":"sea-1.us.uncletopia.com","port":27035,"enabled":true,"region":"us-west","cc":"us","latitude":47.608013,"longitude":-122.33517,"reserved":0,"last_update":"0001-01-01T00:00:00Z","name_a2s":"Uncletopia | Seattle | 3 | Stopwatch Beta","protocol":17,"map":"koth_viaduct","folder":"tf","game":"Team Fortress","app_id":440,"player_count":0,"max_players":24,"Bots":0,"server_type":"Dedicated","server_os":"Linux","password":true,"vac":true,"version":"7882260","steam_id":85568392924515217,"keywords":["cp","nocrits","nodmgspread","uncletopia"],"game_id":440,"stv_port":27036,"stv_name":"Uncletopia | Seattle | 3 | Stopwatch Beta | STV","players":null},{"server_id":17,"name":"Uncletopia | San Francisco | 1 | All Maps","name_short":"sfo-1","host":"sfo-1.us.uncletopia.com","port":27015,"enabled":true,"region":"us-west","cc":"us","latitude":37.77397,"longitude":-122.4313,"reserved":0,"last_update":"0001-01-01T00:00:00Z","name_a2s":"Uncletopia | San Francisco | 1 | All Maps","protocol":17,"map":"pl_swiftwater_final1","folder":"tf","game":"Team Fortress","app_id":440,"player_count":0,"max_players":24,"Bots":0,"server_type":"Dedicated","server_os":"Linux","password":true,"vac":true,"version":"7882260","steam_id":85568392924469999,"keywords":["nocrits","nodmgspread","payload","uncletopia"],"game_id":440,"stv_port":27016,"stv_name":"Uncletopia | San Francisco | 1 | All Maps | STV","players":null},{"server_id":18,"name":"Uncletopia | San Francisco | 2 | All Maps","name_short":"sfo-2","host":"sfo-1.us.uncletopia.com","port":27025,"enabled":true,"region":"us-west","cc":"us","latitude":37.77397,"longitude":-122.4313,"reserved":0,"last_update":"0001-01-01T00:00:00Z","name_a2s":"Uncletopia | San Francisco | 2 | All Maps","protocol":17,"map":"cp_dustbowl","folder":"tf","game":"Team Fortress","app_id":440,"player_count":24,"max_players":24,"Bots":0,"server_type":"Dedicated","server_os":"Linux","password":true,"vac":true,"version":"7882260","steam_id":85568392924470000,"keywords":["cp","nocrits","nodmgspread","uncletopia"],"game_id":440,"stv_port":27026,"stv_name":"Uncletopia | San Francisco | 2 | All Maps | STV","players":[{"user_id":21,"name":"Rat","steam_id":76561199143308799,"connected_time":2945000000000,"state":"active","ping":65},{"user_id":8,"name":"Renz","steam_id":76561198118995036,"connected_time":3707000000000,"state":"active","ping":60},{"user_id":9,"name":"Polly Geist","steam_id":76561198271964253,"connected_time":3510000000000,"state":"active","ping":80},{"user_id":60,"name":"SneekiCheekiQbone","steam_id":76561198045077980,"connected_time":828000000000,"state":"active","ping":51},{"user_id":29,"name":"Jim the Fish","steam_id":76561199135784419,"connected_time":2461000000000,"state":"active","ping":135},{"user_id":67,"name":"knatspray","steam_id":76561198832507482,"connected_time":391000000000,"state":"active","ping":70},{"user_id":70,"name":"rivulet","steam_id":76561198165825391,"connected_time":98000000000,"state":"active","ping":88},{"user_id":14,"name":"playing tf2 in a van?","steam_id":76561198380018244,"connected_time":3439000000000,"state":"active","ping":91},{"user_id":53,"name":"Color Drop","steam_id":76561198066651473,"connected_time":1344000000000,"state":"active","ping":58},{"user_id":69,"name":"Falcon :V [squack]","steam_id":76561198029147306,"connected_time":337000000000,"state":"active","ping":119},{"user_id":59,"name":"LWebb","steam_id":76561199162936929,"connected_time":837000000000,"state":"active","ping":73},{"user_id":65,"name":"Kelz paid","steam_id":76561198097068691,"connected_time":580000000000,"state":"active","ping":65},{"user_id":40,"name":"The IRS","steam_id":76561199258337165,"connected_time":1958000000000,"state":"active","ping":57},{"user_id":54,"name":"snub","steam_id":76561198312106312,"connected_time":1293000000000,"state":"active","ping":75},{"user_id":63,"name":"Nine Inch –òipples","steam_id":76561198149413947,"connected_time":785000000000,"state":"active","ping":55},{"user_id":58,"name":"Cicada Orchestra","steam_id":76561199226839783,"connected_time":1186000000000,"state":"active","ping":100},{"user_id":66,"name":"a4„ÉÑ","steam_id":76561199152294799,"connected_time":577000000000,"state":"active","ping":83},{"user_id":34,"name":"aqua","steam_id":76561198800365464,"connected_time":2260000000000,"state":"active","ping":113},{"user_id":35,"name":"jackhillard83","steam_id":76561199057098390,"connected_time":2152000000000,"state":"active","ping":107},{"user_id":36,"name":"Mo cha","steam_id":76561199100342013,"connected_time":2083000000000,"state":"active","ping":49},{"user_id":68,"name":"ruby","steam_id":76561198436177465,"connected_time":382000000000,"state":"active","ping":103},{"user_id":41,"name":"Poland 1940s","steam_id":76561198396351275,"connected_time":1957000000000,"state":"active","ping":64},{"user_id":42,"name":"Sidekick","steam_id":76561198392740835,"connected_time":1839000000000,"state":"active","ping":62},{"user_id":51,"name":"SearingGustav #tG","steam_id":76561198040560786,"connected_time":1413000000000,"state":"active","ping":85}]},{"server_id":19,"name":"Uncletopia | San Francisco | 3 | Stopwatch Beta","name_short":"sfo-3","host":"sfo-1.us.uncletopia.com","port":27035,"enabled":true,"region":"us-west","cc":"us","latitude":37.77397,"longitude":-122.4313,"reserved":0,"last_update":"0001-01-01T00:00:00Z","name_a2s":"Uncletopia | San Francisco | 3 | Stopwatch Beta","protocol":17,"map":"workshop/pl_barnblitz_pro7.ugc582280235","folder":"tf","game":"Team Fortress","app_id":440,"player_count":0,"max_players":24,"Bots":0,"server_type":"Dedicated","server_os":"Linux","password":true,"vac":true,"version":"7882260","steam_id":85568392924742824,"keywords":["nocrits","nodmgspread","payload","uncletopia"],"game_id":440,"stv_port":27036,"stv_name":"Uncletopia | San Francisco | 3 | Stopwatch Beta | STV","players":null},{"server_id":20,"name":"Uncletopia | San Francisco | 4 | Community","name_short":"sfo-4","host":"sfo-1.us.uncletopia.com","port":27045,"enabled":true,"region":"us-west","cc":"us","latitude":37.77397,"longitude":-122.4313,"reserved":0,"last_update":"0001-01-01T00:00:00Z","name_a2s":"Uncletopia | San Francisco | 4 | Community","protocol":17,"map":"pl_swiftwater_final1","folder":"tf","game":"Team Fortress","app_id":440,"player_count":0,"max_players":24,"Bots":0,"server_type":"Dedicated","server_os":"Linux","password":true,"vac":true,"version":"7882260","steam_id":85568392924742826,"keywords":["nocrits","nodmgspread","payload","uncletopia"],"game_id":440,"stv_port":27046,"stv_name":"Uncletopia | San Francisco | 4 | Community | STV","players":null},{"server_id":141,"name":"Uncletopia | Sydney | 1 | All Maps","name_short":"syd-1","host":"syd-1.au.uncletopia.com","port":27015,"enabled":true,"region":"au","cc":"au","latitude":-33.865143,"longitude":151.2099,"reserved":0,"last_update":"0001-01-01T00:00:00Z","name_a2s":"Uncletopia | Sydney | 1 | All Maps","protocol":17,"map":"pl_upward","folder":"tf","game":"Team Fortress","app_id":440,"player_count":0,"max_players":24,"Bots":0,"server_type":"Dedicated","server_os":"Linux","password":true,"vac":true,"version":"7882260","steam_id":85568392924470001,"keywords":["nocrits","nodmgspread","payload","uncletopia"],"game_id":440,"stv_port":27016,"stv_name":"Uncletopia | Sydney | 1 | All Maps | STV","players":null},{"server_id":123,"name":"Uncletopia | Sydney | 2 | All Maps","name_short":"syd-2","host":"syd-1.au.uncletopia.com","port":27025,"enabled":true,"region":"au","cc":"au","latitude":-33.865143,"longitude":151.2099,"reserved":0,"last_update":"0001-01-01T00:00:00Z","name_a2s":"Uncletopia | Sydney | 2 | All Maps","protocol":17,"map":"koth_highpass","folder":"tf","game":"Team Fortress","app_id":440,"player_count":0,"max_players":24,"Bots":0,"server_type":"Dedicated","server_os":"Linux","password":true,"vac":true,"version":"7882260","steam_id":85568392924470002,"keywords":["cp","nocrits","nodmgspread","uncletopia"],"game_id":440,"stv_port":27026,"stv_name":"Uncletopia | Sydney | 2 | All Maps | STV","players":null},{"server_id":395,"name":"Uncletopia | Sydney | 3 | All Maps","name_short":"syd-3","host":"syd-1.au.uncletopia.com","port":27035,"enabled":true,"region":"au","cc":"au","latitude":-33.865143,"longitude":151.2099,"reserved":0,"last_update":"0001-01-01T00:00:00Z","name_a2s":"Uncletopia | Sydney | 3 | All Maps","protocol":17,"map":"pl_badwater","folder":"tf","game":"Team Fortress","app_id":440,"player_count":0,"max_players":24,"Bots":0,"server_type":"Dedicated","server_os":"Linux","password":true,"vac":true,"version":"7882260","steam_id":85568392925194467,"keywords":["nocrits","nodmgspread","payload","uncletopia"],"game_id":440,"stv_port":27036,"stv_name":"Uncletopia | Sydney | 3 | All Maps | STV","players":null},{"server_id":396,"name":"Uncletopia | Sydney | 4 | All Maps","name_short":"syd-4","host":"syd-1.au.uncletopia.com","port":27045,"enabled":true,"region":"au","cc":"au","latitude":-33.865143,"longitude":151.2099,"reserved":0,"last_update":"0001-01-01T00:00:00Z","name_a2s":"Uncletopia | Sydney | 4 | All Maps","protocol":17,"map":"cp_altitude","folder":"tf","game":"Team Fortress","app_id":440,"player_count":0,"max_players":24,"Bots":0,"server_type":"Dedicated","server_os":"Linux","password":true,"vac":true,"version":"7882260","steam_id":85568392925397958,"keywords":["cp","nocrits","nodmgspread","uncletopia"],"game_id":440,"stv_port":27046,"stv_name":"Uncletopia | Sydney | 4 | All Maps | STV","players":null},{"server_id":58,"name":"Uncletopia | Sydney | 5 | Stopwatch Beta","name_short":"syd-5","host":"syd-1.au.uncletopia.com","port":27055,"enabled":true,"region":"au","cc":"au","latitude":-33.865143,"longitude":151.2099,"reserved":0,"last_update":"0001-01-01T00:00:00Z","name_a2s":"Uncletopia | Sydney | 5 | Stopwatch Beta","protocol":17,"map":"koth_viaduct","folder":"tf","game":"Team Fortress","app_id":440,"player_count":0,"max_players":24,"Bots":0,"server_type":"Dedicated","server_os":"Linux","password":true,"vac":true,"version":"7882260","steam_id":85568392925397959,"keywords":["cp","nocrits","nodmgspread","uncletopia"],"game_id":440,"stv_port":27056,"stv_name":"Uncletopia | Sydney | 5 | Stopwatch Beta | STV","players":null},{"server_id":59,"name":"Uncletopia | Sydney | 6 | Community","name_short":"syd-6","host":"syd-1.au.uncletopia.com","port":27065,"enabled":true,"region":"au","cc":"au","latitude":-33.865143,"longitude":151.2099,"reserved":0,"last_update":"0001-01-01T00:00:00Z","name_a2s":"Uncletopia | Sydney | 6 | Community","protocol":17,"map":"workshop/koth_ashville_final.ugc2130459942","folder":"tf","game":"Team Fortress","app_id":440,"player_count":0,"max_players":24,"Bots":0,"server_type":"Dedicated","server_os":"Linux","password":true,"vac":true,"version":"7882260","steam_id":85568392925397960,"keywords":["cp","nocrits","nodmgspread","uncletopia"],"game_id":440,"stv_port":27066,"stv_name":"Uncletopia | Sydney | 6 | Community | STV","players":null},{"server_id":49,"name":"Uncletopia | Warsaw | 1 | All Maps","name_short":"waw-1","host":"waw-1.pl.uncletopia.com","port":27015,"enabled":true,"region":"eu","cc":"pl","latitude":52.2297,"longitude":21.017532,"reserved":0,"last_update":"0001-01-01T00:00:00Z","name_a2s":"","protocol":0,"map":"","folder":"","game":"","app_id":0,"player_count":0,"max_players":0,"Bots":0,"server_type":"","server_os":"","password":false,"vac":false,"version":"","steam_id":0,"keywords":null,"game_id":0,"stv_port":0,"stv_name":"","players":null},{"server_id":50,"name":"Uncletopia | Warsaw | 2 | All Maps","name_short":"waw-2","host":"waw-1.pl.uncletopia.com","port":27025,"enabled":true,"region":"eu","cc":"pl","latitude":52.2297,"longitude":21.017532,"reserved":0,"last_update":"0001-01-01T00:00:00Z","name_a2s":"Uncletopia | Warsaw | 2 | All Maps","protocol":17,"map":"koth_lakeside_final","folder":"tf","game":"Team Fortress","app_id":440,"player_count":0,"max_players":24,"Bots":0,"server_type":"Dedicated","server_os":"Linux","password":true,"vac":true,"version":"7882260","steam_id":85568392925397851,"keywords":["cp","nocrits","nodmgspread","uncletopia"],"game_id":440,"stv_port":27026,"stv_name":"Uncletopia | Warsaw | 2 | All Maps | STV","players":null},{"server_id":51,"name":"Uncletopia | Warsaw | 3 | All Maps","name_short":"waw-3","host":"waw-1.pl.uncletopia.com","port":27035,"enabled":true,"region":"eu","cc":"pl","latitude":52.2297,"longitude":21.017532,"reserved":0,"last_update":"0001-01-01T00:00:00Z","name_a2s":"Uncletopia | Warsaw | 3 | All Maps","protocol":17,"map":"koth_lakeside_final","folder":"tf","game":"Team Fortress","app_id":440,"player_count":0,"max_players":24,"Bots":0,"server_type":"Dedicated","server_os":"Linux","password":true,"vac":true,"version":"7882260","steam_id":85568392925397852,"keywords":["cp","nocrits","nodmgspread","uncletopia"],"game_id":440,"stv_port":27036,"stv_name":"Uncletopia | Warsaw | 3 | All Maps | STV","players":null},{"server_id":52,"name":"Uncletopia | Warsaw | 4 | All Maps","name_short":"waw-4","host":"waw-1.pl.uncletopia.com","port":27045,"enabled":true,"region":"eu","cc":"pl","latitude":52.2297,"longitude":21.017532,"reserved":0,"last_update":"0001-01-01T00:00:00Z","name_a2s":"Uncletopia | Warsaw | 4 | All Maps","protocol":17,"map":"koth_cascade","folder":"tf","game":"Team Fortress","app_id":440,"player_count":0,"max_players":24,"Bots":0,"server_type":"Dedicated","server_os":"Linux","password":true,"vac":true,"version":"7882260","steam_id":85568392925397853,"keywords":["cp","nocrits","nodmgspread","uncletopia"],"game_id":440,"stv_port":27046,"stv_name":"Uncletopia | Warsaw | 4 | All Maps | STV","players":null},{"server_id":53,"name":"Uncletopia | Warsaw | 5 | Stopwatch Beta","name_short":"waw-5","host":"waw-1.pl.uncletopia.com","port":27055,"enabled":true,"region":"eu","cc":"pl","latitude":52.2297,"longitude":21.017532,"reserved":0,"last_update":"0001-01-01T00:00:00Z","name_a2s":"Uncletopia | Warsaw | 5 | Stopwatch Beta","protocol":17,"map":"koth_lakeside_final","folder":"tf","game":"Team Fortress","app_id":440,"player_count":0,"max_players":24,"Bots":0,"server_type":"Dedicated","server_os":"Linux","password":true,"vac":true,"version":"7882260","steam_id":85568392925397854,"keywords":["cp","nocrits","nodmgspread","uncletopia"],"game_id":440,"stv_port":27056,"stv_name":"Uncletopia | Warsaw | 5 | Stopwatch Beta | STV","players":null},{"server_id":54,"name":"Uncletopia | Warsaw | 6 | Community","name_short":"waw-6","host":"waw-1.pl.uncletopia.com","port":27065,"enabled":true,"region":"eu","cc":"pl","latitude":52.2297,"longitude":21.017532,"reserved":0,"last_update":"0001-01-01T00:00:00Z","name_a2s":"Uncletopia | Warsaw | 6 | Community","protocol":17,"map":"workshop/koth_ashville_final.ugc2130459942","folder":"tf","game":"Team Fortress","app_id":440,"player_count":0,"max_players":24,"Bots":0,"server_type":"Dedicated","server_os":"Linux","password":true,"vac":true,"version":"7882260","steam_id":85568392925397856,"keywords":["cp","nocrits","nodmgspread","uncletopia"],"game_id":440,"stv_port":27066,"stv_name":"Uncletopia | Warsaw | 6 | Community | STV","players":null}]}