{"status":true,"message":"","result":[{"server_id":9,"name":"Uncletopia | Atlanta | 1 | All Maps","name_short":"atl-1","host":"atl-1.us.uncletopia.com","port":27015,"enabled":true,"region":"us-east","cc":"us","latitude":33.753746,"longitude":-84.38633,"reserved":0,"last_update":"0001-01-01T00:00:00Z","name_a2s":"Uncletopia | Atlanta | 1 | All Maps","protocol":17,"map":"pl_badwater","folder":"tf","game":"Team Fortress","app_id":440,"player_count":24,"max_players":24,"Bots":0,"server_type":"Dedicated","server_os":"Linux","password":true,"vac":true,"version":"7961495","steam_id":85568392924469982,"keywords":["nocrits","nodmgspread","payload","uncletopia"],"game_id":440,"stv_port":27016,"stv_name":"Uncletopia | Atlanta | 1 | All Maps | STV","players":null},{"server_id":104,"name":"Uncletopia | Atlanta | 2 | All Maps","name_short":"atl-2","host":"atl-1.us.uncletopia.com","port":27025,"enabled":true,"region":"us-east","cc":"us","latitude":33.753746,"longitude":-84.38633,"reserved":0,"last_update":"0001-01-01T00:00:00Z","name_a2s":"Uncletopia | Atlanta | 2 | All Maps","protocol":17,"map":"pl_snowycoast","folder":"tf","game":"Team Fortress","app_id":440,"player_count":24,"max_players":24,"Bots":0,"server_type":"Dedicated","server_os":"Linux","password":true,"vac":true,"version":"7961495","steam_id":85568392924469983,"keywords":["nocrits","nodmgspread","payload","uncletopia"],"game_id":440,"stv_port":27026,"stv_name":"Uncletopia | Atlanta | 2 | All Maps | STV","players":null},{"server_id":400,"name":"Uncletopia | Atlanta | 3 | Stopwatch","name_short":"atl-3","host":"atl-1.us.uncletopia.com","port":27035,"enabled":true,"region":"us-east","cc":"us","latitude":33.753746,"longitude":-84.38633,"reserved":0,"last_update":"0001-01-01T00:00:00Z","name_a2s":"Uncletopia | Atlanta | 3 | Stopwatch","protocol":17,"map":"pl_vigil_rc10","folder":"tf","game":"Team Fortress","app_id":440,"player_count":0,"max_players":24,"Bots":0,"server_type":"Dedicated","server_os":"Linux","password":true,"vac":true,"version":"7961495","steam_id":85568392924515187,"keywords":["nocrits","nodmgspread","payload","uncletopia"],"game_id":440,"stv_port":27036,"stv_name":"Uncletopia | Atlanta | 3 | Stopwatch | STV","players":null},{"server_id":401,"name":"Uncletopia | Atlanta | 4 | Community","name_short":"atl-4","host":"atl-1.us.uncletopia.com","port":27045,"enabled":true,"region":"us-east","cc":"us","latitude":33.753746,"longitude":-84.38633,"reserved":0,"last_update":"0001-01-01T00:00:00Z","name_a2s":"Uncletopia | Atlanta | 4 | Community","protocol":17,"map":"pl_emerge_rc2","folder":"tf","game":"Team Fortress","app_id":440,"player_count":23,"max_players":24,"Bots":0,"server_type":"Dedicated","server_os":"Linux","password":true,"vac":true,"version":"7961495","steam_id":85568392924515188,"keywords":["nocrits","nodmgspread","payload","uncletopia"],"game_id":440,"stv_port":27046,"stv_name":"Uncletopia | Atlanta | 4 | Community | STV","players":null},{"server_id":2,"name":"Uncletopia | Chicago | 1 | All Maps","name_short":"chi-1","host":"chi-1.us.uncletopia.com","port":27015,"enabled":true,"region":"us-central","cc":"us","latitude":41.881832,"longitude":-87.62318,"reserved":0,"last_update":"0001-01-01T00:00:00Z","name_a2s":"Uncletopia | Chicago | 1 | All Maps","protocol":17,"map":"pl_frontier_final","folder":"tf","game":"Team Fortress","app_id":440,"player_count":24,"max_players":24,"Bots":0,"server_type":"Dedicated","server_os":"Linux","password":true,"vac":true,"version":"7961495","steam_id":85568392924469984,"keywords":["nocrits","nodmgspread","payload","uncletopia"],"game_id":440,"stv_port":27016,"stv_name":"Uncletopia | Chicago | 1 | All Maps | STV","players":[{"user_id":572,"name":"Space","steam_id":76561198350489754,"connected_time":2966000000000,"state":"active","ping":56},{"user_id":602,"name":"MioAnarchy","steam_id":76561198237106136,"connected_time":567000000000,"state":"active","ping":127},{"user_id":589,"name":"fried rice","steam_id":76561198928939100,"connected_time":1352000000000,"state":"active","ping":83},{"user_id":606,"name":"Ye","steam_id":76561198354719262,"connected_time":503000000000,"state":"active","ping":184},{"user_id":601,"name":"Rashi","steam_id":76561198390962022,"connected_time":591000000000,"state":"active","ping":90},{"user_id":591,"name":"menonamed","steam_id":76561198199564382,"connected_time":1319000000000,"state":"active","ping":70},{"user_id":594,"name":"medium p bands","steam_id":76561198202843510,"connected_time":1273000000000,"state":"active","ping":64},{"user_id":603,"name":"AttackCommander","steam_id":76561198111522679,"connected_time":555000000000,"state":"active","ping":82},{"user_id":600,"name":"Astoriae!","steam_id":76561199090168858,"connected_time":681000000000,"state":"active","ping":66},{"user_id":585,"name":"Lumberjack Wharfie","steam_id":76561198023400820,"connected_time":1565000000000,"state":"active","ping":45},{"user_id":588,"name":"Big Milk","steam_id":76561198066904836,"connected_time":1400000000000,"state":"active","ping":110},{"user_id":609,"name":"Mog","steam_id":76561198025575870,"connected_time":472000000000,"state":"active","ping":63},{"user_id":598,"name":"Milkmur","steam_id":76561198210043821,"connected_time":1103000000000,"state":"active","ping":69},{"user_id":592,"name":"Carpet enthusiast","steam_id":76561198024040142,"connected_time":1313000000000,"state":"active","ping":97},{"user_id":593,"name":"Some Sinner","steam_id":76561198063331396,"connected_time":1299000000000,"state":"active","ping":47},{"user_id":613,"name":"Jennifer Aniston's Nipples","steam_id":76561198086107548,"connected_time":189000000000,"state":"active","ping":64},{"user_id":604,"name":"Visual Depression","steam_id":76561198825918366,"connected_time":536000000000,"state":"active","ping":100},{"user_id":605,"name":"thug shaker #enablecrits","steam_id":76561198081220016,"connected_time":525000000000,"state":"active","ping":46},{"user_id":597,"name":"phfez","steam_id":76561198046150386,"connected_time":1166000000000,"state":"active","ping":73},{"user_id":570,"name":"Kimba","steam_id":76561199092078325,"connected_time":3158000000000,"state":"active","ping":78},{"user_id":599,"name":"SPIRE_FAN","steam_id":76561198001486573,"connected_time":754000000000,"state":"active","ping":70},{"user_id":608,"name":"copper","steam_id":76561198146250533,"connected_time":498000000000,"state":"active","ping":103},{"user_id":581,"name":"Praise_to_the_Flashlight!","steam_id":76561199001728789,"connected_time":1965000000000,"state":"active","ping":58},{"user_id":612,"name":"draconisblaze","steam_id":76561198805868121,"connected_time":328000000000,"state":"active","ping":68}]},{"server_id":106,"name":"Uncletopia | Chicago | 2 | All Maps","name_short":"chi-2","host":"chi-1.us.uncletopia.com","port":27025,"enabled":true,"region":"us-central","cc":"us","latitude":41.881832,"longitude":-87.62318,"reserved":0,"last_update":"0001-01-01T00:00:00Z","name_a2s":"Uncletopia | Chicago | 2 | All Maps","protocol":17,"map":"pl_badwater","folder":"tf","game":"Team Fortress","app_id":440,"player_count":24,"max_players":24,"Bots":0,"server_type":"Dedicated","server_os":"Linux","password":true,"vac":true,"version":"7961495","steam_id":85568392924469985,"keywords":["nocrits","nodmgspread","payload","uncletopia"],"game_id":440,"stv_port":27026,"stv_name":"Uncletopia | Chicago | 2 | All Maps | STV","players":[{"user_id":527,"name":"Cobalt","steam_id":76561198353896624,"connected_time":2397000000000,"state":"active","ping":83},{"user_id":564,"name":"zeeette","steam_id":76561198325344637,"connected_time":641000000000,"state":"active","ping":89},{"user_id":520,"name":"Slime","steam_id":76561198128358144,"connected_time":2508000000000,"state":"active","ping":65},{"user_id":528,"name":"YummerBummer","steam_id":76561198094773987,"connected_time":2231000000000,"state":"active","ping":72},{"user_id":542,"name":"wario","steam_id":76561199069748074,"connected_time":1444000000000,"state":"active","ping":51},{"user_id":571,"name":"Warpy","steam_id":76561198055852599,"connected_time":55000000000,"state":"active","ping":82},{"user_id":563,"name":"Feathers McGraw","steam_id":76561198208094321,"connected_time":671000000000,"state":"active","ping":82},{"user_id":436,"name":"wwhg","steam_id":76561198140658919,"connected_time":9502000000000,"state":"active","ping":72},{"user_id":522,"name":"puppy :3","steam_id":76561198011196264,"connected_time":2494000000000,"state":"active","ping":45},{"user_id":565,"name":"garbuglio","steam_id":76561198012371111,"connected_time":412000000000,"state":"active","ping":57},{"user_id":486,"name":"Pipnirsian","steam_id":76561198380976416,"connected_time":5214000000000,"state":"active","ping":77},{"user_id":440,"name":"I'm a Fungi","steam_id":76561198061507741,"connected_time":9442000000000,"state":"active","ping":70},{"user_id":523,"name":"themeanseenleangreenbeanmachine","steam_id":76561199232327942,"connected_time":2493000000000,"state":"active","ping":70},{"user_id":511,"name":"Curse of the Blackened Eye","steam_id":76561198097175164,"connected_time":3435000000000,"state":"active","ping":84},{"user_id":519,"name":"Grandma","steam_id":76561198419412841,"connected_time":2818000000000,"state":"active","ping":51},{"user_id":559,"name":"freyja","steam_id":76561198249206656,"connected_time":927000000000,"state":"active","ping":61},{"user_id":569,"name":"Fasted9","steam_id":76561198115425962,"connected_time":308000000000,"state":"active","ping":45},{"user_id":570,"name":"stormfoam","steam_id":76561198936871387,"connected_time":302000000000,"state":"active","ping":73},{"user_id":567,"name":"selwonk314","steam_id":76561199122152044,"connected_time":377000000000,"state":"active","ping":55},{"user_id":552,"name":"Varth Dader","steam_id":76561198134195099,"connected_time":1205000000000,"state":"active","ping":72},{"user_id":547,"name":"MedRed™ #IATAH","steam_id":76561198002962970,"connected_time":1336000000000,"state":"active","ping":95},{"user_id":550,"name":"Comfy!","steam_id":76561198008818346,"connected_time":1277000000000,"state":"active","ping":67},{"user_id":509,"name":"gaming elliptical","steam_id":76561198013456569,"connected_time":3587000000000,"state":"active","ping":46},{"user_id":553,"name":"KyonHB","steam_id":76561198050311904,"connected_time":1195000000000,"state":"active","ping":85}]},{"server_id":402,"name":"Uncletopia | Chicago | 3 | All Maps","name_short":"chi-3","host":"chi-1.us.uncletopia.com","port":27035,"enabled":true,"region":"us-central","cc":"us","latitude":41.881832,"longitude":-87.62318,"reserved":0,"last_update":"0001-01-01T00:00:00Z","name_a2s":"Uncletopia | Chicago | 3 | All Maps","protocol":17,"map":"cp_dustbowl","folder":"tf","game":"Team Fortress","app_id":440,"player_count":24,"max_players":24,"Bots":0,"server_type":"Dedicated","server_os":"Linux","password":true,"vac":true,"version":"7961495","steam_id":85568392924515191,"keywords":["cp","nocrits","nodmgspread","uncletopia"],"game_id":440,"stv_port":27036,"stv_name":"Uncletopia | Chicago | 3 | All Maps | STV","players":[{"user_id":397,"name":"Big Tiddy Serperior","steam_id":76561198114808144,"connected_time":916000000000,"state":"active","ping":127},{"user_id":411,"name":"Pepilepsi","steam_id":76561198000809372,"connected_time":150000000000,"state":"active","ping":55},{"user_id":407,"name":"No.21 - Feral Scent","steam_id":76561198045844070,"connected_time":177000000000,"state":"active","ping":83},{"user_id":367,"name":"Rhutebeer","steam_id":76561198018302761,"connected_time":2170000000000,"state":"active","ping":101},{"user_id":418,"name":"SomeScuffedKid","steam_id":76561198086113234,"connected_time":29000000000,"state":"active","ping":60},{"user_id":406,"name":"cran","steam_id":76561198178840075,"connected_time":183000000000,"state":"active","ping":73},{"user_id":404,"name":"David Hasseloof","steam_id":76561198070864553,"connected_time":189000000000,"state":"active","ping":76},{"user_id":401,"name":"sih3","steam_id":76561198081462396,"connected_time":371000000000,"state":"active","ping":75},{"user_id":405,"name":"Wiener Hole Paper Cut","steam_id":76561198000808203,"connected_time":188000000000,"state":"active","ping":73},{"user_id":393,"name":"cyclops","steam_id":76561197970370198,"connected_time":1062000000000,"state":"active","ping":53},{"user_id":408,"name":"BreakfastTacos","steam_id":76561198847620442,"connected_time":172000000000,"state":"active","ping":111},{"user_id":369,"name":"Amauri","steam_id":76561198130809137,"connected_time":2005000000000,"state":"active","ping":95},{"user_id":402,"name":"Six Piece Chicken McNobody","steam_id":76561198129848222,"connected_time":217000000000,"state":"active","ping":68},{"user_id":392,"name":"Scoutdy","steam_id":76561198053640598,"connected_time":1103000000000,"state":"active","ping":43},{"user_id":415,"name":"Jonatello","steam_id":76561198045699189,"connected_time":115000000000,"state":"active","ping":120},{"user_id":409,"name":"BenUpde","steam_id":76561198003554034,"connected_time":166000000000,"state":"active","ping":81},{"user_id":376,"name":"sulli","steam_id":76561198243918128,"connected_time":1753000000000,"state":"active","ping":59},{"user_id":410,"name":"vv","steam_id":76561198134813102,"connected_time":160000000000,"state":"active","ping":54},{"user_id":253,"name":"Liebesträume","steam_id":76561198038862034,"connected_time":10395000000000,"state":"active","ping":97},{"user_id":399,"name":"Bana-kun","steam_id":76561198131344605,"connected_time":676000000000,"state":"active","ping":64},{"user_id":413,"name":"Ethan :3","steam_id":76561199477901258,"connected_time":145000000000,"state":"active","ping":73},{"user_id":417,"name":"Papahemmy","steam_id":76561198155470810,"connected_time":76000000000,"state":"active","ping":64},{"user_id":365,"name":"DivineBanana","steam_id":76561198026529731,"connected_time":2190000000000,"state":"active","ping":90},{"user_id":380,"name":"muck","steam_id":76561198120437909,"connected_time":1705000000000,"state":"active","ping":58}]},{"server_id":403,"name":"Uncletopia | Chicago | 4 | All Maps","name_short":"chi-4","host":"chi-1.us.uncletopia.com","port":27045,"enabled":true,"region":"us-central","cc":"us","latitude":41.881832,"longitude":-87.62318,"reserved":0,"last_update":"0001-01-01T00:00:00Z","name_a2s":"Uncletopia | Chicago | 4 | All Maps","protocol":17,"map":"cp_mercenarypark","folder":"tf","game":"Team Fortress","app_id":440,"player_count":24,"max_players":24,"Bots":0,"server_type":"Dedicated","server_os":"Linux","password":true,"vac":true,"version":"7961495","steam_id":85568392924515193,"keywords":["cp","nocrits","nodmgspread","uncletopia"],"game_id":440,"stv_port":27046,"stv_name":"Uncletopia | Chicago | 4 | All Maps | STV","players":[{"user_id":273,"name":"double xp weekend","steam_id":76561198052950547,"connected_time":792000000000,"state":"active","ping":40},{"user_id":268,"name":"shut up i'm gaming","steam_id":76561198312153623,"connected_time":905000000000,"state":"active","ping":75},{"user_id":287,"name":"PackingPeanutt :]","steam_id":76561199053229413,"connected_time":126000000000,"state":"active","ping":87},{"user_id":251,"name":"Grand Piano Tuna","steam_id":76561198135137213,"connected_time":1912000000000,"state":"active","ping":54},{"user_id":288,"name":"frank","steam_id":76561198137777483,"connected_time":107000000000,"state":"active","ping":69},{"user_id":290,"name":"Clueless_Noob","steam_id":76561199090554925,"connected_time":63000000000,"state":"active","ping":53},{"user_id":218,"name":"CyborgHexapus4","steam_id":76561198160335724,"connected_time":5392000000000,"state":"active","ping":105},{"user_id":285,"name":"GreatTimBones","steam_id":76561198409145748,"connected_time":149000000000,"state":"active","ping":77},{"user_id":255,"name":"Lee Byung Hun","steam_id":76561198050136796,"connected_time":1766000000000,"state":"active","ping":75},{"user_id":256,"name":"ChozoChorizo","steam_id":76561198272609196,"connected_time":1756000000000,"state":"active","ping":60},{"user_id":286,"name":"hot glass of onionaid","steam_id":76561198065266282,"connected_time":141000000000,"state":"active","ping":68},{"user_id":213,"name":"BookBurner23","steam_id":76561198034771185,"connected_time":5458000000000,"state":"active","ping":60},{"user_id":187,"name":"GuyGoom","steam_id":76561198254522178,"connected_time":7577000000000,"state":"active","ping":55},{"user_id":270,"name":"Jojoker","steam_id":76561198049833406,"connected_time":870000000000,"state":"active","ping":74},{"user_id":277,"name":"Dr Spaceman","steam_id":76561197969755657,"connected_time":668000000000,"state":"active","ping":50},{"user_id":289,"name":"Pistol Freeman","steam_id":76561198026818915,"connected_time":106000000000,"state":"active","ping":58},{"user_id":275,"name":"Billy McWilly","steam_id":76561198002882318,"connected_time":772000000000,"state":"active","ping":68},{"user_id":262,"name":"og biden pack cart","steam_id":76561198253731826,"connected_time":1684000000000,"state":"active","ping":60},{"user_id":279,"name":"Psychosis","steam_id":76561198078659070,"connected_time":489000000000,"state":"active","ping":84},{"user_id":250,"name":"catfish from toontown","steam_id":76561198060070002,"connected_time":2197000000000,"state":"active","ping":75},{"user_id":239,"name":"the.land.of.avalon","steam_id":76561198245431668,"connected_time":3025000000000,"state":"active","ping":58},{"user_id":241,"name":"Zhong Xina","steam_id":76561198048157121,"connected_time":3018000000000,"state":"active","ping":85},{"user_id":280,"name":"The Dead Weight","steam_id":76561198056694098,"connected_time":432000000000,"state":"active","ping":68},{"user_id":284,"name":"James","steam_id":76561198081313916,"connected_time":314000000000,"state":"active","ping":74}]},{"server_id":36,"name":"Uncletopia | Chicago | 5 | All Maps","name_short":"chi-5","host":"chi-2.us.uncletopia.com","port":27015,"enabled":true,"region":"us-central","cc":"us","latitude":41.881832,"longitude":-87.62318,"reserved":0,"last_update":"0001-01-01T00:00:00Z","name_a2s":"Uncletopia | Chicago | 5 | All Maps","protocol":17,"map":"pl_badwater","folder":"tf","game":"Team Fortress","app_id":440,"player_count":24,"max_players":24,"Bots":0,"server_type":"Dedicated","server_os":"Linux","password":true,"vac":true,"version":"7961495","steam_id":85568392924866362,"keywords":["nocrits","nodmgspread","payload","uncletopia"],"game_id":440,"stv_port":27016,"stv_name":"Uncletopia | Chicago | 5 | All Maps | STV","players":[{"user_id":498,"name":"my name jeff","steam_id":76561198179816898,"connected_time":1037000000000,"state":"active","ping":75},{"user_id":447,"name":"ImmortalProphet","steam_id":76561198012352477,"connected_time":4479000000000,"state":"active","ping":46},{"user_id":482,"name":"Vilgax8714","steam_id":76561199144886323,"connected_time":2063000000000,"state":"active","ping":106},{"user_id":392,"name":"zpalmtree","steam_id":76561198134307620,"connected_time":6875000000000,"state":"active","ping":73},{"user_id":500,"name":"rancheros","steam_id":76561199003913101,"connected_time":818000000000,"state":"active","ping":88},{"user_id":490,"name":"Goose of Wisdom","steam_id":76561198233465044,"connected_time":1333000000000,"state":"active","ping":73},{"user_id":461,"name":"FROYO donovin","steam_id":76561198045679387,"connected_time":3252000000000,"state":"active","ping":45},{"user_id":465,"name":"Ursus Ludius","steam_id":76561198025470722,"connected_time":2772000000000,"state":"active","ping":77},{"user_id":502,"name":"WastefulTrash","steam_id":76561198119003597,"connected_time":409000000000,"state":"active","ping":65},{"user_id":448,"name":"Kreld","steam_id":76561198047794615,"connected_time":4472000000000,"state":"active","ping":158},{"user_id":492,"name":"Biscipline","steam_id":76561198019206178,"connected_time":1317000000000,"state":"active","ping":79},{"user_id":474,"name":"cakgamin","steam_id":76561199088909749,"connected_time":2327000000000,"state":"active","ping":67},{"user_id":503,"name":"Grundle Thunder","steam_id":76561197960790338,"connected_time":302000000000,"state":"active","ping":84},{"user_id":493,"name":"Bobby Ray","steam_id":76561198044131188,"connected_time":1305000000000,"state":"active","ping":75},{"user_id":501,"name":"Muselk","steam_id":76561199289676387,"connected_time":548000000000,"state":"active","ping":84},{"user_id":462,"name":"Erectnophobia","steam_id":76561198053743602,"connected_time":3217000000000,"state":"active","ping":51},{"user_id":476,"name":"frid","steam_id":76561198005806915,"connected_time":2323000000000,"state":"active","ping":60},{"user_id":483,"name":"shoutyman","steam_id":76561198055456198,"connected_time":1853000000000,"state":"active","ping":74},{"user_id":505,"name":"suffer :)","steam_id":76561198091875604,"connected_time":49000000000,"state":"active","ping":77},{"user_id":497,"name":"Anti-Clown","steam_id":76561199041966659,"connected_time":1082000000000,"state":"active","ping":101},{"user_id":487,"name":"MrKokonut","steam_id":76561198879575825,"connected_time":1506000000000,"state":"active","ping":61},{"user_id":504,"name":"Stapler","steam_id":76561198099295077,"connected_time":165000000000,"state":"active","ping":90},{"user_id":480,"name":"styraxic","steam_id":76561198987579589,"connected_time":2309000000000,"state":"active","ping":57},{"user_id":485,"name":"Gawin Goodman","steam_id":76561198192661585,"connected_time":1648000000000,"state":"active","ping":83}]},{"server_id":37,"name":"Uncletopia | Chicago | 6 | All Maps","name_short":"chi-6","host":"chi-2.us.uncletopia.com","port":27025,"enabled":true,"region":"us-central","cc":"us","latitude":41.881832,"longitude":-87.62318,"reserved":0,"last_update":"0001-01-01T00:00:00Z","name_a2s":"Uncletopia | Chicago | 6 | All Maps","protocol":17,"map":"pl_frontier_final","folder":"tf","game":"Team Fortress","app_id":440,"player_count":24,"max_players":24,"Bots":0,"server_type":"Dedicated","server_os":"Linux","password":true,"vac":true,"version":"7961495","steam_id":85568392924866363,"keywords":["nocrits","nodmgspread","payload","uncletopia"],"game_id":440,"stv_port":27026,"stv_name":"Uncletopia | Chicago | 6 | All Maps | STV","players":[{"user_id":445,"name":"canakblasteran","steam_id":76561199472518822,"connected_time":2768000000000,"state":"active","ping":105},{"user_id":457,"name":"Smiley_R5 ringme","steam_id":76561198113083770,"connected_time":1400000000000,"state":"active","ping":66},{"user_id":463,"name":"LevelRaisin","steam_id":76561198082924440,"connected_time":1049000000000,"state":"active","ping":58},{"user_id":454,"name":"stink","steam_id":76561198099318923,"connected_time":1478000000000,"state":"active","ping":57},{"user_id":392,"name":"Captain","steam_id":76561198155723294,"connected_time":6119000000000,"state":"active","ping":61},{"user_id":432,"name":"Shaby_Frost","steam_id":76561198401334563,"connected_time":3860000000000,"state":"active","ping":47},{"user_id":455,"name":"qiulongtao","steam_id":76561198977558717,"connected_time":1417000000000,"state":"active","ping":78},{"user_id":426,"name":"MTGbigdog","steam_id":76561198838760637,"connected_time":3969000000000,"state":"active","ping":87},{"user_id":468,"name":"Vox Vulpera","steam_id":76561198796227041,"connected_time":469000000000,"state":"active","ping":93},{"user_id":440,"name":"Glue Gulper","steam_id":76561198158014525,"connected_time":3601000000000,"state":"active","ping":61},{"user_id":448,"name":"hazel","steam_id":76561198447244031,"connected_time":2586000000000,"state":"active","ping":68},{"user_id":443,"name":"kicks","steam_id":76561199228854923,"connected_time":3224000000000,"state":"active","ping":59},{"user_id":466,"name":"Sergeant Snowflake","steam_id":76561198041474489,"connected_time":911000000000,"state":"active","ping":59},{"user_id":465,"name":"Novu","steam_id":76561198886997024,"connected_time":937000000000,"state":"active","ping":92},{"user_id":467,"name":"Syrus","steam_id":76561198079606024,"connected_time":890000000000,"state":"active","ping":76},{"user_id":433,"name":"Smelly","steam_id":76561198380507370,"connected_time":3856000000000,"state":"active","ping":75},{"user_id":456,"name":"THGAwesome","steam_id":76561198162847218,"connected_time":1413000000000,"state":"active","ping":93},{"user_id":437,"name":"Juan Pablo Gonzalez 2023","steam_id":76561199197961413,"connected_time":3843000000000,"state":"active","ping":59},{"user_id":441,"name":"mansteam905","steam_id":76561199488421021,"connected_time":3430000000000,"state":"active","ping":88},{"user_id":418,"name":"Capn. Wing Ding","steam_id":76561198076068424,"connected_time":4397000000000,"state":"active","ping":86},{"user_id":434,"name":"coolkid","steam_id":76561198072600034,"connected_time":3855000000000,"state":"active","ping":193},{"user_id":404,"name":"Eminem Guardian","steam_id":76561198064631314,"connected_time":5130000000000,"state":"active","ping":71},{"user_id":450,"name":"Tri-Dot","steam_id":76561199075186597,"connected_time":2197000000000,"state":"active","ping":69},{"user_id":417,"name":"John16Mark","steam_id":76561198119445407,"connected_time":4435000000000,"state":"active","ping":90}]},{"server_id":38,"name":"Uncletopia | Chicago | 7 | Stopwatch","name_short":"chi-7","host":"chi-2.us.uncletopia.com","port":27035,"enabled":true,"region":"us-central","cc":"us","latitude":41.881832,"longitude":-87.62318,"reserved":0,"last_update":"0001-01-01T00:00:00Z","name_a2s":"Uncletopia | Chicago | 7 | Stopwatch","protocol":17,"map":"workshop/koth_product_final.ugc454272353","folder":"tf","game":"Team Fortress","app_id":440,"player_count":0,"max_players":24,"Bots":0,"server_type":"Dedicated","server_os":"Linux","password":true,"vac":true,"version":"7961495","steam_id":85568392924866364,"keywords":["cp","nocrits","nodmgspread","uncletopia"],"game_id":440,"stv_port":27036,"stv_name":"Uncletopia | Chicago | 7 | Stopwatch | STV","players":null},{"server_id":39,"name":"Uncletopia | Chicago | 8 | Community","name_short":"chi-8","host":"chi-2.us.uncletopia.com","port":27045,"enabled":true,"region":"us-central","cc":"us","latitude":41.881832,"longitude":-87.62318,"reserved":0,"last_update":"0001-01-01T00:00:00Z","name_a2s":"Uncletopia | Chicago | 8 | Community","protocol":17,"map":"workshop/koth_bagel_rc6.ugc2514036946","folder":"tf","game":"Team Fortress","app_id":440,"player_count":0,"max_players":24,"Bots":0,"server_type":"Dedicated","server_os":"Linux","password":true,"vac":true,"version":"7961495","steam_id":85568392924866365,"keywords":["cp","nocrits","nodmgspread","uncletopia"],"game_id":440,"stv_port":27046,"stv_name":"Uncletopia | Chicago | 8 | Community | STV","players":null},{"server_id":8,"name":"Uncletopia | Dallas | 1 | All Maps","name_short":"dal-1","host":"dal-1.us.uncletopia.com","port":27015,"enabled":true,"region":"us-central","cc":"us","latitude":32.779167,"longitude":-96.80889,"reserved":0,"last_update":"0001-01-01T00:00:00Z","name_a2s":"Uncletopia | Dallas | 1 | All Maps","protocol":17,"map":"pl_swiftwater_final1","folder":"tf","game":"Team Fortress","app_id":440,"player_count":24,"max_players":24,"Bots":0,"server_type":"Dedicated","server_os":"Linux","password":true,"vac":true,"version":"7961495","steam_id":85568392924469986,"keywords":["nocrits","nodmgspread","payload","uncletopia"],"game_id":440,"stv_port":27016,"stv_name":"Uncletopia | Dallas | 1 | All Maps | STV","players":[{"user_id":516,"name":"flippercurve","steam_id":76561199238295034,"connected_time":1639000000000,"state":"active","ping":67},{"user_id":513,"name":"Neptune˖⁺｡˚⋆˙♥","steam_id":76561199054203198,"connected_time":1964000000000,"state":"active","ping":86},{"user_id":509,"name":"gooch_masta","steam_id":76561198151578423,"connected_time":2830000000000,"state":"active","ping":85},{"user_id":523,"name":"Bleok","steam_id":76561198078212322,"connected_time":1388000000000,"state":"active","ping":115},{"user_id":500,"name":"Vorpas Jabwak","steam_id":76561198112186064,"connected_time":3671000000000,"state":"active","ping":74},{"user_id":480,"name":"Lezabel","steam_id":76561198970753261,"connected_time":5507000000000,"state":"active","ping":80},{"user_id":489,"name":"Cursed","steam_id":76561199161458959,"connected_time":4828000000000,"state":"active","ping":81},{"user_id":517,"name":"Greg Boberton 2012","steam_id":76561198983566026,"connected_time":1427000000000,"state":"active","ping":84},{"user_id":505,"name":"biggamehntr887","steam_id":76561198999431215,"connected_time":3160000000000,"state":"active","ping":83},{"user_id":519,"name":"IchigoDolphin","steam_id":76561198319769482,"connected_time":1408000000000,"state":"active","ping":58},{"user_id":524,"name":"denzell05","steam_id":76561198086987061,"connected_time":1046000000000,"state":"active","ping":86},{"user_id":433,"name":"lker","steam_id":76561197976975075,"connected_time":9508000000000,"state":"active","ping":54},{"user_id":527,"name":"Withered Bonnie (Real)","steam_id":76561198423310113,"connected_time":574000000000,"state":"active","ping":55},{"user_id":525,"name":"RATATATATATA","steam_id":76561198288458595,"connected_time":952000000000,"state":"active","ping":83},{"user_id":520,"name":"guts","steam_id":76561198070705963,"connected_time":1406000000000,"state":"active","ping":73},{"user_id":522,"name":"Harufloofer","steam_id":76561199084506827,"connected_time":1395000000000,"state":"active","ping":59},{"user_id":515,"name":"Kc","steam_id":76561198210734407,"connected_time":1880000000000,"state":"active","ping":73},{"user_id":507,"name":"tqman","steam_id":76561199031963925,"connected_time":2949000000000,"state":"active","ping":113},{"user_id":495,"name":"Boingo","steam_id":76561199086931535,"connected_time":4093000000000,"state":"active","ping":62},{"user_id":511,"name":"Nanigov","steam_id":76561198437381062,"connected_time":2083000000000,"state":"active","ping":184},{"user_id":526,"name":"Ballista","steam_id":76561197983182562,"connected_time":949000000000,"state":"active","ping":65},{"user_id":503,"name":"CoolOpossum77","steam_id":76561198085047501,"connected_time":3328000000000,"state":"active","ping":56},{"user_id":491,"name":"Cyborgx10","steam_id":76561198951730223,"connected_time":4498000000000,"state":"active","ping":86},{"user_id":506,"name":"leesh","steam_id":76561198079603938,"connected_time":3159000000000,"state":"active","ping":60}]},{"server_id":108,"name":"Uncletopia | Dallas | 2 | All Maps","name_short":"dal-2","host":"dal-1.us.uncletopia.com","port":27025,"enabled":true,"region":"us-central","cc":"us","latitude":32.779167,"longitude":-96.80889,"reserved":0,"last_update":"0001-01-01T00:00:00Z","name_a2s":"Uncletopia | Dallas | 2 | All Maps","protocol":17,"map":"koth_king","folder":"tf","game":"Team Fortress","app_id":440,"player_count":24,"max_players":24,"Bots":0,"server_type":"Dedicated","server_os":"Linux","password":true,"vac":true,"version":"7961495","steam_id":85568392924469988,"keywords":["cp","nocrits","nodmgspread","uncletopia"],"game_id":440,"stv_port":27026,"stv_name":"Uncletopia | Dallas | 2 | All Maps | STV","players":[{"user_id":440,"name":"Squiliam","steam_id":76561198025278006,"connected_time":3339000000000,"state":"active","ping":151},{"user_id":495,"name":"HooHay","steam_id":76561199350870177,"connected_time":11000000000,"state":"spawning","ping":67},{"user_id":445,"name":"sylerrr","steam_id":76561198191198866,"connected_time":2935000000000,"state":"active","ping":81},{"user_id":452,"name":"Freddy Fazbear","steam_id":76561198272353440,"connected_time":2194000000000,"state":"active","ping":55},{"user_id":489,"name":"Cervidé","steam_id":76561198098579497,"connected_time":85000000000,"state":"active","ping":101},{"user_id":456,"name":"Major Woody","steam_id":76561198835541533,"connected_time":1972000000000,"state":"active","ping":75},{"user_id":486,"name":"LaChancla","steam_id":76561198971528917,"connected_time":193000000000,"state":"active","ping":60},{"user_id":475,"name":"Fermenting Kiwi","steam_id":76561198253303497,"connected_time":809000000000,"state":"active","ping":72},{"user_id":491,"name":"put fentanyl back in pepsi","steam_id":76561198238592900,"connected_time":46000000000,"state":"active","ping":75},{"user_id":481,"name":"Cold shoulder","steam_id":76561198453824178,"connected_time":378000000000,"state":"active","ping":140},{"user_id":390,"name":"Oopsie Daisy ❋","steam_id":76561198042144492,"connected_time":5954000000000,"state":"active","ping":70},{"user_id":478,"name":"Gary Busey","steam_id":76561197970096950,"connected_time":483000000000,"state":"active","ping":41},{"user_id":451,"name":"Inflation Jumpscare","steam_id":76561198137862444,"connected_time":2480000000000,"state":"active","ping":53},{"user_id":492,"name":"o()xxx[{::::::::::\u003e","steam_id":76561199468796639,"connected_time":43000000000,"state":"active","ping":132},{"user_id":465,"name":"BlazingWaters","steam_id":76561198136322660,"connected_time":1428000000000,"state":"active","ping":87},{"user_id":466,"name":"Homosexual Warmachine","steam_id":76561198040425096,"connected_time":1394000000000,"state":"active","ping":72},{"user_id":439,"name":"mkl","steam_id":76561197986401685,"connected_time":3423000000000,"state":"active","ping":68},{"user_id":477,"name":"dailyspesh","steam_id":76561197988072369,"connected_time":517000000000,"state":"active","ping":86},{"user_id":493,"name":"Tuvok Shakur","steam_id":76561198018875334,"connected_time":39000000000,"state":"active","ping":76},{"user_id":476,"name":"Cassius Money","steam_id":76561197979696414,"connected_time":655000000000,"state":"active","ping":71},{"user_id":458,"name":"BULLSHIT MATADOR","steam_id":76561198044488913,"connected_time":1857000000000,"state":"active","ping":71},{"user_id":494,"name":"The Juice","steam_id":76561198065307144,"connected_time":33000000000,"state":"active","ping":89},{"user_id":482,"name":"elisps09","steam_id":76561198985149569,"connected_time":373000000000,"state":"active","ping":114},{"user_id":496,"name":"WAKEUP!","steam_id":76561198254479725,"connected_time":9000000000,"state":"spawning","ping":72}]},{"server_id":404,"name":"Uncletopia | Dallas | 3 | All Maps","name_short":"dal-3","host":"dal-1.us.uncletopia.com","port":27035,"enabled":true,"region":"us-central","cc":"us","latitude":32.779167,"longitude":-96.80889,"reserved":0,"last_update":"0001-01-01T00:00:00Z","name_a2s":"Uncletopia | Dallas | 3 | All Maps","protocol":17,"map":"pl_pier","folder":"tf","game":"Team Fortress","app_id":440,"player_count":24,"max_players":24,"Bots":0,"server_type":"Dedicated","server_os":"Linux","password":true,"vac":true,"version":"7961495","steam_id":85568392924515219,"keywords":["nocrits","nodmgspread","payload","uncletopia"],"game_id":440,"stv_port":27036,"stv_name":"Uncletopia | Dallas | 3 | All Maps | STV","players":[{"user_id":320,"name":"A Human-Shaped Set of Pixels","steam_id":76561198043589323,"connected_time":925000000000,"state":"active","ping":80},{"user_id":334,"name":"Exetior","steam_id":76561198978688451,"connected_time":276000000000,"state":"active","ping":75},{"user_id":315,"name":"hamilton","steam_id":76561198034096096,"connected_time":1836000000000,"state":"active","ping":100},{"user_id":211,"name":"CDBeans","steam_id":76561198046990367,"connected_time":8976000000000,"state":"active","ping":114},{"user_id":321,"name":"The Supreme Gentleman","steam_id":76561198037123203,"connected_time":863000000000,"state":"active","ping":42},{"user_id":331,"name":"BurritoCat","steam_id":76561198059822805,"connected_time":338000000000,"state":"active","ping":95},{"user_id":262,"name":"nbwingdinger","steam_id":76561198412627015,"connected_time":5935000000000,"state":"active","ping":106},{"user_id":322,"name":"CHIEF_JUSTICE_FUCKASS","steam_id":76561199261675844,"connected_time":852000000000,"state":"active","ping":150},{"user_id":307,"name":"space mann","steam_id":76561198174447043,"connected_time":2991000000000,"state":"active","ping":71},{"user_id":263,"name":"Stauxie","steam_id":76561198255030077,"connected_time":5934000000000,"state":"active","ping":95},{"user_id":310,"name":"L to the OG","steam_id":76561199215811448,"connected_time":2663000000000,"state":"active","ping":99},{"user_id":337,"name":"TechnoBear2099","steam_id":76561198238863596,"connected_time":18000000000,"state":"active","ping":66},{"user_id":324,"name":"JakeK","steam_id":76561198149375504,"connected_time":737000000000,"state":"active","ping":102},{"user_id":325,"name":"Dragus","steam_id":76561198032967285,"connected_time":733000000000,"state":"active","ping":73},{"user_id":326,"name":"KickButtNess","steam_id":76561198093986236,"connected_time":731000000000,"state":"active","ping":77},{"user_id":329,"name":"Master Of Whales","steam_id":76561198349104889,"connected_time":718000000000,"state":"active","ping":83},{"user_id":332,"name":"REspecWizard","steam_id":76561198097950624,"connected_time":309000000000,"state":"active","ping":94},{"user_id":327,"name":"your little goofy homie","steam_id":76561198967158026,"connected_time":729000000000,"state":"active","ping":69},{"user_id":333,"name":"THE man is EPIC","steam_id":76561198085410777,"connected_time":293000000000,"state":"active","ping":108},{"user_id":294,"name":"dog","steam_id":76561198263873491,"connected_time":4423000000000,"state":"active","ping":60},{"user_id":335,"name":"muri","steam_id":76561198036167494,"connected_time":269000000000,"state":"active","ping":47},{"user_id":336,"name":"Bubtit","steam_id":76561199138751788,"connected_time":121000000000,"state":"active","ping":72},{"user_id":302,"name":"Big Unck","steam_id":76561198024658073,"connected_time":3940000000000,"state":"active","ping":87},{"user_id":303,"name":"Wilfred Carr","steam_id":76561198039149060,"connected_time":3939000000000,"state":"active","ping":86}]},{"server_id":405,"name":"Uncletopia | Dallas | 4 | Community","name_short":"dal-4","host":"dal-1.us.uncletopia.com","port":27045,"enabled":true,"region":"us-central","cc":"us","latitude":32.779167,"longitude":-96.80889,"reserved":0,"last_update":"0001-01-01T00:00:00Z","name_a2s":"Uncletopia | Dallas | 4 | Community","protocol":17,"map":"workshop/cp_hazyfort_rc6.ugc1365963729","folder":"tf","game":"Team Fortress","app_id":440,"player_count":0,"max_players":24,"Bots":0,"server_type":"Dedicated","server_os":"Linux","password":true,"vac":true,"version":"7961495","steam_id":85568392924515220,"keywords":["cp","nocrits","nodmgspread","uncletopia"],"game_id":440,"stv_port":27046,"stv_name":"Uncletopia | Dallas | 4 | Community | STV","players":null},{"server_id":5,"name":"Uncletopia | Frankfurt | 1 | All Maps","name_short":"frk-1","host":"frk-1.de.uncletopia.com","port":27015,"enabled":true,"region":"eu","cc":"de","latitude":50.110924,"longitude":8.682127,"reserved":0,"last_update":"0001-01-01T00:00:00Z","name_a2s":"Uncletopia | Frankfurt | 1 | All Maps","protocol":17,"map":"cp_5gorge","folder":"tf","game":"Team Fortress","app_id":440,"player_count":0,"max_players":24,"Bots":0,"server_type":"Dedicated","server_os":"Linux","password":true,"vac":true,"version":"7961495","steam_id":85568392924469989,"keywords":["cp","nocrits","nodmgspread","uncletopia"],"game_id":440,"stv_port":27016,"stv_name":"Uncletopia | Frankfurt | 1 | All Maps | STV","players":null},{"server_id":110,"name":"Uncletopia | Frankfurt | 2 | All Maps","name_short":"frk-2","host":"frk-1.de.uncletopia.com","port":27025,"enabled":true,"region":"eu","cc":"de","latitude":50.110924,"longitude":8.682127,"reserved":0,"last_update":"0001-01-01T00:00:00Z","name_a2s":"Uncletopia | Frankfurt | 2 | All Maps","protocol":17,"map":"pl_borneo","folder":"tf","game":"Team Fortress","app_id":440,"player_count":0,"max_players":24,"Bots":0,"server_type":"Dedicated","server_os":"Linux","password":true,"vac":true,"version":"7961495","steam_id":85568392924469990,"keywords":["nocrits","nodmgspread","payload","uncletopia"],"game_id":440,"stv_port":27026,"stv_name":"Uncletopia | Frankfurt | 2 | All Maps | STV","players":null},{"server_id":308,"name":"Uncletopia | Frankfurt | 3 | All Maps","name_short":"frk-3","host":"frk-1.de.uncletopia.com","port":27035,"enabled":true,"region":"eu","cc":"de","latitude":50.110924,"longitude":8.682127,"reserved":0,"last_update":"0001-01-01T00:00:00Z","name_a2s":"Uncletopia | Frankfurt | 3 | All Maps","protocol":17,"map":"cp_mountainlab","folder":"tf","game":"Team Fortress","app_id":440,"player_count":0,"max_players":24,"Bots":0,"server_type":"Dedicated","server_os":"Linux","password":true,"vac":true,"version":"7961495","steam_id":85568392924504274,"keywords":["cp","nocrits","nodmgspread","uncletopia"],"game_id":440,"stv_port":27036,"stv_name":"Uncletopia | Frankfurt | 3 | All Maps | STV","players":null},{"server_id":309,"name":"Uncletopia | Frankfurt | 4 | All Maps","name_short":"frk-4","host":"frk-1.de.uncletopia.com","port":27045,"enabled":true,"region":"eu","cc":"de","latitude":50.110924,"longitude":8.682127,"reserved":0,"last_update":"0001-01-01T00:00:00Z","name_a2s":"Uncletopia | Frankfurt | 4 | All Maps","protocol":17,"map":"koth_lakeside_final","folder":"tf","game":"Team Fortress","app_id":440,"player_count":0,"max_players":24,"Bots":0,"server_type":"Dedicated","server_os":"Linux","password":true,"vac":true,"version":"7961495","steam_id":85568392924504275,"keywords":["cp","nocrits","nodmgspread","uncletopia"],"game_id":440,"stv_port":27046,"stv_name":"Uncletopia | Frankfurt | 4 | All Maps | STV","players":null},{"server_id":310,"name":"Uncletopia | Frankfurt | 5 | All Maps","name_short":"frk-5","host":"frk-1.de.uncletopia.com","port":27055,"enabled":true,"region":"eu","cc":"de","latitude":50.110924,"longitude":8.682127,"reserved":0,"last_update":"0001-01-01T00:00:00Z","name_a2s":"Uncletopia | Frankfurt | 5 | All Maps","protocol":17,"map":"pl_frontier_final","folder":"tf","game":"Team Fortress","app_id":440,"player_count":0,"max_players":24,"Bots":0,"server_type":"Dedicated","server_os":"Linux","password":true,"vac":true,"version":"7961495","steam_id":85568392924504277,"keywords":["nocrits","nodmgspread","payload","uncletopia"],"game_id":440,"stv_port":27056,"stv_name":"Uncletopia | Frankfurt | 5 | All Maps | STV","players":null},{"server_id":311,"name":"Uncletopia | Frankfurt | 6 | All Maps","name_short":"frk-6","host":"frk-1.de.uncletopia.com","port":27065,"enabled":true,"region":"eu","cc":"de","latitude":50.110924,"longitude":8.682127,"reserved":0,"last_update":"0001-01-01T00:00:00Z","name_a2s":"Uncletopia | Frankfurt | 6 | All Maps","protocol":17,"map":"pl_upward","folder":"tf","game":"Team Fortress","app_id":440,"player_count":0,"max_players":24,"Bots":0,"server_type":"Dedicated","server_os":"Linux","password":true,"vac":true,"version":"7961495","steam_id":85568392924504278,"keywords":["nocrits","nodmgspread","payload","uncletopia"],"game_id":440,"stv_port":27066,"stv_name":"Uncletopia | Frankfurt | 6 | All Maps | STV","players":null},{"server_id":23,"name":"Uncletopia | Frankfurt | 7 | Stopwatch","name_short":"frk-7","host":"frk-1.de.uncletopia.com","port":27075,"enabled":true,"region":"eu","cc":"de","latitude":50.110924,"longitude":8.682127,"reserved":0,"last_update":"0001-01-01T00:00:00Z","name_a2s":"Uncletopia | Frankfurt | 7 | Stopwatch","protocol":17,"map":"pl_borneo","folder":"tf","game":"Team Fortress","app_id":440,"player_count":0,"max_players":24,"Bots":0,"server_type":"Dedicated","server_os":"Linux","password":true,"vac":true,"version":"7961495","steam_id":85568392924742827,"keywords":["nocrits","nodmgspread","payload","uncletopia"],"game_id":440,"stv_port":27076,"stv_name":"Uncletopia | Frankfurt | 7 | Stopwatch | STV","players":null},{"server_id":24,"name":"Uncletopia | Frankfurt | 8 | Community","name_short":"frk-8","host":"frk-1.de.uncletopia.com","port":27085,"enabled":true,"region":"eu","cc":"de","latitude":50.110924,"longitude":8.682127,"reserved":0,"last_update":"0001-01-01T00:00:00Z","name_a2s":"Uncletopia | Frankfurt | 8 | Community","protocol":17,"map":"workshop/pl_boundary_final1.ugc456799153","folder":"tf","game":"Team Fortress","app_id":440,"player_count":0,"max_players":24,"Bots":0,"server_type":"Dedicated","server_os":"Linux","password":true,"vac":true,"version":"7961495","steam_id":85568392924742828,"keywords":["nocrits","nodmgspread","payload","uncletopia"],"game_id":440,"stv_port":27086,"stv_name":"Uncletopia | Frankfurt | 8 | Community | STV","players":null},{"server_id":202,"name":"Uncletopia | Hong Kong | 1 | All Maps","name_short":"hgk-1","host":"hgk-1.hk.uncletopia.com","port":27015,"enabled":true,"region":"asia","cc":"hk","latitude":22.302711,"longitude":114.177216,"reserved":0,"last_update":"0001-01-01T00:00:00Z","name_a2s":"Uncletopia | Hong Kong | 1 | All Maps","protocol":17,"map":"cp_snakewater_final1","folder":"tf","game":"Team Fortress","app_id":440,"player_count":0,"max_players":24,"Bots":0,"server_type":"Dedicated","server_os":"Linux","password":true,"vac":true,"version":"7961495","steam_id":85568392924494504,"keywords":["cp","nocrits","nodmgspread","uncletopia"],"game_id":440,"stv_port":27016,"stv_name":"Uncletopia | Hong Kong | 1 | All Maps | STV","players":null},{"server_id":1,"name":"Uncletopia | Los Angeles | 1 | All Maps","name_short":"lax-1","host":"lax-1.us.uncletopia.com","port":27015,"enabled":true,"region":"us-west","cc":"us","latitude":33.94279,"longitude":-118.41004,"reserved":0,"last_update":"0001-01-01T00:00:00Z","name_a2s":"Uncletopia | Los Angeles | 1 | All Maps","protocol":17,"map":"cp_sunshine","folder":"tf","game":"Team Fortress","app_id":440,"player_count":0,"max_players":24,"Bots":0,"server_type":"Dedicated","server_os":"Linux","password":true,"vac":true,"version":"7961495","steam_id":85568392924469991,"keywords":["cp","nocrits","nodmgspread","uncletopia"],"game_id":440,"stv_port":27016,"stv_name":"Uncletopia | Los Angeles | 1 | All Maps | STV","players":null},{"server_id":112,"name":"Uncletopia | Los Angeles | 2 | All Maps","name_short":"lax-2","host":"lax-1.us.uncletopia.com","port":27025,"enabled":true,"region":"us-west","cc":"us","latitude":33.94279,"longitude":-118.41004,"reserved":0,"last_update":"0001-01-01T00:00:00Z","name_a2s":"Uncletopia | Los Angeles | 2 | All Maps","protocol":17,"map":"pl_borneo","folder":"tf","game":"Team Fortress","app_id":440,"player_count":24,"max_players":24,"Bots":0,"server_type":"Dedicated","server_os":"Linux","password":true,"vac":true,"version":"7961495","steam_id":85568392924469992,"keywords":["nocrits","nodmgspread","payload","uncletopia"],"game_id":440,"stv_port":27026,"stv_name":"Uncletopia | Los Angeles | 2 | All Maps | STV","players":[{"user_id":324,"name":"Rock Kickass","steam_id":76561198450510841,"connected_time":1081000000000,"state":"active","ping":77},{"user_id":104,"name":"selvhat","steam_id":76561198114225509,"connected_time":16829000000000,"state":"active","ping":51},{"user_id":190,"name":"BitPieStudios","steam_id":76561198059216393,"connected_time":11478000000000,"state":"active","ping":56},{"user_id":346,"name":"Danimals Crush Cup","steam_id":76561198013078854,"connected_time":191000000000,"state":"active","ping":59},{"user_id":345,"name":"heck","steam_id":76561198315694520,"connected_time":224000000000,"state":"active","ping":47},{"user_id":344,"name":"celestia ludenberg","steam_id":76561199196437823,"connected_time":253000000000,"state":"active","ping":82},{"user_id":326,"name":"The Irish Ghost","steam_id":76561199021970654,"connected_time":1047000000000,"state":"active","ping":52},{"user_id":331,"name":"Step3lanier","steam_id":76561198095120047,"connected_time":971000000000,"state":"active","ping":101},{"user_id":340,"name":"Mitty","steam_id":76561198014177684,"connected_time":413000000000,"state":"active","ping":55},{"user_id":329,"name":"Toa of Time","steam_id":76561198086867556,"connected_time":1013000000000,"state":"active","ping":102},{"user_id":164,"name":"moe","steam_id":76561198929586245,"connected_time":12621000000000,"state":"active","ping":51},{"user_id":330,"name":"SneakySneak","steam_id":76561198064847921,"connected_time":1003000000000,"state":"active","ping":110},{"user_id":338,"name":"Official Ton a'Pup","steam_id":76561198023110308,"connected_time":787000000000,"state":"active","ping":93},{"user_id":349,"name":"Sorry","steam_id":76561198040722720,"connected_time":47000000000,"state":"active","ping":116},{"user_id":334,"name":"bcizzo","steam_id":76561197994399953,"connected_time":920000000000,"state":"active","ping":66},{"user_id":318,"name":"_Miniature_","steam_id":76561199075378102,"connected_time":1990000000000,"state":"active","ping":56},{"user_id":335,"name":"nao","steam_id":76561198073982533,"connected_time":883000000000,"state":"active","ping":97},{"user_id":341,"name":"bro whaaaat","steam_id":76561198970591445,"connected_time":405000000000,"state":"active","ping":60},{"user_id":308,"name":"ThePalmTopSushi","steam_id":76561198847076153,"connected_time":2797000000000,"state":"active","ping":48},{"user_id":165,"name":"the scout that laughs","steam_id":76561198385887698,"connected_time":12618000000000,"state":"active","ping":85},{"user_id":336,"name":"crankshaft","steam_id":76561197992798282,"connected_time":872000000000,"state":"active","ping":48},{"user_id":348,"name":"Wendall555","steam_id":76561198985637603,"connected_time":120000000000,"state":"active","ping":52},{"user_id":294,"name":"ninja45","steam_id":76561198150619521,"connected_time":4249000000000,"state":"active","ping":79},{"user_id":343,"name":"John Calibur","steam_id":76561197999986606,"connected_time":387000000000,"state":"active","ping":43}]},{"server_id":324,"name":"Uncletopia | Los Angeles | 3 | All Maps","name_short":"lax-3","host":"lax-1.us.uncletopia.com","port":27035,"enabled":true,"region":"us-west","cc":"us","latitude":33.94279,"longitude":-118.41004,"reserved":0,"last_update":"0001-01-01T00:00:00Z","name_a2s":"Uncletopia | Los Angeles | 3 | All Maps","protocol":17,"map":"koth_highpass","folder":"tf","game":"Team Fortress","app_id":440,"player_count":0,"max_players":24,"Bots":0,"server_type":"Dedicated","server_os":"Linux","password":true,"vac":true,"version":"7961495","steam_id":85568392924510198,"keywords":["cp","nocrits","nodmgspread","uncletopia"],"game_id":440,"stv_port":27036,"stv_name":"Uncletopia | Los Angeles | 3 | All Maps | STV","players":null},{"server_id":25,"name":"Uncletopia | Los Angeles | 4 | Stopwatch","name_short":"lax-4","host":"lax-1.us.uncletopia.com","port":27045,"enabled":true,"region":"us-west","cc":"us","latitude":33.94279,"longitude":-118.41004,"reserved":0,"last_update":"0001-01-01T00:00:00Z","name_a2s":"Uncletopia | Los Angeles | 4 | Stopwatch","protocol":17,"map":"workshop/koth_bagel_rc6.ugc2514036946","folder":"tf","game":"Team Fortress","app_id":440,"player_count":0,"max_players":24,"Bots":0,"server_type":"Dedicated","server_os":"Linux","password":true,"vac":true,"version":"7961495","steam_id":85568392924510199,"keywords":["cp","nocrits","nodmgspread","uncletopia"],"game_id":440,"stv_port":27046,"stv_name":"Uncletopia | Los Angeles | 4 | Stopwatch | STV","players":null},{"server_id":11,"name":"Uncletopia | London | 1 | All Maps","name_short":"lon-1","host":"lon-1.uk.uncletopia.com","port":27015,"enabled":true,"region":"eu","cc":"gb","latitude":51.509865,"longitude":-0.118092,"reserved":0,"last_update":"0001-01-01T00:00:00Z","name_a2s":"Uncletopia | London | 1 | All Maps","protocol":17,"map":"pl_barnblitz","folder":"tf","game":"Team Fortress","app_id":440,"player_count":24,"max_players":24,"Bots":0,"server_type":"Dedicated","server_os":"Linux","password":true,"vac":true,"version":"7961495","steam_id":85568392924367362,"keywords":["nocrits","nodmgspread","payload","uncletopia"],"game_id":440,"stv_port":27016,"stv_name":"Uncletopia | London | 1 | All Maps | STV","players":[{"user_id":579,"name":"jjkun786","steam_id":76561199438517484,"connected_time":2010000000000,"state":"active","ping":73},{"user_id":611,"name":"☁ Lou1smeister ☁","steam_id":76561198004032968,"connected_time":972000000000,"state":"active","ping":61},{"user_id":581,"name":"Dr.Disrespect","steam_id":76561198043820228,"connected_time":1927000000000,"state":"active","ping":58},{"user_id":570,"name":"Dreszerg","steam_id":76561198838757422,"connected_time":2559000000000,"state":"active","ping":167},{"user_id":605,"name":"L+bozo+get cooked","steam_id":76561198126762760,"connected_time":1080000000000,"state":"active","ping":60},{"user_id":598,"name":"Infantile Pillock","steam_id":76561198283851362,"connected_time":1340000000000,"state":"active","ping":63},{"user_id":551,"name":"Shallaska","steam_id":76561198019030896,"connected_time":3648000000000,"state":"active","ping":53},{"user_id":536,"name":"starlightartist","steam_id":76561198050608456,"connected_time":4947000000000,"state":"active","ping":35},{"user_id":608,"name":". . .","steam_id":76561198184360615,"connected_time":1000000000000,"state":"active","ping":103},{"user_id":616,"name":"CW N","steam_id":76561198056667800,"connected_time":104000000000,"state":"active","ping":83},{"user_id":599,"name":"♥Tonto1♥","steam_id":76561198238492024,"connected_time":1209000000000,"state":"active","ping":152},{"user_id":558,"name":"Notam","steam_id":76561198023420995,"connected_time":2924000000000,"state":"active","ping":58},{"user_id":613,"name":"Mer","steam_id":76561198192171041,"connected_time":736000000000,"state":"active","ping":172},{"user_id":614,"name":"Average Chinese Man","steam_id":76561199076883472,"connected_time":508000000000,"state":"active","ping":68},{"user_id":528,"name":"lillunya ♡","steam_id":76561198330418866,"connected_time":5921000000000,"state":"active","ping":69},{"user_id":586,"name":"TOM","steam_id":76561198102844528,"connected_time":1859000000000,"state":"active","ping":86},{"user_id":609,"name":"owo","steam_id":76561198158209651,"connected_time":982000000000,"state":"active","ping":60},{"user_id":590,"name":"bpohps","steam_id":76561198178854155,"connected_time":1795000000000,"state":"active","ping":47},{"user_id":540,"name":"игла","steam_id":76561198120760515,"connected_time":4641000000000,"state":"active","ping":90},{"user_id":595,"name":"Mr. Fox","steam_id":76561198803610709,"connected_time":1596000000000,"state":"active","ping":111},{"user_id":607,"name":"Savetf2 #RemoveRandomCrits","steam_id":76561198062075870,"connected_time":1011000000000,"state":"active","ping":69},{"user_id":603,"name":"yuck","steam_id":76561197987249568,"connected_time":1156000000000,"state":"active","ping":105},{"user_id":606,"name":"RIBS GROW BACK","steam_id":76561198123659806,"connected_time":1071000000000,"state":"active","ping":96},{"user_id":610,"name":"SPORKULES","steam_id":76561198035540562,"connected_time":981000000000,"state":"active","ping":55}]},{"server_id":114,"name":"Uncletopia | London | 2 | All Maps","name_short":"lon-2","host":"lon-1.uk.uncletopia.com","port":27025,"enabled":true,"region":"eu","cc":"gb","latitude":51.509865,"longitude":-0.118092,"reserved":0,"last_update":"0001-01-01T00:00:00Z","name_a2s":"Uncletopia | London | 2 | All Maps","protocol":17,"map":"koth_highpass","folder":"tf","game":"Team Fortress","app_id":440,"player_count":0,"max_players":24,"Bots":0,"server_type":"Dedicated","server_os":"Linux","password":true,"vac":true,"version":"7961495","steam_id":85568392924470941,"keywords":["cp","nocrits","nodmgspread","uncletopia"],"game_id":440,"stv_port":27026,"stv_name":"Uncletopia | London | 2 | All Maps | STV","players":null},{"server_id":320,"name":"Uncletopia | London | 3 | All Maps","name_short":"lon-3","host":"lon-1.uk.uncletopia.com","port":27035,"enabled":true,"region":"eu","cc":"gb","latitude":51.509865,"longitude":-0.118092,"reserved":0,"last_update":"0001-01-01T00:00:00Z","name_a2s":"Uncletopia | London | 3 | All Maps","protocol":17,"map":"pl_upward","folder":"tf","game":"Team Fortress","app_id":440,"player_count":0,"max_players":24,"Bots":0,"server_type":"Dedicated","server_os":"Linux","password":true,"vac":true,"version":"7961495","steam_id":85568392924510192,"keywords":["nocrits","nodmgspread","payload","uncletopia"],"game_id":440,"stv_port":27036,"stv_name":"Uncletopia | London | 3 | All Maps | STV","players":null},{"server_id":321,"name":"Uncletopia | London | 4 | All Maps","name_short":"lon-4","host":"lon-1.uk.uncletopia.com","port":27045,"enabled":true,"region":"eu","cc":"gb","latitude":51.509865,"longitude":-0.118092,"reserved":0,"last_update":"0001-01-01T00:00:00Z","name_a2s":"Uncletopia | London | 4 | All Maps","protocol":17,"map":"koth_highpass","folder":"tf","game":"Team Fortress","app_id":440,"player_count":0,"max_players":24,"Bots":0,"server_type":"Dedicated","server_os":"Linux","password":true,"vac":true,"version":"7961495","steam_id":85568392924510193,"keywords":["cp","nocrits","nodmgspread","uncletopia"],"game_id":440,"stv_port":27046,"stv_name":"Uncletopia | London | 4 | All Maps | STV","players":null},{"server_id":21,"name":"Uncletopia | London | 5 | All Maps","name_short":"lon-5","host":"lon-1.uk.uncletopia.com","port":27055,"enabled":true,"region":"eu","cc":"gb","latitude":51.509865,"longitude":-0.118092,"reserved":0,"last_update":"0001-01-01T00:00:00Z","name_a2s":"Uncletopia | London | 5 | All Maps","protocol":17,"map":"pl_thundermountain","folder":"tf","game":"Team Fortress","app_id":440,"player_count":24,"max_players":24,"Bots":0,"server_type":"Dedicated","server_os":"Linux","password":true,"vac":true,"version":"7961495","steam_id":85568392924742829,"keywords":["nocrits","nodmgspread","payload","uncletopia"],"game_id":440,"stv_port":27056,"stv_name":"Uncletopia | London | 5 | All Maps | STV","players":[{"user_id":610,"name":"cold#panda","steam_id":76561199220136710,"connected_time":1601000000000,"state":"active","ping":126},{"user_id":575,"name":"Sinnmeister","steam_id":76561198201091797,"connected_time":3767000000000,"state":"active","ping":74},{"user_id":605,"name":"Stefman","steam_id":76561199025104038,"connected_time":2313000000000,"state":"active","ping":33},{"user_id":590,"name":"King Goomba","steam_id":76561198146467813,"connected_time":3293000000000,"state":"active","ping":60},{"user_id":611,"name":"cynthia.nixon","steam_id":76561199496648122,"connected_time":1552000000000,"state":"active","ping":121},{"user_id":601,"name":"bart simpson weed","steam_id":76561198014858762,"connected_time":2925000000000,"state":"active","ping":53},{"user_id":623,"name":"max:)))","steam_id":76561198027033926,"connected_time":653000000000,"state":"active","ping":58},{"user_id":584,"name":"idenburg","steam_id":76561198063574956,"connected_time":3482000000000,"state":"active","ping":56},{"user_id":632,"name":"Bun","steam_id":76561197989239999,"connected_time":106000000000,"state":"active","ping":58},{"user_id":622,"name":"TosunPasha","steam_id":76561199039584984,"connected_time":831000000000,"state":"active","ping":103},{"user_id":628,"name":"Lumi","steam_id":76561198127137036,"connected_time":399000000000,"state":"active","ping":60},{"user_id":617,"name":"arlinmonroe","steam_id":76561199192196177,"connected_time":1174000000000,"state":"active","ping":52},{"user_id":629,"name":"Sybelle","steam_id":76561198219839811,"connected_time":384000000000,"state":"active","ping":75},{"user_id":606,"name":"RickyLMG","steam_id":76561198037770903,"connected_time":1993000000000,"state":"active","ping":57},{"user_id":585,"name":"piper","steam_id":76561198112687349,"connected_time":3472000000000,"state":"active","ping":52},{"user_id":570,"name":"RedWater","steam_id":76561198016406576,"connected_time":3959000000000,"state":"active","ping":91},{"user_id":631,"name":"LJ","steam_id":76561198026723805,"connected_time":166000000000,"state":"active","ping":57},{"user_id":562,"name":"yenai","steam_id":76561199497830604,"connected_time":4431000000000,"state":"active","ping":70},{"user_id":619,"name":"JujuBalu","steam_id":76561198207253071,"connected_time":971000000000,"state":"active","ping":44},{"user_id":526,"name":"SuntanPikachu","steam_id":76561198121242476,"connected_time":6705000000000,"state":"active","ping":61},{"user_id":627,"name":"Plop_","steam_id":76561198112567921,"connected_time":460000000000,"state":"active","ping":40},{"user_id":621,"name":"snowycoast","steam_id":76561198346638308,"connected_time":876000000000,"state":"active","ping":59},{"user_id":620,"name":"TuffProphet","steam_id":76561198119138742,"connected_time":898000000000,"state":"active","ping":54},{"user_id":618,"name":"piers morgan (black lesbian)","steam_id":76561199401283123,"connected_time":1119000000000,"state":"active","ping":53}]},{"server_id":22,"name":"Uncletopia | London | 6 | All Maps","name_short":"lon-6","host":"lon-1.uk.uncletopia.com","port":27065,"enabled":true,"region":"eu","cc":"gb","latitude":51.509865,"longitude":-0.118092,"reserved":0,"last_update":"0001-01-01T00:00:00Z","name_a2s":"Uncletopia | London | 6 | All Maps","protocol":17,"map":"koth_viaduct","folder":"tf","game":"Team Fortress","app_id":440,"player_count":0,"max_players":24,"Bots":0,"server_type":"Dedicated","server_os":"Linux","password":true,"vac":true,"version":"7961495","steam_id":85568392924742830,"keywords":["cp","nocrits","nodmgspread","uncletopia"],"game_id":440,"stv_port":27066,"stv_name":"Uncletopia | London | 6 | All Maps | STV","players":null},{"server_id":40,"name":"Uncletopia | London | 7 | Stopwatch","name_short":"lon-7","host":"lon-1.uk.uncletopia.com","port":27075,"enabled":true,"region":"eu","cc":"gb","latitude":51.509865,"longitude":-0.118092,"reserved":0,"last_update":"0001-01-01T00:00:00Z","name_a2s":"Uncletopia | London | 7 | Stopwatch","protocol":17,"map":"pl_upward","folder":"tf","game":"Team Fortress","app_id":440,"player_count":0,"max_players":24,"Bots":0,"server_type":"Dedicated","server_os":"Linux","password":true,"vac":true,"version":"7961495","steam_id":85568392924964314,"keywords":["nocrits","nodmgspread","payload","uncletopia"],"game_id":440,"stv_port":27076,"stv_name":"Uncletopia | London | 7 | Stopwatch | STV","players":null},{"server_id":41,"name":"Uncletopia | London | 8 | Community","name_short":"lon-8","host":"lon-1.uk.uncletopia.com","port":27085,"enabled":true,"region":"eu","cc":"gb","latitude":51.509865,"longitude":-0.118092,"reserved":0,"last_update":"0001-01-01T00:00:00Z","name_a2s":"Uncletopia | London | 8 | Community","protocol":17,"map":"workshop/cp_reckoner_rc6.ugc674719999","folder":"tf","game":"Team Fortress","app_id":440,"player_count":0,"max_players":24,"Bots":0,"server_type":"Dedicated","server_os":"Linux","password":true,"vac":true,"version":"7961495","steam_id":85568392924964315,"keywords":["cp","nocrits","nodmgspread","uncletopia"],"game_id":440,"stv_port":27086,"stv_name":"Uncletopia | London | 8 | Community | STV","players":null},{"server_id":300,"name":"Uncletopia | Montréal | 1 | One Thousand Uncles","name_short":"mtl-1","host":"mtl-1.ca.uncletopia.com","port":27015,"enabled":true,"region":"us-east","cc":"ca","latitude":45.50889,"longitude":-73.56167,"reserved":0,"last_update":"0001-01-01T00:00:00Z","name_a2s":"","protocol":0,"map":"","folder":"","game":"","app_id":0,"player_count":6,"max_players":0,"Bots":0,"server_type":"","server_os":"","password":false,"vac":false,"version":"","steam_id":0,"keywords":null,"game_id":0,"stv_port":0,"stv_name":"","players":[{"user_id":606,"name":"Orangeboy","steam_id":76561199014097980,"connected_time":347000000000,"state":"active","ping":45},{"user_id":521,"name":"tom_no_h","steam_id":76561198388785222,"connected_time":6440000000000,"state":"active","ping":72},{"user_id":581,"name":"EvanMP","steam_id":76561199053344830,"connected_time":1293000000000,"state":"active","ping":38},{"user_id":564,"name":"oinkpig234","steam_id":76561198883733811,"connected_time":3241000000000,"state":"active","ping":106},{"user_id":572,"name":"kdhbuilder","steam_id":76561199058095193,"connected_time":2745000000000,"state":"active","ping":89},{"user_id":587,"name":"rondo1984","steam_id":76561199125745650,"connected_time":814000000000,"state":"active","ping":157}]},{"server_id":301,"name":"Uncletopia | Montréal | 2 | One Thousand Uncles","name_short":"mtl-2","host":"mtl-1.ca.uncletopia.com","port":27025,"enabled":true,"region":"us-east","cc":"ca","latitude":45.50889,"longitude":-73.56167,"reserved":0,"last_update":"0001-01-01T00:00:00Z","name_a2s":"","protocol":0,"map":"","folder":"","game":"","app_id":0,"player_count":14,"max_players":0,"Bots":0,"server_type":"","server_os":"","password":false,"vac":false,"version":"","steam_id":0,"keywords":null,"game_id":0,"stv_port":0,"stv_name":"","players":[{"user_id":212,"name":"DoctorK221","steam_id":76561198278460267,"connected_time":3224000000000,"state":"active","ping":106},{"user_id":253,"name":"Ethan Winter's","steam_id":76561199218979828,"connected_time":464000000000,"state":"active","ping":45},{"user_id":254,"name":"76561199221669701","steam_id":76561199221669701,"connected_time":405000000000,"state":"active","ping":94},{"user_id":218,"name":"Op banana","steam_id":76561198303231451,"connected_time":3145000000000,"state":"active","ping":77},{"user_id":120,"name":"joachym","steam_id":76561198428579761,"connected_time":13026000000000,"state":"active","ping":186},{"user_id":197,"name":"gnoll filth","steam_id":76561198066123607,"connected_time":4633000000000,"state":"active","ping":135},{"user_id":198,"name":"Scrunkly","steam_id":76561198078089930,"connected_time":4511000000000,"state":"active","ping":176},{"user_id":240,"name":"doomed","steam_id":76561198340512594,"connected_time":2165000000000,"state":"active","ping":61},{"user_id":153,"name":"Dr Madness The Octoling","steam_id":76561198065407703,"connected_time":9364000000000,"state":"active","ping":54},{"user_id":252,"name":"minenice","steam_id":76561198300878163,"connected_time":961000000000,"state":"active","ping":44},{"user_id":255,"name":"Dan_A_Man","steam_id":76561198380175134,"connected_time":56000000000,"state":"active","ping":61},{"user_id":220,"name":"Slab civilnetworks.net","steam_id":76561198968032452,"connected_time":2433000000000,"state":"active","ping":60},{"user_id":251,"name":"Winter Not Summer","steam_id":76561198201409574,"connected_time":986000000000,"state":"active","ping":63},{"user_id":245,"name":"PerpDurp","steam_id":76561198091743990,"connected_time":1922000000000,"state":"active","ping":90}]},{"server_id":302,"name":"Uncletopia | Montréal | 3 | One Thousand Uncles","name_short":"mtl-3","host":"mtl-1.ca.uncletopia.com","port":27035,"enabled":true,"region":"us-east","cc":"ca","latitude":45.50889,"longitude":-73.56167,"reserved":0,"last_update":"0001-01-01T00:00:00Z","name_a2s":"","protocol":0,"map":"","folder":"","game":"","app_id":0,"player_count":8,"max_players":0,"Bots":0,"server_type":"","server_os":"","password":false,"vac":false,"version":"","steam_id":0,"keywords":null,"game_id":0,"stv_port":0,"stv_name":"","players":[{"user_id":421,"name":"wolfgrey139","steam_id":76561199206554751,"connected_time":836000000000,"state":"active","ping":52},{"user_id":412,"name":"Penis but it rhymes with Venice","steam_id":76561197986420836,"connected_time":3143000000000,"state":"active","ping":55},{"user_id":413,"name":"ManDrew53","steam_id":76561198860443143,"connected_time":3122000000000,"state":"active","ping":61},{"user_id":414,"name":"The Calcium Troublemaker","steam_id":76561198860874700,"connected_time":3107000000000,"state":"active","ping":91},{"user_id":415,"name":"CTF_childshooter_","steam_id":76561198868852011,"connected_time":3079000000000,"state":"active","ping":261},{"user_id":419,"name":"BojackWojack","steam_id":76561198422425920,"connected_time":2007000000000,"state":"active","ping":59},{"user_id":422,"name":"Waaagh!","steam_id":76561197995317887,"connected_time":737000000000,"state":"active","ping":35},{"user_id":439,"name":"ʕ•ᴥ•ʔ the bear","steam_id":76561197989591976,"connected_time":396000000000,"state":"active","ping":58}]},{"server_id":13,"name":"Uncletopia | New York City | 1 | All Maps","name_short":"nyc-1","host":"nyc-1.us.uncletopia.com","port":27015,"enabled":true,"region":"us-east","cc":"us","latitude":40.73061,"longitude":-73.93524,"reserved":0,"last_update":"0001-01-01T00:00:00Z","name_a2s":"Uncletopia | New York City | 1 | All Maps","protocol":17,"map":"pl_badwater","folder":"tf","game":"Team Fortress","app_id":440,"player_count":24,"max_players":24,"Bots":0,"server_type":"Dedicated","server_os":"Linux","password":true,"vac":true,"version":"7961495","steam_id":85568392924469993,"keywords":["nocrits","nodmgspread","payload","uncletopia"],"game_id":440,"stv_port":27016,"stv_name":"Uncletopia | New York City | 1 | All Maps | STV","players":[{"user_id":451,"name":"bouncyhousin","steam_id":76561198852902827,"connected_time":306000000000,"state":"active","ping":69},{"user_id":454,"name":"CuSO4","steam_id":76561199278147589,"connected_time":222000000000,"state":"active","ping":53},{"user_id":420,"name":"Noahthecrazy1","steam_id":76561199152995909,"connected_time":2712000000000,"state":"active","ping":67},{"user_id":408,"name":"Plazmin","steam_id":76561198847506313,"connected_time":3908000000000,"state":"active","ping":55},{"user_id":430,"name":"2.5 Oz of Paprika","steam_id":76561198174647666,"connected_time":1967000000000,"state":"active","ping":100},{"user_id":441,"name":"❤Womp❤","steam_id":76561198167488304,"connected_time":1354000000000,"state":"active","ping":61},{"user_id":391,"name":"Jonny4Balls","steam_id":76561198979333994,"connected_time":5325000000000,"state":"active","ping":75},{"user_id":419,"name":"Voracious Puma","steam_id":76561197963621649,"connected_time":2722000000000,"state":"active","ping":87},{"user_id":377,"name":"Queso2469","steam_id":76561197993024580,"connected_time":6329000000000,"state":"active","ping":43},{"user_id":445,"name":"Narh","steam_id":76561198025216294,"connected_time":859000000000,"state":"active","ping":61},{"user_id":417,"name":"oppenheimer style","steam_id":76561198026664629,"connected_time":3016000000000,"state":"active","ping":44},{"user_id":444,"name":"Samrizo el Chorizo","steam_id":76561198009838162,"connected_time":1103000000000,"state":"active","ping":55},{"user_id":455,"name":"flamingcookies","steam_id":76561198280864779,"connected_time":112000000000,"state":"active","ping":58},{"user_id":449,"name":"JJPlayz","steam_id":76561198833841961,"connected_time":332000000000,"state":"active","ping":80},{"user_id":357,"name":"lexi","steam_id":76561198176299759,"connected_time":8392000000000,"state":"active","ping":104},{"user_id":452,"name":"Drewno","steam_id":76561197960653930,"connected_time":279000000000,"state":"active","ping":95},{"user_id":446,"name":"Bug","steam_id":76561198090785579,"connected_time":568000000000,"state":"active","ping":105},{"user_id":448,"name":"Person","steam_id":76561198093244204,"connected_time":345000000000,"state":"active","ping":69},{"user_id":450,"name":"baconlover09","steam_id":76561198060684892,"connected_time":329000000000,"state":"active","ping":45},{"user_id":453,"name":"Lin","steam_id":76561198143746480,"connected_time":250000000000,"state":"active","ping":128},{"user_id":443,"name":"Frank Forearms.","steam_id":76561198225910596,"connected_time":1116000000000,"state":"active","ping":84},{"user_id":411,"name":"Forehead","steam_id":76561198124151399,"connected_time":3438000000000,"state":"active","ping":53},{"user_id":413,"name":"theartistnathan","steam_id":76561198833787452,"connected_time":3345000000000,"state":"active","ping":89},{"user_id":405,"name":"Xx_Savage_Twerks_xX","steam_id":76561198011665915,"connected_time":4536000000000,"state":"active","ping":38}]},{"server_id":14,"name":"Uncletopia | New York City | 2 | All Maps","name_short":"nyc-2","host":"nyc-1.us.uncletopia.com","port":27025,"enabled":true,"region":"us-east","cc":"us","latitude":40.73061,"longitude":-73.93524,"reserved":0,"last_update":"0001-01-01T00:00:00Z","name_a2s":"Uncletopia | New York City | 2 | All Maps","protocol":17,"map":"cp_snakewater_final1","folder":"tf","game":"Team Fortress","app_id":440,"player_count":24,"max_players":24,"Bots":0,"server_type":"Dedicated","server_os":"Linux","password":true,"vac":true,"version":"7961495","steam_id":85568392924469994,"keywords":["cp","nocrits","nodmgspread","uncletopia"],"game_id":440,"stv_port":27026,"stv_name":"Uncletopia | New York City | 2 | All Maps | STV","players":[{"user_id":566,"name":"Hoopla","steam_id":76561198327775508,"connected_time":470000000000,"state":"active","ping":44},{"user_id":558,"name":"pipepeepi","steam_id":76561198845905873,"connected_time":823000000000,"state":"active","ping":65},{"user_id":541,"name":"Cat","steam_id":76561198328159094,"connected_time":2298000000000,"state":"active","ping":74},{"user_id":563,"name":"bear","steam_id":76561198313696546,"connected_time":593000000000,"state":"active","ping":93},{"user_id":545,"name":"Sky","steam_id":76561198043549371,"connected_time":1162000000000,"state":"active","ping":48},{"user_id":569,"name":"Riske","steam_id":76561198115840568,"connected_time":330000000000,"state":"active","ping":65},{"user_id":508,"name":"artichoke","steam_id":76561198980994364,"connected_time":5050000000000,"state":"active","ping":90},{"user_id":565,"name":"Waluigi","steam_id":76561198020736506,"connected_time":487000000000,"state":"active","ping":70},{"user_id":567,"name":"kratom claus","steam_id":76561198073269122,"connected_time":404000000000,"state":"active","ping":51},{"user_id":564,"name":"Zaid","steam_id":76561199142840666,"connected_time":498000000000,"state":"active","ping":146},{"user_id":556,"name":"Sleepy","steam_id":76561198979389459,"connected_time":833000000000,"state":"active","ping":71},{"user_id":543,"name":"Syrup_Bottle","steam_id":76561198869174481,"connected_time":1313000000000,"state":"active","ping":103},{"user_id":539,"name":"Rodrick Knee","steam_id":76561198283021062,"connected_time":2428000000000,"state":"active","ping":74},{"user_id":559,"name":"Phi","steam_id":76561198808932522,"connected_time":802000000000,"state":"active","ping":75},{"user_id":512,"name":"concrete_car","steam_id":76561198388207363,"connected_time":4918000000000,"state":"active","ping":67},{"user_id":570,"name":"leaving lunar orbit","steam_id":76561199085974120,"connected_time":280000000000,"state":"active","ping":60},{"user_id":518,"name":"TheBoxWizard","steam_id":76561198447992832,"connected_time":4702000000000,"state":"active","ping":58},{"user_id":560,"name":"󠁳 ⁧Argo","steam_id":76561198353725622,"connected_time":764000000000,"state":"active","ping":74},{"user_id":571,"name":"fish","steam_id":76561199008362890,"connected_time":180000000000,"state":"active","ping":49},{"user_id":546,"name":"session","steam_id":76561198332694127,"connected_time":1109000000000,"state":"active","ping":54},{"user_id":540,"name":"MayoMateo","steam_id":76561198360809933,"connected_time":2428000000000,"state":"active","ping":118},{"user_id":561,"name":"Shooter of Walls","steam_id":76561197988105207,"connected_time":754000000000,"state":"active","ping":58},{"user_id":520,"name":"I HATE A.I ART I HATE A.I ART I","steam_id":76561199101373436,"connected_time":4269000000000,"state":"active","ping":76},{"user_id":548,"name":"glass eater","steam_id":76561199229710761,"connected_time":959000000000,"state":"active","ping":60}]},{"server_id":15,"name":"Uncletopia | New York City | 3 | Stopwatch","name_short":"nyc-3","host":"nyc-1.us.uncletopia.com","port":27035,"enabled":true,"region":"us-east","cc":"us","latitude":40.73061,"longitude":-73.93524,"reserved":0,"last_update":"0001-01-01T00:00:00Z","name_a2s":"Uncletopia | New York City | 3 | Stopwatch","protocol":17,"map":"workshop/koth_ashville_final.ugc2130459942","folder":"tf","game":"Team Fortress","app_id":440,"player_count":0,"max_players":24,"Bots":0,"server_type":"Dedicated","server_os":"Linux","password":true,"vac":true,"version":"7961495","steam_id":85568392924742820,"keywords":["cp","nocrits","nodmgspread","uncletopia"],"game_id":440,"stv_port":27036,"stv_name":"Uncletopia | New York City | 3 | Stopwatch | STV","players":null},{"server_id":16,"name":"Uncletopia | New York City | 4 | Community","name_short":"nyc-4","host":"nyc-1.us.uncletopia.com","port":27045,"enabled":true,"region":"us-east","cc":"us","latitude":40.73061,"longitude":-73.93524,"reserved":0,"last_update":"0001-01-01T00:00:00Z","name_a2s":"Uncletopia | New York City | 4 | Community","protocol":17,"map":"workshop/pl_highwood_b13.ugc1769496557","folder":"tf","game":"Team Fortress","app_id":440,"player_count":24,"max_players":24,"Bots":0,"server_type":"Dedicated","server_os":"Linux","password":true,"vac":true,"version":"7961495","steam_id":85568392924742821,"keywords":["nocrits","nodmgspread","payload","uncletopia"],"game_id":440,"stv_port":27046,"stv_name":"Uncletopia | New York City | 4 | Community | STV","players":[{"user_id":111,"name":"Nedormit","steam_id":76561198057380573,"connected_time":2496000000000,"state":"active","ping":101},{"user_id":154,"name":"badasscoolboy57","steam_id":76561198795412055,"connected_time":779000000000,"state":"active","ping":65},{"user_id":131,"name":"uhooter","steam_id":76561198007829078,"connected_time":1760000000000,"state":"active","ping":60},{"user_id":130,"name":"hayes","steam_id":76561198057101042,"connected_time":1850000000000,"state":"active","ping":89},{"user_id":104,"name":"❤Breadshot (She)❤","steam_id":76561199005756738,"connected_time":2855000000000,"state":"active","ping":75},{"user_id":155,"name":"Phillip Jeffries","steam_id":76561198064052174,"connected_time":741000000000,"state":"active","ping":59},{"user_id":137,"name":"Arkh","steam_id":76561198862003669,"connected_time":1446000000000,"state":"active","ping":65},{"user_id":91,"name":"Captain Chicken","steam_id":76561198047767530,"connected_time":4445000000000,"state":"active","ping":115},{"user_id":158,"name":"Kebibble","steam_id":76561198800039751,"connected_time":491000000000,"state":"active","ping":56},{"user_id":138,"name":"MilkingRocks","steam_id":76561198106169545,"connected_time":1441000000000,"state":"active","ping":70},{"user_id":141,"name":"Waltz Leafington","steam_id":76561198055277053,"connected_time":1388000000000,"state":"active","ping":45},{"user_id":103,"name":"Hock Rard","steam_id":76561199497207470,"connected_time":2872000000000,"state":"active","ping":85},{"user_id":105,"name":"RiflingShotgun","steam_id":76561198288209651,"connected_time":2848000000000,"state":"active","ping":61},{"user_id":134,"name":"Another Neko Weeb","steam_id":76561198051785884,"connected_time":1506000000000,"state":"active","ping":37},{"user_id":156,"name":"DolphiN | RGL.gg","steam_id":76561198048614515,"connected_time":683000000000,"state":"active","ping":44},{"user_id":147,"name":"Juan Solo","steam_id":76561198018688536,"connected_time":1177000000000,"state":"active","ping":67},{"user_id":146,"name":"Tav, Devourer of Cheeks","steam_id":76561198021688160,"connected_time":1220000000000,"state":"active","ping":62},{"user_id":112,"name":"Jihadi Spunk Trumpet","steam_id":76561198014792482,"connected_time":2461000000000,"state":"active","ping":66},{"user_id":152,"name":"FAKE TAXI PRANKS","steam_id":76561198136746987,"connected_time":937000000000,"state":"active","ping":86},{"user_id":159,"name":"Huebirds of Happiness","steam_id":76561198281693747,"connected_time":482000000000,"state":"active","ping":45},{"user_id":125,"name":"Jpxfred","steam_id":76561199414783749,"connected_time":2241000000000,"state":"active","ping":132},{"user_id":157,"name":"Hemiphix","steam_id":76561198329316429,"connected_time":680000000000,"state":"active","ping":52},{"user_id":161,"name":"Moral Grayzone","steam_id":76561198140208676,"connected_time":353000000000,"state":"active","ping":114},{"user_id":163,"name":"gmarrt23","steam_id":76561198301150171,"connected_time":168000000000,"state":"active","ping":52}]},{"server_id":142,"name":"Uncletopia | São Paulo | 1 | All Maps","name_short":"sao-1","host":"sao-1.br.uncletopia.com","port":27015,"enabled":true,"region":"sa","cc":"br","latitude":-23.533773,"longitude":-46.62529,"reserved":0,"last_update":"0001-01-01T00:00:00Z","name_a2s":"Uncletopia | São Paulo | 1 | All Maps","protocol":17,"map":"koth_highpass","folder":"tf","game":"Team Fortress","app_id":440,"player_count":0,"max_players":24,"Bots":0,"server_type":"Dedicated","server_os":"Linux","password":true,"vac":true,"version":"7961495","steam_id":85568392924469996,"keywords":["cp","nocrits","nodmgspread","uncletopia"],"game_id":440,"stv_port":27016,"stv_name":"Uncletopia | São Paulo | 1 | All Maps | STV","players":null},{"server_id":143,"name":"Uncletopia | São Paulo | 2 | Community","name_short":"sao-2","host":"sao-2.br.uncletopia.com","port":27015,"enabled":true,"region":"sa","cc":"br","latitude":-23.533773,"longitude":-46.62529,"reserved":0,"last_update":"0001-01-01T00:00:00Z","name_a2s":"Uncletopia | São Paulo | 2 | Community","protocol":17,"map":"workshop/koth_slaughter_rc1.ugc1712845210","folder":"tf","game":"Team Fortress","app_id":440,"player_count":0,"max_players":24,"Bots":0,"server_type":"Dedicated","server_os":"Linux","password":true,"vac":true,"version":"7961495","steam_id":85568392924485349,"keywords":["cp","nocrits","nodmgspread","uncletopia"],"game_id":440,"stv_port":27016,"stv_name":"Uncletopia | São Paulo | 2 | Community | STV","players":null},{"server_id":7,"name":"Uncletopia | Seattle | 1 | All Maps","name_short":"sea-1","host":"sea-1.us.uncletopia.com","port":27015,"enabled":true,"region":"us-west","cc":"us","latitude":47.608013,"longitude":-122.33517,"reserved":0,"last_update":"0001-01-01T00:00:00Z","name_a2s":"Uncletopia | Seattle | 1 | All Maps","protocol":17,"map":"plr_hightower","folder":"tf","game":"Team Fortress","app_id":440,"player_count":24,"max_players":24,"Bots":0,"server_type":"Dedicated","server_os":"Linux","password":true,"vac":true,"version":"7961495","steam_id":85568392924469997,"keywords":["nocrits","nodmgspread","payload","uncletopia"],"game_id":440,"stv_port":27016,"stv_name":"Uncletopia | Seattle | 1 | All Maps | STV","players":[{"user_id":455,"name":"mr. nine","steam_id":76561198097599414,"connected_time":970000000000,"state":"active","ping":71},{"user_id":390,"name":"Poundcake","steam_id":76561198042196918,"connected_time":6938000000000,"state":"active","ping":45},{"user_id":456,"name":"Loading...","steam_id":76561198075555396,"connected_time":724000000000,"state":"active","ping":45},{"user_id":426,"name":"AuraBraixen_4412","steam_id":76561198120668769,"connected_time":3778000000000,"state":"active","ping":102},{"user_id":462,"name":"box","steam_id":76561198049531483,"connected_time":32000000000,"state":"active","ping":125},{"user_id":443,"name":"Level 3 hotdog enjoyer","steam_id":76561198870649125,"connected_time":1999000000000,"state":"active","ping":87},{"user_id":445,"name":"Xain35","steam_id":76561198121834307,"connected_time":1953000000000,"state":"active","ping":59},{"user_id":438,"name":"SkobeBeef","steam_id":76561198078638948,"connected_time":2408000000000,"state":"active","ping":60},{"user_id":433,"name":"Luca","steam_id":76561198125087140,"connected_time":3043000000000,"state":"active","ping":48},{"user_id":402,"name":"Tibetan Pop Star","steam_id":76561198844903984,"connected_time":5393000000000,"state":"active","ping":68},{"user_id":416,"name":"toasterturret5","steam_id":76561199406940732,"connected_time":4773000000000,"state":"active","ping":97},{"user_id":446,"name":"Tomato","steam_id":76561197996472649,"connected_time":1952000000000,"state":"active","ping":121},{"user_id":449,"name":"DubiousDodo","steam_id":76561198828172686,"connected_time":1747000000000,"state":"active","ping":77},{"user_id":440,"name":"mike, no sound","steam_id":76561198225411004,"connected_time":2357000000000,"state":"active","ping":60},{"user_id":330,"name":"Snale","steam_id":76561198039517965,"connected_time":12200000000000,"state":"active","ping":65},{"user_id":400,"name":"Ayayayayayahuasca","steam_id":76561199002906056,"connected_time":5407000000000,"state":"active","ping":45},{"user_id":458,"name":"rat who can kickflip","steam_id":76561198073620027,"connected_time":526000000000,"state":"active","ping":45},{"user_id":394,"name":"Retroliar","steam_id":76561199004899484,"connected_time":6059000000000,"state":"active","ping":71},{"user_id":454,"name":"› Noir","steam_id":76561197977418994,"connected_time":1067000000000,"state":"active","ping":65},{"user_id":452,"name":"medium Mike","steam_id":76561198111645213,"connected_time":1240000000000,"state":"active","ping":81},{"user_id":453,"name":"Kasimir","steam_id":76561198013840333,"connected_time":1183000000000,"state":"active","ping":122},{"user_id":411,"name":"nifty","steam_id":76561198056630017,"connected_time":5158000000000,"state":"active","ping":47},{"user_id":435,"name":"Spectre","steam_id":76561198037535169,"connected_time":2806000000000,"state":"active","ping":75},{"user_id":463,"name":"EatSomeBEES","steam_id":76561198047334307,"connected_time":2000000000,"state":"spawning","ping":71}]},{"server_id":119,"name":"Uncletopia | Seattle | 2 | All Maps","name_short":"sea-2","host":"sea-1.us.uncletopia.com","port":27025,"enabled":true,"region":"us-west","cc":"us","latitude":47.608013,"longitude":-122.33517,"reserved":0,"last_update":"0001-01-01T00:00:00Z","name_a2s":"Uncletopia | Seattle | 2 | All Maps","protocol":17,"map":"pl_pier","folder":"tf","game":"Team Fortress","app_id":440,"player_count":24,"max_players":24,"Bots":0,"server_type":"Dedicated","server_os":"Linux","password":true,"vac":true,"version":"7961495","steam_id":85568392924469998,"keywords":["nocrits","nodmgspread","payload","uncletopia"],"game_id":440,"stv_port":27026,"stv_name":"Uncletopia | Seattle | 2 | All Maps | STV","players":[{"user_id":410,"name":"Uncle Wahzoinsky","steam_id":76561199462907840,"connected_time":1775000000000,"state":"active","ping":51},{"user_id":388,"name":"♦♣Quadric♥♠","steam_id":76561198061003853,"connected_time":3036000000000,"state":"active","ping":105},{"user_id":387,"name":"Nessie is my Waifu","steam_id":76561198076021620,"connected_time":3041000000000,"state":"active","ping":117},{"user_id":425,"name":"Alice in Rubberland","steam_id":76561198087328346,"connected_time":894000000000,"state":"active","ping":93},{"user_id":420,"name":"Streamline","steam_id":76561198031098638,"connected_time":1486000000000,"state":"active","ping":96},{"user_id":391,"name":"🅜🅔🅔🅚🅢🅣🅔\ufffd\ufffd\ufffd","steam_id":76561197999748343,"connected_time":3001000000000,"state":"active","ping":92},{"user_id":345,"name":"T/3. Blerb [10th MD]","steam_id":76561197978567794,"connected_time":5270000000000,"state":"active","ping":46},{"user_id":427,"name":"greens beans","steam_id":76561198153611491,"connected_time":353000000000,"state":"active","ping":44},{"user_id":346,"name":"Flex Glue Clear™","steam_id":76561199014482073,"connected_time":5258000000000,"state":"active","ping":46},{"user_id":400,"name":"worker","steam_id":76561198039608940,"connected_time":2623000000000,"state":"active","ping":48},{"user_id":429,"name":");","steam_id":76561198092594782,"connected_time":207000000000,"state":"active","ping":89},{"user_id":426,"name":"FaZe hyazZzZaZa","steam_id":76561199100342013,"connected_time":756000000000,"state":"active","ping":74},{"user_id":408,"name":"grape","steam_id":76561197993980328,"connected_time":1927000000000,"state":"active","ping":47},{"user_id":421,"name":"Steve","steam_id":76561198352805460,"connected_time":1295000000000,"state":"active","ping":69},{"user_id":424,"name":"GregGaming098","steam_id":76561198882415360,"connected_time":981000000000,"state":"active","ping":52},{"user_id":416,"name":"marty","steam_id":76561198032782746,"connected_time":1645000000000,"state":"active","ping":36},{"user_id":355,"name":"vfa","steam_id":76561198055729118,"connected_time":4913000000000,"state":"active","ping":62},{"user_id":430,"name":"The destroyer of foreskin","steam_id":76561198135275966,"connected_time":206000000000,"state":"active","ping":105},{"user_id":366,"name":"cubibluer","steam_id":76561198197405295,"connected_time":4632000000000,"state":"active","ping":57},{"user_id":409,"name":"Quantum4289","steam_id":76561198358610992,"connected_time":1904000000000,"state":"active","ping":69},{"user_id":419,"name":"Hound From Heck","steam_id":76561198087764017,"connected_time":1558000000000,"state":"active","ping":64},{"user_id":395,"name":"Azary56","steam_id":76561198321404617,"connected_time":2955000000000,"state":"active","ping":67},{"user_id":379,"name":"Gamekiller839","steam_id":76561199475400469,"connected_time":3580000000000,"state":"active","ping":33},{"user_id":405,"name":"The_Pacific_gamer","steam_id":76561198089491446,"connected_time":2134000000000,"state":"active","ping":48}]},{"server_id":406,"name":"Uncletopia | Seattle | 3 | Stopwatch","name_short":"sea-3","host":"sea-1.us.uncletopia.com","port":27035,"enabled":true,"region":"us-west","cc":"us","latitude":47.608013,"longitude":-122.33517,"reserved":0,"last_update":"0001-01-01T00:00:00Z","name_a2s":"Uncletopia | Seattle | 3 | Stopwatch","protocol":17,"map":"workshop/koth_product_final.ugc454272353","folder":"tf","game":"Team Fortress","app_id":440,"player_count":21,"max_players":24,"Bots":0,"server_type":"Dedicated","server_os":"Linux","password":true,"vac":true,"version":"7961495","steam_id":85568392924515217,"keywords":["cp","nocrits","nodmgspread","uncletopia"],"game_id":440,"stv_port":27036,"stv_name":"Uncletopia | Seattle | 3 | Stopwatch | STV","players":[{"user_id":96,"name":"neet","steam_id":76561197968115168,"connected_time":2324000000000,"state":"active","ping":105},{"user_id":115,"name":"Pacemaker","steam_id":76561198046865217,"connected_time":1855000000000,"state":"active","ping":76},{"user_id":108,"name":"Nordie","steam_id":76561198102297774,"connected_time":2066000000000,"state":"active","ping":93},{"user_id":135,"name":"Loogey03","steam_id":76561198155483586,"connected_time":470000000000,"state":"active","ping":112},{"user_id":76,"name":"Shagbark","steam_id":76561198173447342,"connected_time":3457000000000,"state":"active","ping":184},{"user_id":136,"name":"MedievAlien","steam_id":76561199114356303,"connected_time":462000000000,"state":"active","ping":52},{"user_id":137,"name":"TheWhoman","steam_id":76561198103921750,"connected_time":417000000000,"state":"active","ping":104},{"user_id":98,"name":"THE ULTIMATE JOHN","steam_id":76561199082758073,"connected_time":2276000000000,"state":"active","ping":106},{"user_id":139,"name":"i am weed","steam_id":76561198419896433,"connected_time":247000000000,"state":"active","ping":43},{"user_id":141,"name":"lana_del_Rei.com","steam_id":76561198172447621,"connected_time":146000000000,"state":"active","ping":70},{"user_id":120,"name":"Kyus","steam_id":76561199074130641,"connected_time":1477000000000,"state":"active","ping":47},{"user_id":138,"name":"Mr.Guy","steam_id":76561198810472054,"connected_time":404000000000,"state":"active","ping":70},{"user_id":142,"name":"PizzaThot","steam_id":76561198278237289,"connected_time":133000000000,"state":"active","ping":60},{"user_id":143,"name":"Yoyo-Wo","steam_id":76561198880520205,"connected_time":129000000000,"state":"active","ping":90},{"user_id":144,"name":"Cunt Force Trauma","steam_id":76561198086121413,"connected_time":88000000000,"state":"active","ping":121},{"user_id":83,"name":"Mimt1111","steam_id":76561198392370897,"connected_time":3184000000000,"state":"active","ping":151},{"user_id":149,"name":"Bruh Medic","steam_id":76561198957197940,"connected_time":34000000000,"state":"active","ping":66},{"user_id":147,"name":"Battle Bug","steam_id":76561198005793034,"connected_time":42000000000,"state":"active","ping":43},{"user_id":148,"name":"pete davidson","steam_id":76561198073549508,"connected_time":38000000000,"state":"active","ping":72},{"user_id":134,"name":"Majestic-A","steam_id":76561198988062101,"connected_time":614000000000,"state":"active","ping":41},{"user_id":150,"name":"Jerry Kool-Aid","steam_id":76561198030281560,"connected_time":20000000000,"state":"active","ping":120}]},{"server_id":17,"name":"Uncletopia | San Francisco | 1 | All Maps","name_short":"sfo-1","host":"sfo-1.us.uncletopia.com","port":27015,"enabled":true,"region":"us-west","cc":"us","latitude":37.77397,"longitude":-122.4313,"reserved":0,"last_update":"0001-01-01T00:00:00Z","name_a2s":"Uncletopia | San Francisco | 1 | All Maps","protocol":17,"map":"pl_borneo","folder":"tf","game":"Team Fortress","app_id":440,"player_count":24,"max_players":24,"Bots":0,"server_type":"Dedicated","server_os":"Linux","password":true,"vac":true,"version":"7961495","steam_id":85568392924469999,"keywords":["nocrits","nodmgspread","payload","uncletopia"],"game_id":440,"stv_port":27016,"stv_name":"Uncletopia | San Francisco | 1 | All Maps | STV","players":[{"user_id":172,"name":"Argon","steam_id":76561199254804349,"connected_time":4538000000000,"state":"active","ping":120},{"user_id":242,"name":"spiderland","steam_id":76561198335992132,"connected_time":1199000000000,"state":"active","ping":58},{"user_id":118,"name":"Pyrotek⁴","steam_id":76561198072747672,"connected_time":7446000000000,"state":"active","ping":51},{"user_id":229,"name":"Garfield (real)","steam_id":76561199077027954,"connected_time":1584000000000,"state":"active","ping":66},{"user_id":251,"name":"SoldMyKidneyForCollege","steam_id":76561198096329559,"connected_time":605000000000,"state":"active","ping":85},{"user_id":225,"name":"Funkmaster yee","steam_id":76561198037738918,"connected_time":1951000000000,"state":"active","ping":63},{"user_id":252,"name":"T-jizzle","steam_id":76561198040332264,"connected_time":510000000000,"state":"active","ping":115},{"user_id":203,"name":"ThemActually","steam_id":76561198193862690,"connected_time":3238000000000,"state":"active","ping":69},{"user_id":241,"name":"don't get mad","steam_id":76561198064662875,"connected_time":1238000000000,"state":"active","ping":48},{"user_id":216,"name":"Dunder","steam_id":76561198263280104,"connected_time":2415000000000,"state":"active","ping":49},{"user_id":245,"name":"hates every map","steam_id":76561198065662025,"connected_time":1018000000000,"state":"active","ping":49},{"user_id":249,"name":"WillieMakit","steam_id":76561197985391684,"connected_time":653000000000,"state":"active","ping":76},{"user_id":234,"name":"Yackaboi","steam_id":76561199444911765,"connected_time":1408000000000,"state":"active","ping":85},{"user_id":161,"name":"UnwantedBody","steam_id":76561199207425066,"connected_time":5397000000000,"state":"active","ping":62},{"user_id":239,"name":"The Assistant Regional Manager","steam_id":76561199221484936,"connected_time":1293000000000,"state":"active","ping":72},{"user_id":187,"name":"Igrium","steam_id":76561198119549811,"connected_time":3778000000000,"state":"active","ping":60},{"user_id":247,"name":"Mania13","steam_id":76561198334886955,"connected_time":897000000000,"state":"active","ping":91},{"user_id":236,"name":"Dongus","steam_id":76561197979056451,"connected_time":1385000000000,"state":"active","ping":62},{"user_id":237,"name":"Loot Bugs","steam_id":76561199028698726,"connected_time":1368000000000,"state":"active","ping":82},{"user_id":159,"name":"roach","steam_id":76561198354811369,"connected_time":5465000000000,"state":"active","ping":54},{"user_id":201,"name":"NewNebula12","steam_id":76561198146473719,"connected_time":3431000000000,"state":"active","ping":77},{"user_id":240,"name":"CasemanTheBlondeBear","steam_id":76561198144862404,"connected_time":1261000000000,"state":"active","ping":71},{"user_id":250,"name":"MattJettskie","steam_id":76561199229493583,"connected_time":652000000000,"state":"active","ping":127},{"user_id":228,"name":"Jahootis Pootis","steam_id":76561198048879388,"connected_time":1605000000000,"state":"active","ping":81}]},{"server_id":18,"name":"Uncletopia | San Francisco | 2 | All Maps","name_short":"sfo-2","host":"sfo-1.us.uncletopia.com","port":27025,"enabled":true,"region":"us-west","cc":"us","latitude":37.77397,"longitude":-122.4313,"reserved":0,"last_update":"0001-01-01T00:00:00Z","name_a2s":"Uncletopia | San Francisco | 2 | All Maps","protocol":17,"map":"pl_swiftwater_final1","folder":"tf","game":"Team Fortress","app_id":440,"player_count":24,"max_players":24,"Bots":0,"server_type":"Dedicated","server_os":"Linux","password":true,"vac":true,"version":"7961495","steam_id":85568392924470000,"keywords":["nocrits","nodmgspread","payload","uncletopia"],"game_id":440,"stv_port":27026,"stv_name":"Uncletopia | San Francisco | 2 | All Maps | STV","players":[{"user_id":220,"name":"Nine Inch Иipples","steam_id":76561198149413947,"connected_time":2851000000000,"state":"active","ping":62},{"user_id":250,"name":"Blue Cheetos","steam_id":76561199029201184,"connected_time":2057000000000,"state":"active","ping":78},{"user_id":270,"name":"Bheem","steam_id":76561198170453459,"connected_time":510000000000,"state":"active","ping":59},{"user_id":253,"name":"[Bandit]","steam_id":76561197986919852,"connected_time":1801000000000,"state":"active","ping":60},{"user_id":251,"name":"Lucas","steam_id":76561198399704604,"connected_time":1971000000000,"state":"active","ping":57},{"user_id":265,"name":"Treeckogeek","steam_id":76561198453328078,"connected_time":605000000000,"state":"active","ping":100},{"user_id":223,"name":"AWildCheeseFish","steam_id":76561198846504974,"connected_time":2836000000000,"state":"active","ping":75},{"user_id":259,"name":"❤ Ashley ❤","steam_id":76561198056428303,"connected_time":1150000000000,"state":"active","ping":60},{"user_id":266,"name":"Chirp","steam_id":76561198240780230,"connected_time":575000000000,"state":"active","ping":48},{"user_id":273,"name":"adolf tickler","steam_id":76561198163120788,"connected_time":367000000000,"state":"active","ping":53},{"user_id":257,"name":"Diclonius","steam_id":76561198075646647,"connected_time":1441000000000,"state":"active","ping":50},{"user_id":275,"name":"Ronnie Pickering!","steam_id":76561198041842118,"connected_time":222000000000,"state":"active","ping":71},{"user_id":267,"name":"NerdyEnforcement","steam_id":76561198437710820,"connected_time":557000000000,"state":"active","ping":117},{"user_id":268,"name":"Sexy Survivor","steam_id":76561198985843506,"connected_time":546000000000,"state":"active","ping":138},{"user_id":255,"name":"XXXMasterChiefXXX","steam_id":76561198136615608,"connected_time":1746000000000,"state":"active","ping":56},{"user_id":262,"name":"Dopefish","steam_id":76561197964755058,"connected_time":1058000000000,"state":"active","ping":102},{"user_id":274,"name":"Evil Sayori","steam_id":76561198957479336,"connected_time":296000000000,"state":"active","ping":107},{"user_id":239,"name":"Cinna Mon","steam_id":76561198005840633,"connected_time":2481000000000,"state":"active","ping":73},{"user_id":263,"name":"MechanizedContortion","steam_id":76561199146092247,"connected_time":808000000000,"state":"active","ping":54},{"user_id":205,"name":"Renz","steam_id":76561198118995036,"connected_time":4235000000000,"state":"active","ping":72},{"user_id":271,"name":"Tian","steam_id":76561198076669788,"connected_time":482000000000,"state":"active","ping":66},{"user_id":272,"name":"Artic_Ryuu","steam_id":76561198182194918,"connected_time":480000000000,"state":"active","ping":55},{"user_id":212,"name":"Samercam","steam_id":76561198189403190,"connected_time":3254000000000,"state":"active","ping":97},{"user_id":241,"name":"Nut Bustray","steam_id":76561198092403883,"connected_time":2453000000000,"state":"active","ping":82}]},{"server_id":19,"name":"Uncletopia | San Francisco | 3 | Stopwatch","name_short":"sfo-3","host":"sfo-1.us.uncletopia.com","port":27035,"enabled":true,"region":"us-west","cc":"us","latitude":37.77397,"longitude":-122.4313,"reserved":0,"last_update":"0001-01-01T00:00:00Z","name_a2s":"Uncletopia | San Francisco | 3 | Stopwatch","protocol":17,"map":"workshop/cp_reckoner_rc6.ugc674719999","folder":"tf","game":"Team Fortress","app_id":440,"player_count":0,"max_players":24,"Bots":0,"server_type":"Dedicated","server_os":"Linux","password":true,"vac":true,"version":"7961495","steam_id":85568392924742824,"keywords":["cp","nocrits","nodmgspread","uncletopia"],"game_id":440,"stv_port":27036,"stv_name":"Uncletopia | San Francisco | 3 | Stopwatch | STV","players":null},{"server_id":20,"name":"Uncletopia | San Francisco | 4 | Community","name_short":"sfo-4","host":"sfo-1.us.uncletopia.com","port":27045,"enabled":true,"region":"us-west","cc":"us","latitude":37.77397,"longitude":-122.4313,"reserved":0,"last_update":"0001-01-01T00:00:00Z","name_a2s":"Uncletopia | San Francisco | 4 | Community","protocol":17,"map":"workshop/koth_product_final.ugc454272353","folder":"tf","game":"Team Fortress","app_id":440,"player_count":0,"max_players":24,"Bots":0,"server_type":"Dedicated","server_os":"Linux","password":true,"vac":true,"version":"7961495","steam_id":85568392924742826,"keywords":["cp","nocrits","nodmgspread","uncletopia"],"game_id":440,"stv_port":27046,"stv_name":"Uncletopia | San Francisco | 4 | Community | STV","players":null},{"server_id":141,"name":"Uncletopia | Sydney | 1 | All Maps","name_short":"syd-1","host":"syd-1.au.uncletopia.com","port":27015,"enabled":true,"region":"au","cc":"au","latitude":-33.865143,"longitude":151.2099,"reserved":0,"last_update":"0001-01-01T00:00:00Z","name_a2s":"Uncletopia | Sydney | 1 | All Maps","protocol":17,"map":"koth_viaduct","folder":"tf","game":"Team Fortress","app_id":440,"player_count":5,"max_players":24,"Bots":0,"server_type":"Dedicated","server_os":"Linux","password":true,"vac":true,"version":"7961495","steam_id":85568392924470001,"keywords":["cp","nocrits","nodmgspread","uncletopia"],"game_id":440,"stv_port":27016,"stv_name":"Uncletopia | Sydney | 1 | All Maps | STV","players":[{"user_id":7,"name":"Burnz","steam_id":76561199170593893,"connected_time":1484000000000,"state":"active","ping":56},{"user_id":9,"name":"SaltierThanYou","steam_id":76561198444395188,"connected_time":867000000000,"state":"active","ping":81},{"user_id":10,"name":"Trex988","steam_id":76561198147725676,"connected_time":742000000000,"state":"active","ping":66},{"user_id":11,"name":"Mr_JM","steam_id":76561199192298358,"connected_time":129000000000,"state":"active","ping":373},{"user_id":12,"name":"Wrainbow","steam_id":76561199039385168,"connected_time":101000000000,"state":"active","ping":158}]},{"server_id":123,"name":"Uncletopia | Sydney | 2 | All Maps","name_short":"syd-2","host":"syd-1.au.uncletopia.com","port":27025,"enabled":true,"region":"au","cc":"au","latitude":-33.865143,"longitude":151.2099,"reserved":0,"last_update":"0001-01-01T00:00:00Z","name_a2s":"Uncletopia | Sydney | 2 | All Maps","protocol":17,"map":"koth_lakeside_final","folder":"tf","game":"Team Fortress","app_id":440,"player_count":0,"max_players":24,"Bots":0,"server_type":"Dedicated","server_os":"Linux","password":true,"vac":true,"version":"7961495","steam_id":85568392924470002,"keywords":["cp","nocrits","nodmgspread","uncletopia"],"game_id":440,"stv_port":27026,"stv_name":"Uncletopia | Sydney | 2 | All Maps | STV","players":null},{"server_id":395,"name":"Uncletopia | Sydney | 3 | All Maps","name_short":"syd-3","host":"syd-1.au.uncletopia.com","port":27035,"enabled":true,"region":"au","cc":"au","latitude":-33.865143,"longitude":151.2099,"reserved":0,"last_update":"0001-01-01T00:00:00Z","name_a2s":"Uncletopia | Sydney | 3 | All Maps","protocol":17,"map":"pl_frontier_final","folder":"tf","game":"Team Fortress","app_id":440,"player_count":0,"max_players":24,"Bots":0,"server_type":"Dedicated","server_os":"Linux","password":true,"vac":true,"version":"7961495","steam_id":85568392925194467,"keywords":["nocrits","nodmgspread","payload","uncletopia"],"game_id":440,"stv_port":27036,"stv_name":"Uncletopia | Sydney | 3 | All Maps | STV","players":null},{"server_id":396,"name":"Uncletopia | Sydney | 4 | All Maps","name_short":"syd-4","host":"syd-1.au.uncletopia.com","port":27045,"enabled":true,"region":"au","cc":"au","latitude":-33.865143,"longitude":151.2099,"reserved":0,"last_update":"0001-01-01T00:00:00Z","name_a2s":"Uncletopia | Sydney | 4 | All Maps","protocol":17,"map":"cp_process_final","folder":"tf","game":"Team Fortress","app_id":440,"player_count":0,"max_players":24,"Bots":0,"server_type":"Dedicated","server_os":"Linux","password":true,"vac":true,"version":"7961495","steam_id":85568392925397958,"keywords":["cp","nocrits","nodmgspread","uncletopia"],"game_id":440,"stv_port":27046,"stv_name":"Uncletopia | Sydney | 4 | All Maps | STV","players":null},{"server_id":58,"name":"Uncletopia | Sydney | 5 | Stopwatch","name_short":"syd-5","host":"syd-1.au.uncletopia.com","port":27055,"enabled":true,"region":"au","cc":"au","latitude":-33.865143,"longitude":151.2099,"reserved":0,"last_update":"0001-01-01T00:00:00Z","name_a2s":"Uncletopia | Sydney | 5 | Stopwatch","protocol":17,"map":"pl_frontier_final","folder":"tf","game":"Team Fortress","app_id":440,"player_count":0,"max_players":24,"Bots":0,"server_type":"Dedicated","server_os":"Linux","password":true,"vac":true,"version":"7961495","steam_id":85568392925397959,"keywords":["nocrits","nodmgspread","payload","uncletopia"],"game_id":440,"stv_port":27056,"stv_name":"Uncletopia | Sydney | 5 | Stopwatch | STV","players":null},{"server_id":59,"name":"Uncletopia | Sydney | 6 | Community","name_short":"syd-6","host":"syd-1.au.uncletopia.com","port":27065,"enabled":true,"region":"au","cc":"au","latitude":-33.865143,"longitude":151.2099,"reserved":0,"last_update":"0001-01-01T00:00:00Z","name_a2s":"Uncletopia | Sydney | 6 | Community","protocol":17,"map":"workshop/koth_ashville_final.ugc2130459942","folder":"tf","game":"Team Fortress","app_id":440,"player_count":0,"max_players":24,"Bots":0,"server_type":"Dedicated","server_os":"Linux","password":true,"vac":true,"version":"7961495","steam_id":85568392925397960,"keywords":["cp","nocrits","nodmgspread","uncletopia"],"game_id":440,"stv_port":27066,"stv_name":"Uncletopia | Sydney | 6 | Community | STV","players":null},{"server_id":49,"name":"Uncletopia | Warsaw | 1 | One Thousand Uncles","name_short":"waw-1","host":"waw-1.pl.uncletopia.com","port":27015,"enabled":true,"region":"eu","cc":"pl","latitude":52.2297,"longitude":21.017532,"reserved":0,"last_update":"0001-01-01T00:00:00Z","name_a2s":"Uncletopia | Warsaw | 1 | One Thousand Uncles","protocol":17,"map":"pl_badwater","folder":"tf","game":"Team Fortress","app_id":440,"player_count":21,"max_players":32,"Bots":16,"server_type":"Dedicated","server_os":"Linux","password":true,"vac":true,"version":"7961495","steam_id":85568392925397850,"keywords":["alltalk","bots","danepve","increased_maxplayers","nocrits","norespawntime","payload","uncletopia"],"game_id":440,"stv_port":0,"stv_name":"","players":[{"user_id":94,"name":"NEET","steam_id":76561198133887882,"connected_time":1343000000000,"state":"active","ping":107},{"user_id":112,"name":"Treeboy","steam_id":76561198336076461,"connected_time":421000000000,"state":"active","ping":99},{"user_id":114,"name":"Coolyo X_X","steam_id":76561198309410266,"connected_time":356000000000,"state":"active","ping":82},{"user_id":90,"name":"Olimar","steam_id":76561197993812175,"connected_time":3387000000000,"state":"active","ping":175},{"user_id":91,"name":"Jallis","steam_id":76561198058128855,"connected_time":3234000000000,"state":"active","ping":90}]},{"server_id":50,"name":"Uncletopia | Warsaw | 2 | One Thousand Uncles","name_short":"waw-2","host":"waw-1.pl.uncletopia.com","port":27025,"enabled":true,"region":"eu","cc":"pl","latitude":52.2297,"longitude":21.017532,"reserved":0,"last_update":"0001-01-01T00:00:00Z","name_a2s":"Uncletopia | Warsaw | 2 | One Thousand Uncles","protocol":17,"map":"pl_goldrush","folder":"tf","game":"Team Fortress","app_id":440,"player_count":0,"max_players":32,"Bots":0,"server_type":"Dedicated","server_os":"Linux","password":true,"vac":true,"version":"7961495","steam_id":85568392925397851,"keywords":["alltalk","danepve","increased_maxplayers","nocrits","norespawntime","payload","uncletopia"],"game_id":440,"stv_port":0,"stv_name":"","players":null},{"server_id":51,"name":"Uncletopia | Warsaw | 3 | All Maps","name_short":"waw-3","host":"waw-1.pl.uncletopia.com","port":27035,"enabled":true,"region":"eu","cc":"pl","latitude":52.2297,"longitude":21.017532,"reserved":0,"last_update":"0001-01-01T00:00:00Z","name_a2s":"Uncletopia | Warsaw | 3 | All Maps","protocol":17,"map":"koth_viaduct","folder":"tf","game":"Team Fortress","app_id":440,"player_count":0,"max_players":24,"Bots":0,"server_type":"Dedicated","server_os":"Linux","password":true,"vac":true,"version":"7961495","steam_id":85568392925397852,"keywords":["cp","nocrits","nodmgspread","uncletopia"],"game_id":440,"stv_port":27036,"stv_name":"Uncletopia | Warsaw | 3 | All Maps | STV","players":null},{"server_id":52,"name":"Uncletopia | Warsaw | 4 | All Maps","name_short":"waw-4","host":"waw-1.pl.uncletopia.com","port":27045,"enabled":true,"region":"eu","cc":"pl","latitude":52.2297,"longitude":21.017532,"reserved":0,"last_update":"0001-01-01T00:00:00Z","name_a2s":"Uncletopia | Warsaw | 4 | All Maps","protocol":17,"map":"pl_swiftwater_final1","folder":"tf","game":"Team Fortress","app_id":440,"player_count":0,"max_players":24,"Bots":0,"server_type":"Dedicated","server_os":"Linux","password":true,"vac":true,"version":"7961495","steam_id":85568392925397853,"keywords":["nocrits","nodmgspread","payload","uncletopia"],"game_id":440,"stv_port":27046,"stv_name":"Uncletopia | Warsaw | 4 | All Maps | STV","players":null},{"server_id":53,"name":"Uncletopia | Warsaw | 5 | Stopwatch","name_short":"waw-5","host":"waw-1.pl.uncletopia.com","port":27055,"enabled":true,"region":"eu","cc":"pl","latitude":52.2297,"longitude":21.017532,"reserved":0,"last_update":"0001-01-01T00:00:00Z","name_a2s":"Uncletopia | Warsaw | 5 | Stopwatch","protocol":17,"map":"workshop/pl_summercoast_rc8e.ugc1761528829","folder":"tf","game":"Team Fortress","app_id":440,"player_count":0,"max_players":24,"Bots":0,"server_type":"Dedicated","server_os":"Linux","password":true,"vac":true,"version":"7961495","steam_id":85568392925397854,"keywords":["nocrits","nodmgspread","payload","uncletopia"],"game_id":440,"stv_port":27056,"stv_name":"Uncletopia | Warsaw | 5 | Stopwatch | STV","players":null},{"server_id":54,"name":"Uncletopia | Warsaw | 6 | Community","name_short":"waw-6","host":"waw-1.pl.uncletopia.com","port":27065,"enabled":true,"region":"eu","cc":"pl","latitude":52.2297,"longitude":21.017532,"reserved":0,"last_update":"0001-01-01T00:00:00Z","name_a2s":"Uncletopia | Warsaw | 6 | Community","protocol":17,"map":"workshop/koth_trenchfoot_b1a.ugc731436616","folder":"tf","game":"Team Fortress","app_id":440,"player_count":0,"max_players":24,"Bots":0,"server_type":"Dedicated","server_os":"Linux","password":true,"vac":true,"version":"7961495","steam_id":85568392925397856,"keywords":["cp","nocrits","nodmgspread","uncletopia"],"game_id":440,"stv_port":27066,"stv_name":"Uncletopia | Warsaw | 6 | Community | STV","players":null}]}