{"status":true,"message":"","result":[{"server_id":2,"name":"Uncletopia | Chicago | 1 | All Maps","name_short":"chi-1","host":"chi-1.us.uncletopia.com","port":27015,"enabled":true,"region":"us-central","cc":"us","latitude":41.881832,"longitude":-87.62318,"reserved":0,"last_update":"0001-01-01T00:00:00Z","name_a2s":"Uncletopia | Chicago | 1 | All Maps","protocol":17,"map":"pl_badwater","folder":"tf","game":"Team Fortress","app_id":440,"player_count":23,"max_players":24,"Bots":0,"server_type":"Dedicated","server_os":"Linux","password":true,"vac":true,"version":"7932396","steam_id":85568392924469984,"keywords":["nocrits","nodmgspread","payload","uncletopia"],"game_id":440,"stv_port":27016,"stv_name":"Uncletopia | Chicago | 1 | All Maps | STV","players":[{"user_id":770,"name":"nullptr","steam_id":76561198111790388,"connected_time":3760000000000,"state":"active","ping":86},{"user_id":806,"name":"Freddie Mercury's Ghost","steam_id":76561198140320704,"connected_time":836000000000,"state":"active","ping":60},{"user_id":802,"name":"Redrocko","steam_id":76561198045291223,"connected_time":1078000000000,"state":"active","ping":123},{"user_id":791,"name":"A Rather Questionable Tomato","steam_id":76561198064629474,"connected_time":2324000000000,"state":"active","ping":46},{"user_id":803,"name":"Shadoe","steam_id":76561198218577281,"connected_time":1009000000000,"state":"active","ping":67},{"user_id":778,"name":"ma≈Çiƒô","steam_id":76561198337705174,"connected_time":3305000000000,"state":"active","ping":65},{"user_id":797,"name":"0","steam_id":76561198046065237,"connected_time":1807000000000,"state":"active","ping":66},{"user_id":761,"name":"Save","steam_id":76561198032740584,"connected_time":4331000000000,"state":"active","ping":71},{"user_id":798,"name":"vivid but the bad","steam_id":76561198296879897,"connected_time":1610000000000,"state":"active","ping":72},{"user_id":804,"name":"Boomboombop","steam_id":76561198267531538,"connected_time":974000000000,"state":"active","ping":69},{"user_id":785,"name":"Axel Beoulve","steam_id":76561198126511231,"connected_time":2715000000000,"state":"active","ping":117},{"user_id":759,"name":"Your Local Queer Librarian","steam_id":76561198013077080,"connected_time":4677000000000,"state":"active","ping":59},{"user_id":805,"name":"Provocator","steam_id":76561197961830410,"connected_time":930000000000,"state":"active","ping":73},{"user_id":749,"name":"Killer Kled","steam_id":76561198087002008,"connected_time":5043000000000,"state":"active","ping":70},{"user_id":750,"name":"An Insanely Sly Sausage","steam_id":76561198271342168,"connected_time":5017000000000,"state":"active","ping":73},{"user_id":786,"name":"BilboShepard","steam_id":76561198400412548,"connected_time":2690000000000,"state":"active","ping":105},{"user_id":753,"name":"SNIPER MONKEY","steam_id":76561198403205128,"connected_time":4938000000000,"state":"active","ping":124},{"user_id":754,"name":"Ludcmorais","steam_id":76561198359217809,"connected_time":4912000000000,"state":"active","ping":186},{"user_id":776,"name":"QWERTY","steam_id":76561198211430420,"connected_time":3382000000000,"state":"active","ping":70},{"user_id":807,"name":"Bubblegum Tip","steam_id":76561198048131308,"connected_time":725000000000,"state":"active","ping":105},{"user_id":796,"name":"dave","steam_id":76561199185148234,"connected_time":1939000000000,"state":"active","ping":122},{"user_id":726,"name":"bluefoxx118","steam_id":76561198182884975,"connected_time":8021000000000,"state":"active","ping":63},{"user_id":808,"name":"pudl","steam_id":76561198043726592,"connected_time":581000000000,"state":"active","ping":62}]},{"server_id":106,"name":"Uncletopia | Chicago | 2 | All Maps","name_short":"chi-2","host":"chi-1.us.uncletopia.com","port":27025,"enabled":true,"region":"us-central","cc":"us","latitude":41.881832,"longitude":-87.62318,"reserved":0,"last_update":"0001-01-01T00:00:00Z","name_a2s":"Uncletopia | Chicago | 2 | All Maps","protocol":17,"map":"cp_snakewater_final1","folder":"tf","game":"Team Fortress","app_id":440,"player_count":0,"max_players":24,"Bots":0,"server_type":"Dedicated","server_os":"Linux","password":true,"vac":true,"version":"7932396","steam_id":85568392924469985,"keywords":["cp","nocrits","nodmgspread","uncletopia"],"game_id":440,"stv_port":27026,"stv_name":"Uncletopia | Chicago | 2 | All Maps | STV","players":null},{"server_id":402,"name":"Uncletopia | Chicago | 3 | All Maps","name_short":"chi-3","host":"chi-1.us.uncletopia.com","port":27035,"enabled":true,"region":"us-central","cc":"us","latitude":41.881832,"longitude":-87.62318,"reserved":0,"last_update":"0001-01-01T00:00:00Z","name_a2s":"Uncletopia | Chicago | 3 | All Maps","protocol":17,"map":"pl_barnblitz","folder":"tf","game":"Team Fortress","app_id":440,"player_count":0,"max_players":24,"Bots":0,"server_type":"Dedicated","server_os":"Linux","password":true,"vac":true,"version":"7932396","steam_id":85568392924515191,"keywords":["nocrits","nodmgspread","payload","uncletopia"],"game_id":440,"stv_port":27036,"stv_name":"Uncletopia | Chicago | 3 | All Maps | STV","players":null},{"server_id":403,"name":"Uncletopia | Chicago | 4 | All Maps","name_short":"chi-4","host":"chi-1.us.uncletopia.com","port":27045,"enabled":true,"region":"us-central","cc":"us","latitude":41.881832,"longitude":-87.62318,"reserved":0,"last_update":"0001-01-01T00:00:00Z","name_a2s":"Uncletopia | Chicago | 4 | All Maps","protocol":17,"map":"cp_process_final","folder":"tf","game":"Team Fortress","app_id":440,"player_count":20,"max_players":24,"Bots":0,"server_type":"Dedicated","server_os":"Linux","password":true,"vac":true,"version":"7932396","steam_id":85568392924515193,"keywords":["cp","nocrits","nodmgspread","uncletopia"],"game_id":440,"stv_port":27046,"stv_name":"Uncletopia | Chicago | 4 | All Maps | STV","players":[{"user_id":805,"name":"blows up pancakes with mind","steam_id":76561198332704108,"connected_time":840000000000,"state":"active","ping":45},{"user_id":807,"name":"creepycrawler","steam_id":76561198352016831,"connected_time":687000000000,"state":"active","ping":57},{"user_id":815,"name":"Lumi","steam_id":76561198089978036,"connected_time":81000000000,"state":"spawning","ping":68},{"user_id":711,"name":"aleksei.fi","steam_id":76561199061380038,"connected_time":7984000000000,"state":"active","ping":60},{"user_id":777,"name":"mans got the mouse katool","steam_id":76561198073103529,"connected_time":3799000000000,"state":"active","ping":74},{"user_id":784,"name":"I‚Äôm literally standing","steam_id":76561198089630547,"connected_time":3368000000000,"state":"active","ping":68},{"user_id":768,"name":"mOoOoOoO","steam_id":76561198145615363,"connected_time":4520000000000,"state":"active","ping":60},{"user_id":758,"name":"Terminal Brain Rot","steam_id":76561198112594672,"connected_time":4946000000000,"state":"active","ping":66},{"user_id":785,"name":"SlurdyDurdy","steam_id":76561198101494591,"connected_time":3359000000000,"state":"active","ping":88},{"user_id":813,"name":"Sir Loincloth","steam_id":76561198033073991,"connected_time":254000000000,"state":"active","ping":68},{"user_id":788,"name":"huh","steam_id":76561198102265073,"connected_time":3237000000000,"state":"active","ping":97},{"user_id":814,"name":"Narwhal","steam_id":76561199489020776,"connected_time":174000000000,"state":"active","ping":162},{"user_id":706,"name":"Kritzburgh","steam_id":76561198149466938,"connected_time":8427000000000,"state":"active","ping":60},{"user_id":789,"name":"Stan","steam_id":76561199057962816,"connected_time":3210000000000,"state":"active","ping":66},{"user_id":762,"name":"Cr0w","steam_id":76561198453514133,"connected_time":4730000000000,"state":"active","ping":104},{"user_id":799,"name":"Tommy Pickles (Very Cool)","steam_id":76561198391261463,"connected_time":1941000000000,"state":"active","ping":68},{"user_id":809,"name":"sabdychan","steam_id":76561198973078784,"connected_time":549000000000,"state":"active","ping":59},{"user_id":764,"name":"·≤º ·≤º","steam_id":76561198149443710,"connected_time":4683000000000,"state":"active","ping":99},{"user_id":765,"name":"domkey","steam_id":76561198066114874,"connected_time":4681000000000,"state":"active","ping":105},{"user_id":686,"name":"machine embodiment","steam_id":76561199081837220,"connected_time":10366000000000,"state":"active","ping":83}]},{"server_id":36,"name":"Uncletopia | Chicago | 5 | All Maps","name_short":"chi-5","host":"chi-2.us.uncletopia.com","port":27015,"enabled":true,"region":"us-central","cc":"us","latitude":41.881832,"longitude":-87.62318,"reserved":0,"last_update":"0001-01-01T00:00:00Z","name_a2s":"Uncletopia | Chicago | 5 | All Maps","protocol":17,"map":"cp_mountainlab","folder":"tf","game":"Team Fortress","app_id":440,"player_count":0,"max_players":24,"Bots":0,"server_type":"Dedicated","server_os":"Linux","password":true,"vac":true,"version":"7932396","steam_id":85568392924866362,"keywords":["cp","nocrits","nodmgspread","uncletopia"],"game_id":440,"stv_port":27016,"stv_name":"Uncletopia | Chicago | 5 | All Maps | STV","players":null},{"server_id":37,"name":"Uncletopia | Chicago | 6 | All Maps","name_short":"chi-6","host":"chi-2.us.uncletopia.com","port":27025,"enabled":true,"region":"us-central","cc":"us","latitude":41.881832,"longitude":-87.62318,"reserved":0,"last_update":"0001-01-01T00:00:00Z","name_a2s":"Uncletopia | Chicago | 6 | All Maps","protocol":17,"map":"koth_cascade","folder":"tf","game":"Team Fortress","app_id":440,"player_count":0,"max_players":24,"Bots":0,"server_type":"Dedicated","server_os":"Linux","password":true,"vac":true,"version":"7932396","steam_id":85568392924866363,"keywords":["cp","nocrits","nodmgspread","uncletopia"],"game_id":440,"stv_port":27026,"stv_name":"Uncletopia | Chicago | 6 | All Maps | STV","players":null},{"server_id":38,"name":"Uncletopia | Chicago | 7 | Stopwatch Beta","name_short":"chi-7","host":"chi-2.us.uncletopia.com","port":27035,"enabled":true,"region":"us-central","cc":"us","latitude":41.881832,"longitude":-87.62318,"reserved":0,"last_update":"0001-01-01T00:00:00Z","name_a2s":"Uncletopia | Chicago | 7 | Stopwatch Beta","protocol":17,"map":"workshop/pl_summercoast_rc8e.ugc1761528829","folder":"tf","game":"Team Fortress","app_id":440,"player_count":0,"max_players":24,"Bots":0,"server_type":"Dedicated","server_os":"Linux","password":true,"vac":true,"version":"7932396","steam_id":85568392924866364,"keywords":["nocrits","nodmgspread","payload","uncletopia"],"game_id":440,"stv_port":27036,"stv_name":"Uncletopia | Chicago | 7 | Stopwatch Beta | STV","players":null},{"server_id":39,"name":"Uncletopia | Chicago | 8 | Community","name_short":"chi-8","host":"chi-2.us.uncletopia.com","port":27045,"enabled":true,"region":"us-central","cc":"us","latitude":41.881832,"longitude":-87.62318,"reserved":0,"last_update":"0001-01-01T00:00:00Z","name_a2s":"Uncletopia | Chicago | 8 | Community","protocol":17,"map":"workshop/koth_slaughter_rc1.ugc1712845210","folder":"tf","game":"Team Fortress","app_id":440,"player_count":0,"max_players":24,"Bots":0,"server_type":"Dedicated","server_os":"Linux","password":true,"vac":true,"version":"7932396","steam_id":85568392924866365,"keywords":["cp","nocrits","nodmgspread","uncletopia"],"game_id":440,"stv_port":27046,"stv_name":"Uncletopia | Chicago | 8 | Community | STV","players":null},{"server_id":8,"name":"Uncletopia | Dallas | 1 | All Maps","name_short":"dal-1","host":"dal-1.us.uncletopia.com","port":27015,"enabled":true,"region":"us-central","cc":"us","latitude":32.779167,"longitude":-96.80889,"reserved":0,"last_update":"0001-01-01T00:00:00Z","name_a2s":"Uncletopia | Dallas | 1 | All Maps","protocol":17,"map":"cp_mountainlab","folder":"tf","game":"Team Fortress","app_id":440,"player_count":24,"max_players":24,"Bots":0,"server_type":"Dedicated","server_os":"Linux","password":true,"vac":true,"version":"7932396","steam_id":85568392924469986,"keywords":["cp","nocrits","nodmgspread","uncletopia"],"game_id":440,"stv_port":27016,"stv_name":"Uncletopia | Dallas | 1 | All Maps | STV","players":[{"user_id":1145,"name":"qt pa 2t","steam_id":76561198066867150,"connected_time":1624000000000,"state":"active","ping":80},{"user_id":1156,"name":"shadow wizard money gang","steam_id":76561198193909247,"connected_time":623000000000,"state":"active","ping":81},{"user_id":1023,"name":"squidpunk1312","steam_id":76561198202274248,"connected_time":13131000000000,"state":"active","ping":59},{"user_id":1159,"name":"Ekohtwo","steam_id":76561198067994868,"connected_time":433000000000,"state":"active","ping":94},{"user_id":1161,"name":"shakoiwa","steam_id":76561199059441773,"connected_time":297000000000,"state":"active","ping":71},{"user_id":1154,"name":"Golddick Lewisson","steam_id":76561198054719949,"connected_time":714000000000,"state":"active","ping":105},{"user_id":1136,"name":"Deluxe_Taco34","steam_id":76561199037653437,"connected_time":2788000000000,"state":"active","ping":123},{"user_id":1124,"name":"bag fumbler","steam_id":76561198073946141,"connected_time":3943000000000,"state":"active","ping":166},{"user_id":1115,"name":"mndbrkn","steam_id":76561198054390505,"connected_time":4497000000000,"state":"active","ping":61},{"user_id":1142,"name":"Nahvee","steam_id":76561198119759695,"connected_time":1679000000000,"state":"active","ping":61},{"user_id":1162,"name":"Dr. Chad Feelgood","steam_id":76561198454077219,"connected_time":284000000000,"state":"active","ping":70},{"user_id":1144,"name":"Gallowglass07","steam_id":76561199286102917,"connected_time":1661000000000,"state":"active","ping":90},{"user_id":1163,"name":"Chilling Bing","steam_id":76561198140651185,"connected_time":177000000000,"state":"active","ping":55},{"user_id":1140,"name":"Ojen","steam_id":76561197998414482,"connected_time":2107000000000,"state":"active","ping":93},{"user_id":1141,"name":"BIG HOG","steam_id":76561198079923652,"connected_time":1851000000000,"state":"active","ping":56},{"user_id":1155,"name":"perfect inCell","steam_id":76561198059182316,"connected_time":663000000000,"state":"active","ping":75},{"user_id":1157,"name":"vol 1","steam_id":76561198063880315,"connected_time":564000000000,"state":"active","ping":74},{"user_id":1164,"name":"lb Diamond","steam_id":76561197967998740,"connected_time":166000000000,"state":"active","ping":86},{"user_id":1137,"name":"i need u","steam_id":76561198030625151,"connected_time":2787000000000,"state":"active","ping":74},{"user_id":1165,"name":"BloodDragonKing","steam_id":76561198165416407,"connected_time":151000000000,"state":"active","ping":94},{"user_id":1131,"name":"Madeline (she/her)","steam_id":76561198336551859,"connected_time":2941000000000,"state":"active","ping":71},{"user_id":1152,"name":"GKumo","steam_id":76561198023175868,"connected_time":1362000000000,"state":"active","ping":93},{"user_id":1158,"name":"floofy","steam_id":76561198389769098,"connected_time":525000000000,"state":"active","ping":79},{"user_id":993,"name":"transgender fortress 2","steam_id":76561198062263639,"connected_time":14742000000000,"state":"active","ping":46}]},{"server_id":108,"name":"Uncletopia | Dallas | 2 | All Maps","name_short":"dal-2","host":"dal-1.us.uncletopia.com","port":27025,"enabled":true,"region":"us-central","cc":"us","latitude":32.779167,"longitude":-96.80889,"reserved":0,"last_update":"0001-01-01T00:00:00Z","name_a2s":"Uncletopia | Dallas | 2 | All Maps","protocol":17,"map":"koth_lakeside_final","folder":"tf","game":"Team Fortress","app_id":440,"player_count":0,"max_players":24,"Bots":0,"server_type":"Dedicated","server_os":"Linux","password":true,"vac":true,"version":"7932396","steam_id":85568392924469988,"keywords":["cp","nocrits","nodmgspread","uncletopia"],"game_id":440,"stv_port":27026,"stv_name":"Uncletopia | Dallas | 2 | All Maps | STV","players":null},{"server_id":5,"name":"Uncletopia | Frankfurt | 1 | All Maps","name_short":"frk-1","host":"frk-1.de.uncletopia.com","port":27015,"enabled":true,"region":"eu","cc":"de","latitude":50.110924,"longitude":8.682127,"reserved":0,"last_update":"0001-01-01T00:00:00Z","name_a2s":"Uncletopia | Frankfurt | 1 | All Maps","protocol":17,"map":"pl_badwater","folder":"tf","game":"Team Fortress","app_id":440,"player_count":24,"max_players":24,"Bots":0,"server_type":"Dedicated","server_os":"Linux","password":true,"vac":true,"version":"7932396","steam_id":85568392924469989,"keywords":["nocrits","nodmgspread","payload","uncletopia"],"game_id":440,"stv_port":27016,"stv_name":"Uncletopia | Frankfurt | 1 | All Maps | STV","players":[{"user_id":167,"name":"üÉî Katarina","steam_id":76561198065652251,"connected_time":902000000000,"state":"active","ping":41},{"user_id":141,"name":"Blam","steam_id":76561199142730050,"connected_time":1814000000000,"state":"active","ping":155},{"user_id":153,"name":".::[SerafeTTiN]::.","steam_id":76561198009471724,"connected_time":1439000000000,"state":"active","ping":82},{"user_id":178,"name":"SpeddyMeddy","steam_id":76561197999693825,"connected_time":470000000000,"state":"active","ping":65},{"user_id":180,"name":"Amon Gus","steam_id":76561199094540960,"connected_time":314000000000,"state":"active","ping":60},{"user_id":175,"name":"peruna","steam_id":76561198000721196,"connected_time":509000000000,"state":"active","ping":87},{"user_id":138,"name":"cherry‚ù§","steam_id":76561198346851670,"connected_time":1935000000000,"state":"active","ping":70},{"user_id":165,"name":"schmick h_stt 0","steam_id":76561198039537958,"connected_time":1075000000000,"state":"active","ping":53},{"user_id":176,"name":"part time roach","steam_id":76561198235739036,"connected_time":509000000000,"state":"active","ping":66},{"user_id":173,"name":"Arty","steam_id":76561198160100181,"connected_time":525000000000,"state":"active","ping":75},{"user_id":149,"name":"koth_harvest","steam_id":76561199195985387,"connected_time":1602000000000,"state":"active","ping":83},{"user_id":156,"name":"howabe","steam_id":76561197996486818,"connected_time":1328000000000,"state":"active","ping":54},{"user_id":171,"name":"Operunter","steam_id":76561198059937616,"connected_time":723000000000,"state":"active","ping":60},{"user_id":172,"name":"Junk1e","steam_id":76561198031265942,"connected_time":675000000000,"state":"active","ping":79},{"user_id":158,"name":"TheEventGuy","steam_id":76561197972797744,"connected_time":1261000000000,"state":"active","ping":59},{"user_id":182,"name":"Kamina","steam_id":76561198079299570,"connected_time":235000000000,"state":"active","ping":78},{"user_id":152,"name":"vadr","steam_id":76561198334528186,"connected_time":1469000000000,"state":"active","ping":59},{"user_id":159,"name":"jaime8D","steam_id":76561197980590671,"connected_time":1243000000000,"state":"active","ping":88},{"user_id":148,"name":"Pineappleman","steam_id":76561199074651648,"connected_time":1618000000000,"state":"active","ping":65},{"user_id":160,"name":"Bullet magnet (FIN)","steam_id":76561197975715220,"connected_time":1205000000000,"state":"active","ping":86},{"user_id":161,"name":"fredu","steam_id":76561198107605938,"connected_time":1202000000000,"state":"active","ping":91},{"user_id":162,"name":"KNNTX","steam_id":76561198161313074,"connected_time":1191000000000,"state":"active","ping":105},{"user_id":168,"name":"Skippy","steam_id":76561199245844181,"connected_time":861000000000,"state":"active","ping":69},{"user_id":170,"name":"MargoulGetron","steam_id":76561198020551698,"connected_time":819000000000,"state":"active","ping":58}]},{"server_id":110,"name":"Uncletopia | Frankfurt | 2 | All Maps","name_short":"frk-2","host":"frk-1.de.uncletopia.com","port":27025,"enabled":true,"region":"eu","cc":"de","latitude":50.110924,"longitude":8.682127,"reserved":0,"last_update":"0001-01-01T00:00:00Z","name_a2s":"Uncletopia | Frankfurt | 2 | All Maps","protocol":17,"map":"pl_borneo","folder":"tf","game":"Team Fortress","app_id":440,"player_count":0,"max_players":24,"Bots":0,"server_type":"Dedicated","server_os":"Linux","password":true,"vac":true,"version":"7932396","steam_id":85568392924469990,"keywords":["nocrits","nodmgspread","payload","uncletopia"],"game_id":440,"stv_port":27026,"stv_name":"Uncletopia | Frankfurt | 2 | All Maps | STV","players":null},{"server_id":308,"name":"Uncletopia | Frankfurt | 3 | All Maps","name_short":"frk-3","host":"frk-1.de.uncletopia.com","port":27035,"enabled":true,"region":"eu","cc":"de","latitude":50.110924,"longitude":8.682127,"reserved":0,"last_update":"0001-01-01T00:00:00Z","name_a2s":"Uncletopia | Frankfurt | 3 | All Maps","protocol":17,"map":"cp_mountainlab","folder":"tf","game":"Team Fortress","app_id":440,"player_count":0,"max_players":24,"Bots":0,"server_type":"Dedicated","server_os":"Linux","password":true,"vac":true,"version":"7932396","steam_id":85568392924504274,"keywords":["cp","nocrits","nodmgspread","uncletopia"],"game_id":440,"stv_port":27036,"stv_name":"Uncletopia | Frankfurt | 3 | All Maps | STV","players":null},{"server_id":309,"name":"Uncletopia | Frankfurt | 4 | All Maps","name_short":"frk-4","host":"frk-1.de.uncletopia.com","port":27045,"enabled":true,"region":"eu","cc":"de","latitude":50.110924,"longitude":8.682127,"reserved":0,"last_update":"0001-01-01T00:00:00Z","name_a2s":"Uncletopia | Frankfurt | 4 | All Maps","protocol":17,"map":"koth_viaduct","folder":"tf","game":"Team Fortress","app_id":440,"player_count":0,"max_players":24,"Bots":0,"server_type":"Dedicated","server_os":"Linux","password":true,"vac":true,"version":"7932396","steam_id":85568392924504275,"keywords":["cp","nocrits","nodmgspread","uncletopia"],"game_id":440,"stv_port":27046,"stv_name":"Uncletopia | Frankfurt | 4 | All Maps | STV","players":null},{"server_id":310,"name":"Uncletopia | Frankfurt | 5 | All Maps","name_short":"frk-5","host":"frk-1.de.uncletopia.com","port":27055,"enabled":true,"region":"eu","cc":"de","latitude":50.110924,"longitude":8.682127,"reserved":0,"last_update":"0001-01-01T00:00:00Z","name_a2s":"Uncletopia | Frankfurt | 5 | All Maps","protocol":17,"map":"pl_badwater","folder":"tf","game":"Team Fortress","app_id":440,"player_count":0,"max_players":24,"Bots":0,"server_type":"Dedicated","server_os":"Linux","password":true,"vac":true,"version":"7932396","steam_id":85568392924504277,"keywords":["nocrits","nodmgspread","payload","uncletopia"],"game_id":440,"stv_port":27056,"stv_name":"Uncletopia | Frankfurt | 5 | All Maps | STV","players":null},{"server_id":311,"name":"Uncletopia | Frankfurt | 6 | All Maps","name_short":"frk-6","host":"frk-1.de.uncletopia.com","port":27065,"enabled":true,"region":"eu","cc":"de","latitude":50.110924,"longitude":8.682127,"reserved":0,"last_update":"0001-01-01T00:00:00Z","name_a2s":"Uncletopia | Frankfurt | 6 | All Maps","protocol":17,"map":"koth_viaduct","folder":"tf","game":"Team Fortress","app_id":440,"player_count":0,"max_players":24,"Bots":0,"server_type":"Dedicated","server_os":"Linux","password":true,"vac":true,"version":"7932396","steam_id":85568392924504278,"keywords":["cp","nocrits","nodmgspread","uncletopia"],"game_id":440,"stv_port":27066,"stv_name":"Uncletopia | Frankfurt | 6 | All Maps | STV","players":null},{"server_id":23,"name":"Uncletopia | Frankfurt | 7 | Stopwatch Beta","name_short":"frk-7","host":"frk-1.de.uncletopia.com","port":27075,"enabled":true,"region":"eu","cc":"de","latitude":50.110924,"longitude":8.682127,"reserved":0,"last_update":"0001-01-01T00:00:00Z","name_a2s":"Uncletopia | Frankfurt | 7 | Stopwatch Beta","protocol":17,"map":"pl_snowycoast","folder":"tf","game":"Team Fortress","app_id":440,"player_count":0,"max_players":24,"Bots":0,"server_type":"Dedicated","server_os":"Linux","password":true,"vac":true,"version":"7932396","steam_id":85568392924742827,"keywords":["nocrits","nodmgspread","payload","uncletopia"],"game_id":440,"stv_port":27076,"stv_name":"Uncletopia | Frankfurt | 7 | Stopwatch Beta | STV","players":null},{"server_id":24,"name":"Uncletopia | Frankfurt | 8 | Community","name_short":"frk-8","host":"frk-1.de.uncletopia.com","port":27085,"enabled":true,"region":"eu","cc":"de","latitude":50.110924,"longitude":8.682127,"reserved":0,"last_update":"0001-01-01T00:00:00Z","name_a2s":"Uncletopia | Frankfurt | 8 | Community","protocol":17,"map":"pl_barnblitz","folder":"tf","game":"Team Fortress","app_id":440,"player_count":0,"max_players":24,"Bots":0,"server_type":"Dedicated","server_os":"Linux","password":true,"vac":true,"version":"7932396","steam_id":85568392924742828,"keywords":["nocrits","nodmgspread","payload","uncletopia"],"game_id":440,"stv_port":27086,"stv_name":"Uncletopia | Frankfurt | 8 | Community | STV","players":null},{"server_id":202,"name":"Uncletopia | Hong Kong | 1 | All Maps","name_short":"hgk-1","host":"hgk-1.hk.uncletopia.com","port":27015,"enabled":true,"region":"asia","cc":"hk","latitude":22.302711,"longitude":114.177216,"reserved":0,"last_update":"0001-01-01T00:00:00Z","name_a2s":"Uncletopia | Hong Kong | 1 | All Maps","protocol":17,"map":"pl_pier","folder":"tf","game":"Team Fortress","app_id":440,"player_count":21,"max_players":24,"Bots":0,"server_type":"Dedicated","server_os":"Linux","password":true,"vac":true,"version":"7932396","steam_id":85568392924494504,"keywords":["nocrits","nodmgspread","payload","uncletopia"],"game_id":440,"stv_port":27016,"stv_name":"Uncletopia | Hong Kong | 1 | All Maps | STV","players":[{"user_id":200,"name":"SugarCoatingAstolfo","steam_id":76561199230196794,"connected_time":480000000000,"state":"active","ping":119},{"user_id":210,"name":"corpse_cadaver","steam_id":76561199225360457,"connected_time":139000000000,"state":"active","ping":71},{"user_id":195,"name":"ketsu","steam_id":76561197966171554,"connected_time":674000000000,"state":"active","ping":121},{"user_id":152,"name":"Slonk","steam_id":76561198845070475,"connected_time":4857000000000,"state":"active","ping":110},{"user_id":190,"name":"PawmKin","steam_id":76561198344175018,"connected_time":1282000000000,"state":"active","ping":110},{"user_id":191,"name":"Bacony(cant talk)","steam_id":76561199142252428,"connected_time":1052000000000,"state":"active","ping":106},{"user_id":169,"name":"protons","steam_id":76561198008307645,"connected_time":3046000000000,"state":"active","ping":122},{"user_id":112,"name":"Box Standard","steam_id":76561198312001455,"connected_time":10584000000000,"state":"active","ping":113},{"user_id":209,"name":"SpaceWaffle","steam_id":76561199126124270,"connected_time":161000000000,"state":"active","ping":85},{"user_id":205,"name":"\"SKS\"","steam_id":76561198187995386,"connected_time":330000000000,"state":"active","ping":86},{"user_id":173,"name":"Longst01","steam_id":76561199170105562,"connected_time":2281000000000,"state":"active","ping":66},{"user_id":196,"name":"Smudge","steam_id":76561198167863840,"connected_time":673000000000,"state":"active","ping":75},{"user_id":203,"name":"Cock Gobbler [F2P]","steam_id":76561199205335227,"connected_time":402000000000,"state":"active","ping":64},{"user_id":212,"name":"3rwynM","steam_id":76561198288311270,"connected_time":30000000000,"state":"active","ping":90},{"user_id":187,"name":"Thisismyname","steam_id":76561199223369287,"connected_time":1707000000000,"state":"active","ping":96},{"user_id":197,"name":"Headmouth","steam_id":76561198019789855,"connected_time":620000000000,"state":"active","ping":119},{"user_id":198,"name":"daigennki","steam_id":76561198046328609,"connected_time":614000000000,"state":"active","ping":100},{"user_id":204,"name":"the hunter","steam_id":76561198947441139,"connected_time":398000000000,"state":"active","ping":59},{"user_id":206,"name":"Puddin","steam_id":76561198140052918,"connected_time":308000000000,"state":"active","ping":91},{"user_id":207,"name":"ËçÉÁÅ£Â¢úÂ§©Âú∞ÁçÑÁç∏","steam_id":76561198321885643,"connected_time":235000000000,"state":"active","ping":43},{"user_id":213,"name":"AAAAaaaAAAAAA!!!!!!!","steam_id":76561199174449723,"connected_time":24000000000,"state":"active","ping":115}]},{"server_id":1,"name":"Uncletopia | Los Angeles | 1 | All Maps","name_short":"lax-1","host":"lax-1.us.uncletopia.com","port":27015,"enabled":true,"region":"us-west","cc":"us","latitude":33.94279,"longitude":-118.41004,"reserved":0,"last_update":"0001-01-01T00:00:00Z","name_a2s":"Uncletopia | Los Angeles | 1 | All Maps","protocol":17,"map":"pl_swiftwater_final1","folder":"tf","game":"Team Fortress","app_id":440,"player_count":0,"max_players":24,"Bots":0,"server_type":"Dedicated","server_os":"Linux","password":true,"vac":true,"version":"7932396","steam_id":85568392924469991,"keywords":["nocrits","nodmgspread","payload","uncletopia"],"game_id":440,"stv_port":27016,"stv_name":"Uncletopia | Los Angeles | 1 | All Maps | STV","players":null},{"server_id":112,"name":"Uncletopia | Los Angeles | 2 | All Maps","name_short":"lax-2","host":"lax-1.us.uncletopia.com","port":27025,"enabled":true,"region":"us-west","cc":"us","latitude":33.94279,"longitude":-118.41004,"reserved":0,"last_update":"0001-01-01T00:00:00Z","name_a2s":"Uncletopia | Los Angeles | 2 | All Maps","protocol":17,"map":"koth_highpass","folder":"tf","game":"Team Fortress","app_id":440,"player_count":0,"max_players":24,"Bots":0,"server_type":"Dedicated","server_os":"Linux","password":true,"vac":true,"version":"7932396","steam_id":85568392924469992,"keywords":["cp","nocrits","nodmgspread","uncletopia"],"game_id":440,"stv_port":27026,"stv_name":"Uncletopia | Los Angeles | 2 | All Maps | STV","players":null},{"server_id":324,"name":"Uncletopia | Los Angeles | 3 | All Maps","name_short":"lax-3","host":"lax-1.us.uncletopia.com","port":27035,"enabled":true,"region":"us-west","cc":"us","latitude":33.94279,"longitude":-118.41004,"reserved":0,"last_update":"0001-01-01T00:00:00Z","name_a2s":"Uncletopia | Los Angeles | 3 | All Maps","protocol":17,"map":"koth_lakeside_final","folder":"tf","game":"Team Fortress","app_id":440,"player_count":2,"max_players":24,"Bots":0,"server_type":"Dedicated","server_os":"Linux","password":true,"vac":true,"version":"7932396","steam_id":85568392924510198,"keywords":["cp","nocrits","nodmgspread","uncletopia"],"game_id":440,"stv_port":27036,"stv_name":"Uncletopia | Los Angeles | 3 | All Maps | STV","players":[{"user_id":381,"name":"Andtaymer700","steam_id":76561198239899694,"connected_time":774000000000,"state":"active","ping":67},{"user_id":382,"name":"Marine_03","steam_id":76561198403097784,"connected_time":704000000000,"state":"active","ping":66}]},{"server_id":25,"name":"Uncletopia | Los Angeles | 4 | Stopwatch Beta","name_short":"lax-4","host":"lax-1.us.uncletopia.com","port":27045,"enabled":true,"region":"us-west","cc":"us","latitude":33.94279,"longitude":-118.41004,"reserved":0,"last_update":"0001-01-01T00:00:00Z","name_a2s":"Uncletopia | Los Angeles | 4 | Stopwatch Beta","protocol":17,"map":"workshop/koth_clearcut_b15.ugc2107050255","folder":"tf","game":"Team Fortress","app_id":440,"player_count":0,"max_players":24,"Bots":0,"server_type":"Dedicated","server_os":"Linux","password":true,"vac":true,"version":"7932396","steam_id":85568392924510199,"keywords":["cp","nocrits","nodmgspread","uncletopia"],"game_id":440,"stv_port":27046,"stv_name":"Uncletopia | Los Angeles | 4 | Stopwatch Beta | STV","players":null},{"server_id":11,"name":"Uncletopia | London | 1 | All Maps","name_short":"lon-1","host":"lon-1.uk.uncletopia.com","port":27015,"enabled":true,"region":"eu","cc":"gb","latitude":51.509865,"longitude":-0.118092,"reserved":0,"last_update":"0001-01-01T00:00:00Z","name_a2s":"Uncletopia | London | 1 | All Maps","protocol":17,"map":"koth_cascade","folder":"tf","game":"Team Fortress","app_id":440,"player_count":0,"max_players":24,"Bots":0,"server_type":"Dedicated","server_os":"Linux","password":true,"vac":true,"version":"7932396","steam_id":85568392924367362,"keywords":["cp","nocrits","nodmgspread","uncletopia"],"game_id":440,"stv_port":27016,"stv_name":"Uncletopia | London | 1 | All Maps | STV","players":null},{"server_id":114,"name":"Uncletopia | London | 2 | All Maps","name_short":"lon-2","host":"lon-1.uk.uncletopia.com","port":27025,"enabled":true,"region":"eu","cc":"gb","latitude":51.509865,"longitude":-0.118092,"reserved":0,"last_update":"0001-01-01T00:00:00Z","name_a2s":"Uncletopia | London | 2 | All Maps","protocol":17,"map":"koth_highpass","folder":"tf","game":"Team Fortress","app_id":440,"player_count":0,"max_players":24,"Bots":0,"server_type":"Dedicated","server_os":"Linux","password":true,"vac":true,"version":"7932396","steam_id":85568392924470941,"keywords":["cp","nocrits","nodmgspread","uncletopia"],"game_id":440,"stv_port":27026,"stv_name":"Uncletopia | London | 2 | All Maps | STV","players":null},{"server_id":320,"name":"Uncletopia | London | 3 | All Maps","name_short":"lon-3","host":"lon-1.uk.uncletopia.com","port":27035,"enabled":true,"region":"eu","cc":"gb","latitude":51.509865,"longitude":-0.118092,"reserved":0,"last_update":"0001-01-01T00:00:00Z","name_a2s":"Uncletopia | London | 3 | All Maps","protocol":17,"map":"cp_altitude","folder":"tf","game":"Team Fortress","app_id":440,"player_count":0,"max_players":24,"Bots":0,"server_type":"Dedicated","server_os":"Linux","password":true,"vac":true,"version":"7932396","steam_id":85568392924510192,"keywords":["cp","nocrits","nodmgspread","uncletopia"],"game_id":440,"stv_port":27036,"stv_name":"Uncletopia | London | 3 | All Maps | STV","players":null},{"server_id":321,"name":"Uncletopia | London | 4 | All Maps","name_short":"lon-4","host":"lon-1.uk.uncletopia.com","port":27045,"enabled":true,"region":"eu","cc":"gb","latitude":51.509865,"longitude":-0.118092,"reserved":0,"last_update":"0001-01-01T00:00:00Z","name_a2s":"Uncletopia | London | 4 | All Maps","protocol":17,"map":"pl_barnblitz","folder":"tf","game":"Team Fortress","app_id":440,"player_count":24,"max_players":24,"Bots":0,"server_type":"Dedicated","server_os":"Linux","password":true,"vac":true,"version":"7932396","steam_id":85568392924510193,"keywords":["nocrits","nodmgspread","payload","uncletopia"],"game_id":440,"stv_port":27046,"stv_name":"Uncletopia | London | 4 | All Maps | STV","players":[{"user_id":34,"name":"Unseen","steam_id":76561198154670360,"connected_time":3360000000000,"state":"active","ping":83},{"user_id":88,"name":"Magic Misha","steam_id":76561198425505206,"connected_time":679000000000,"state":"active","ping":60},{"user_id":92,"name":"Zelascelar","steam_id":76561197974628666,"connected_time":471000000000,"state":"active","ping":94},{"user_id":76,"name":"flange","steam_id":76561198040182692,"connected_time":1382000000000,"state":"active","ping":39},{"user_id":82,"name":"Mr. Masturbeast","steam_id":76561198942024930,"connected_time":896000000000,"state":"active","ping":116},{"user_id":84,"name":"yompp","steam_id":76561198143529110,"connected_time":808000000000,"state":"active","ping":46},{"user_id":64,"name":"ksg","steam_id":76561198042894236,"connected_time":1918000000000,"state":"active","ping":71},{"user_id":79,"name":"‡∂û","steam_id":76561198263572865,"connected_time":968000000000,"state":"active","ping":106},{"user_id":83,"name":"bAdmon","steam_id":76561197961785793,"connected_time":891000000000,"state":"active","ping":53},{"user_id":42,"name":"fregaropa","steam_id":76561198150806166,"connected_time":3016000000000,"state":"active","ping":76},{"user_id":67,"name":"jt7","steam_id":76561198073655162,"connected_time":1840000000000,"state":"active","ping":83},{"user_id":89,"name":"Kahvi","steam_id":76561198723244199,"connected_time":640000000000,"state":"active","ping":75},{"user_id":74,"name":"marvs","steam_id":76561198851777617,"connected_time":1405000000000,"state":"active","ping":39},{"user_id":77,"name":"BoBunny McGlitter","steam_id":76561198057403817,"connected_time":1235000000000,"state":"active","ping":70},{"user_id":73,"name":"skill based","steam_id":76561198341178432,"connected_time":1683000000000,"state":"active","ping":74},{"user_id":57,"name":"Levroy","steam_id":76561198219378044,"connected_time":2204000000000,"state":"active","ping":86},{"user_id":91,"name":"madijo","steam_id":76561198012617400,"connected_time":484000000000,"state":"active","ping":65},{"user_id":62,"name":"Peep","steam_id":76561198132508552,"connected_time":2055000000000,"state":"active","ping":58},{"user_id":60,"name":"thanus","steam_id":76561199091889576,"connected_time":2149000000000,"state":"active","ping":45},{"user_id":75,"name":"rachel aldana's massive milkers","steam_id":76561198025916703,"connected_time":1384000000000,"state":"active","ping":62},{"user_id":65,"name":"Etherhel","steam_id":76561198838449544,"connected_time":1912000000000,"state":"active","ping":100},{"user_id":68,"name":"The Mask...","steam_id":76561198052402891,"connected_time":1822000000000,"state":"active","ping":53},{"user_id":70,"name":"dunduu","steam_id":76561198875240717,"connected_time":1807000000000,"state":"active","ping":75},{"user_id":87,"name":"Popop","steam_id":76561198004793795,"connected_time":701000000000,"state":"active","ping":47}]},{"server_id":21,"name":"Uncletopia | London | 5 | All Maps","name_short":"lon-5","host":"lon-1.uk.uncletopia.com","port":27055,"enabled":true,"region":"eu","cc":"gb","latitude":51.509865,"longitude":-0.118092,"reserved":0,"last_update":"0001-01-01T00:00:00Z","name_a2s":"Uncletopia | London | 5 | All Maps","protocol":17,"map":"pl_frontier_final","folder":"tf","game":"Team Fortress","app_id":440,"player_count":0,"max_players":24,"Bots":0,"server_type":"Dedicated","server_os":"Linux","password":true,"vac":true,"version":"7932396","steam_id":85568392924742829,"keywords":["nocrits","nodmgspread","payload","uncletopia"],"game_id":440,"stv_port":27056,"stv_name":"Uncletopia | London | 5 | All Maps | STV","players":null},{"server_id":22,"name":"Uncletopia | London | 6 | All Maps","name_short":"lon-6","host":"lon-1.uk.uncletopia.com","port":27065,"enabled":true,"region":"eu","cc":"gb","latitude":51.509865,"longitude":-0.118092,"reserved":0,"last_update":"0001-01-01T00:00:00Z","name_a2s":"Uncletopia | London | 6 | All Maps","protocol":17,"map":"pl_pier","folder":"tf","game":"Team Fortress","app_id":440,"player_count":19,"max_players":24,"Bots":0,"server_type":"Dedicated","server_os":"Linux","password":true,"vac":true,"version":"7932396","steam_id":85568392924742830,"keywords":["nocrits","nodmgspread","payload","uncletopia"],"game_id":440,"stv_port":27066,"stv_name":"Uncletopia | London | 6 | All Maps | STV","players":[{"user_id":239,"name":"Cryan Branston","steam_id":76561197996486756,"connected_time":696000000000,"state":"active","ping":53},{"user_id":234,"name":"‚ô•ImWithMilk","steam_id":76561198269577569,"connected_time":895000000000,"state":"active","ping":58},{"user_id":246,"name":"stunzi","steam_id":76561198931091173,"connected_time":337000000000,"state":"active","ping":170},{"user_id":255,"name":"Darrel","steam_id":76561199059399432,"connected_time":58000000000,"state":"active","ping":202},{"user_id":247,"name":"Kekeke","steam_id":76561198063672270,"connected_time":299000000000,"state":"active","ping":85},{"user_id":235,"name":"Proto-arc","steam_id":76561198012776747,"connected_time":888000000000,"state":"active","ping":48},{"user_id":243,"name":"Bread 0f Box","steam_id":76561198165594721,"connected_time":484000000000,"state":"active","ping":55},{"user_id":238,"name":"Piellino","steam_id":76561198156873276,"connected_time":790000000000,"state":"active","ping":99},{"user_id":248,"name":"$t@lker_Tim","steam_id":76561198963658042,"connected_time":196000000000,"state":"active","ping":119},{"user_id":245,"name":"cat mom","steam_id":76561198119016918,"connected_time":415000000000,"state":"active","ping":60},{"user_id":249,"name":"Yottabit","steam_id":76561198240839254,"connected_time":194000000000,"state":"active","ping":90},{"user_id":250,"name":"Gubbly Bubbins","steam_id":76561198101451654,"connected_time":182000000000,"state":"active","ping":46},{"user_id":251,"name":"Dolcelatte","steam_id":76561198038501770,"connected_time":105000000000,"state":"active","ping":60},{"user_id":253,"name":"Leibeigener","steam_id":76561199275478305,"connected_time":78000000000,"state":"active","ping":48},{"user_id":256,"name":"N e j i","steam_id":76561198011318347,"connected_time":52000000000,"state":"active","ping":84},{"user_id":257,"name":"c4ctus","steam_id":76561198925655488,"connected_time":49000000000,"state":"active","ping":84},{"user_id":258,"name":"lunaire","steam_id":76561198163344452,"connected_time":15000000000,"state":"active","ping":91},{"user_id":259,"name":"Charles Darwin","steam_id":76561197973496139,"connected_time":0,"state":"spawning","ping":0},{"user_id":214,"name":"Jamie","steam_id":76561198181999061,"connected_time":2262000000000,"state":"active","ping":51}]},{"server_id":40,"name":"Uncletopia | London | 7 | No Payload","name_short":"lon-7","host":"lon-1.uk.uncletopia.com","port":27075,"enabled":true,"region":"eu","cc":"gb","latitude":51.509865,"longitude":-0.118092,"reserved":0,"last_update":"0001-01-01T00:00:00Z","name_a2s":"Uncletopia | London | 7 | No Payload","protocol":17,"map":"pl_snowycoast","folder":"tf","game":"Team Fortress","app_id":440,"player_count":0,"max_players":24,"Bots":0,"server_type":"Dedicated","server_os":"Linux","password":true,"vac":true,"version":"7932396","steam_id":85568392924964314,"keywords":["nocrits","nodmgspread","payload","uncletopia"],"game_id":440,"stv_port":27076,"stv_name":"Uncletopia | London | 7 | No Payload | STV","players":null},{"server_id":41,"name":"Uncletopia | London | 8 | Community","name_short":"lon-8","host":"lon-1.uk.uncletopia.com","port":27085,"enabled":true,"region":"eu","cc":"gb","latitude":51.509865,"longitude":-0.118092,"reserved":0,"last_update":"0001-01-01T00:00:00Z","name_a2s":"Uncletopia | London | 8 | Community","protocol":17,"map":"workshop/cp_fulgur_rc2a.ugc2068252300","folder":"tf","game":"Team Fortress","app_id":440,"player_count":0,"max_players":24,"Bots":0,"server_type":"Dedicated","server_os":"Linux","password":true,"vac":true,"version":"7932396","steam_id":85568392924964315,"keywords":["cp","nocrits","nodmgspread","uncletopia"],"game_id":440,"stv_port":27086,"stv_name":"Uncletopia | London | 8 | Community | STV","players":null},{"server_id":300,"name":"Uncletopia | Montr√©al | 1 | All Maps","name_short":"mtl-1","host":"mtl-1.ca.uncletopia.com","port":27015,"enabled":true,"region":"us-east","cc":"ca","latitude":45.50889,"longitude":-73.56167,"reserved":0,"last_update":"0001-01-01T00:00:00Z","name_a2s":"Uncletopia | Montr√©al | 1 | All Maps","protocol":17,"map":"cp_altitude","folder":"tf","game":"Team Fortress","app_id":440,"player_count":0,"max_players":24,"Bots":0,"server_type":"Dedicated","server_os":"Linux","password":true,"vac":true,"version":"7932396","steam_id":85568392924500087,"keywords":["cp","nocrits","nodmgspread","uncletopia"],"game_id":440,"stv_port":27016,"stv_name":"Uncletopia | Montr√©al | 1 | All Maps | STV","players":null},{"server_id":301,"name":"Uncletopia | Montr√©al | 2 | All Maps","name_short":"mtl-2","host":"mtl-1.ca.uncletopia.com","port":27025,"enabled":true,"region":"us-east","cc":"ca","latitude":45.50889,"longitude":-73.56167,"reserved":0,"last_update":"0001-01-01T00:00:00Z","name_a2s":"Uncletopia | Montr√©al | 2 | All Maps","protocol":17,"map":"koth_lakeside_final","folder":"tf","game":"Team Fortress","app_id":440,"player_count":0,"max_players":24,"Bots":0,"server_type":"Dedicated","server_os":"Linux","password":true,"vac":true,"version":"7932396","steam_id":85568392924500088,"keywords":["cp","nocrits","nodmgspread","uncletopia"],"game_id":440,"stv_port":27026,"stv_name":"Uncletopia | Montr√©al | 2 | All Maps | STV","players":null},{"server_id":302,"name":"Uncletopia | Montr√©al | 3 | All Maps","name_short":"mtl-3","host":"mtl-1.ca.uncletopia.com","port":27035,"enabled":true,"region":"us-east","cc":"ca","latitude":45.50889,"longitude":-73.56167,"reserved":0,"last_update":"0001-01-01T00:00:00Z","name_a2s":"Uncletopia | Montr√©al | 3 | All Maps","protocol":17,"map":"cp_process_final","folder":"tf","game":"Team Fortress","app_id":440,"player_count":0,"max_players":24,"Bots":0,"server_type":"Dedicated","server_os":"Linux","password":true,"vac":true,"version":"7932396","steam_id":85568392924500089,"keywords":["cp","nocrits","nodmgspread","uncletopia"],"game_id":440,"stv_port":27036,"stv_name":"Uncletopia | Montr√©al | 3 | All Maps | STV","players":null},{"server_id":303,"name":"Uncletopia | Montr√©al | 4 | No Payload","name_short":"mtl-4","host":"mtl-1.ca.uncletopia.com","port":27045,"enabled":true,"region":"us-east","cc":"ca","latitude":45.50889,"longitude":-73.56167,"reserved":0,"last_update":"0001-01-01T00:00:00Z","name_a2s":"Uncletopia | Montr√©al | 4 | No Payload","protocol":17,"map":"cp_snakewater_final1","folder":"tf","game":"Team Fortress","app_id":440,"player_count":0,"max_players":24,"Bots":0,"server_type":"Dedicated","server_os":"Linux","password":true,"vac":true,"version":"7932396","steam_id":85568392924500090,"keywords":["cp","nocrits","nodmgspread","uncletopia"],"game_id":440,"stv_port":27046,"stv_name":"Uncletopia | Montr√©al | 4 | No Payload | STV","players":null},{"server_id":13,"name":"Uncletopia | New York City | 1 | All Maps","name_short":"nyc-1","host":"nyc-1.us.uncletopia.com","port":27015,"enabled":true,"region":"us-east","cc":"us","latitude":40.73061,"longitude":-73.93524,"reserved":0,"last_update":"0001-01-01T00:00:00Z","name_a2s":"Uncletopia | New York City | 1 | All Maps","protocol":17,"map":"cp_dustbowl","folder":"tf","game":"Team Fortress","app_id":440,"player_count":0,"max_players":24,"Bots":0,"server_type":"Dedicated","server_os":"Linux","password":true,"vac":true,"version":"7932396","steam_id":85568392924469993,"keywords":["cp","nocrits","nodmgspread","uncletopia"],"game_id":440,"stv_port":27016,"stv_name":"Uncletopia | New York City | 1 | All Maps | STV","players":null},{"server_id":14,"name":"Uncletopia | New York City | 2 | All Maps","name_short":"nyc-2","host":"nyc-1.us.uncletopia.com","port":27025,"enabled":true,"region":"us-east","cc":"us","latitude":40.73061,"longitude":-73.93524,"reserved":0,"last_update":"0001-01-01T00:00:00Z","name_a2s":"Uncletopia | New York City | 2 | All Maps","protocol":17,"map":"koth_lakeside_final","folder":"tf","game":"Team Fortress","app_id":440,"player_count":0,"max_players":24,"Bots":0,"server_type":"Dedicated","server_os":"Linux","password":true,"vac":true,"version":"7932396","steam_id":85568392924469994,"keywords":["cp","nocrits","nodmgspread","uncletopia"],"game_id":440,"stv_port":27026,"stv_name":"Uncletopia | New York City | 2 | All Maps | STV","players":null},{"server_id":15,"name":"Uncletopia | New York City | 3 | Stopwatch Beta","name_short":"nyc-3","host":"nyc-1.us.uncletopia.com","port":27035,"enabled":true,"region":"us-east","cc":"us","latitude":40.73061,"longitude":-73.93524,"reserved":0,"last_update":"0001-01-01T00:00:00Z","name_a2s":"Uncletopia | New York City | 3 | Stopwatch Beta","protocol":17,"map":"cp_sunshine","folder":"tf","game":"Team Fortress","app_id":440,"player_count":0,"max_players":24,"Bots":0,"server_type":"Dedicated","server_os":"Linux","password":true,"vac":true,"version":"7932396","steam_id":85568392924742820,"keywords":["cp","nocrits","nodmgspread","uncletopia"],"game_id":440,"stv_port":27036,"stv_name":"Uncletopia | New York City | 3 | Stopwatch Beta | STV","players":null},{"server_id":16,"name":"Uncletopia | New York City | 4 | Community","name_short":"nyc-4","host":"nyc-1.us.uncletopia.com","port":27045,"enabled":true,"region":"us-east","cc":"us","latitude":40.73061,"longitude":-73.93524,"reserved":0,"last_update":"0001-01-01T00:00:00Z","name_a2s":"Uncletopia | New York City | 4 | Community","protocol":17,"map":"pl_barnblitz","folder":"tf","game":"Team Fortress","app_id":440,"player_count":0,"max_players":24,"Bots":0,"server_type":"Dedicated","server_os":"Linux","password":true,"vac":true,"version":"7932396","steam_id":85568392924742821,"keywords":["nocrits","nodmgspread","payload","uncletopia"],"game_id":440,"stv_port":27046,"stv_name":"Uncletopia | New York City | 4 | Community | STV","players":null},{"server_id":142,"name":"Uncletopia | S√£o Paulo | 1 | All Maps","name_short":"sao-1","host":"sao-1.br.uncletopia.com","port":27015,"enabled":true,"region":"sa","cc":"br","latitude":-23.533773,"longitude":-46.62529,"reserved":0,"last_update":"0001-01-01T00:00:00Z","name_a2s":"Uncletopia | S√£o Paulo | 1 | All Maps","protocol":17,"map":"cp_mountainlab","folder":"tf","game":"Team Fortress","app_id":440,"player_count":0,"max_players":24,"Bots":0,"server_type":"Dedicated","server_os":"Linux","password":true,"vac":true,"version":"7932396","steam_id":85568392924469996,"keywords":["cp","nocrits","nodmgspread","uncletopia"],"game_id":440,"stv_port":27016,"stv_name":"Uncletopia | S√£o Paulo | 1 | All Maps | STV","players":null},{"server_id":143,"name":"Uncletopia | S√£o Paulo | 2 | All Maps","name_short":"sao-2","host":"sao-2.br.uncletopia.com","port":27015,"enabled":true,"region":"sa","cc":"br","latitude":-23.533773,"longitude":-46.62529,"reserved":0,"last_update":"0001-01-01T00:00:00Z","name_a2s":"Uncletopia | S√£o Paulo | 2 | All Maps","protocol":17,"map":"pl_swiftwater_final1","folder":"tf","game":"Team Fortress","app_id":440,"player_count":0,"max_players":24,"Bots":0,"server_type":"Dedicated","server_os":"Linux","password":true,"vac":true,"version":"7932396","steam_id":85568392924485349,"keywords":["nocrits","nodmgspread","payload","uncletopia"],"game_id":440,"stv_port":27016,"stv_name":"Uncletopia | S√£o Paulo | 2 | All Maps | STV","players":null},{"server_id":7,"name":"Uncletopia | Seattle | 1 | All Maps","name_short":"sea-1","host":"sea-1.us.uncletopia.com","port":27015,"enabled":true,"region":"us-west","cc":"us","latitude":47.608013,"longitude":-122.33517,"reserved":0,"last_update":"0001-01-01T00:00:00Z","name_a2s":"Uncletopia | Seattle | 1 | All Maps","protocol":17,"map":"pl_barnblitz","folder":"tf","game":"Team Fortress","app_id":440,"player_count":24,"max_players":24,"Bots":0,"server_type":"Dedicated","server_os":"Linux","password":true,"vac":true,"version":"7932396","steam_id":85568392924469997,"keywords":["nocrits","nodmgspread","payload","uncletopia"],"game_id":440,"stv_port":27016,"stv_name":"Uncletopia | Seattle | 1 | All Maps | STV","players":[{"user_id":700,"name":"Gringrant","steam_id":76561198095730487,"connected_time":7106000000000,"state":"active","ping":115},{"user_id":777,"name":"Crunchy","steam_id":76561198240523882,"connected_time":597000000000,"state":"active","ping":79},{"user_id":714,"name":":(){ :|:\u0026 };:","steam_id":76561198115242460,"connected_time":4284000000000,"state":"active","ping":52},{"user_id":780,"name":"Hero Smasher","steam_id":76561198150681669,"connected_time":433000000000,"state":"active","ping":98},{"user_id":761,"name":"Wizard02","steam_id":76561198178293623,"connected_time":2135000000000,"state":"active","ping":115},{"user_id":758,"name":"s f $","steam_id":76561199064932372,"connected_time":2231000000000,"state":"active","ping":107},{"user_id":733,"name":"Yummy Kabobz","steam_id":76561198067661705,"connected_time":3335000000000,"state":"active","ping":127},{"user_id":764,"name":"manbearswineflu","steam_id":76561198083945137,"connected_time":1903000000000,"state":"active","ping":107},{"user_id":749,"name":"Buffalo Gold","steam_id":76561198119693806,"connected_time":2515000000000,"state":"active","ping":101},{"user_id":747,"name":"i like trains","steam_id":76561198090531755,"connected_time":2534000000000,"state":"active","ping":105},{"user_id":767,"name":"oofe","steam_id":76561199110285154,"connected_time":1784000000000,"state":"active","ping":124},{"user_id":751,"name":"‚ô•ur :3 medic gf‚ô• (51ref/hr)","steam_id":76561198816778484,"connected_time":2466000000000,"state":"active","ping":128},{"user_id":760,"name":"SuperSandwichGoku","steam_id":76561198438882159,"connected_time":2201000000000,"state":"active","ping":93},{"user_id":738,"name":"John Wilkes Booth","steam_id":76561197983398671,"connected_time":2983000000000,"state":"active","ping":72},{"user_id":779,"name":"FD0XY","steam_id":76561198862653083,"connected_time":488000000000,"state":"active","ping":45},{"user_id":748,"name":"Paul Gaming","steam_id":76561198065538229,"connected_time":2533000000000,"state":"active","ping":105},{"user_id":754,"name":"tr","steam_id":76561198046944222,"connected_time":2368000000000,"state":"active","ping":47},{"user_id":755,"name":"TheShadowAtMidnight","steam_id":76561199073880155,"connected_time":2358000000000,"state":"active","ping":126},{"user_id":763,"name":"Capra-Cabra","steam_id":76561198298837805,"connected_time":2059000000000,"state":"active","ping":115},{"user_id":759,"name":"mewzev","steam_id":76561197968953861,"connected_time":2222000000000,"state":"active","ping":89},{"user_id":765,"name":"Alfred Alfer","steam_id":76561198131833567,"connected_time":1878000000000,"state":"active","ping":118},{"user_id":774,"name":"Distraction","steam_id":76561199445895882,"connected_time":1333000000000,"state":"active","ping":110},{"user_id":772,"name":"GCG","steam_id":76561198050406064,"connected_time":1671000000000,"state":"active","ping":109}]},{"server_id":119,"name":"Uncletopia | Seattle | 2 | All Maps","name_short":"sea-2","host":"sea-1.us.uncletopia.com","port":27025,"enabled":true,"region":"us-west","cc":"us","latitude":47.608013,"longitude":-122.33517,"reserved":0,"last_update":"0001-01-01T00:00:00Z","name_a2s":"Uncletopia | Seattle | 2 | All Maps","protocol":17,"map":"pl_upward","folder":"tf","game":"Team Fortress","app_id":440,"player_count":0,"max_players":24,"Bots":0,"server_type":"Dedicated","server_os":"Linux","password":true,"vac":true,"version":"7932396","steam_id":85568392924469998,"keywords":["nocrits","nodmgspread","payload","uncletopia"],"game_id":440,"stv_port":27026,"stv_name":"Uncletopia | Seattle | 2 | All Maps | STV","players":null},{"server_id":406,"name":"Uncletopia | Seattle | 3 | Stopwatch Beta","name_short":"sea-3","host":"sea-1.us.uncletopia.com","port":27035,"enabled":true,"region":"us-west","cc":"us","latitude":47.608013,"longitude":-122.33517,"reserved":0,"last_update":"0001-01-01T00:00:00Z","name_a2s":"Uncletopia | Seattle | 3 | Stopwatch Beta","protocol":17,"map":"workshop/koth_clearcut_b15.ugc2107050255","folder":"tf","game":"Team Fortress","app_id":440,"player_count":0,"max_players":24,"Bots":0,"server_type":"Dedicated","server_os":"Linux","password":true,"vac":true,"version":"7932396","steam_id":85568392924515217,"keywords":["cp","nocrits","nodmgspread","uncletopia"],"game_id":440,"stv_port":27036,"stv_name":"Uncletopia | Seattle | 3 | Stopwatch Beta | STV","players":null},{"server_id":17,"name":"Uncletopia | San Francisco | 1 | All Maps","name_short":"sfo-1","host":"sfo-1.us.uncletopia.com","port":27015,"enabled":true,"region":"us-west","cc":"us","latitude":37.77397,"longitude":-122.4313,"reserved":0,"last_update":"0001-01-01T00:00:00Z","name_a2s":"Uncletopia | San Francisco | 1 | All Maps","protocol":17,"map":"koth_highpass","folder":"tf","game":"Team Fortress","app_id":440,"player_count":0,"max_players":24,"Bots":0,"server_type":"Dedicated","server_os":"Linux","password":true,"vac":true,"version":"7932396","steam_id":85568392924469999,"keywords":["cp","nocrits","nodmgspread","uncletopia"],"game_id":440,"stv_port":27016,"stv_name":"Uncletopia | San Francisco | 1 | All Maps | STV","players":null},{"server_id":18,"name":"Uncletopia | San Francisco | 2 | All Maps","name_short":"sfo-2","host":"sfo-1.us.uncletopia.com","port":27025,"enabled":true,"region":"us-west","cc":"us","latitude":37.77397,"longitude":-122.4313,"reserved":0,"last_update":"0001-01-01T00:00:00Z","name_a2s":"Uncletopia | San Francisco | 2 | All Maps","protocol":17,"map":"cp_altitude","folder":"tf","game":"Team Fortress","app_id":440,"player_count":0,"max_players":24,"Bots":0,"server_type":"Dedicated","server_os":"Linux","password":true,"vac":true,"version":"7932396","steam_id":85568392924470000,"keywords":["cp","nocrits","nodmgspread","uncletopia"],"game_id":440,"stv_port":27026,"stv_name":"Uncletopia | San Francisco | 2 | All Maps | STV","players":null},{"server_id":19,"name":"Uncletopia | San Francisco | 3 | Stopwatch Beta","name_short":"sfo-3","host":"sfo-1.us.uncletopia.com","port":27035,"enabled":true,"region":"us-west","cc":"us","latitude":37.77397,"longitude":-122.4313,"reserved":0,"last_update":"0001-01-01T00:00:00Z","name_a2s":"Uncletopia | San Francisco | 3 | Stopwatch Beta","protocol":17,"map":"workshop/pl_badwater_pro_v12.ugc2142942074","folder":"tf","game":"Team Fortress","app_id":440,"player_count":0,"max_players":24,"Bots":0,"server_type":"Dedicated","server_os":"Linux","password":true,"vac":true,"version":"7932396","steam_id":85568392924742824,"keywords":["nocrits","nodmgspread","payload","uncletopia"],"game_id":440,"stv_port":27036,"stv_name":"Uncletopia | San Francisco | 3 | Stopwatch Beta | STV","players":null},{"server_id":20,"name":"Uncletopia | San Francisco | 4 | Community","name_short":"sfo-4","host":"sfo-1.us.uncletopia.com","port":27045,"enabled":true,"region":"us-west","cc":"us","latitude":37.77397,"longitude":-122.4313,"reserved":0,"last_update":"0001-01-01T00:00:00Z","name_a2s":"Uncletopia | San Francisco | 4 | Community","protocol":17,"map":"workshop/koth_trenchfoot_b1a.ugc731436616","folder":"tf","game":"Team Fortress","app_id":440,"player_count":0,"max_players":24,"Bots":0,"server_type":"Dedicated","server_os":"Linux","password":true,"vac":true,"version":"7932396","steam_id":85568392924742826,"keywords":["cp","nocrits","nodmgspread","uncletopia"],"game_id":440,"stv_port":27046,"stv_name":"Uncletopia | San Francisco | 4 | Community | STV","players":null},{"server_id":141,"name":"Uncletopia | Sydney | 1 | All Maps","name_short":"syd-1","host":"syd-1.au.uncletopia.com","port":27015,"enabled":true,"region":"au","cc":"au","latitude":-33.865143,"longitude":151.2099,"reserved":0,"last_update":"0001-01-01T00:00:00Z","name_a2s":"Uncletopia | Sydney | 1 | All Maps","protocol":17,"map":"cp_dustbowl","folder":"tf","game":"Team Fortress","app_id":440,"player_count":17,"max_players":24,"Bots":0,"server_type":"Dedicated","server_os":"Linux","password":true,"vac":true,"version":"7932396","steam_id":85568392924470001,"keywords":["cp","nocrits","nodmgspread","uncletopia"],"game_id":440,"stv_port":27016,"stv_name":"Uncletopia | Sydney | 1 | All Maps | STV","players":[{"user_id":212,"name":"mushroom","steam_id":76561197992336470,"connected_time":26000000000,"state":"spawning","ping":89},{"user_id":137,"name":"jim :)","steam_id":76561198127508905,"connected_time":5810000000000,"state":"active","ping":31},{"user_id":197,"name":"cas ganister","steam_id":76561198879023728,"connected_time":1149000000000,"state":"active","ping":149},{"user_id":173,"name":"cibo","steam_id":76561198798929932,"connected_time":4037000000000,"state":"active","ping":65},{"user_id":204,"name":"Doctor Estonia","steam_id":76561198057365089,"connected_time":425000000000,"state":"active","ping":79},{"user_id":194,"name":"dave orit ‡∂û","steam_id":76561198051367425,"connected_time":1316000000000,"state":"active","ping":59},{"user_id":206,"name":"Jodelk√∂nig Franzl Lang","steam_id":76561198007667830,"connected_time":241000000000,"state":"active","ping":53},{"user_id":205,"name":"Mr. Venom","steam_id":76561198155354590,"connected_time":324000000000,"state":"active","ping":65},{"user_id":207,"name":"fred","steam_id":76561199482732718,"connected_time":239000000000,"state":"active","ping":36},{"user_id":174,"name":"Player 3.14","steam_id":76561198016766670,"connected_time":3645000000000,"state":"active","ping":41},{"user_id":188,"name":"Breadstick Boy","steam_id":76561198061468933,"connected_time":2550000000000,"state":"active","ping":51},{"user_id":190,"name":"Dr Vinnie Boombotz","steam_id":76561198062311556,"connected_time":2018000000000,"state":"active","ping":56},{"user_id":177,"name":"Batering","steam_id":76561198039849442,"connected_time":3403000000000,"state":"active","ping":57},{"user_id":203,"name":"Louis","steam_id":76561198013395847,"connected_time":569000000000,"state":"active","ping":50},{"user_id":178,"name":"Blondie","steam_id":76561198046977058,"connected_time":3368000000000,"state":"active","ping":66},{"user_id":195,"name":"Sinister80s","steam_id":76561198343540472,"connected_time":1291000000000,"state":"active","ping":74},{"user_id":176,"name":"Dupiter","steam_id":76561198108820767,"connected_time":3457000000000,"state":"active","ping":49}]},{"server_id":123,"name":"Uncletopia | Sydney | 2 | All Maps","name_short":"syd-2","host":"syd-1.au.uncletopia.com","port":27025,"enabled":true,"region":"au","cc":"au","latitude":-33.865143,"longitude":151.2099,"reserved":0,"last_update":"0001-01-01T00:00:00Z","name_a2s":"Uncletopia | Sydney | 2 | All Maps","protocol":17,"map":"pl_badwater","folder":"tf","game":"Team Fortress","app_id":440,"player_count":7,"max_players":24,"Bots":0,"server_type":"Dedicated","server_os":"Linux","password":true,"vac":true,"version":"7932396","steam_id":85568392924470002,"keywords":["nocrits","nodmgspread","payload","uncletopia"],"game_id":440,"stv_port":27026,"stv_name":"Uncletopia | Sydney | 2 | All Maps | STV","players":[{"user_id":44,"name":"durcy","steam_id":76561198049037327,"connected_time":71000000000,"state":"active","ping":103},{"user_id":17,"name":"tim88435","steam_id":76561198089653987,"connected_time":3111000000000,"state":"active","ping":54},{"user_id":37,"name":"L-Neo","steam_id":76561198123242967,"connected_time":620000000000,"state":"active","ping":59},{"user_id":39,"name":"Pookie","steam_id":76561198812306030,"connected_time":520000000000,"state":"active","ping":45},{"user_id":36,"name":"Okie Dokie","steam_id":76561198125237921,"connected_time":1066000000000,"state":"active","ping":51},{"user_id":40,"name":"Your Local Karen Hunter","steam_id":76561199469410668,"connected_time":285000000000,"state":"active","ping":103},{"user_id":43,"name":"tom :D","steam_id":76561198073393715,"connected_time":94000000000,"state":"active","ping":113}]},{"server_id":395,"name":"Uncletopia | Sydney | 3 | All Maps","name_short":"syd-3","host":"syd-1.au.uncletopia.com","port":27035,"enabled":true,"region":"au","cc":"au","latitude":-33.865143,"longitude":151.2099,"reserved":0,"last_update":"0001-01-01T00:00:00Z","name_a2s":"Uncletopia | Sydney | 3 | All Maps","protocol":17,"map":"koth_nucleus","folder":"tf","game":"Team Fortress","app_id":440,"player_count":7,"max_players":24,"Bots":0,"server_type":"Dedicated","server_os":"Linux","password":true,"vac":true,"version":"7932396","steam_id":85568392925194467,"keywords":["cp","nocrits","nodmgspread","uncletopia"],"game_id":440,"stv_port":27036,"stv_name":"Uncletopia | Sydney | 3 | All Maps | STV","players":[{"user_id":281,"name":"GaminJohn72","steam_id":76561199407459715,"connected_time":247000000000,"state":"active","ping":98},{"user_id":282,"name":"Team Fartress Poo","steam_id":76561198139598106,"connected_time":242000000000,"state":"active","ping":48},{"user_id":260,"name":"MikkyD","steam_id":76561198043452962,"connected_time":2744000000000,"state":"active","ping":60},{"user_id":267,"name":"wom","steam_id":76561199375834537,"connected_time":1944000000000,"state":"active","ping":123},{"user_id":275,"name":"biff","steam_id":76561198069603865,"connected_time":1421000000000,"state":"active","ping":252},{"user_id":269,"name":"Owlenstein‚Ñ¢","steam_id":76561198093983826,"connected_time":1815000000000,"state":"active","ping":113},{"user_id":278,"name":"Vaconcovat","steam_id":76561198024284041,"connected_time":1117000000000,"state":"active","ping":62}]},{"server_id":396,"name":"Uncletopia | Sydney | 4 | All Maps","name_short":"syd-4","host":"syd-1.au.uncletopia.com","port":27045,"enabled":true,"region":"au","cc":"au","latitude":-33.865143,"longitude":151.2099,"reserved":0,"last_update":"0001-01-01T00:00:00Z","name_a2s":"Uncletopia | Sydney | 4 | All Maps","protocol":17,"map":"koth_lakeside_final","folder":"tf","game":"Team Fortress","app_id":440,"player_count":0,"max_players":24,"Bots":0,"server_type":"Dedicated","server_os":"Linux","password":true,"vac":true,"version":"7932396","steam_id":85568392925397958,"keywords":["cp","nocrits","nodmgspread","uncletopia"],"game_id":440,"stv_port":27046,"stv_name":"Uncletopia | Sydney | 4 | All Maps | STV","players":null},{"server_id":58,"name":"Uncletopia | Sydney | 5 | Stopwatch Beta","name_short":"syd-5","host":"syd-1.au.uncletopia.com","port":27055,"enabled":true,"region":"au","cc":"au","latitude":-33.865143,"longitude":151.2099,"reserved":0,"last_update":"0001-01-01T00:00:00Z","name_a2s":"Uncletopia | Sydney | 5 | Stopwatch Beta","protocol":17,"map":"pl_borneo","folder":"tf","game":"Team Fortress","app_id":440,"player_count":0,"max_players":24,"Bots":0,"server_type":"Dedicated","server_os":"Linux","password":true,"vac":true,"version":"7932396","steam_id":85568392925397959,"keywords":["nocrits","nodmgspread","payload","uncletopia"],"game_id":440,"stv_port":27056,"stv_name":"Uncletopia | Sydney | 5 | Stopwatch Beta | STV","players":null},{"server_id":59,"name":"Uncletopia | Sydney | 6 | Community","name_short":"syd-6","host":"syd-1.au.uncletopia.com","port":27065,"enabled":true,"region":"au","cc":"au","latitude":-33.865143,"longitude":151.2099,"reserved":0,"last_update":"0001-01-01T00:00:00Z","name_a2s":"Uncletopia | Sydney | 6 | Community","protocol":17,"map":"workshop/cp_sulfur_rc2.ugc619869471","folder":"tf","game":"Team Fortress","app_id":440,"player_count":0,"max_players":24,"Bots":0,"server_type":"Dedicated","server_os":"Linux","password":true,"vac":true,"version":"7932396","steam_id":85568392925397960,"keywords":["cp","nocrits","nodmgspread","uncletopia"],"game_id":440,"stv_port":27066,"stv_name":"Uncletopia | Sydney | 6 | Community | STV","players":null},{"server_id":49,"name":"Uncletopia | Warsaw | 1 | All Maps","name_short":"waw-1","host":"waw-1.pl.uncletopia.com","port":27015,"enabled":true,"region":"eu","cc":"pl","latitude":52.2297,"longitude":21.017532,"reserved":0,"last_update":"0001-01-01T00:00:00Z","name_a2s":"","protocol":0,"map":"","folder":"","game":"","app_id":0,"player_count":0,"max_players":0,"Bots":0,"server_type":"","server_os":"","password":false,"vac":false,"version":"","steam_id":0,"keywords":null,"game_id":0,"stv_port":0,"stv_name":"","players":null},{"server_id":50,"name":"Uncletopia | Warsaw | 2 | All Maps","name_short":"waw-2","host":"waw-1.pl.uncletopia.com","port":27025,"enabled":true,"region":"eu","cc":"pl","latitude":52.2297,"longitude":21.017532,"reserved":0,"last_update":"0001-01-01T00:00:00Z","name_a2s":"Uncletopia | Warsaw | 2 | All Maps","protocol":17,"map":"koth_cascade","folder":"tf","game":"Team Fortress","app_id":440,"player_count":0,"max_players":24,"Bots":0,"server_type":"Dedicated","server_os":"Linux","password":true,"vac":true,"version":"7932396","steam_id":85568392925397851,"keywords":["cp","nocrits","nodmgspread","uncletopia"],"game_id":440,"stv_port":27026,"stv_name":"Uncletopia | Warsaw | 2 | All Maps | STV","players":null},{"server_id":51,"name":"Uncletopia | Warsaw | 3 | All Maps","name_short":"waw-3","host":"waw-1.pl.uncletopia.com","port":27035,"enabled":true,"region":"eu","cc":"pl","latitude":52.2297,"longitude":21.017532,"reserved":0,"last_update":"0001-01-01T00:00:00Z","name_a2s":"Uncletopia | Warsaw | 3 | All Maps","protocol":17,"map":"koth_lakeside_final","folder":"tf","game":"Team Fortress","app_id":440,"player_count":0,"max_players":24,"Bots":0,"server_type":"Dedicated","server_os":"Linux","password":true,"vac":true,"version":"7932396","steam_id":85568392925397852,"keywords":["cp","nocrits","nodmgspread","uncletopia"],"game_id":440,"stv_port":27036,"stv_name":"Uncletopia | Warsaw | 3 | All Maps | STV","players":null},{"server_id":52,"name":"Uncletopia | Warsaw | 4 | All Maps","name_short":"waw-4","host":"waw-1.pl.uncletopia.com","port":27045,"enabled":true,"region":"eu","cc":"pl","latitude":52.2297,"longitude":21.017532,"reserved":0,"last_update":"0001-01-01T00:00:00Z","name_a2s":"Uncletopia | Warsaw | 4 | All Maps","protocol":17,"map":"pl_swiftwater_final1","folder":"tf","game":"Team Fortress","app_id":440,"player_count":0,"max_players":24,"Bots":0,"server_type":"Dedicated","server_os":"Linux","password":true,"vac":true,"version":"7932396","steam_id":85568392925397853,"keywords":["nocrits","nodmgspread","payload","uncletopia"],"game_id":440,"stv_port":27046,"stv_name":"Uncletopia | Warsaw | 4 | All Maps | STV","players":null},{"server_id":53,"name":"Uncletopia | Warsaw | 5 | Stopwatch Beta","name_short":"waw-5","host":"waw-1.pl.uncletopia.com","port":27055,"enabled":true,"region":"eu","cc":"pl","latitude":52.2297,"longitude":21.017532,"reserved":0,"last_update":"0001-01-01T00:00:00Z","name_a2s":"Uncletopia | Warsaw | 5 | Stopwatch Beta","protocol":17,"map":"koth_highpass","folder":"tf","game":"Team Fortress","app_id":440,"player_count":0,"max_players":24,"Bots":0,"server_type":"Dedicated","server_os":"Linux","password":true,"vac":true,"version":"7932396","steam_id":85568392925397854,"keywords":["cp","nocrits","nodmgspread","uncletopia"],"game_id":440,"stv_port":27056,"stv_name":"Uncletopia | Warsaw | 5 | Stopwatch Beta | STV","players":null},{"server_id":54,"name":"Uncletopia | Warsaw | 6 | Community","name_short":"waw-6","host":"waw-1.pl.uncletopia.com","port":27065,"enabled":true,"region":"eu","cc":"pl","latitude":52.2297,"longitude":21.017532,"reserved":0,"last_update":"0001-01-01T00:00:00Z","name_a2s":"Uncletopia | Warsaw | 6 | Community","protocol":17,"map":"pl_upward","folder":"tf","game":"Team Fortress","app_id":440,"player_count":0,"max_players":24,"Bots":0,"server_type":"Dedicated","server_os":"Linux","password":true,"vac":true,"version":"7932396","steam_id":85568392925397856,"keywords":["nocrits","nodmgspread","payload","uncletopia"],"game_id":440,"stv_port":27066,"stv_name":"Uncletopia | Warsaw | 6 | Community | STV","players":null}]}