{"status":true,"message":"","result":[{"server_id":9,"name":"Uncletopia | Atlanta | 1 | All Maps","name_short":"atl-1","host":"atl-1.us.uncletopia.com","port":27015,"enabled":true,"region":"us-east","cc":"us","latitude":33.753746,"longitude":-84.38633,"reserved":0,"last_update":"0001-01-01T00:00:00Z","name_a2s":"Uncletopia | Atlanta | 1 | All Maps","protocol":17,"map":"koth_viaduct","folder":"tf","game":"Team Fortress","app_id":440,"player_count":2,"max_players":24,"Bots":0,"server_type":"Dedicated","server_os":"Linux","password":true,"vac":true,"version":"7882260","steam_id":85568392924469982,"keywords":["cp","nocrits","nodmgspread","uncletopia"],"game_id":440,"stv_port":27016,"stv_name":"Uncletopia | Atlanta | 1 | All Maps | STV","players":[{"user_id":15,"name":"uniwu - BUFF THE SPEED","steam_id":76561198864421290,"connected_time":330000000000,"state":"active","ping":40},{"user_id":16,"name":"thedoud1201","steam_id":76561199007734851,"connected_time":222000000000,"state":"active","ping":75}]},{"server_id":104,"name":"Uncletopia | Atlanta | 2 | All Maps","name_short":"atl-2","host":"atl-1.us.uncletopia.com","port":27025,"enabled":true,"region":"us-east","cc":"us","latitude":33.753746,"longitude":-84.38633,"reserved":0,"last_update":"0001-01-01T00:00:00Z","name_a2s":"Uncletopia | Atlanta | 2 | All Maps","protocol":17,"map":"cp_process_final","folder":"tf","game":"Team Fortress","app_id":440,"player_count":0,"max_players":24,"Bots":0,"server_type":"Dedicated","server_os":"Linux","password":true,"vac":true,"version":"7882260","steam_id":85568392924469983,"keywords":["cp","nocrits","nodmgspread","uncletopia"],"game_id":440,"stv_port":27026,"stv_name":"Uncletopia | Atlanta | 2 | All Maps | STV","players":null},{"server_id":400,"name":"Uncletopia | Atlanta | 3 | Community","name_short":"atl-3","host":"atl-1.us.uncletopia.com","port":27035,"enabled":true,"region":"us-east","cc":"us","latitude":33.753746,"longitude":-84.38633,"reserved":0,"last_update":"0001-01-01T00:00:00Z","name_a2s":"Uncletopia | Atlanta | 3 | Community","protocol":17,"map":"workshop/cp_croissant_final.ugc458840209","folder":"tf","game":"Team Fortress","app_id":440,"player_count":0,"max_players":24,"Bots":0,"server_type":"Dedicated","server_os":"Linux","password":true,"vac":true,"version":"7882260","steam_id":85568392924515187,"keywords":["cp","nocrits","nodmgspread","uncletopia"],"game_id":440,"stv_port":27036,"stv_name":"Uncletopia | Atlanta | 3 | Community | STV","players":null},{"server_id":401,"name":"Uncletopia | Atlanta | 4 | No Payload","name_short":"atl-4","host":"atl-1.us.uncletopia.com","port":27045,"enabled":true,"region":"us-east","cc":"us","latitude":33.753746,"longitude":-84.38633,"reserved":0,"last_update":"0001-01-01T00:00:00Z","name_a2s":"","protocol":0,"map":"","folder":"","game":"","app_id":0,"player_count":0,"max_players":0,"Bots":0,"server_type":"","server_os":"","password":false,"vac":false,"version":"","steam_id":0,"keywords":null,"game_id":0,"stv_port":0,"stv_name":"","players":null},{"server_id":2,"name":"Uncletopia | Chicago | 1 | All Maps","name_short":"chi-1","host":"chi-1.us.uncletopia.com","port":27015,"enabled":true,"region":"us-central","cc":"us","latitude":41.881832,"longitude":-87.62318,"reserved":0,"last_update":"0001-01-01T00:00:00Z","name_a2s":"Uncletopia | Chicago | 1 | All Maps","protocol":17,"map":"pl_frontier_final","folder":"tf","game":"Team Fortress","app_id":440,"player_count":1,"max_players":24,"Bots":0,"server_type":"Dedicated","server_os":"Linux","password":true,"vac":true,"version":"7882260","steam_id":85568392924469984,"keywords":["nocrits","nodmgspread","payload","uncletopia"],"game_id":440,"stv_port":27016,"stv_name":"Uncletopia | Chicago | 1 | All Maps | STV","players":[{"user_id":5,"name":"frmsilva81","steam_id":76561198972047000,"connected_time":28000000000,"state":"spawning","ping":139}]},{"server_id":106,"name":"Uncletopia | Chicago | 2 | All Maps","name_short":"chi-2","host":"chi-1.us.uncletopia.com","port":27025,"enabled":true,"region":"us-central","cc":"us","latitude":41.881832,"longitude":-87.62318,"reserved":0,"last_update":"0001-01-01T00:00:00Z","name_a2s":"Uncletopia | Chicago | 2 | All Maps","protocol":17,"map":"pl_hoodoo_final","folder":"tf","game":"Team Fortress","app_id":440,"player_count":24,"max_players":24,"Bots":0,"server_type":"Dedicated","server_os":"Linux","password":true,"vac":true,"version":"7882260","steam_id":85568392924469985,"keywords":["nocrits","nodmgspread","payload","uncletopia"],"game_id":440,"stv_port":27026,"stv_name":"Uncletopia | Chicago | 2 | All Maps | STV","players":[{"user_id":123,"name":"The Poopshitter","steam_id":76561198870068763,"connected_time":2513000000000,"state":"active","ping":84},{"user_id":175,"name":"River Rat","steam_id":76561198116383976,"connected_time":368000000000,"state":"active","ping":115},{"user_id":159,"name":"Lapisüíõ ","steam_id":76561198009198502,"connected_time":928000000000,"state":"active","ping":72},{"user_id":177,"name":"nurp","steam_id":76561198071687616,"connected_time":98000000000,"state":"active","ping":59},{"user_id":163,"name":"cave johnson","steam_id":76561199389283507,"connected_time":884000000000,"state":"active","ping":88},{"user_id":174,"name":"Punk","steam_id":76561198373893302,"connected_time":382000000000,"state":"active","ping":80},{"user_id":152,"name":"6' 4\" 270 lbs ALL MUSCLE","steam_id":76561198021308963,"connected_time":1194000000000,"state":"active","ping":62},{"user_id":133,"name":"Kiss Master","steam_id":76561198289572271,"connected_time":2242000000000,"state":"active","ping":76},{"user_id":151,"name":"Scorch_","steam_id":76561197977611078,"connected_time":1524000000000,"state":"active","ping":54},{"user_id":137,"name":"ZodiacThundaga","steam_id":76561199025117814,"connected_time":2081000000000,"state":"active","ping":80},{"user_id":157,"name":"nat","steam_id":76561198865090309,"connected_time":960000000000,"state":"active","ping":85},{"user_id":153,"name":"Grease Monkey","steam_id":76561199073112578,"connected_time":1183000000000,"state":"active","ping":86},{"user_id":155,"name":"tA.CHRONIC","steam_id":76561197960760990,"connected_time":988000000000,"state":"active","ping":50},{"user_id":132,"name":"Pathetic","steam_id":76561198347660282,"connected_time":2336000000000,"state":"active","ping":109},{"user_id":164,"name":"AverageGloop","steam_id":76561198243395378,"connected_time":841000000000,"state":"active","ping":59},{"user_id":176,"name":"George","steam_id":76561198020046873,"connected_time":356000000000,"state":"active","ping":51},{"user_id":168,"name":"Ventastega","steam_id":76561197999366317,"connected_time":705000000000,"state":"active","ping":74},{"user_id":127,"name":"koolamundo","steam_id":76561198101705890,"connected_time":2492000000000,"state":"active","ping":66},{"user_id":154,"name":"Zombiehunter11","steam_id":76561198237517830,"connected_time":1150000000000,"state":"active","ping":78},{"user_id":170,"name":"kingjeffry2012@hotmail.com","steam_id":76561198314104415,"connected_time":676000000000,"state":"active","ping":69},{"user_id":74,"name":"Coffee with a Stranger","steam_id":76561198307422313,"connected_time":4221000000000,"state":"active","ping":70},{"user_id":169,"name":"The Black Arrow","steam_id":76561198272417886,"connected_time":699000000000,"state":"active","ping":100},{"user_id":167,"name":"captain red","steam_id":76561198191587983,"connected_time":722000000000,"state":"active","ping":76},{"user_id":139,"name":"bouncyballs.com","steam_id":76561198236166288,"connected_time":1866000000000,"state":"active","ping":69}]},{"server_id":402,"name":"Uncletopia | Chicago | 3 | All Maps","name_short":"chi-3","host":"chi-1.us.uncletopia.com","port":27035,"enabled":true,"region":"us-central","cc":"us","latitude":41.881832,"longitude":-87.62318,"reserved":0,"last_update":"0001-01-01T00:00:00Z","name_a2s":"Uncletopia | Chicago | 3 | All Maps","protocol":17,"map":"pl_badwater","folder":"tf","game":"Team Fortress","app_id":440,"player_count":25,"max_players":24,"Bots":0,"server_type":"Dedicated","server_os":"Linux","password":true,"vac":true,"version":"7882260","steam_id":85568392924515191,"keywords":["nocrits","nodmgspread","payload","uncletopia"],"game_id":440,"stv_port":27036,"stv_name":"Uncletopia | Chicago | 3 | All Maps | STV","players":[{"user_id":102,"name":"I am Gamer","steam_id":76561198047845399,"connected_time":3180000000000,"state":"active","ping":72},{"user_id":59,"name":"Jeffenthropus","steam_id":76561198134204248,"connected_time":5127000000000,"state":"active","ping":78},{"user_id":90,"name":"TEWR","steam_id":76561198131388762,"connected_time":3796000000000,"state":"active","ping":57},{"user_id":147,"name":"Wahooka","steam_id":76561197962240925,"connected_time":1428000000000,"state":"active","ping":58},{"user_id":126,"name":"SLICK PAPI #IMDADDYASF","steam_id":76561198144766439,"connected_time":2650000000000,"state":"active","ping":43},{"user_id":157,"name":"esmeralda del p√°ramo","steam_id":76561198274491536,"connected_time":568000000000,"state":"active","ping":161},{"user_id":143,"name":"meat glasses","steam_id":76561198046742645,"connected_time":2182000000000,"state":"active","ping":71},{"user_id":150,"name":"The Spanked Monkey","steam_id":76561198128293111,"connected_time":1361000000000,"state":"active","ping":66},{"user_id":85,"name":"Argo","steam_id":76561198130165115,"connected_time":3903000000000,"state":"active","ping":46},{"user_id":156,"name":"the man in the pickle suit","steam_id":76561198076553513,"connected_time":625000000000,"state":"active","ping":54},{"user_id":97,"name":"sex haver with father","steam_id":76561199365128399,"connected_time":3325000000000,"state":"active","ping":60},{"user_id":148,"name":"blitzkriiegi","steam_id":76561198200944766,"connected_time":1420000000000,"state":"active","ping":51},{"user_id":152,"name":"Condensed Milk","steam_id":76561199209016136,"connected_time":1160000000000,"state":"active","ping":60},{"user_id":92,"name":"DinkleBerg","steam_id":76561198891626233,"connected_time":3698000000000,"state":"active","ping":61},{"user_id":158,"name":"solitaire","steam_id":76561198964025682,"connected_time":562000000000,"state":"active","ping":89},{"user_id":104,"name":"CreeperCatBengal","steam_id":76561198213193221,"connected_time":3162000000000,"state":"active","ping":78},{"user_id":155,"name":"Hey","steam_id":76561198447517893,"connected_time":750000000000,"state":"active","ping":75},{"user_id":141,"name":"LVL","steam_id":76561198334403617,"connected_time":2302000000000,"state":"active","ping":58},{"user_id":144,"name":"glue sniffer","steam_id":76561198044689778,"connected_time":2146000000000,"state":"active","ping":64},{"user_id":154,"name":"Smitty Werbenjagermanjensen","steam_id":76561198065782439,"connected_time":1070000000000,"state":"active","ping":112},{"user_id":106,"name":"Ja","steam_id":76561198396340174,"connected_time":3109000000000,"state":"active","ping":75},{"user_id":159,"name":"Secret Derg","steam_id":76561198065005979,"connected_time":360000000000,"state":"active","ping":96},{"user_id":79,"name":"RiverEgg","steam_id":76561198888913405,"connected_time":4033000000000,"state":"active","ping":56},{"user_id":119,"name":"badboy6996","steam_id":76561197969386201,"connected_time":2760000000000,"state":"active","ping":60},{"user_id":110,"name":"blossom @mar13","steam_id":76561198042735130,"connected_time":2955000000000,"state":"active","ping":110}]},{"server_id":403,"name":"Uncletopia | Chicago | 4 | All Maps","name_short":"chi-4","host":"chi-1.us.uncletopia.com","port":27045,"enabled":true,"region":"us-central","cc":"us","latitude":41.881832,"longitude":-87.62318,"reserved":0,"last_update":"0001-01-01T00:00:00Z","name_a2s":"Uncletopia | Chicago | 4 | All Maps","protocol":17,"map":"koth_cascade","folder":"tf","game":"Team Fortress","app_id":440,"player_count":0,"max_players":24,"Bots":0,"server_type":"Dedicated","server_os":"Linux","password":true,"vac":true,"version":"7882260","steam_id":85568392924515193,"keywords":["cp","nocrits","nodmgspread","uncletopia"],"game_id":440,"stv_port":27046,"stv_name":"Uncletopia | Chicago | 4 | All Maps | STV","players":null},{"server_id":36,"name":"Uncletopia | Chicago | 5 | All Maps","name_short":"chi-5","host":"chi-2.us.uncletopia.com","port":27015,"enabled":true,"region":"us-central","cc":"us","latitude":41.881832,"longitude":-87.62318,"reserved":0,"last_update":"0001-01-01T00:00:00Z","name_a2s":"Uncletopia | Chicago | 5 | All Maps","protocol":17,"map":"pl_upward","folder":"tf","game":"Team Fortress","app_id":440,"player_count":24,"max_players":24,"Bots":0,"server_type":"Dedicated","server_os":"Linux","password":true,"vac":true,"version":"7882260","steam_id":85568392924866362,"keywords":["nocrits","nodmgspread","payload","uncletopia"],"game_id":440,"stv_port":27016,"stv_name":"Uncletopia | Chicago | 5 | All Maps | STV","players":[{"user_id":67,"name":"Demoman With One Joke","steam_id":76561197993467034,"connected_time":173000000000,"state":"active","ping":45},{"user_id":64,"name":"P1g5sy","steam_id":76561198411763791,"connected_time":746000000000,"state":"active","ping":153},{"user_id":69,"name":"Mr.Government","steam_id":76561199076891158,"connected_time":87000000000,"state":"active","ping":65},{"user_id":51,"name":"Admiral Angry","steam_id":76561198058199206,"connected_time":1695000000000,"state":"active","ping":57},{"user_id":21,"name":"lucky","steam_id":76561198323426623,"connected_time":3504000000000,"state":"active","ping":100},{"user_id":22,"name":"TheGaming13","steam_id":76561199239498966,"connected_time":3180000000000,"state":"active","ping":86},{"user_id":23,"name":"get me out of detroit","steam_id":76561198961456618,"connected_time":2951000000000,"state":"active","ping":57},{"user_id":70,"name":"Lord Razor","steam_id":76561198373286283,"connected_time":85000000000,"state":"active","ping":84},{"user_id":62,"name":"jeradi1982","steam_id":76561199106779294,"connected_time":947000000000,"state":"active","ping":101},{"user_id":28,"name":"organic kale","steam_id":76561198101506575,"connected_time":2685000000000,"state":"active","ping":67},{"user_id":31,"name":"GarbageBin","steam_id":76561199067367646,"connected_time":2383000000000,"state":"active","ping":80},{"user_id":32,"name":"Aqua Tofana","steam_id":76561198351183381,"connected_time":2340000000000,"state":"active","ping":113},{"user_id":53,"name":"thepigeongamer","steam_id":76561199122405547,"connected_time":1586000000000,"state":"active","ping":87},{"user_id":63,"name":"Pandabare","steam_id":76561198446411056,"connected_time":803000000000,"state":"active","ping":79},{"user_id":37,"name":"brain_damage","steam_id":76561199381954163,"connected_time":2133000000000,"state":"active","ping":98},{"user_id":68,"name":"Maxx","steam_id":76561198045405304,"connected_time":118000000000,"state":"active","ping":84},{"user_id":65,"name":"RSG","steam_id":76561198146333046,"connected_time":739000000000,"state":"active","ping":183},{"user_id":41,"name":"Lizardman","steam_id":76561198022410505,"connected_time":1953000000000,"state":"active","ping":74},{"user_id":61,"name":"ViperLass","steam_id":76561198211863392,"connected_time":1037000000000,"state":"active","ping":72},{"user_id":43,"name":"The Duck","steam_id":76561199362841212,"connected_time":1927000000000,"state":"active","ping":94},{"user_id":59,"name":"Quibbli","steam_id":76561199214866732,"connected_time":1133000000000,"state":"active","ping":70},{"user_id":47,"name":"Cargoshorts Johnny","steam_id":76561198281732417,"connected_time":1780000000000,"state":"active","ping":83},{"user_id":66,"name":"avantime","steam_id":76561199203175541,"connected_time":731000000000,"state":"active","ping":85},{"user_id":49,"name":"Eerie Pumpkin","steam_id":76561198395499291,"connected_time":1774000000000,"state":"active","ping":33}]},{"server_id":37,"name":"Uncletopia | Chicago | 6 | All Maps","name_short":"chi-6","host":"chi-2.us.uncletopia.com","port":27025,"enabled":true,"region":"us-central","cc":"us","latitude":41.881832,"longitude":-87.62318,"reserved":0,"last_update":"0001-01-01T00:00:00Z","name_a2s":"Uncletopia | Chicago | 6 | All Maps","protocol":17,"map":"koth_cascade","folder":"tf","game":"Team Fortress","app_id":440,"player_count":0,"max_players":24,"Bots":0,"server_type":"Dedicated","server_os":"Linux","password":true,"vac":true,"version":"7882260","steam_id":85568392924866363,"keywords":["cp","nocrits","nodmgspread","uncletopia"],"game_id":440,"stv_port":27026,"stv_name":"Uncletopia | Chicago | 6 | All Maps | STV","players":null},{"server_id":38,"name":"Uncletopia | Chicago | 7 | Stopwatch Beta","name_short":"chi-7","host":"chi-2.us.uncletopia.com","port":27035,"enabled":true,"region":"us-central","cc":"us","latitude":41.881832,"longitude":-87.62318,"reserved":0,"last_update":"0001-01-01T00:00:00Z","name_a2s":"Uncletopia | Chicago | 7 | Stopwatch Beta","protocol":17,"map":"pl_borneo","folder":"tf","game":"Team Fortress","app_id":440,"player_count":0,"max_players":24,"Bots":0,"server_type":"Dedicated","server_os":"Linux","password":true,"vac":true,"version":"7882260","steam_id":85568392924866364,"keywords":["nocrits","nodmgspread","payload","uncletopia"],"game_id":440,"stv_port":27036,"stv_name":"Uncletopia | Chicago | 7 | Stopwatch Beta | STV","players":null},{"server_id":39,"name":"Uncletopia | Chicago | 8 | Community","name_short":"chi-8","host":"chi-2.us.uncletopia.com","port":27045,"enabled":true,"region":"us-central","cc":"us","latitude":41.881832,"longitude":-87.62318,"reserved":0,"last_update":"0001-01-01T00:00:00Z","name_a2s":"Uncletopia | Chicago | 8 | Community","protocol":17,"map":"workshop/cp_indulge.ugc528106646","folder":"tf","game":"Team Fortress","app_id":440,"player_count":0,"max_players":24,"Bots":0,"server_type":"Dedicated","server_os":"Linux","password":true,"vac":true,"version":"7882260","steam_id":85568392924866365,"keywords":["cp","nocrits","nodmgspread","uncletopia"],"game_id":440,"stv_port":27046,"stv_name":"Uncletopia | Chicago | 8 | Community | STV","players":null},{"server_id":8,"name":"Uncletopia | Dallas | 1 | All Maps","name_short":"dal-1","host":"dal-1.us.uncletopia.com","port":27015,"enabled":true,"region":"us-central","cc":"us","latitude":32.779167,"longitude":-96.80889,"reserved":0,"last_update":"0001-01-01T00:00:00Z","name_a2s":"Uncletopia | Dallas | 1 | All Maps","protocol":17,"map":"pl_pier","folder":"tf","game":"Team Fortress","app_id":440,"player_count":9,"max_players":24,"Bots":0,"server_type":"Dedicated","server_os":"Linux","password":true,"vac":true,"version":"7882260","steam_id":85568392924469986,"keywords":["nocrits","nodmgspread","payload","uncletopia"],"game_id":440,"stv_port":27016,"stv_name":"Uncletopia | Dallas | 1 | All Maps | STV","players":[{"user_id":5,"name":"Gull","steam_id":76561198094113612,"connected_time":1006000000000,"state":"active","ping":47},{"user_id":14,"name":"neun_o2","steam_id":76561198795862574,"connected_time":238000000000,"state":"active","ping":85},{"user_id":15,"name":"Dark_","steam_id":76561198391453250,"connected_time":225000000000,"state":"active","ping":104},{"user_id":8,"name":"toastmiro","steam_id":76561199112031154,"connected_time":601000000000,"state":"active","ping":220},{"user_id":16,"name":"ClutchSR","steam_id":76561199018366378,"connected_time":207000000000,"state":"active","ping":87},{"user_id":10,"name":"captscrubby","steam_id":76561198064257591,"connected_time":543000000000,"state":"active","ping":84},{"user_id":19,"name":"Ankliosumos","steam_id":76561198106443757,"connected_time":94000000000,"state":"active","ping":66},{"user_id":18,"name":"HypeBeat","steam_id":76561199442974249,"connected_time":158000000000,"state":"active","ping":180},{"user_id":20,"name":"‚Üë EEBY DEEBY","steam_id":76561198392539722,"connected_time":29000000000,"state":"spawning","ping":86}]},{"server_id":108,"name":"Uncletopia | Dallas | 2 | All Maps","name_short":"dal-2","host":"dal-1.us.uncletopia.com","port":27025,"enabled":true,"region":"us-central","cc":"us","latitude":32.779167,"longitude":-96.80889,"reserved":0,"last_update":"0001-01-01T00:00:00Z","name_a2s":"Uncletopia | Dallas | 2 | All Maps","protocol":17,"map":"pl_barnblitz","folder":"tf","game":"Team Fortress","app_id":440,"player_count":0,"max_players":24,"Bots":0,"server_type":"Dedicated","server_os":"Linux","password":true,"vac":true,"version":"7882260","steam_id":85568392924469988,"keywords":["nocrits","nodmgspread","payload","uncletopia"],"game_id":440,"stv_port":27026,"stv_name":"Uncletopia | Dallas | 2 | All Maps | STV","players":null},{"server_id":5,"name":"Uncletopia | Frankfurt | 1 | All Maps","name_short":"frk-1","host":"frk-1.de.uncletopia.com","port":27015,"enabled":true,"region":"eu","cc":"de","latitude":50.110924,"longitude":8.682127,"reserved":0,"last_update":"0001-01-01T00:00:00Z","name_a2s":"Uncletopia | Frankfurt | 1 | All Maps","protocol":17,"map":"cp_mountainlab","folder":"tf","game":"Team Fortress","app_id":440,"player_count":8,"max_players":24,"Bots":0,"server_type":"Dedicated","server_os":"Linux","password":true,"vac":true,"version":"7882260","steam_id":85568392924469989,"keywords":["cp","nocrits","nodmgspread","uncletopia"],"game_id":440,"stv_port":27016,"stv_name":"Uncletopia | Frankfurt | 1 | All Maps | STV","players":[{"user_id":232,"name":"YAY5637","steam_id":76561198025344305,"connected_time":622000000000,"state":"active","ping":51},{"user_id":238,"name":"Your local Idoit","steam_id":76561198449229817,"connected_time":94000000000,"state":"active","ping":77},{"user_id":234,"name":"Razorback from Team Fortress 2","steam_id":76561199214163032,"connected_time":208000000000,"state":"active","ping":96},{"user_id":235,"name":"Nintyuk","steam_id":76561197994176164,"connected_time":181000000000,"state":"active","ping":48},{"user_id":236,"name":"Palettenbrett","steam_id":76561198124162943,"connected_time":168000000000,"state":"active","ping":55},{"user_id":241,"name":"SK4RD3S","steam_id":76561198058724777,"connected_time":24000000000,"state":"active","ping":75},{"user_id":240,"name":"Rare bulldog owner","steam_id":76561199407941086,"connected_time":25000000000,"state":"active","ping":62},{"user_id":242,"name":"Killer13","steam_id":76561198303460133,"connected_time":4000000000,"state":"spawning","ping":89}]},{"server_id":110,"name":"Uncletopia | Frankfurt | 2 | All Maps","name_short":"frk-2","host":"frk-1.de.uncletopia.com","port":27025,"enabled":true,"region":"eu","cc":"de","latitude":50.110924,"longitude":8.682127,"reserved":0,"last_update":"0001-01-01T00:00:00Z","name_a2s":"Uncletopia | Frankfurt | 2 | All Maps","protocol":17,"map":"cp_sunshine","folder":"tf","game":"Team Fortress","app_id":440,"player_count":23,"max_players":24,"Bots":0,"server_type":"Dedicated","server_os":"Linux","password":true,"vac":true,"version":"7882260","steam_id":85568392924469990,"keywords":["cp","nocrits","nodmgspread","uncletopia"],"game_id":440,"stv_port":27026,"stv_name":"Uncletopia | Frankfurt | 2 | All Maps | STV","players":[{"user_id":132,"name":"Pastill","steam_id":76561198067484436,"connected_time":1874000000000,"state":"spawning","ping":90},{"user_id":153,"name":"fredu","steam_id":76561198107605938,"connected_time":0,"state":"spawning","ping":0},{"user_id":145,"name":"lyon","steam_id":76561197998096172,"connected_time":762000000000,"state":"spawning","ping":92},{"user_id":147,"name":"Flint","steam_id":76561197995920776,"connected_time":617000000000,"state":"spawning","ping":45},{"user_id":97,"name":"Master Of Noob","steam_id":76561198217926783,"connected_time":3418000000000,"state":"spawning","ping":86},{"user_id":139,"name":"X-tis","steam_id":76561198043837480,"connected_time":953000000000,"state":"spawning","ping":90},{"user_id":133,"name":"Asa Mitaka","steam_id":76561198361723475,"connected_time":1872000000000,"state":"spawning","ping":87},{"user_id":151,"name":"Panda","steam_id":76561198176342325,"connected_time":14000000000,"state":"spawning","ping":118},{"user_id":149,"name":"Jonathan","steam_id":76561198087988880,"connected_time":36000000000,"state":"spawning","ping":61},{"user_id":54,"name":"lyudmilakh","steam_id":76561198362779878,"connected_time":5443000000000,"state":"spawning","ping":88},{"user_id":124,"name":"I.AM.THE.BOOP.WHICH.IS.APROACHI","steam_id":76561198049342507,"connected_time":2332000000000,"state":"spawning","ping":80},{"user_id":88,"name":"Komorebi","steam_id":76561198207157679,"connected_time":4023000000000,"state":"spawning","ping":49},{"user_id":136,"name":"Fat Pigeon","steam_id":76561198817940142,"connected_time":1529000000000,"state":"spawning","ping":74},{"user_id":126,"name":"sex havin'","steam_id":76561198169857427,"connected_time":2293000000000,"state":"spawning","ping":96},{"user_id":146,"name":"jge","steam_id":76561198123186387,"connected_time":648000000000,"state":"spawning","ping":60},{"user_id":131,"name":"herbal tea","steam_id":76561197980736364,"connected_time":1954000000000,"state":"spawning","ping":90},{"user_id":138,"name":"Anri Okita's Massive Milkers","steam_id":76561199186352720,"connected_time":988000000000,"state":"spawning","ping":78},{"user_id":148,"name":"Mussolini","steam_id":76561198218384865,"connected_time":302000000000,"state":"spawning","ping":100},{"user_id":114,"name":"‚òûLaZe‚òú","steam_id":76561198202191400,"connected_time":2622000000000,"state":"spawning","ping":91},{"user_id":127,"name":"KeepIT.OK?","steam_id":76561198957890584,"connected_time":2286000000000,"state":"spawning","ping":138},{"user_id":143,"name":"own","steam_id":76561197972447260,"connected_time":853000000000,"state":"spawning","ping":79},{"user_id":144,"name":"Sch","steam_id":76561198071341689,"connected_time":826000000000,"state":"spawning","ping":65},{"user_id":152,"name":"Msuni","steam_id":76561198334903726,"connected_time":14000000000,"state":"spawning","ping":79}]},{"server_id":308,"name":"Uncletopia | Frankfurt | 3 | All Maps","name_short":"frk-3","host":"frk-1.de.uncletopia.com","port":27035,"enabled":true,"region":"eu","cc":"de","latitude":50.110924,"longitude":8.682127,"reserved":0,"last_update":"0001-01-01T00:00:00Z","name_a2s":"Uncletopia | Frankfurt | 3 | All Maps","protocol":17,"map":"pl_snowycoast","folder":"tf","game":"Team Fortress","app_id":440,"player_count":24,"max_players":24,"Bots":0,"server_type":"Dedicated","server_os":"Linux","password":true,"vac":true,"version":"7882260","steam_id":85568392924504274,"keywords":["nocrits","nodmgspread","payload","uncletopia"],"game_id":440,"stv_port":27036,"stv_name":"Uncletopia | Frankfurt | 3 | All Maps | STV","players":[{"user_id":143,"name":"After8","steam_id":76561198090750865,"connected_time":3430000000000,"state":"active","ping":61},{"user_id":144,"name":"–î–∏–¥–∏","steam_id":76561199017111268,"connected_time":3414000000000,"state":"active","ping":98},{"user_id":174,"name":"Wujek Cacek","steam_id":76561198010267943,"connected_time":1689000000000,"state":"active","ping":70},{"user_id":101,"name":"LOBZIK","steam_id":76561198114830120,"connected_time":6707000000000,"state":"active","ping":75},{"user_id":126,"name":"Teathling","steam_id":76561198061580505,"connected_time":4366000000000,"state":"active","ping":58},{"user_id":189,"name":"Tort","steam_id":76561198329646769,"connected_time":768000000000,"state":"active","ping":68},{"user_id":197,"name":"bagasser","steam_id":76561198051283300,"connected_time":44000000000,"state":"active","ping":62},{"user_id":196,"name":"√Ñ√§rik ‚ô£","steam_id":76561198131871737,"connected_time":54000000000,"state":"active","ping":47},{"user_id":182,"name":"WATANG!","steam_id":76561198040478926,"connected_time":1176000000000,"state":"active","ping":64},{"user_id":27,"name":"Ixsus\u003c3","steam_id":76561198094756869,"connected_time":10825000000000,"state":"active","ping":55},{"user_id":139,"name":"Pacanaz","steam_id":76561198011514552,"connected_time":3686000000000,"state":"active","ping":83},{"user_id":195,"name":"Jucatron","steam_id":76561198044259577,"connected_time":117000000000,"state":"active","ping":85},{"user_id":190,"name":"Kapitan Polska","steam_id":76561197968069413,"connected_time":725000000000,"state":"active","ping":64},{"user_id":133,"name":"Hussain_144","steam_id":76561198346029208,"connected_time":4042000000000,"state":"active","ping":171},{"user_id":140,"name":"Ennard777","steam_id":76561198965409493,"connected_time":3547000000000,"state":"active","ping":104},{"user_id":183,"name":"ùïäùïíùïüùïïùïûùïíùïü\ufffd\ufffd\ufffd","steam_id":76561199012566222,"connected_time":1135000000000,"state":"active","ping":49},{"user_id":198,"name":"hol horse","steam_id":76561199235435358,"connected_time":37000000000,"state":"active","ping":325},{"user_id":181,"name":"generic alias","steam_id":76561198271607226,"connected_time":1465000000000,"state":"active","ping":99},{"user_id":164,"name":"Suvis","steam_id":76561198153048602,"connected_time":2347000000000,"state":"active","ping":84},{"user_id":191,"name":"meZzo82","steam_id":76561199094017865,"connected_time":713000000000,"state":"active","ping":66},{"user_id":192,"name":"Gent","steam_id":76561198037167890,"connected_time":710000000000,"state":"active","ping":83},{"user_id":193,"name":"BŒ£NZOIC","steam_id":76561198875665995,"connected_time":702000000000,"state":"active","ping":85},{"user_id":178,"name":"–ü–µ—Ä–≤—ã–π–õ–û–•–Ω–∞–†—É—Å–∏","steam_id":76561198285833560,"connected_time":1621000000000,"state":"active","ping":94},{"user_id":160,"name":"{[Zanussi]}","steam_id":76561199130291783,"connected_time":2671000000000,"state":"active","ping":80}]},{"server_id":309,"name":"Uncletopia | Frankfurt | 4 | All Maps","name_short":"frk-4","host":"frk-1.de.uncletopia.com","port":27045,"enabled":true,"region":"eu","cc":"de","latitude":50.110924,"longitude":8.682127,"reserved":0,"last_update":"0001-01-01T00:00:00Z","name_a2s":"Uncletopia | Frankfurt | 4 | All Maps","protocol":17,"map":"pl_borneo","folder":"tf","game":"Team Fortress","app_id":440,"player_count":24,"max_players":24,"Bots":0,"server_type":"Dedicated","server_os":"Linux","password":true,"vac":true,"version":"7882260","steam_id":85568392924504275,"keywords":["nocrits","nodmgspread","payload","uncletopia"],"game_id":440,"stv_port":27046,"stv_name":"Uncletopia | Frankfurt | 4 | All Maps | STV","players":[{"user_id":82,"name":"Ptahotep","steam_id":76561198008708645,"connected_time":501000000000,"state":"active","ping":62},{"user_id":49,"name":"Vidrox #savetf2","steam_id":76561199217854983,"connected_time":1081000000000,"state":"active","ping":92},{"user_id":40,"name":"DeterminedXD[HUN]","steam_id":76561199469006453,"connected_time":2524000000000,"state":"active","ping":85},{"user_id":79,"name":"LarsInABox","steam_id":76561198028329262,"connected_time":598000000000,"state":"active","ping":75},{"user_id":54,"name":"Fedesgraz","steam_id":76561198324178619,"connected_time":824000000000,"state":"active","ping":69},{"user_id":51,"name":"ÌïòÎäòÏùò Ìîº","steam_id":76561198978262040,"connected_time":927000000000,"state":"active","ping":72},{"user_id":73,"name":"Hobby","steam_id":76561198256055737,"connected_time":646000000000,"state":"active","ping":61},{"user_id":28,"name":"FanFish","steam_id":76561199389558024,"connected_time":3101000000000,"state":"active","ping":65},{"user_id":56,"name":"hello hi","steam_id":76561198148074472,"connected_time":810000000000,"state":"active","ping":44},{"user_id":75,"name":"ONDRASEKCUKROUSEK","steam_id":76561198254030118,"connected_time":632000000000,"state":"active","ping":45},{"user_id":58,"name":"Z.","steam_id":76561198367362266,"connected_time":801000000000,"state":"active","ping":75},{"user_id":76,"name":"mr_floods_your_sink","steam_id":76561198804885060,"connected_time":630000000000,"state":"active","ping":59},{"user_id":60,"name":"Kahvi","steam_id":76561198723244199,"connected_time":798000000000,"state":"active","ping":87},{"user_id":61,"name":"wee woo","steam_id":76561198147277460,"connected_time":767000000000,"state":"active","ping":57},{"user_id":62,"name":"azzy","steam_id":76561198061293740,"connected_time":763000000000,"state":"active","ping":83},{"user_id":63,"name":"ODanial","steam_id":76561198034854402,"connected_time":759000000000,"state":"active","ping":104},{"user_id":64,"name":"nemelex","steam_id":76561198958005865,"connected_time":753000000000,"state":"active","ping":61},{"user_id":65,"name":"Piteras","steam_id":76561198858532207,"connected_time":748000000000,"state":"active","ping":74},{"user_id":81,"name":"KnugenIV","steam_id":76561198127091993,"connected_time":547000000000,"state":"active","ping":54},{"user_id":80,"name":"I Can Look Into Your Thoughts","steam_id":76561198027033926,"connected_time":585000000000,"state":"active","ping":61},{"user_id":77,"name":"Reisy","steam_id":76561198873665679,"connected_time":624000000000,"state":"active","ping":95},{"user_id":83,"name":"Skif-chan","steam_id":76561198059237568,"connected_time":381000000000,"state":"active","ping":137},{"user_id":78,"name":"elsuedi","steam_id":76561198074722832,"connected_time":616000000000,"state":"active","ping":53},{"user_id":72,"name":"Rizz","steam_id":76561198192135953,"connected_time":688000000000,"state":"active","ping":97}]},{"server_id":310,"name":"Uncletopia | Frankfurt | 5 | All Maps","name_short":"frk-5","host":"frk-1.de.uncletopia.com","port":27055,"enabled":true,"region":"eu","cc":"de","latitude":50.110924,"longitude":8.682127,"reserved":0,"last_update":"0001-01-01T00:00:00Z","name_a2s":"Uncletopia | Frankfurt | 5 | All Maps","protocol":17,"map":"pl_frontier_final","folder":"tf","game":"Team Fortress","app_id":440,"player_count":24,"max_players":24,"Bots":0,"server_type":"Dedicated","server_os":"Linux","password":true,"vac":true,"version":"7882260","steam_id":85568392924504277,"keywords":["nocrits","nodmgspread","payload","uncletopia"],"game_id":440,"stv_port":27056,"stv_name":"Uncletopia | Frankfurt | 5 | All Maps | STV","players":[{"user_id":118,"name":"nikkielmao","steam_id":76561198086229832,"connected_time":1165000000000,"state":"active","ping":60},{"user_id":95,"name":"Csatkai Sz≈±z M√°ria","steam_id":76561198336833646,"connected_time":2575000000000,"state":"active","ping":76},{"user_id":113,"name":"manKe","steam_id":76561198008564860,"connected_time":1208000000000,"state":"active","ping":60},{"user_id":82,"name":"Spectral Sloth","steam_id":76561198170083139,"connected_time":3319000000000,"state":"active","ping":67},{"user_id":59,"name":"Burger ging","steam_id":76561198285999186,"connected_time":4016000000000,"state":"active","ping":69},{"user_id":97,"name":"Smoker","steam_id":76561198129454909,"connected_time":2542000000000,"state":"active","ping":79},{"user_id":60,"name":"bob.","steam_id":76561198209307295,"connected_time":4015000000000,"state":"active","ping":74},{"user_id":109,"name":"–ñ—ã–≤–µ –ë–µ–ª–∞—Ä—É—Å—å!","steam_id":76561199293036742,"connected_time":1666000000000,"state":"active","ping":55},{"user_id":88,"name":"–ö–∞–í–æ–∫–∞–¥–∑–µüò¥","steam_id":76561198272589995,"connected_time":2961000000000,"state":"active","ping":142},{"user_id":116,"name":"Ludwig","steam_id":76561198148359093,"connected_time":1195000000000,"state":"active","ping":49},{"user_id":123,"name":"Rarky","steam_id":76561198054398642,"connected_time":839000000000,"state":"active","ping":97},{"user_id":101,"name":"skai","steam_id":76561198184881255,"connected_time":2363000000000,"state":"active","ping":77},{"user_id":119,"name":"Bloatlord","steam_id":76561198035821011,"connected_time":1153000000000,"state":"active","ping":61},{"user_id":26,"name":"i like questions","steam_id":76561198179392402,"connected_time":5975000000000,"state":"active","ping":47},{"user_id":27,"name":"≈Ωilet","steam_id":76561198189553021,"connected_time":5975000000000,"state":"active","ping":62},{"user_id":111,"name":"noobdog","steam_id":76561198036486671,"connected_time":1528000000000,"state":"active","ping":60},{"user_id":115,"name":"le unfunny dog","steam_id":76561198415020571,"connected_time":1203000000000,"state":"active","ping":62},{"user_id":102,"name":"Ketich","steam_id":76561198021772703,"connected_time":2152000000000,"state":"active","ping":69},{"user_id":120,"name":"Greenmaker","steam_id":76561198060466591,"connected_time":1137000000000,"state":"active","ping":82},{"user_id":114,"name":"Daga","steam_id":76561198055450219,"connected_time":1208000000000,"state":"active","ping":53},{"user_id":112,"name":"i hate this game","steam_id":76561198066977580,"connected_time":1424000000000,"state":"active","ping":91},{"user_id":68,"name":"Chopperson_","steam_id":76561198873728497,"connected_time":3828000000000,"state":"active","ping":107},{"user_id":124,"name":"plazma","steam_id":76561198886594048,"connected_time":654000000000,"state":"active","ping":96},{"user_id":125,"name":"Gabys","steam_id":76561198282892553,"connected_time":625000000000,"state":"active","ping":74}]},{"server_id":311,"name":"Uncletopia | Frankfurt | 6 | All Maps","name_short":"frk-6","host":"frk-1.de.uncletopia.com","port":27065,"enabled":true,"region":"eu","cc":"de","latitude":50.110924,"longitude":8.682127,"reserved":0,"last_update":"0001-01-01T00:00:00Z","name_a2s":"Uncletopia | Frankfurt | 6 | All Maps","protocol":17,"map":"cp_dustbowl","folder":"tf","game":"Team Fortress","app_id":440,"player_count":0,"max_players":24,"Bots":0,"server_type":"Dedicated","server_os":"Linux","password":true,"vac":true,"version":"7882260","steam_id":85568392924504278,"keywords":["cp","nocrits","nodmgspread","uncletopia"],"game_id":440,"stv_port":27066,"stv_name":"Uncletopia | Frankfurt | 6 | All Maps | STV","players":null},{"server_id":23,"name":"Uncletopia | Frankfurt | 7 | Stopwatch Beta","name_short":"frk-7","host":"frk-1.de.uncletopia.com","port":27075,"enabled":true,"region":"eu","cc":"de","latitude":50.110924,"longitude":8.682127,"reserved":0,"last_update":"0001-01-01T00:00:00Z","name_a2s":"Uncletopia | Frankfurt | 7 | Stopwatch Beta","protocol":17,"map":"koth_lakeside_final","folder":"tf","game":"Team Fortress","app_id":440,"player_count":0,"max_players":24,"Bots":0,"server_type":"Dedicated","server_os":"Linux","password":true,"vac":true,"version":"7882260","steam_id":85568392924742827,"keywords":["cp","nocrits","nodmgspread","uncletopia"],"game_id":440,"stv_port":27076,"stv_name":"Uncletopia | Frankfurt | 7 | Stopwatch Beta | STV","players":null},{"server_id":24,"name":"Uncletopia | Frankfurt | 8 | Community","name_short":"frk-8","host":"frk-1.de.uncletopia.com","port":27085,"enabled":true,"region":"eu","cc":"de","latitude":50.110924,"longitude":8.682127,"reserved":0,"last_update":"0001-01-01T00:00:00Z","name_a2s":"Uncletopia | Frankfurt | 8 | Community","protocol":17,"map":"koth_cascade","folder":"tf","game":"Team Fortress","app_id":440,"player_count":0,"max_players":24,"Bots":0,"server_type":"Dedicated","server_os":"Linux","password":true,"vac":true,"version":"7882260","steam_id":85568392924742828,"keywords":["cp","nocrits","nodmgspread","uncletopia"],"game_id":440,"stv_port":27086,"stv_name":"Uncletopia | Frankfurt | 8 | Community | STV","players":null},{"server_id":202,"name":"Uncletopia | Hong Kong | 1 | All Maps","name_short":"hgk-1","host":"hgk-1.hk.uncletopia.com","port":27015,"enabled":true,"region":"asia","cc":"hk","latitude":22.302711,"longitude":114.177216,"reserved":0,"last_update":"0001-01-01T00:00:00Z","name_a2s":"Uncletopia | Hong Kong | 1 | All Maps","protocol":17,"map":"koth_cascade","folder":"tf","game":"Team Fortress","app_id":440,"player_count":24,"max_players":24,"Bots":0,"server_type":"Dedicated","server_os":"Linux","password":true,"vac":true,"version":"7882260","steam_id":85568392924494504,"keywords":["cp","nocrits","nodmgspread","uncletopia"],"game_id":440,"stv_port":27016,"stv_name":"Uncletopia | Hong Kong | 1 | All Maps | STV","players":[{"user_id":496,"name":"Knightgrail","steam_id":76561199127238071,"connected_time":421000000000,"state":"active","ping":65},{"user_id":484,"name":"you are my friend now :\u003e","steam_id":76561199017801128,"connected_time":1055000000000,"state":"active","ping":82},{"user_id":457,"name":"Vortex Swagger","steam_id":76561198833527091,"connected_time":4024000000000,"state":"active","ping":84},{"user_id":499,"name":"„Åµ„Çè„Åµ„ÇèÊØõÂ∏É","steam_id":76561198088403016,"connected_time":277000000000,"state":"active","ping":95},{"user_id":491,"name":"Waltuh (CEO of Chicanery)","steam_id":76561199257300024,"connected_time":445000000000,"state":"active","ping":83},{"user_id":490,"name":"Turbo.RF4 x Platinum","steam_id":76561199061012484,"connected_time":461000000000,"state":"active","ping":66},{"user_id":481,"name":"Meiray103[JP]","steam_id":76561199260702192,"connected_time":1168000000000,"state":"active","ping":107},{"user_id":494,"name":"Azule","steam_id":76561198136804802,"connected_time":425000000000,"state":"active","ping":138},{"user_id":465,"name":"SPEED","steam_id":76561198044969832,"connected_time":2989000000000,"state":"active","ping":102},{"user_id":501,"name":"Aug","steam_id":76561199212711900,"connected_time":191000000000,"state":"active","ping":98},{"user_id":500,"name":"Hay","steam_id":76561199438952901,"connected_time":275000000000,"state":"active","ping":53},{"user_id":493,"name":"Stupid B","steam_id":76561198131423270,"connected_time":442000000000,"state":"active","ping":122},{"user_id":502,"name":"Ipanjuro","steam_id":76561198264862073,"connected_time":14000000000,"state":"spawning","ping":122},{"user_id":483,"name":"cstr","steam_id":76561198125946388,"connected_time":1147000000000,"state":"active","ping":91},{"user_id":380,"name":"Headmouth","steam_id":76561198019789855,"connected_time":7234000000000,"state":"active","ping":144},{"user_id":398,"name":"Doormann","steam_id":76561199219230108,"connected_time":5576000000000,"state":"active","ping":95},{"user_id":378,"name":"AmaiGai(?)","steam_id":76561199122491157,"connected_time":7435000000000,"state":"active","ping":136},{"user_id":466,"name":"PotTimesTwo","steam_id":76561199405461327,"connected_time":2989000000000,"state":"active","ping":75},{"user_id":472,"name":"proballyagamer *********_com","steam_id":76561199098238135,"connected_time":1877000000000,"state":"active","ping":165},{"user_id":399,"name":"_kobic","steam_id":76561199166938276,"connected_time":5500000000000,"state":"active","ping":63},{"user_id":488,"name":"17","steam_id":76561198241530712,"connected_time":476000000000,"state":"active","ping":90},{"user_id":444,"name":"ÊØç„ÅÆËÇâÂõ£Â≠ê@hao123.com","steam_id":76561198069561896,"connected_time":4561000000000,"state":"active","ping":42},{"user_id":244,"name":"Milf (The fan O'Milk)","steam_id":76561198213031155,"connected_time":21046000000000,"state":"active","ping":98},{"user_id":455,"name":"clori","steam_id":76561199146847474,"connected_time":4473000000000,"state":"active","ping":45}]},{"server_id":1,"name":"Uncletopia | Los Angeles | 1 | All Maps","name_short":"lax-1","host":"lax-1.us.uncletopia.com","port":27015,"enabled":true,"region":"us-west","cc":"us","latitude":33.94279,"longitude":-118.41004,"reserved":0,"last_update":"0001-01-01T00:00:00Z","name_a2s":"Uncletopia | Los Angeles | 1 | All Maps","protocol":17,"map":"pl_pier","folder":"tf","game":"Team Fortress","app_id":440,"player_count":0,"max_players":24,"Bots":0,"server_type":"Dedicated","server_os":"Linux","password":true,"vac":true,"version":"7882260","steam_id":85568392924469991,"keywords":["nocrits","nodmgspread","payload","uncletopia"],"game_id":440,"stv_port":27016,"stv_name":"Uncletopia | Los Angeles | 1 | All Maps | STV","players":null},{"server_id":112,"name":"Uncletopia | Los Angeles | 2 | All Maps","name_short":"lax-2","host":"lax-1.us.uncletopia.com","port":27025,"enabled":true,"region":"us-west","cc":"us","latitude":33.94279,"longitude":-118.41004,"reserved":0,"last_update":"0001-01-01T00:00:00Z","name_a2s":"Uncletopia | Los Angeles | 2 | All Maps","protocol":17,"map":"cp_snakewater_final1","folder":"tf","game":"Team Fortress","app_id":440,"player_count":0,"max_players":24,"Bots":0,"server_type":"Dedicated","server_os":"Linux","password":true,"vac":true,"version":"7882260","steam_id":85568392924469992,"keywords":["cp","nocrits","nodmgspread","uncletopia"],"game_id":440,"stv_port":27026,"stv_name":"Uncletopia | Los Angeles | 2 | All Maps | STV","players":null},{"server_id":324,"name":"Uncletopia | Los Angeles | 3 | All Maps","name_short":"lax-3","host":"lax-1.us.uncletopia.com","port":27035,"enabled":true,"region":"us-west","cc":"us","latitude":33.94279,"longitude":-118.41004,"reserved":0,"last_update":"0001-01-01T00:00:00Z","name_a2s":"Uncletopia | Los Angeles | 3 | All Maps","protocol":17,"map":"cp_sunshine","folder":"tf","game":"Team Fortress","app_id":440,"player_count":0,"max_players":24,"Bots":0,"server_type":"Dedicated","server_os":"Linux","password":true,"vac":true,"version":"7882260","steam_id":85568392924510198,"keywords":["cp","nocrits","nodmgspread","uncletopia"],"game_id":440,"stv_port":27036,"stv_name":"Uncletopia | Los Angeles | 3 | All Maps | STV","players":null},{"server_id":25,"name":"Uncletopia | Los Angeles | 4 | Stopwatch Beta","name_short":"lax-4","host":"lax-1.us.uncletopia.com","port":27045,"enabled":true,"region":"us-west","cc":"us","latitude":33.94279,"longitude":-118.41004,"reserved":0,"last_update":"0001-01-01T00:00:00Z","name_a2s":"Uncletopia | Los Angeles | 4 | Stopwatch Beta","protocol":17,"map":"cp_snakewater_final1","folder":"tf","game":"Team Fortress","app_id":440,"player_count":0,"max_players":24,"Bots":0,"server_type":"Dedicated","server_os":"Linux","password":true,"vac":true,"version":"7882260","steam_id":85568392924510199,"keywords":["cp","nocrits","nodmgspread","uncletopia"],"game_id":440,"stv_port":27046,"stv_name":"Uncletopia | Los Angeles | 4 | Stopwatch Beta | STV","players":null},{"server_id":11,"name":"Uncletopia | London | 1 | All Maps","name_short":"lon-1","host":"lon-1.uk.uncletopia.com","port":27015,"enabled":true,"region":"eu","cc":"gb","latitude":51.509865,"longitude":-0.118092,"reserved":0,"last_update":"0001-01-01T00:00:00Z","name_a2s":"Uncletopia | London | 1 | All Maps","protocol":17,"map":"pl_badwater","folder":"tf","game":"Team Fortress","app_id":440,"player_count":24,"max_players":24,"Bots":0,"server_type":"Dedicated","server_os":"Linux","password":true,"vac":true,"version":"7882260","steam_id":85568392924367362,"keywords":["nocrits","nodmgspread","payload","uncletopia"],"game_id":440,"stv_port":27016,"stv_name":"Uncletopia | London | 1 | All Maps | STV","players":[{"user_id":320,"name":"Cheddar Goblin","steam_id":76561198007891376,"connected_time":97000000000,"state":"active","ping":100},{"user_id":304,"name":"unconditional love","steam_id":76561199026097466,"connected_time":1196000000000,"state":"active","ping":66},{"user_id":280,"name":"ArtaKir","steam_id":76561198291746440,"connected_time":2941000000000,"state":"active","ping":87},{"user_id":244,"name":"zvekan","steam_id":76561198381101196,"connected_time":5471000000000,"state":"active","ping":80},{"user_id":308,"name":"spaghettisaucerer","steam_id":76561198145133200,"connected_time":993000000000,"state":"active","ping":57},{"user_id":310,"name":"B.batt","steam_id":76561198998684199,"connected_time":971000000000,"state":"active","ping":120},{"user_id":309,"name":"punchmypotatoes","steam_id":76561198091255731,"connected_time":989000000000,"state":"active","ping":54},{"user_id":293,"name":"Watermelon","steam_id":76561198078349914,"connected_time":2368000000000,"state":"active","ping":48},{"user_id":282,"name":"Kurage","steam_id":76561198021221288,"connected_time":2890000000000,"state":"active","ping":60},{"user_id":299,"name":"Sheikh Mahmood Shaaban","steam_id":76561198985288329,"connected_time":1835000000000,"state":"active","ping":53},{"user_id":313,"name":"Dooting","steam_id":76561199069121777,"connected_time":915000000000,"state":"active","ping":84},{"user_id":99,"name":"Bottle O' Scrumpy","steam_id":76561199244250562,"connected_time":12969000000000,"state":"active","ping":105},{"user_id":307,"name":"weedda","steam_id":76561198449953655,"connected_time":1006000000000,"state":"active","ping":71},{"user_id":285,"name":"Maru","steam_id":76561198030931030,"connected_time":2878000000000,"state":"active","ping":73},{"user_id":312,"name":"Sample Texan","steam_id":76561198186701543,"connected_time":937000000000,"state":"active","ping":48},{"user_id":314,"name":"nermalDX","steam_id":76561198995042418,"connected_time":882000000000,"state":"active","ping":63},{"user_id":260,"name":"Agartha Dweller","steam_id":76561198076881381,"connected_time":4431000000000,"state":"active","ping":72},{"user_id":243,"name":"ScaryTree","steam_id":76561199384362833,"connected_time":5501000000000,"state":"active","ping":50},{"user_id":300,"name":"Senior","steam_id":76561198065014164,"connected_time":1826000000000,"state":"active","ping":56},{"user_id":321,"name":"Smokio","steam_id":76561198069650580,"connected_time":69000000000,"state":"active","ping":86},{"user_id":322,"name":"yeldad","steam_id":76561198447264153,"connected_time":50000000000,"state":"active","ping":115},{"user_id":268,"name":"SKFBoge","steam_id":76561198269038278,"connected_time":3867000000000,"state":"active","ping":73},{"user_id":318,"name":"Minimi","steam_id":76561198873850443,"connected_time":427000000000,"state":"active","ping":40},{"user_id":302,"name":"JOHN GAMING (#1 gunspy)","steam_id":76561199085822219,"connected_time":1529000000000,"state":"active","ping":75}]},{"server_id":114,"name":"Uncletopia | London | 2 | All Maps","name_short":"lon-2","host":"lon-1.uk.uncletopia.com","port":27025,"enabled":true,"region":"eu","cc":"gb","latitude":51.509865,"longitude":-0.118092,"reserved":0,"last_update":"0001-01-01T00:00:00Z","name_a2s":"Uncletopia | London | 2 | All Maps","protocol":17,"map":"cp_gullywash_final1","folder":"tf","game":"Team Fortress","app_id":440,"player_count":24,"max_players":24,"Bots":0,"server_type":"Dedicated","server_os":"Linux","password":true,"vac":true,"version":"7882260","steam_id":85568392924470941,"keywords":["cp","nocrits","nodmgspread","uncletopia"],"game_id":440,"stv_port":27026,"stv_name":"Uncletopia | London | 2 | All Maps | STV","players":[{"user_id":250,"name":"MrClyde","steam_id":76561198132627420,"connected_time":43000000000,"state":"active","ping":85},{"user_id":199,"name":"[O\u0026O]YaboiDucki","steam_id":76561198195976589,"connected_time":3515000000000,"state":"active","ping":78},{"user_id":246,"name":"sethlington14","steam_id":76561199438357690,"connected_time":301000000000,"state":"active","ping":55},{"user_id":220,"name":"P I S S","steam_id":76561199197497757,"connected_time":2001000000000,"state":"active","ping":120},{"user_id":244,"name":"alleged idiot cyclops","steam_id":76561198013502376,"connected_time":387000000000,"state":"active","ping":49},{"user_id":206,"name":"Underground - Hard Rock R1700G","steam_id":76561198215986979,"connected_time":2488000000000,"state":"active","ping":47},{"user_id":217,"name":"quickfast","steam_id":76561199438900919,"connected_time":2103000000000,"state":"active","ping":42},{"user_id":248,"name":"‚ô•ImWithMilk","steam_id":76561198269577569,"connected_time":175000000000,"state":"active","ping":53},{"user_id":223,"name":"Porridge Moisturizer","steam_id":76561198336523288,"connected_time":1910000000000,"state":"active","ping":131},{"user_id":245,"name":"Mury","steam_id":76561198069743049,"connected_time":366000000000,"state":"active","ping":127},{"user_id":239,"name":"Milk Drinker","steam_id":76561198203140640,"connected_time":670000000000,"state":"active","ping":71},{"user_id":231,"name":"Zim","steam_id":76561197962903996,"connected_time":1477000000000,"state":"active","ping":47},{"user_id":121,"name":"Melon wizard","steam_id":76561198455781892,"connected_time":8775000000000,"state":"active","ping":64},{"user_id":234,"name":"Engi-Nearing","steam_id":76561199221172552,"connected_time":1290000000000,"state":"active","ping":49},{"user_id":207,"name":"hedon/","steam_id":76561198249832770,"connected_time":2462000000000,"state":"active","ping":47},{"user_id":187,"name":"Rabiot420","steam_id":76561199072230477,"connected_time":4744000000000,"state":"active","ping":59},{"user_id":235,"name":"VampiuS","steam_id":76561197998827007,"connected_time":1282000000000,"state":"active","ping":71},{"user_id":240,"name":"28ilija28","steam_id":76561198868993172,"connected_time":656000000000,"state":"active","ping":71},{"user_id":243,"name":"Jabussy","steam_id":76561198111148719,"connected_time":418000000000,"state":"active","ping":74},{"user_id":175,"name":"RedFog","steam_id":76561198284713081,"connected_time":5059000000000,"state":"active","ping":54},{"user_id":249,"name":"Pvt. Parts","steam_id":76561198134759431,"connected_time":169000000000,"state":"active","ping":90},{"user_id":164,"name":"Flare","steam_id":76561198039098320,"connected_time":5899000000000,"state":"active","ping":52},{"user_id":237,"name":"LukeLeal","steam_id":76561198049822995,"connected_time":811000000000,"state":"active","ping":185},{"user_id":227,"name":"Marky","steam_id":76561199474556920,"connected_time":1882000000000,"state":"active","ping":103}]},{"server_id":320,"name":"Uncletopia | London | 3 | All Maps","name_short":"lon-3","host":"lon-1.uk.uncletopia.com","port":27035,"enabled":true,"region":"eu","cc":"gb","latitude":51.509865,"longitude":-0.118092,"reserved":0,"last_update":"0001-01-01T00:00:00Z","name_a2s":"Uncletopia | London | 3 | All Maps","protocol":17,"map":"pl_badwater","folder":"tf","game":"Team Fortress","app_id":440,"player_count":24,"max_players":24,"Bots":0,"server_type":"Dedicated","server_os":"Linux","password":true,"vac":true,"version":"7882260","steam_id":85568392924510192,"keywords":["nocrits","nodmgspread","payload","uncletopia"],"game_id":440,"stv_port":27036,"stv_name":"Uncletopia | London | 3 | All Maps | STV","players":[{"user_id":368,"name":"acskama","steam_id":76561198136743845,"connected_time":101000000000,"state":"active","ping":77},{"user_id":342,"name":"AWP Bodyshot :) ‚ù§","steam_id":76561198029928533,"connected_time":2562000000000,"state":"active","ping":59},{"user_id":335,"name":"dotdotdot","steam_id":76561198057628751,"connected_time":2858000000000,"state":"active","ping":64},{"user_id":363,"name":"la tempete qui approche","steam_id":76561198826468580,"connected_time":1133000000000,"state":"active","ping":45},{"user_id":367,"name":"WolfmanCZ","steam_id":76561199157141414,"connected_time":655000000000,"state":"active","ping":89},{"user_id":343,"name":"B52 stealth bomber","steam_id":76561198878274997,"connected_time":2469000000000,"state":"active","ping":90},{"user_id":315,"name":"Louis Armstrong Gaming","steam_id":76561199142022395,"connected_time":4329000000000,"state":"active","ping":80},{"user_id":359,"name":"Dope","steam_id":76561198318858892,"connected_time":1300000000000,"state":"active","ping":64},{"user_id":369,"name":"simadeda","steam_id":76561198319601061,"connected_time":100000000000,"state":"active","ping":77},{"user_id":328,"name":"Neo","steam_id":76561198136265838,"connected_time":3819000000000,"state":"active","ping":68},{"user_id":362,"name":"Secretti","steam_id":76561198151480179,"connected_time":1176000000000,"state":"active","ping":105},{"user_id":361,"name":"¬ÆKugo‚Ñ¢","steam_id":76561198127585830,"connected_time":1208000000000,"state":"active","ping":107},{"user_id":330,"name":"united chunk","steam_id":76561199017850298,"connected_time":3611000000000,"state":"active","ping":74},{"user_id":350,"name":"fshfkr","steam_id":76561198095979282,"connected_time":1639000000000,"state":"active","ping":34},{"user_id":355,"name":"holykyckling","steam_id":76561198040661615,"connected_time":1547000000000,"state":"active","ping":76},{"user_id":358,"name":"garry","steam_id":76561198019078145,"connected_time":1474000000000,"state":"active","ping":90},{"user_id":347,"name":"Sylvanas","steam_id":76561198154904165,"connected_time":2137000000000,"state":"active","ping":117},{"user_id":333,"name":"svantezch","steam_id":76561198373831657,"connected_time":3122000000000,"state":"active","ping":93},{"user_id":278,"name":"LeSpiper","steam_id":76561198104757617,"connected_time":6378000000000,"state":"active","ping":44},{"user_id":357,"name":"lunaire","steam_id":76561198163344452,"connected_time":1527000000000,"state":"active","ping":90},{"user_id":280,"name":"s_dimo","steam_id":76561198289862451,"connected_time":6362000000000,"state":"active","ping":53},{"user_id":297,"name":"Purps","steam_id":76561198053886680,"connected_time":5087000000000,"state":"active","ping":46},{"user_id":351,"name":"Diggity","steam_id":76561198297157085,"connected_time":1597000000000,"state":"active","ping":34},{"user_id":366,"name":"BORGETENNISCLUB","steam_id":76561198049343723,"connected_time":669000000000,"state":"active","ping":49}]},{"server_id":321,"name":"Uncletopia | London | 4 | All Maps","name_short":"lon-4","host":"lon-1.uk.uncletopia.com","port":27045,"enabled":true,"region":"eu","cc":"gb","latitude":51.509865,"longitude":-0.118092,"reserved":0,"last_update":"0001-01-01T00:00:00Z","name_a2s":"Uncletopia | London | 4 | All Maps","protocol":17,"map":"cp_process_final","folder":"tf","game":"Team Fortress","app_id":440,"player_count":0,"max_players":24,"Bots":0,"server_type":"Dedicated","server_os":"Linux","password":true,"vac":true,"version":"7882260","steam_id":85568392924510193,"keywords":["cp","nocrits","nodmgspread","uncletopia"],"game_id":440,"stv_port":27046,"stv_name":"Uncletopia | London | 4 | All Maps | STV","players":null},{"server_id":21,"name":"Uncletopia | London | 5 | All Maps","name_short":"lon-5","host":"lon-1.uk.uncletopia.com","port":27055,"enabled":true,"region":"eu","cc":"gb","latitude":51.509865,"longitude":-0.118092,"reserved":0,"last_update":"0001-01-01T00:00:00Z","name_a2s":"Uncletopia | London | 5 | All Maps","protocol":17,"map":"pl_pier","folder":"tf","game":"Team Fortress","app_id":440,"player_count":24,"max_players":24,"Bots":0,"server_type":"Dedicated","server_os":"Linux","password":true,"vac":true,"version":"7882260","steam_id":85568392924742829,"keywords":["nocrits","nodmgspread","payload","uncletopia"],"game_id":440,"stv_port":27056,"stv_name":"Uncletopia | London | 5 | All Maps | STV","players":[{"user_id":51,"name":"blurst of times","steam_id":76561197972325640,"connected_time":377000000000,"state":"active","ping":45},{"user_id":52,"name":"I hate midgets","steam_id":76561199125982967,"connected_time":338000000000,"state":"active","ping":130},{"user_id":12,"name":"Remembrance","steam_id":76561199229247163,"connected_time":2879000000000,"state":"active","ping":34},{"user_id":53,"name":"Shelly1052","steam_id":76561199043551053,"connected_time":290000000000,"state":"active","ping":44},{"user_id":29,"name":"godmodule","steam_id":76561198165995444,"connected_time":1192000000000,"state":"active","ping":76},{"user_id":26,"name":"Divin","steam_id":76561198077941403,"connected_time":1276000000000,"state":"active","ping":103},{"user_id":54,"name":"Kylute","steam_id":76561198447504417,"connected_time":286000000000,"state":"active","ping":45},{"user_id":27,"name":"heexy","steam_id":76561198138548899,"connected_time":1258000000000,"state":"active","ping":88},{"user_id":28,"name":"mud eater","steam_id":76561199248801608,"connected_time":1203000000000,"state":"active","ping":100},{"user_id":30,"name":"Crazy_Coconut7 #SaveTF2","steam_id":76561198977841836,"connected_time":1162000000000,"state":"active","ping":73},{"user_id":31,"name":"Mega Weebis","steam_id":76561198086808075,"connected_time":1129000000000,"state":"active","ping":76},{"user_id":46,"name":"FliturbiousRex","steam_id":76561199217583334,"connected_time":877000000000,"state":"active","ping":139},{"user_id":41,"name":"panakid","steam_id":76561198364121077,"connected_time":983000000000,"state":"active","ping":102},{"user_id":34,"name":"Sipsu","steam_id":76561198059424107,"connected_time":1058000000000,"state":"active","ping":81},{"user_id":35,"name":"Lee Harvey Oswald","steam_id":76561198263308943,"connected_time":1056000000000,"state":"active","ping":75},{"user_id":36,"name":"Lambdasmellta","steam_id":76561198085994156,"connected_time":1053000000000,"state":"active","ping":50},{"user_id":37,"name":"peso enjoyer","steam_id":76561198798177799,"connected_time":1042000000000,"state":"active","ping":87},{"user_id":58,"name":"–í–∞–¥–∏–º –ö–∞–∫–∞—à–∫–∏–Ω","steam_id":76561198383509320,"connected_time":150000000000,"state":"active","ping":79},{"user_id":55,"name":"maybe blw.tf","steam_id":76561199028670732,"connected_time":276000000000,"state":"active","ping":62},{"user_id":56,"name":"Cabbch","steam_id":76561198045955679,"connected_time":272000000000,"state":"active","ping":56},{"user_id":42,"name":"Corpus Christi","steam_id":76561198417999443,"connected_time":975000000000,"state":"active","ping":111},{"user_id":57,"name":"asko","steam_id":76561198081966620,"connected_time":265000000000,"state":"active","ping":90},{"user_id":48,"name":"triplet after triplet","steam_id":76561199014795224,"connected_time":829000000000,"state":"active","ping":72},{"user_id":47,"name":"zorze supreme.exe","steam_id":76561198996333022,"connected_time":874000000000,"state":"active","ping":66}]},{"server_id":22,"name":"Uncletopia | London | 6 | All Maps","name_short":"lon-6","host":"lon-1.uk.uncletopia.com","port":27065,"enabled":true,"region":"eu","cc":"gb","latitude":51.509865,"longitude":-0.118092,"reserved":0,"last_update":"0001-01-01T00:00:00Z","name_a2s":"Uncletopia | London | 6 | All Maps","protocol":17,"map":"pl_pier","folder":"tf","game":"Team Fortress","app_id":440,"player_count":24,"max_players":24,"Bots":0,"server_type":"Dedicated","server_os":"Linux","password":true,"vac":true,"version":"7882260","steam_id":85568392924742830,"keywords":["nocrits","nodmgspread","payload","uncletopia"],"game_id":440,"stv_port":27066,"stv_name":"Uncletopia | London | 6 | All Maps | STV","players":[{"user_id":356,"name":"Begone","steam_id":76561199093369711,"connected_time":1028000000000,"state":"active","ping":96},{"user_id":361,"name":"PennPal","steam_id":76561198218770197,"connected_time":671000000000,"state":"active","ping":47},{"user_id":368,"name":"Rusty Pickaxe Head","steam_id":76561198039254636,"connected_time":57000000000,"state":"spawning","ping":364},{"user_id":366,"name":"sumire.gg (inactive)","steam_id":76561198072250111,"connected_time":405000000000,"state":"active","ping":45},{"user_id":300,"name":"forsen","steam_id":76561197996468677,"connected_time":5599000000000,"state":"active","ping":60},{"user_id":326,"name":"Dr. Funkenstein","steam_id":76561197977816210,"connected_time":3043000000000,"state":"active","ping":53},{"user_id":335,"name":"Wildmoo","steam_id":76561198074478554,"connected_time":2447000000000,"state":"active","ping":147},{"user_id":369,"name":"Thors","steam_id":76561197968739075,"connected_time":56000000000,"state":"active","ping":38},{"user_id":363,"name":"Giga Chad","steam_id":76561198059785363,"connected_time":603000000000,"state":"active","ping":149},{"user_id":320,"name":"ARENTRIR","steam_id":76561198334126785,"connected_time":3442000000000,"state":"active","ping":72},{"user_id":358,"name":"DK | cosmetical","steam_id":76561198444036574,"connected_time":710000000000,"state":"active","ping":62},{"user_id":371,"name":"Laylakikio","steam_id":76561198090146457,"connected_time":25000000000,"state":"active","ping":76},{"user_id":240,"name":"morris33morris","steam_id":76561198196456242,"connected_time":10371000000000,"state":"active","ping":64},{"user_id":345,"name":"Benny Harvey RIP","steam_id":76561198386373871,"connected_time":1993000000000,"state":"active","ping":63},{"user_id":365,"name":"AleXandriX","steam_id":76561198035203950,"connected_time":440000000000,"state":"active","ping":64},{"user_id":367,"name":"ZophranTTV","steam_id":76561199275883765,"connected_time":350000000000,"state":"active","ping":55},{"user_id":268,"name":"hot guy","steam_id":76561198083063005,"connected_time":8166000000000,"state":"active","ping":35},{"user_id":364,"name":"romaingallo","steam_id":76561198268112907,"connected_time":598000000000,"state":"active","ping":65},{"user_id":372,"name":"try not to OD on zaza challenge","steam_id":76561198307037169,"connected_time":25000000000,"state":"active","ping":51},{"user_id":373,"name":"Banana Dispenser","steam_id":76561198446549451,"connected_time":24000000000,"state":"active","ping":186},{"user_id":357,"name":"snowycoast","steam_id":76561198346638308,"connected_time":874000000000,"state":"active","ping":55},{"user_id":329,"name":"VolcanicArts","steam_id":76561198063453246,"connected_time":2896000000000,"state":"active","ping":48},{"user_id":354,"name":"Mr.Schnittlauch","steam_id":76561198295868113,"connected_time":1150000000000,"state":"active","ping":74},{"user_id":360,"name":"eva.","steam_id":76561198054474684,"connected_time":709000000000,"state":"active","ping":76}]},{"server_id":40,"name":"Uncletopia | London | 7 | No Payload","name_short":"lon-7","host":"lon-1.uk.uncletopia.com","port":27075,"enabled":true,"region":"eu","cc":"gb","latitude":51.509865,"longitude":-0.118092,"reserved":0,"last_update":"0001-01-01T00:00:00Z","name_a2s":"Uncletopia | London | 7 | No Payload","protocol":17,"map":"plr_bananabay","folder":"tf","game":"Team Fortress","app_id":440,"player_count":24,"max_players":24,"Bots":0,"server_type":"Dedicated","server_os":"Linux","password":true,"vac":true,"version":"7882260","steam_id":85568392924964314,"keywords":["nocrits","nodmgspread","payload","uncletopia"],"game_id":440,"stv_port":27076,"stv_name":"Uncletopia | London | 7 | No Payload | STV","players":[{"user_id":288,"name":"IndigoJones","steam_id":76561198050284262,"connected_time":5452000000000,"state":"active","ping":47},{"user_id":385,"name":"futu","steam_id":76561199246725367,"connected_time":37000000000,"state":"spawning","ping":119},{"user_id":250,"name":"M2rtRa","steam_id":76561198111036466,"connected_time":8140000000000,"state":"active","ping":75},{"user_id":386,"name":"gumbo by MF DOOM","steam_id":76561199181821779,"connected_time":1000000000,"state":"spawning","ping":42},{"user_id":360,"name":"Arcweld","steam_id":76561198816060720,"connected_time":1100000000000,"state":"active","ping":61},{"user_id":21,"name":"Nyhde","steam_id":76561198012771416,"connected_time":22001000000000,"state":"active","ping":121},{"user_id":322,"name":"wheatley worshipper","steam_id":76561198883869325,"connected_time":3132000000000,"state":"active","ping":62},{"user_id":374,"name":"dogass","steam_id":76561199039212537,"connected_time":579000000000,"state":"active","ping":96},{"user_id":349,"name":"Aspartus","steam_id":76561198101385763,"connected_time":1610000000000,"state":"active","ping":44},{"user_id":378,"name":"zaleek69","steam_id":76561198058877595,"connected_time":344000000000,"state":"active","ping":77},{"user_id":344,"name":"WomenBeardLike","steam_id":76561198390184314,"connected_time":1790000000000,"state":"active","ping":58},{"user_id":362,"name":"JAZZ COMMANDO","steam_id":76561198031766068,"connected_time":1002000000000,"state":"active","ping":47},{"user_id":369,"name":"go play rimworld","steam_id":76561199397932924,"connected_time":706000000000,"state":"active","ping":76},{"user_id":383,"name":"Portal2Player","steam_id":76561198062870114,"connected_time":73000000000,"state":"active","ping":137},{"user_id":384,"name":"Minus273C","steam_id":76561197967510404,"connected_time":54000000000,"state":"active","ping":154},{"user_id":331,"name":"Shark","steam_id":76561198205226501,"connected_time":2402000000000,"state":"active","ping":162},{"user_id":361,"name":"jude","steam_id":76561198979036031,"connected_time":1072000000000,"state":"active","ping":56},{"user_id":375,"name":"Arthur","steam_id":76561198066109166,"connected_time":538000000000,"state":"active","ping":87},{"user_id":376,"name":"Ratimedes","steam_id":76561199083035892,"connected_time":507000000000,"state":"active","ping":179},{"user_id":379,"name":"cat,","steam_id":76561199050072230,"connected_time":318000000000,"state":"active","ping":60},{"user_id":346,"name":"raime","steam_id":76561198024903775,"connected_time":1759000000000,"state":"active","ping":98},{"user_id":380,"name":"Akira","steam_id":76561198323636432,"connected_time":268000000000,"state":"active","ping":69},{"user_id":382,"name":"elyas","steam_id":76561198964639269,"connected_time":222000000000,"state":"active","ping":164},{"user_id":357,"name":"Edgar","steam_id":76561198065255259,"connected_time":1258000000000,"state":"active","ping":70}]},{"server_id":41,"name":"Uncletopia | London | 8 | Community","name_short":"lon-8","host":"lon-1.uk.uncletopia.com","port":27085,"enabled":true,"region":"eu","cc":"gb","latitude":51.509865,"longitude":-0.118092,"reserved":0,"last_update":"0001-01-01T00:00:00Z","name_a2s":"Uncletopia | London | 8 | Community","protocol":17,"map":"workshop/koth_ramjam_rc1.ugc459778887","folder":"tf","game":"Team Fortress","app_id":440,"player_count":0,"max_players":24,"Bots":0,"server_type":"Dedicated","server_os":"Linux","password":true,"vac":true,"version":"7882260","steam_id":85568392924964315,"keywords":["cp","nocrits","nodmgspread","uncletopia"],"game_id":440,"stv_port":27086,"stv_name":"Uncletopia | London | 8 | Community | STV","players":null},{"server_id":300,"name":"Uncletopia | Montr√©al | 1 | All Maps","name_short":"mtl-1","host":"mtl-1.ca.uncletopia.com","port":27015,"enabled":true,"region":"us-east","cc":"ca","latitude":45.50889,"longitude":-73.56167,"reserved":0,"last_update":"0001-01-01T00:00:00Z","name_a2s":"Uncletopia | Montr√©al | 1 | All Maps","protocol":17,"map":"pl_snowycoast","folder":"tf","game":"Team Fortress","app_id":440,"player_count":0,"max_players":24,"Bots":0,"server_type":"Dedicated","server_os":"Linux","password":true,"vac":true,"version":"7882260","steam_id":85568392924500087,"keywords":["nocrits","nodmgspread","payload","uncletopia"],"game_id":440,"stv_port":27016,"stv_name":"Uncletopia | Montr√©al | 1 | All Maps | STV","players":null},{"server_id":301,"name":"Uncletopia | Montr√©al | 2 | All Maps","name_short":"mtl-2","host":"mtl-1.ca.uncletopia.com","port":27025,"enabled":true,"region":"us-east","cc":"ca","latitude":45.50889,"longitude":-73.56167,"reserved":0,"last_update":"0001-01-01T00:00:00Z","name_a2s":"Uncletopia | Montr√©al | 2 | All Maps","protocol":17,"map":"cp_sunshine","folder":"tf","game":"Team Fortress","app_id":440,"player_count":0,"max_players":24,"Bots":0,"server_type":"Dedicated","server_os":"Linux","password":true,"vac":true,"version":"7882260","steam_id":85568392924500088,"keywords":["cp","nocrits","nodmgspread","uncletopia"],"game_id":440,"stv_port":27026,"stv_name":"Uncletopia | Montr√©al | 2 | All Maps | STV","players":null},{"server_id":302,"name":"Uncletopia | Montr√©al | 3 | All Maps","name_short":"mtl-3","host":"mtl-1.ca.uncletopia.com","port":27035,"enabled":true,"region":"us-east","cc":"ca","latitude":45.50889,"longitude":-73.56167,"reserved":0,"last_update":"0001-01-01T00:00:00Z","name_a2s":"Uncletopia | Montr√©al | 3 | All Maps","protocol":17,"map":"pl_borneo","folder":"tf","game":"Team Fortress","app_id":440,"player_count":0,"max_players":24,"Bots":0,"server_type":"Dedicated","server_os":"Linux","password":true,"vac":true,"version":"7882260","steam_id":85568392924500089,"keywords":["nocrits","nodmgspread","payload","uncletopia"],"game_id":440,"stv_port":27036,"stv_name":"Uncletopia | Montr√©al | 3 | All Maps | STV","players":null},{"server_id":303,"name":"Uncletopia | Montr√©al | 4 | No Payload","name_short":"mtl-4","host":"mtl-1.ca.uncletopia.com","port":27045,"enabled":true,"region":"us-east","cc":"ca","latitude":45.50889,"longitude":-73.56167,"reserved":0,"last_update":"0001-01-01T00:00:00Z","name_a2s":"Uncletopia | Montr√©al | 4 | No Payload","protocol":17,"map":"cp_altitude","folder":"tf","game":"Team Fortress","app_id":440,"player_count":0,"max_players":24,"Bots":0,"server_type":"Dedicated","server_os":"Linux","password":true,"vac":true,"version":"7882260","steam_id":85568392924500090,"keywords":["cp","nocrits","nodmgspread","uncletopia"],"game_id":440,"stv_port":27046,"stv_name":"Uncletopia | Montr√©al | 4 | No Payload | STV","players":null},{"server_id":13,"name":"Uncletopia | New York City | 1 | All Maps","name_short":"nyc-1","host":"nyc-1.us.uncletopia.com","port":27015,"enabled":true,"region":"us-east","cc":"us","latitude":40.73061,"longitude":-73.93524,"reserved":0,"last_update":"0001-01-01T00:00:00Z","name_a2s":"Uncletopia | New York City | 1 | All Maps","protocol":17,"map":"pl_badwater","folder":"tf","game":"Team Fortress","app_id":440,"player_count":22,"max_players":24,"Bots":0,"server_type":"Dedicated","server_os":"Linux","password":true,"vac":true,"version":"7882260","steam_id":85568392924469993,"keywords":["nocrits","nodmgspread","payload","uncletopia"],"game_id":440,"stv_port":27016,"stv_name":"Uncletopia | New York City | 1 | All Maps | STV","players":[{"user_id":179,"name":"FATMAN....HOOVY","steam_id":76561198125277447,"connected_time":977000000000,"state":"active","ping":60},{"user_id":151,"name":"the_willy12","steam_id":76561199145029672,"connected_time":2229000000000,"state":"active","ping":73},{"user_id":181,"name":"minecraft","steam_id":76561198966980576,"connected_time":436000000000,"state":"active","ping":43},{"user_id":169,"name":"Jade","steam_id":76561199156753660,"connected_time":1567000000000,"state":"active","ping":74},{"user_id":171,"name":"-=|FYG|=- Mr. Generous","steam_id":76561198047350765,"connected_time":1517000000000,"state":"active","ping":49},{"user_id":177,"name":"Daemon","steam_id":76561198007015109,"connected_time":1434000000000,"state":"active","ping":115},{"user_id":76,"name":"Cherry.C","steam_id":76561198962500536,"connected_time":5204000000000,"state":"active","ping":64},{"user_id":175,"name":"‚ù§Flaxks‚ù§","steam_id":76561198410260447,"connected_time":1486000000000,"state":"active","ping":101},{"user_id":64,"name":"SHADY SWEATER SALESMAN","steam_id":76561198014616865,"connected_time":6072000000000,"state":"active","ping":47},{"user_id":182,"name":"Winter the Witchie | B-DAY","steam_id":76561198151971178,"connected_time":424000000000,"state":"active","ping":74},{"user_id":187,"name":"Kab","steam_id":76561198073503100,"connected_time":1000000000,"state":"spawning","ping":150},{"user_id":185,"name":"Heartgold","steam_id":76561199062592062,"connected_time":331000000000,"state":"active","ping":60},{"user_id":52,"name":"Rori","steam_id":76561198052582902,"connected_time":7845000000000,"state":"active","ping":44},{"user_id":135,"name":"RyInc","steam_id":76561198874261643,"connected_time":2753000000000,"state":"active","ping":55},{"user_id":180,"name":"rice white","steam_id":76561198320732910,"connected_time":953000000000,"state":"active","ping":62},{"user_id":144,"name":"Kirbs","steam_id":76561198970654800,"connected_time":2486000000000,"state":"active","ping":45},{"user_id":167,"name":"Anita Hanjaab","steam_id":76561199307270490,"connected_time":1785000000000,"state":"active","ping":65},{"user_id":79,"name":"bing","steam_id":76561198005160560,"connected_time":5044000000000,"state":"active","ping":71},{"user_id":186,"name":"Brown_Dream","steam_id":76561198975766145,"connected_time":14000000000,"state":"spawning","ping":62},{"user_id":174,"name":"literallyjasonx","steam_id":76561198835895387,"connected_time":1498000000000,"state":"active","ping":128},{"user_id":160,"name":"Possibly the Worst Player","steam_id":76561198410747552,"connected_time":2027000000000,"state":"active","ping":99},{"user_id":183,"name":"Leroy Brown","steam_id":76561198167271095,"connected_time":395000000000,"state":"active","ping":79}]},{"server_id":14,"name":"Uncletopia | New York City | 2 | All Maps","name_short":"nyc-2","host":"nyc-1.us.uncletopia.com","port":27025,"enabled":true,"region":"us-east","cc":"us","latitude":40.73061,"longitude":-73.93524,"reserved":0,"last_update":"0001-01-01T00:00:00Z","name_a2s":"Uncletopia | New York City | 2 | All Maps","protocol":17,"map":"koth_highpass","folder":"tf","game":"Team Fortress","app_id":440,"player_count":0,"max_players":24,"Bots":0,"server_type":"Dedicated","server_os":"Linux","password":true,"vac":true,"version":"7882260","steam_id":85568392924469994,"keywords":["cp","nocrits","nodmgspread","uncletopia"],"game_id":440,"stv_port":27026,"stv_name":"Uncletopia | New York City | 2 | All Maps | STV","players":null},{"server_id":15,"name":"Uncletopia | New York City | 3 | Stopwatch Beta","name_short":"nyc-3","host":"nyc-1.us.uncletopia.com","port":27035,"enabled":true,"region":"us-east","cc":"us","latitude":40.73061,"longitude":-73.93524,"reserved":0,"last_update":"0001-01-01T00:00:00Z","name_a2s":"Uncletopia | New York City | 3 | Stopwatch Beta","protocol":17,"map":"koth_lakeside_final","folder":"tf","game":"Team Fortress","app_id":440,"player_count":0,"max_players":24,"Bots":0,"server_type":"Dedicated","server_os":"Linux","password":true,"vac":true,"version":"7882260","steam_id":85568392924742820,"keywords":["cp","nocrits","nodmgspread","uncletopia"],"game_id":440,"stv_port":27036,"stv_name":"Uncletopia | New York City | 3 | Stopwatch Beta | STV","players":null},{"server_id":16,"name":"Uncletopia | New York City | 4 | Community","name_short":"nyc-4","host":"nyc-1.us.uncletopia.com","port":27045,"enabled":true,"region":"us-east","cc":"us","latitude":40.73061,"longitude":-73.93524,"reserved":0,"last_update":"0001-01-01T00:00:00Z","name_a2s":"Uncletopia | New York City | 4 | Community","protocol":17,"map":"pl_badwater","folder":"tf","game":"Team Fortress","app_id":440,"player_count":0,"max_players":24,"Bots":0,"server_type":"Dedicated","server_os":"Linux","password":true,"vac":true,"version":"7882260","steam_id":85568392924742821,"keywords":["nocrits","nodmgspread","payload","uncletopia"],"game_id":440,"stv_port":27046,"stv_name":"Uncletopia | New York City | 4 | Community | STV","players":null},{"server_id":142,"name":"Uncletopia | S√£o Paulo | 1 | All Maps","name_short":"sao-1","host":"sao-1.br.uncletopia.com","port":27015,"enabled":true,"region":"sa","cc":"br","latitude":-23.533773,"longitude":-46.62529,"reserved":0,"last_update":"0001-01-01T00:00:00Z","name_a2s":"Uncletopia | S√£o Paulo | 1 | All Maps","protocol":17,"map":"pl_pier","folder":"tf","game":"Team Fortress","app_id":440,"player_count":0,"max_players":24,"Bots":0,"server_type":"Dedicated","server_os":"Linux","password":true,"vac":true,"version":"7882260","steam_id":85568392924469996,"keywords":["nocrits","nodmgspread","payload","uncletopia"],"game_id":440,"stv_port":27016,"stv_name":"Uncletopia | S√£o Paulo | 1 | All Maps | STV","players":null},{"server_id":143,"name":"Uncletopia | S√£o Paulo | 2 | All Maps","name_short":"sao-2","host":"sao-2.br.uncletopia.com","port":27015,"enabled":true,"region":"sa","cc":"br","latitude":-23.533773,"longitude":-46.62529,"reserved":0,"last_update":"0001-01-01T00:00:00Z","name_a2s":"Uncletopia | S√£o Paulo | 2 | All Maps","protocol":17,"map":"pl_pier","folder":"tf","game":"Team Fortress","app_id":440,"player_count":0,"max_players":24,"Bots":0,"server_type":"Dedicated","server_os":"Linux","password":true,"vac":true,"version":"7882260","steam_id":85568392924485349,"keywords":["nocrits","nodmgspread","payload","uncletopia"],"game_id":440,"stv_port":27016,"stv_name":"Uncletopia | S√£o Paulo | 2 | All Maps | STV","players":null},{"server_id":7,"name":"Uncletopia | Seattle | 1 | All Maps","name_short":"sea-1","host":"sea-1.us.uncletopia.com","port":27015,"enabled":true,"region":"us-west","cc":"us","latitude":47.608013,"longitude":-122.33517,"reserved":0,"last_update":"0001-01-01T00:00:00Z","name_a2s":"Uncletopia | Seattle | 1 | All Maps","protocol":17,"map":"pl_badwater","folder":"tf","game":"Team Fortress","app_id":440,"player_count":1,"max_players":24,"Bots":0,"server_type":"Dedicated","server_os":"Linux","password":true,"vac":true,"version":"7882260","steam_id":85568392924469997,"keywords":["nocrits","nodmgspread","payload","uncletopia"],"game_id":440,"stv_port":27016,"stv_name":"Uncletopia | Seattle | 1 | All Maps | STV","players":[{"user_id":19,"name":"dust | she/it","steam_id":76561198045218909,"connected_time":76000000000,"state":"active","ping":38}]},{"server_id":119,"name":"Uncletopia | Seattle | 2 | All Maps","name_short":"sea-2","host":"sea-1.us.uncletopia.com","port":27025,"enabled":true,"region":"us-west","cc":"us","latitude":47.608013,"longitude":-122.33517,"reserved":0,"last_update":"0001-01-01T00:00:00Z","name_a2s":"Uncletopia | Seattle | 2 | All Maps","protocol":17,"map":"koth_highpass","folder":"tf","game":"Team Fortress","app_id":440,"player_count":0,"max_players":24,"Bots":0,"server_type":"Dedicated","server_os":"Linux","password":true,"vac":true,"version":"7882260","steam_id":85568392924469998,"keywords":["cp","nocrits","nodmgspread","uncletopia"],"game_id":440,"stv_port":27026,"stv_name":"Uncletopia | Seattle | 2 | All Maps | STV","players":null},{"server_id":406,"name":"Uncletopia | Seattle | 3 | Stopwatch Beta","name_short":"sea-3","host":"sea-1.us.uncletopia.com","port":27035,"enabled":true,"region":"us-west","cc":"us","latitude":47.608013,"longitude":-122.33517,"reserved":0,"last_update":"0001-01-01T00:00:00Z","name_a2s":"Uncletopia | Seattle | 3 | Stopwatch Beta","protocol":17,"map":"cp_mountainlab","folder":"tf","game":"Team Fortress","app_id":440,"player_count":0,"max_players":24,"Bots":0,"server_type":"Dedicated","server_os":"Linux","password":true,"vac":true,"version":"7882260","steam_id":85568392924515217,"keywords":["cp","nocrits","nodmgspread","uncletopia"],"game_id":440,"stv_port":27036,"stv_name":"Uncletopia | Seattle | 3 | Stopwatch Beta | STV","players":null},{"server_id":17,"name":"Uncletopia | San Francisco | 1 | All Maps","name_short":"sfo-1","host":"sfo-1.us.uncletopia.com","port":27015,"enabled":true,"region":"us-west","cc":"us","latitude":37.77397,"longitude":-122.4313,"reserved":0,"last_update":"0001-01-01T00:00:00Z","name_a2s":"Uncletopia | San Francisco | 1 | All Maps","protocol":17,"map":"pl_barnblitz","folder":"tf","game":"Team Fortress","app_id":440,"player_count":0,"max_players":24,"Bots":0,"server_type":"Dedicated","server_os":"Linux","password":true,"vac":true,"version":"7882260","steam_id":85568392924469999,"keywords":["nocrits","nodmgspread","payload","uncletopia"],"game_id":440,"stv_port":27016,"stv_name":"Uncletopia | San Francisco | 1 | All Maps | STV","players":null},{"server_id":18,"name":"Uncletopia | San Francisco | 2 | All Maps","name_short":"sfo-2","host":"sfo-1.us.uncletopia.com","port":27025,"enabled":true,"region":"us-west","cc":"us","latitude":37.77397,"longitude":-122.4313,"reserved":0,"last_update":"0001-01-01T00:00:00Z","name_a2s":"Uncletopia | San Francisco | 2 | All Maps","protocol":17,"map":"pl_swiftwater_final1","folder":"tf","game":"Team Fortress","app_id":440,"player_count":0,"max_players":24,"Bots":0,"server_type":"Dedicated","server_os":"Linux","password":true,"vac":true,"version":"7882260","steam_id":85568392924470000,"keywords":["nocrits","nodmgspread","payload","uncletopia"],"game_id":440,"stv_port":27026,"stv_name":"Uncletopia | San Francisco | 2 | All Maps | STV","players":null},{"server_id":19,"name":"Uncletopia | San Francisco | 3 | Stopwatch Beta","name_short":"sfo-3","host":"sfo-1.us.uncletopia.com","port":27035,"enabled":true,"region":"us-west","cc":"us","latitude":37.77397,"longitude":-122.4313,"reserved":0,"last_update":"0001-01-01T00:00:00Z","name_a2s":"Uncletopia | San Francisco | 3 | Stopwatch Beta","protocol":17,"map":"pl_frontier_final","folder":"tf","game":"Team Fortress","app_id":440,"player_count":0,"max_players":24,"Bots":0,"server_type":"Dedicated","server_os":"Linux","password":true,"vac":true,"version":"7882260","steam_id":85568392924742824,"keywords":["nocrits","nodmgspread","payload","uncletopia"],"game_id":440,"stv_port":27036,"stv_name":"Uncletopia | San Francisco | 3 | Stopwatch Beta | STV","players":null},{"server_id":20,"name":"Uncletopia | San Francisco | 4 | Community","name_short":"sfo-4","host":"sfo-1.us.uncletopia.com","port":27045,"enabled":true,"region":"us-west","cc":"us","latitude":37.77397,"longitude":-122.4313,"reserved":0,"last_update":"0001-01-01T00:00:00Z","name_a2s":"Uncletopia | San Francisco | 4 | Community","protocol":17,"map":"cp_process_final","folder":"tf","game":"Team Fortress","app_id":440,"player_count":0,"max_players":24,"Bots":0,"server_type":"Dedicated","server_os":"Linux","password":true,"vac":true,"version":"7882260","steam_id":85568392924742826,"keywords":["cp","nocrits","nodmgspread","uncletopia"],"game_id":440,"stv_port":27046,"stv_name":"Uncletopia | San Francisco | 4 | Community | STV","players":null},{"server_id":141,"name":"Uncletopia | Sydney | 1 | All Maps","name_short":"syd-1","host":"syd-1.au.uncletopia.com","port":27015,"enabled":true,"region":"au","cc":"au","latitude":-33.865143,"longitude":151.2099,"reserved":0,"last_update":"0001-01-01T00:00:00Z","name_a2s":"Uncletopia | Sydney | 1 | All Maps","protocol":17,"map":"cp_snakewater_final1","folder":"tf","game":"Team Fortress","app_id":440,"player_count":16,"max_players":24,"Bots":0,"server_type":"Dedicated","server_os":"Linux","password":true,"vac":true,"version":"7882260","steam_id":85568392924470001,"keywords":["cp","nocrits","nodmgspread","uncletopia"],"game_id":440,"stv_port":27016,"stv_name":"Uncletopia | Sydney | 1 | All Maps | STV","players":[{"user_id":400,"name":"Bigrichard","steam_id":76561198032092945,"connected_time":4796000000000,"state":"active","ping":75},{"user_id":435,"name":"Illusion^","steam_id":76561198289641851,"connected_time":2741000000000,"state":"active","ping":59},{"user_id":498,"name":"Cafe","steam_id":76561198061587693,"connected_time":110000000000,"state":"active","ping":93},{"user_id":361,"name":"Don't Touch My Fries!","steam_id":76561198337147897,"connected_time":6701000000000,"state":"active","ping":74},{"user_id":482,"name":"Treble Sketch","steam_id":76561198128286643,"connected_time":963000000000,"state":"active","ping":72},{"user_id":499,"name":"Soru","steam_id":76561198010844786,"connected_time":65000000000,"state":"active","ping":60},{"user_id":402,"name":"The Heavynator‚Ñ¢","steam_id":76561198030045769,"connected_time":4733000000000,"state":"active","ping":73},{"user_id":476,"name":"Gort","steam_id":76561198967244552,"connected_time":1304000000000,"state":"active","ping":45},{"user_id":493,"name":"Sleepy Minty","steam_id":76561198993630827,"connected_time":470000000000,"state":"active","ping":99},{"user_id":489,"name":"lemon","steam_id":76561198140388861,"connected_time":632000000000,"state":"active","ping":101},{"user_id":431,"name":"Marmalade Cat","steam_id":76561198086309767,"connected_time":3446000000000,"state":"active","ping":66},{"user_id":441,"name":"Sarexicus","steam_id":76561198065823350,"connected_time":2580000000000,"state":"active","ping":68},{"user_id":442,"name":"MythicRanger","steam_id":76561198139093428,"connected_time":2577000000000,"state":"active","ping":76},{"user_id":474,"name":"Qwertles","steam_id":76561198033779273,"connected_time":1437000000000,"state":"active","ping":57},{"user_id":491,"name":"Dizza","steam_id":76561198245589254,"connected_time":608000000000,"state":"active","ping":94},{"user_id":492,"name":"thog","steam_id":76561198186010262,"connected_time":594000000000,"state":"active","ping":99}]},{"server_id":123,"name":"Uncletopia | Sydney | 2 | All Maps","name_short":"syd-2","host":"syd-1.au.uncletopia.com","port":27025,"enabled":true,"region":"au","cc":"au","latitude":-33.865143,"longitude":151.2099,"reserved":0,"last_update":"0001-01-01T00:00:00Z","name_a2s":"Uncletopia | Sydney | 2 | All Maps","protocol":17,"map":"cp_sunshine","folder":"tf","game":"Team Fortress","app_id":440,"player_count":0,"max_players":24,"Bots":0,"server_type":"Dedicated","server_os":"Linux","password":true,"vac":true,"version":"7882260","steam_id":85568392924470002,"keywords":["cp","nocrits","nodmgspread","uncletopia"],"game_id":440,"stv_port":27026,"stv_name":"Uncletopia | Sydney | 2 | All Maps | STV","players":null},{"server_id":395,"name":"Uncletopia | Sydney | 3 | All Maps","name_short":"syd-3","host":"syd-1.au.uncletopia.com","port":27035,"enabled":true,"region":"au","cc":"au","latitude":-33.865143,"longitude":151.2099,"reserved":0,"last_update":"0001-01-01T00:00:00Z","name_a2s":"Uncletopia | Sydney | 3 | All Maps","protocol":17,"map":"koth_viaduct","folder":"tf","game":"Team Fortress","app_id":440,"player_count":0,"max_players":24,"Bots":0,"server_type":"Dedicated","server_os":"Linux","password":true,"vac":true,"version":"7882260","steam_id":85568392925194467,"keywords":["cp","nocrits","nodmgspread","uncletopia"],"game_id":440,"stv_port":27036,"stv_name":"Uncletopia | Sydney | 3 | All Maps | STV","players":null},{"server_id":396,"name":"Uncletopia | Sydney | 4 | All Maps","name_short":"syd-4","host":"syd-1.au.uncletopia.com","port":27045,"enabled":true,"region":"au","cc":"au","latitude":-33.865143,"longitude":151.2099,"reserved":0,"last_update":"0001-01-01T00:00:00Z","name_a2s":"Uncletopia | Sydney | 4 | All Maps","protocol":17,"map":"koth_highpass","folder":"tf","game":"Team Fortress","app_id":440,"player_count":0,"max_players":24,"Bots":0,"server_type":"Dedicated","server_os":"Linux","password":true,"vac":true,"version":"7882260","steam_id":85568392925397958,"keywords":["cp","nocrits","nodmgspread","uncletopia"],"game_id":440,"stv_port":27046,"stv_name":"Uncletopia | Sydney | 4 | All Maps | STV","players":null},{"server_id":58,"name":"Uncletopia | Sydney | 5 | Stopwatch Beta","name_short":"syd-5","host":"syd-1.au.uncletopia.com","port":27055,"enabled":true,"region":"au","cc":"au","latitude":-33.865143,"longitude":151.2099,"reserved":0,"last_update":"0001-01-01T00:00:00Z","name_a2s":"Uncletopia | Sydney | 5 | Stopwatch Beta","protocol":17,"map":"koth_highpass","folder":"tf","game":"Team Fortress","app_id":440,"player_count":0,"max_players":24,"Bots":0,"server_type":"Dedicated","server_os":"Linux","password":true,"vac":true,"version":"7882260","steam_id":85568392925397959,"keywords":["cp","nocrits","nodmgspread","uncletopia"],"game_id":440,"stv_port":27056,"stv_name":"Uncletopia | Sydney | 5 | Stopwatch Beta | STV","players":null},{"server_id":59,"name":"Uncletopia | Sydney | 6 | Community","name_short":"syd-6","host":"syd-1.au.uncletopia.com","port":27065,"enabled":true,"region":"au","cc":"au","latitude":-33.865143,"longitude":151.2099,"reserved":0,"last_update":"0001-01-01T00:00:00Z","name_a2s":"Uncletopia | Sydney | 6 | Community","protocol":17,"map":"workshop/koth_product_final.ugc454272353","folder":"tf","game":"Team Fortress","app_id":440,"player_count":0,"max_players":24,"Bots":0,"server_type":"Dedicated","server_os":"Linux","password":true,"vac":true,"version":"7882260","steam_id":85568392925397960,"keywords":["cp","nocrits","nodmgspread","uncletopia"],"game_id":440,"stv_port":27066,"stv_name":"Uncletopia | Sydney | 6 | Community | STV","players":null},{"server_id":49,"name":"Uncletopia | Warsaw | 1 | All Maps","name_short":"waw-1","host":"waw-1.pl.uncletopia.com","port":27015,"enabled":true,"region":"eu","cc":"pl","latitude":52.2297,"longitude":21.017532,"reserved":0,"last_update":"0001-01-01T00:00:00Z","name_a2s":"","protocol":0,"map":"","folder":"","game":"","app_id":0,"player_count":0,"max_players":0,"Bots":0,"server_type":"","server_os":"","password":false,"vac":false,"version":"","steam_id":0,"keywords":null,"game_id":0,"stv_port":0,"stv_name":"","players":null},{"server_id":50,"name":"Uncletopia | Warsaw | 2 | All Maps","name_short":"waw-2","host":"waw-1.pl.uncletopia.com","port":27025,"enabled":true,"region":"eu","cc":"pl","latitude":52.2297,"longitude":21.017532,"reserved":0,"last_update":"0001-01-01T00:00:00Z","name_a2s":"Uncletopia | Warsaw | 2 | All Maps","protocol":17,"map":"pl_upward","folder":"tf","game":"Team Fortress","app_id":440,"player_count":0,"max_players":24,"Bots":0,"server_type":"Dedicated","server_os":"Linux","password":true,"vac":true,"version":"7882260","steam_id":85568392925397851,"keywords":["nocrits","nodmgspread","payload","uncletopia"],"game_id":440,"stv_port":27026,"stv_name":"Uncletopia | Warsaw | 2 | All Maps | STV","players":null},{"server_id":51,"name":"Uncletopia | Warsaw | 3 | All Maps","name_short":"waw-3","host":"waw-1.pl.uncletopia.com","port":27035,"enabled":true,"region":"eu","cc":"pl","latitude":52.2297,"longitude":21.017532,"reserved":0,"last_update":"0001-01-01T00:00:00Z","name_a2s":"Uncletopia | Warsaw | 3 | All Maps","protocol":17,"map":"koth_viaduct","folder":"tf","game":"Team Fortress","app_id":440,"player_count":0,"max_players":24,"Bots":0,"server_type":"Dedicated","server_os":"Linux","password":true,"vac":true,"version":"7882260","steam_id":85568392925397852,"keywords":["cp","nocrits","nodmgspread","uncletopia"],"game_id":440,"stv_port":27036,"stv_name":"Uncletopia | Warsaw | 3 | All Maps | STV","players":null},{"server_id":52,"name":"Uncletopia | Warsaw | 4 | All Maps","name_short":"waw-4","host":"waw-1.pl.uncletopia.com","port":27045,"enabled":true,"region":"eu","cc":"pl","latitude":52.2297,"longitude":21.017532,"reserved":0,"last_update":"0001-01-01T00:00:00Z","name_a2s":"Uncletopia | Warsaw | 4 | All Maps","protocol":17,"map":"koth_highpass","folder":"tf","game":"Team Fortress","app_id":440,"player_count":0,"max_players":24,"Bots":0,"server_type":"Dedicated","server_os":"Linux","password":true,"vac":true,"version":"7882260","steam_id":85568392925397853,"keywords":["cp","nocrits","nodmgspread","uncletopia"],"game_id":440,"stv_port":27046,"stv_name":"Uncletopia | Warsaw | 4 | All Maps | STV","players":null},{"server_id":53,"name":"Uncletopia | Warsaw | 5 | Stopwatch Beta","name_short":"waw-5","host":"waw-1.pl.uncletopia.com","port":27055,"enabled":true,"region":"eu","cc":"pl","latitude":52.2297,"longitude":21.017532,"reserved":0,"last_update":"0001-01-01T00:00:00Z","name_a2s":"Uncletopia | Warsaw | 5 | Stopwatch Beta","protocol":17,"map":"cp_mountainlab","folder":"tf","game":"Team Fortress","app_id":440,"player_count":0,"max_players":24,"Bots":0,"server_type":"Dedicated","server_os":"Linux","password":true,"vac":true,"version":"7882260","steam_id":85568392925397854,"keywords":["cp","nocrits","nodmgspread","uncletopia"],"game_id":440,"stv_port":27056,"stv_name":"Uncletopia | Warsaw | 5 | Stopwatch Beta | STV","players":null},{"server_id":54,"name":"Uncletopia | Warsaw | 6 | Community","name_short":"waw-6","host":"waw-1.pl.uncletopia.com","port":27065,"enabled":true,"region":"eu","cc":"pl","latitude":52.2297,"longitude":21.017532,"reserved":0,"last_update":"0001-01-01T00:00:00Z","name_a2s":"Uncletopia | Warsaw | 6 | Community","protocol":17,"map":"koth_viaduct","folder":"tf","game":"Team Fortress","app_id":440,"player_count":0,"max_players":24,"Bots":0,"server_type":"Dedicated","server_os":"Linux","password":true,"vac":true,"version":"7882260","steam_id":85568392925397856,"keywords":["cp","nocrits","nodmgspread","uncletopia"],"game_id":440,"stv_port":27066,"stv_name":"Uncletopia | Warsaw | 6 | Community | STV","players":null}]}