{"status":true,"message":"","result":[{"server_id":9,"name":"Uncletopia | Atlanta | 1 | All Maps","name_short":"atl-1","host":"atl-1.us.uncletopia.com","port":27015,"enabled":true,"region":"us-east","cc":"us","latitude":33.753746,"longitude":-84.38633,"reserved":0,"last_update":"0001-01-01T00:00:00Z","name_a2s":"Uncletopia | Atlanta | 1 | All Maps","protocol":17,"map":"pl_pier","folder":"tf","game":"Team Fortress","app_id":440,"player_count":24,"max_players":24,"Bots":0,"server_type":"Dedicated","server_os":"Linux","password":true,"vac":true,"version":"7882260","steam_id":85568392924469982,"keywords":["nocrits","nodmgspread","payload","uncletopia"],"game_id":440,"stv_port":27016,"stv_name":"Uncletopia | Atlanta | 1 | All Maps | STV","players":[{"user_id":668,"name":"The Blind People","steam_id":76561198008387855,"connected_time":4459000000000,"state":"active","ping":47},{"user_id":619,"name":"Monkey Mode","steam_id":76561197961267543,"connected_time":8868000000000,"state":"active","ping":59},{"user_id":704,"name":"plantera04","steam_id":76561198154964370,"connected_time":1166000000000,"state":"active","ping":93},{"user_id":656,"name":"gamerroo","steam_id":76561199065347643,"connected_time":6017000000000,"state":"active","ping":69},{"user_id":660,"name":"Franz","steam_id":76561198041929745,"connected_time":5338000000000,"state":"active","ping":106},{"user_id":708,"name":"emily","steam_id":76561198148132163,"connected_time":632000000000,"state":"active","ping":88},{"user_id":678,"name":"J O S H¬≥¬≤","steam_id":76561198122603779,"connected_time":3867000000000,"state":"active","ping":126},{"user_id":663,"name":"no longer sober jack","steam_id":76561198307012859,"connected_time":5177000000000,"state":"active","ping":92},{"user_id":693,"name":"paetho YT","steam_id":76561198152690003,"connected_time":2233000000000,"state":"active","ping":45},{"user_id":713,"name":"ü§®","steam_id":76561199365672047,"connected_time":201000000000,"state":"active","ping":84},{"user_id":699,"name":"G6 habib","steam_id":76561198053621664,"connected_time":1802000000000,"state":"active","ping":74},{"user_id":700,"name":"Metapod","steam_id":76561198008725465,"connected_time":1770000000000,"state":"active","ping":85},{"user_id":690,"name":"Devon","steam_id":76561198151801996,"connected_time":2286000000000,"state":"active","ping":62},{"user_id":680,"name":"Yoloisnotded","steam_id":76561198995043589,"connected_time":3766000000000,"state":"active","ping":85},{"user_id":681,"name":"-=|FYG|=- Mr. Generous","steam_id":76561198047350765,"connected_time":3691000000000,"state":"active","ping":108},{"user_id":710,"name":"charm quark","steam_id":76561198098770777,"connected_time":377000000000,"state":"active","ping":113},{"user_id":664,"name":"highschool drop-out","steam_id":76561198366299848,"connected_time":5156000000000,"state":"active","ping":58},{"user_id":673,"name":"DuckMann","steam_id":76561198197058638,"connected_time":4289000000000,"state":"active","ping":45},{"user_id":671,"name":"robot","steam_id":76561198018691308,"connected_time":4398000000000,"state":"active","ping":88},{"user_id":712,"name":"FuzzyOsoVEVO","steam_id":76561198197530561,"connected_time":261000000000,"state":"active","ping":86},{"user_id":701,"name":"p","steam_id":76561198145759044,"connected_time":1556000000000,"state":"active","ping":69},{"user_id":665,"name":"bkiller","steam_id":76561198029265697,"connected_time":5016000000000,"state":"active","ping":65},{"user_id":705,"name":"Communist Zobomafoo","steam_id":76561198068173978,"connected_time":1110000000000,"state":"active","ping":95},{"user_id":600,"name":"Onyx","steam_id":76561198275349640,"connected_time":11285000000000,"state":"active","ping":80}]},{"server_id":104,"name":"Uncletopia | Atlanta | 2 | All Maps","name_short":"atl-2","host":"atl-1.us.uncletopia.com","port":27025,"enabled":true,"region":"us-east","cc":"us","latitude":33.753746,"longitude":-84.38633,"reserved":0,"last_update":"0001-01-01T00:00:00Z","name_a2s":"Uncletopia | Atlanta | 2 | All Maps","protocol":17,"map":"pl_badwater","folder":"tf","game":"Team Fortress","app_id":440,"player_count":24,"max_players":24,"Bots":0,"server_type":"Dedicated","server_os":"Linux","password":true,"vac":true,"version":"7882260","steam_id":85568392924469983,"keywords":["nocrits","nodmgspread","payload","uncletopia"],"game_id":440,"stv_port":27026,"stv_name":"Uncletopia | Atlanta | 2 | All Maps | STV","players":[{"user_id":575,"name":"Joe","steam_id":76561198013829050,"connected_time":4813000000000,"state":"active","ping":60},{"user_id":589,"name":"BooceMaster","steam_id":76561198148520318,"connected_time":3343000000000,"state":"active","ping":76},{"user_id":630,"name":"can you don't","steam_id":76561198070477953,"connected_time":284000000000,"state":"active","ping":84},{"user_id":616,"name":"Interesting Man","steam_id":76561197991322325,"connected_time":1465000000000,"state":"active","ping":75},{"user_id":629,"name":"Master Of Whales","steam_id":76561198349104889,"connected_time":327000000000,"state":"active","ping":122},{"user_id":608,"name":"SteveC","steam_id":76561197994786195,"connected_time":2066000000000,"state":"active","ping":60},{"user_id":597,"name":"Keb","steam_id":76561198095467734,"connected_time":3141000000000,"state":"active","ping":76},{"user_id":591,"name":"Sableye","steam_id":76561198061247147,"connected_time":3329000000000,"state":"active","ping":65},{"user_id":612,"name":"drako","steam_id":76561198133024493,"connected_time":1919000000000,"state":"active","ping":84},{"user_id":628,"name":"loonce119","steam_id":76561198886240696,"connected_time":369000000000,"state":"active","ping":37},{"user_id":568,"name":"A MULTI CAR PILEUP","steam_id":76561198051421643,"connected_time":5116000000000,"state":"active","ping":49},{"user_id":592,"name":"exten-z","steam_id":76561198004359190,"connected_time":3305000000000,"state":"active","ping":47},{"user_id":620,"name":"ae","steam_id":76561198185490827,"connected_time":768000000000,"state":"active","ping":86},{"user_id":594,"name":"Roller Rizzo","steam_id":76561197999478769,"connected_time":3231000000000,"state":"active","ping":91},{"user_id":579,"name":"Yongle","steam_id":76561198068591156,"connected_time":4240000000000,"state":"active","ping":72},{"user_id":631,"name":"Oppresed_Gamer","steam_id":76561198306263040,"connected_time":114000000000,"state":"active","ping":57},{"user_id":606,"name":"Aniz","steam_id":76561199226665024,"connected_time":2366000000000,"state":"active","ping":158},{"user_id":605,"name":"RainboomCrash","steam_id":76561198065612273,"connected_time":2489000000000,"state":"active","ping":119},{"user_id":622,"name":"BL00DFUCKER1","steam_id":76561198085036623,"connected_time":666000000000,"state":"active","ping":90},{"user_id":617,"name":"Gin","steam_id":76561198084933957,"connected_time":1052000000000,"state":"active","ping":65},{"user_id":623,"name":"MutedSparrow","steam_id":76561199064848240,"connected_time":663000000000,"state":"active","ping":59},{"user_id":632,"name":"cinnanox","steam_id":76561198999803404,"connected_time":107000000000,"state":"active","ping":73},{"user_id":600,"name":"Large Crawdad","steam_id":76561198813668596,"connected_time":3110000000000,"state":"active","ping":85},{"user_id":610,"name":"Mr. Dick‚Ñ¢","steam_id":76561198047309044,"connected_time":2055000000000,"state":"active","ping":45}]},{"server_id":400,"name":"Uncletopia | Atlanta | 3 | Community","name_short":"atl-3","host":"atl-1.us.uncletopia.com","port":27035,"enabled":true,"region":"us-east","cc":"us","latitude":33.753746,"longitude":-84.38633,"reserved":0,"last_update":"0001-01-01T00:00:00Z","name_a2s":"Uncletopia | Atlanta | 3 | Community","protocol":17,"map":"workshop/cp_logjam_rc12.ugc454812035","folder":"tf","game":"Team Fortress","app_id":440,"player_count":17,"max_players":24,"Bots":0,"server_type":"Dedicated","server_os":"Linux","password":true,"vac":true,"version":"7882260","steam_id":85568392924515187,"keywords":["cp","nocrits","nodmgspread","uncletopia"],"game_id":440,"stv_port":27036,"stv_name":"Uncletopia | Atlanta | 3 | Community | STV","players":[{"user_id":274,"name":"NyanHorses","steam_id":76561198161584966,"connected_time":4156000000000,"state":"active","ping":60},{"user_id":275,"name":"redbrite","steam_id":76561198389370871,"connected_time":4140000000000,"state":"active","ping":138},{"user_id":326,"name":"Etzel","steam_id":76561198123309120,"connected_time":549000000000,"state":"active","ping":75},{"user_id":329,"name":"C O M F Y","steam_id":76561198072101210,"connected_time":35000000000,"state":"active","ping":219},{"user_id":308,"name":"bepis","steam_id":76561198043579703,"connected_time":1964000000000,"state":"active","ping":58},{"user_id":319,"name":"Walmart Employee","steam_id":76561198840373909,"connected_time":1145000000000,"state":"active","ping":71},{"user_id":322,"name":"realfakegamerboy","steam_id":76561198054390505,"connected_time":902000000000,"state":"active","ping":75},{"user_id":258,"name":"Black Chan","steam_id":76561198053355299,"connected_time":4972000000000,"state":"active","ping":140},{"user_id":325,"name":"A Puppy","steam_id":76561198828184456,"connected_time":579000000000,"state":"active","ping":46},{"user_id":327,"name":"Shrep","steam_id":76561198127341481,"connected_time":535000000000,"state":"active","ping":75},{"user_id":309,"name":"Hatfam","steam_id":76561199192629036,"connected_time":1885000000000,"state":"active","ping":115},{"user_id":311,"name":"Jesse Bear","steam_id":76561198217075305,"connected_time":1857000000000,"state":"active","ping":88},{"user_id":321,"name":"EdxTheFig","steam_id":76561198108650109,"connected_time":1022000000000,"state":"active","ping":102},{"user_id":323,"name":"euphoricfilth (it/her)","steam_id":76561198100160865,"connected_time":847000000000,"state":"active","ping":58},{"user_id":300,"name":"kree","steam_id":76561197979960008,"connected_time":2762000000000,"state":"active","ping":74},{"user_id":297,"name":"Fightin Cow","steam_id":76561198080941486,"connected_time":2845000000000,"state":"active","ping":83},{"user_id":305,"name":"Pimastr","steam_id":76561198230996464,"connected_time":2264000000000,"state":"active","ping":104}]},{"server_id":401,"name":"Uncletopia | Atlanta | 4 | No Payload","name_short":"atl-4","host":"atl-1.us.uncletopia.com","port":27045,"enabled":true,"region":"us-east","cc":"us","latitude":33.753746,"longitude":-84.38633,"reserved":0,"last_update":"0001-01-01T00:00:00Z","name_a2s":"","protocol":0,"map":"","folder":"","game":"","app_id":0,"player_count":0,"max_players":0,"Bots":0,"server_type":"","server_os":"","password":false,"vac":false,"version":"","steam_id":0,"keywords":null,"game_id":0,"stv_port":0,"stv_name":"","players":null},{"server_id":2,"name":"Uncletopia | Chicago | 1 | All Maps","name_short":"chi-1","host":"chi-1.us.uncletopia.com","port":27015,"enabled":true,"region":"us-central","cc":"us","latitude":41.881832,"longitude":-87.62318,"reserved":0,"last_update":"0001-01-01T00:00:00Z","name_a2s":"Uncletopia | Chicago | 1 | All Maps","protocol":17,"map":"pl_pier","folder":"tf","game":"Team Fortress","app_id":440,"player_count":23,"max_players":24,"Bots":0,"server_type":"Dedicated","server_os":"Linux","password":true,"vac":true,"version":"7882260","steam_id":85568392924469984,"keywords":["nocrits","nodmgspread","payload","uncletopia"],"game_id":440,"stv_port":27016,"stv_name":"Uncletopia | Chicago | 1 | All Maps | STV","players":[{"user_id":590,"name":"Wintlock","steam_id":76561198439106448,"connected_time":252000000000,"state":"active","ping":73},{"user_id":592,"name":"Fattacolion","steam_id":76561198862445474,"connected_time":132000000000,"state":"active","ping":115},{"user_id":566,"name":"Poyo Boyo","steam_id":76561198010201227,"connected_time":1759000000000,"state":"active","ping":171},{"user_id":591,"name":"Praise_to_the_Flashlight!","steam_id":76561199001728789,"connected_time":169000000000,"state":"active","ping":49},{"user_id":588,"name":"Wizard Raccoon","steam_id":76561198072562591,"connected_time":775000000000,"state":"active","ping":84},{"user_id":593,"name":"fuqqin exquze me?","steam_id":76561199305518744,"connected_time":90000000000,"state":"active","ping":91},{"user_id":561,"name":"Saucy Boy","steam_id":76561198178332031,"connected_time":2246000000000,"state":"active","ping":70},{"user_id":580,"name":"Homeslice","steam_id":76561198397250503,"connected_time":1198000000000,"state":"active","ping":45},{"user_id":563,"name":"Ferguson","steam_id":76561198121349387,"connected_time":1803000000000,"state":"active","ping":56},{"user_id":594,"name":"hammy","steam_id":76561198850899562,"connected_time":75000000000,"state":"active","ping":83},{"user_id":595,"name":"goblino","steam_id":76561198068260422,"connected_time":62000000000,"state":"active","ping":47},{"user_id":596,"name":"Marshall","steam_id":76561198042570322,"connected_time":58000000000,"state":"active","ping":55},{"user_id":559,"name":"Renecup","steam_id":76561199021666883,"connected_time":2581000000000,"state":"active","ping":58},{"user_id":587,"name":"Kingclinton1","steam_id":76561198052956772,"connected_time":959000000000,"state":"active","ping":76},{"user_id":597,"name":"Project_Counter","steam_id":76561198152786076,"connected_time":23000000000,"state":"active","ping":77},{"user_id":586,"name":"GimliLOTR","steam_id":76561198163746000,"connected_time":992000000000,"state":"active","ping":79},{"user_id":554,"name":"Local","steam_id":76561198069537437,"connected_time":2911000000000,"state":"active","ping":105},{"user_id":574,"name":"Tyco","steam_id":76561197978414167,"connected_time":1471000000000,"state":"active","ping":75},{"user_id":598,"name":"Makina","steam_id":76561198057475567,"connected_time":9000000000,"state":"spawning","ping":57},{"user_id":546,"name":"Rick Yeti","steam_id":76561198025462553,"connected_time":3816000000000,"state":"active","ping":77},{"user_id":599,"name":"Rain","steam_id":76561198123437878,"connected_time":7000000000,"state":"spawning","ping":74},{"user_id":600,"name":"Sozeash","steam_id":76561198207795512,"connected_time":6000000000,"state":"spawning","ping":83},{"user_id":576,"name":"123","steam_id":76561198106308056,"connected_time":1429000000000,"state":"active","ping":105}]},{"server_id":106,"name":"Uncletopia | Chicago | 2 | All Maps","name_short":"chi-2","host":"chi-1.us.uncletopia.com","port":27025,"enabled":true,"region":"us-central","cc":"us","latitude":41.881832,"longitude":-87.62318,"reserved":0,"last_update":"0001-01-01T00:00:00Z","name_a2s":"Uncletopia | Chicago | 2 | All Maps","protocol":17,"map":"pl_snowycoast","folder":"tf","game":"Team Fortress","app_id":440,"player_count":1,"max_players":24,"Bots":0,"server_type":"Dedicated","server_os":"Linux","password":true,"vac":true,"version":"7882260","steam_id":85568392924469985,"keywords":["nocrits","nodmgspread","payload","uncletopia"],"game_id":440,"stv_port":27026,"stv_name":"Uncletopia | Chicago | 2 | All Maps | STV","players":[{"user_id":392,"name":"SunNc","steam_id":76561198097711843,"connected_time":6735000000000,"state":"active","ping":109}]},{"server_id":402,"name":"Uncletopia | Chicago | 3 | All Maps","name_short":"chi-3","host":"chi-1.us.uncletopia.com","port":27035,"enabled":true,"region":"us-central","cc":"us","latitude":41.881832,"longitude":-87.62318,"reserved":0,"last_update":"0001-01-01T00:00:00Z","name_a2s":"Uncletopia | Chicago | 3 | All Maps","protocol":17,"map":"pl_pier","folder":"tf","game":"Team Fortress","app_id":440,"player_count":24,"max_players":24,"Bots":0,"server_type":"Dedicated","server_os":"Linux","password":true,"vac":true,"version":"7882260","steam_id":85568392924515191,"keywords":["nocrits","nodmgspread","payload","uncletopia"],"game_id":440,"stv_port":27036,"stv_name":"Uncletopia | Chicago | 3 | All Maps | STV","players":[{"user_id":642,"name":"playing tf2 in a van?","steam_id":76561198380018244,"connected_time":59000000000,"state":"active","ping":73},{"user_id":609,"name":"Tuturubis","steam_id":76561198808900611,"connected_time":2688000000000,"state":"active","ping":75},{"user_id":615,"name":"BigDeac","steam_id":76561198091237274,"connected_time":1766000000000,"state":"active","ping":54},{"user_id":614,"name":"noah","steam_id":76561198173310157,"connected_time":1854000000000,"state":"active","ping":57},{"user_id":618,"name":"Mr. Soupman","steam_id":76561198021649598,"connected_time":737000000000,"state":"active","ping":61},{"user_id":619,"name":"GreekGoat_Coffee","steam_id":76561198129331088,"connected_time":699000000000,"state":"active","ping":45},{"user_id":588,"name":"Snake Handler","steam_id":76561198027198306,"connected_time":4870000000000,"state":"active","ping":57},{"user_id":620,"name":"SirKnight5067","steam_id":76561198377306047,"connected_time":651000000000,"state":"active","ping":60},{"user_id":621,"name":"Polly Geist","steam_id":76561198271964253,"connected_time":581000000000,"state":"active","ping":77},{"user_id":623,"name":"Luke","steam_id":76561198090671431,"connected_time":551000000000,"state":"active","ping":77},{"user_id":603,"name":"Micro","steam_id":76561198319239296,"connected_time":3280000000000,"state":"active","ping":74},{"user_id":624,"name":"DJ Taj Mahal","steam_id":76561198024504491,"connected_time":536000000000,"state":"active","ping":51},{"user_id":635,"name":"TF2C | fac -AA-","steam_id":76561198009818412,"connected_time":222000000000,"state":"active","ping":71},{"user_id":610,"name":"Uncle Dad","steam_id":76561198058073652,"connected_time":2678000000000,"state":"active","ping":76},{"user_id":626,"name":"hsq =)","steam_id":76561198087534644,"connected_time":491000000000,"state":"active","ping":77},{"user_id":585,"name":"Nukem","steam_id":76561198166236574,"connected_time":5192000000000,"state":"active","ping":82},{"user_id":597,"name":"Tskuno","steam_id":76561198129291597,"connected_time":4396000000000,"state":"active","ping":58},{"user_id":606,"name":"T√ñZI","steam_id":76561198045268695,"connected_time":2869000000000,"state":"active","ping":85},{"user_id":627,"name":"Û†Ä°Û†Ä°","steam_id":76561198067544834,"connected_time":481000000000,"state":"active","ping":82},{"user_id":628,"name":"Female Gamer","steam_id":76561199366482682,"connected_time":481000000000,"state":"active","ping":127},{"user_id":607,"name":"Clumsy","steam_id":76561198056345245,"connected_time":2863000000000,"state":"active","ping":74},{"user_id":629,"name":"faxxy","steam_id":76561198079621240,"connected_time":448000000000,"state":"active","ping":72},{"user_id":611,"name":"Bikeway Naros","steam_id":76561198086676786,"connected_time":2672000000000,"state":"active","ping":113},{"user_id":632,"name":"tincant","steam_id":76561198357137800,"connected_time":402000000000,"state":"active","ping":106}]},{"server_id":403,"name":"Uncletopia | Chicago | 4 | All Maps","name_short":"chi-4","host":"chi-1.us.uncletopia.com","port":27045,"enabled":true,"region":"us-central","cc":"us","latitude":41.881832,"longitude":-87.62318,"reserved":0,"last_update":"0001-01-01T00:00:00Z","name_a2s":"Uncletopia | Chicago | 4 | All Maps","protocol":17,"map":"pl_frontier_final","folder":"tf","game":"Team Fortress","app_id":440,"player_count":24,"max_players":24,"Bots":0,"server_type":"Dedicated","server_os":"Linux","password":true,"vac":true,"version":"7882260","steam_id":85568392924515193,"keywords":["nocrits","nodmgspread","payload","uncletopia"],"game_id":440,"stv_port":27046,"stv_name":"Uncletopia | Chicago | 4 | All Maps | STV","players":[{"user_id":451,"name":"Also Known As Assteeth","steam_id":76561198049837377,"connected_time":2765000000000,"state":"active","ping":48},{"user_id":440,"name":"Meurik","steam_id":76561198078032795,"connected_time":3871000000000,"state":"active","ping":166},{"user_id":486,"name":"SaxyThePhone","steam_id":76561199439167761,"connected_time":365000000000,"state":"active","ping":104},{"user_id":480,"name":"spxcy","steam_id":76561198080296853,"connected_time":715000000000,"state":"active","ping":150},{"user_id":476,"name":"Not Slavoj ≈Ωi≈æek","steam_id":76561198004619616,"connected_time":1243000000000,"state":"active","ping":112},{"user_id":382,"name":"Mr. Crispy Lips","steam_id":76561198028157625,"connected_time":9109000000000,"state":"active","ping":84},{"user_id":435,"name":"Straight White Male","steam_id":76561199234350287,"connected_time":4164000000000,"state":"active","ping":55},{"user_id":462,"name":"Wigl","steam_id":76561198019324464,"connected_time":1932000000000,"state":"active","ping":66},{"user_id":481,"name":"wrander","steam_id":76561198195141221,"connected_time":617000000000,"state":"active","ping":90},{"user_id":485,"name":"Zanartan","steam_id":76561198050528902,"connected_time":409000000000,"state":"active","ping":186},{"user_id":483,"name":"ryghehn","steam_id":76561198195359229,"connected_time":455000000000,"state":"active","ping":82},{"user_id":484,"name":"Medic Boyfriend","steam_id":76561198104086771,"connected_time":447000000000,"state":"active","ping":101},{"user_id":478,"name":"CFGU || RAWRWAFL","steam_id":76561198032118386,"connected_time":1095000000000,"state":"active","ping":92},{"user_id":472,"name":"Burny Sanders","steam_id":76561197961879048,"connected_time":1315000000000,"state":"active","ping":61},{"user_id":459,"name":":)","steam_id":76561198093921290,"connected_time":2246000000000,"state":"active","ping":46},{"user_id":425,"name":"You dad","steam_id":76561198044013623,"connected_time":5149000000000,"state":"active","ping":73},{"user_id":397,"name":"Kng","steam_id":76561198993248203,"connected_time":7726000000000,"state":"active","ping":90},{"user_id":482,"name":"Poopy Butthead","steam_id":76561198201862415,"connected_time":504000000000,"state":"active","ping":57},{"user_id":487,"name":"sun","steam_id":76561198011329825,"connected_time":303000000000,"state":"active","ping":60},{"user_id":473,"name":"REDDASHFOX","steam_id":76561199047838700,"connected_time":1298000000000,"state":"active","ping":87},{"user_id":437,"name":"Yummy Kabobz","steam_id":76561198067661705,"connected_time":4110000000000,"state":"active","ping":69},{"user_id":488,"name":"WutitDu","steam_id":76561198413274608,"connected_time":231000000000,"state":"active","ping":83},{"user_id":474,"name":"StarLy","steam_id":76561198174428289,"connected_time":1295000000000,"state":"active","ping":73},{"user_id":467,"name":"saina","steam_id":76561198057685475,"connected_time":1496000000000,"state":"active","ping":60}]},{"server_id":36,"name":"Uncletopia | Chicago | 5 | All Maps","name_short":"chi-5","host":"chi-2.us.uncletopia.com","port":27015,"enabled":true,"region":"us-central","cc":"us","latitude":41.881832,"longitude":-87.62318,"reserved":0,"last_update":"0001-01-01T00:00:00Z","name_a2s":"Uncletopia | Chicago | 5 | All Maps","protocol":17,"map":"pl_barnblitz","folder":"tf","game":"Team Fortress","app_id":440,"player_count":23,"max_players":24,"Bots":0,"server_type":"Dedicated","server_os":"Linux","password":true,"vac":true,"version":"7882260","steam_id":85568392924866362,"keywords":["nocrits","nodmgspread","payload","uncletopia"],"game_id":440,"stv_port":27016,"stv_name":"Uncletopia | Chicago | 5 | All Maps | STV","players":[{"user_id":715,"name":"Spring Beans","steam_id":76561197978546259,"connected_time":610000000000,"state":"active","ping":59},{"user_id":722,"name":"Cdesmondd","steam_id":76561198072774462,"connected_time":111000000000,"state":"active","ping":64},{"user_id":714,"name":"SquishyDog","steam_id":76561198059014380,"connected_time":667000000000,"state":"active","ping":47},{"user_id":716,"name":"Mr. Peon","steam_id":76561198012334474,"connected_time":599000000000,"state":"active","ping":70},{"user_id":717,"name":"We believe in you!","steam_id":76561198219252313,"connected_time":588000000000,"state":"active","ping":66},{"user_id":691,"name":"MoopStoop","steam_id":76561198140936620,"connected_time":1823000000000,"state":"active","ping":71},{"user_id":683,"name":"JollyVG","steam_id":76561198044919633,"connected_time":2091000000000,"state":"active","ping":73},{"user_id":684,"name":"stupid haver","steam_id":76561198044443985,"connected_time":2028000000000,"state":"active","ping":85},{"user_id":710,"name":"mashallah","steam_id":76561198075111427,"connected_time":970000000000,"state":"active","ping":69},{"user_id":655,"name":"Rhea","steam_id":76561198066626240,"connected_time":3428000000000,"state":"active","ping":75},{"user_id":711,"name":"LilGoBonkers","steam_id":76561198275780924,"connected_time":909000000000,"state":"active","ping":103},{"user_id":670,"name":"Ryan","steam_id":76561198046600383,"connected_time":2566000000000,"state":"active","ping":90},{"user_id":647,"name":"countrychefbeerboy92","steam_id":76561198132476501,"connected_time":4494000000000,"state":"active","ping":43},{"user_id":688,"name":"cotton candy muncher","steam_id":76561198058998371,"connected_time":1898000000000,"state":"active","ping":69},{"user_id":689,"name":"Kiwimpediment","steam_id":76561198322781400,"connected_time":1881000000000,"state":"active","ping":66},{"user_id":721,"name":"noellehound","steam_id":76561198108844158,"connected_time":232000000000,"state":"active","ping":106},{"user_id":665,"name":"Ann Ziegler (No Sound)","steam_id":76561198052249401,"connected_time":2688000000000,"state":"active","ping":51},{"user_id":693,"name":"KritzKow","steam_id":76561198086164003,"connected_time":1817000000000,"state":"active","ping":92},{"user_id":720,"name":"VerdantSunset","steam_id":76561198062313478,"connected_time":335000000000,"state":"active","ping":77},{"user_id":695,"name":"rept","steam_id":76561198022100969,"connected_time":1785000000000,"state":"active","ping":54},{"user_id":697,"name":"teemo jungle","steam_id":76561198983069721,"connected_time":1671000000000,"state":"active","ping":65},{"user_id":698,"name":"BiscuitTinx","steam_id":76561198170058805,"connected_time":1638000000000,"state":"active","ping":145},{"user_id":719,"name":"panik","steam_id":76561199130448253,"connected_time":577000000000,"state":"active","ping":88}]},{"server_id":37,"name":"Uncletopia | Chicago | 6 | All Maps","name_short":"chi-6","host":"chi-2.us.uncletopia.com","port":27025,"enabled":true,"region":"us-central","cc":"us","latitude":41.881832,"longitude":-87.62318,"reserved":0,"last_update":"0001-01-01T00:00:00Z","name_a2s":"Uncletopia | Chicago | 6 | All Maps","protocol":17,"map":"pl_swiftwater_final1","folder":"tf","game":"Team Fortress","app_id":440,"player_count":24,"max_players":24,"Bots":0,"server_type":"Dedicated","server_os":"Linux","password":true,"vac":true,"version":"7882260","steam_id":85568392924866363,"keywords":["nocrits","nodmgspread","payload","uncletopia"],"game_id":440,"stv_port":27026,"stv_name":"Uncletopia | Chicago | 6 | All Maps | STV","players":[{"user_id":382,"name":"Jack Horner in a F-16","steam_id":76561198062438923,"connected_time":1708000000000,"state":"active","ping":87},{"user_id":397,"name":"amity‚úø","steam_id":76561198039506482,"connected_time":1094000000000,"state":"active","ping":56},{"user_id":400,"name":"PlanktonTheWayICumBuckets","steam_id":76561198074678273,"connected_time":422000000000,"state":"active","ping":54},{"user_id":295,"name":"Pyroic","steam_id":76561198347123470,"connected_time":8060000000000,"state":"active","ping":98},{"user_id":376,"name":"Pants","steam_id":76561197966222755,"connected_time":2356000000000,"state":"active","ping":46},{"user_id":392,"name":"awayfromkeyboard","steam_id":76561198815644949,"connected_time":1264000000000,"state":"active","ping":59},{"user_id":349,"name":"It's a Doggydog World","steam_id":76561198018232414,"connected_time":4185000000000,"state":"active","ping":114},{"user_id":318,"name":"[DEEP] Danmar33","steam_id":76561198056453091,"connected_time":7076000000000,"state":"active","ping":47},{"user_id":401,"name":"Winton Overwat","steam_id":76561198202216091,"connected_time":411000000000,"state":"active","ping":61},{"user_id":402,"name":"mizurush","steam_id":76561198039595304,"connected_time":320000000000,"state":"active","ping":90},{"user_id":403,"name":"Apricot","steam_id":76561198355699935,"connected_time":291000000000,"state":"active","ping":70},{"user_id":404,"name":"DededeMain | trade.tf","steam_id":76561198310951632,"connected_time":215000000000,"state":"active","ping":73},{"user_id":368,"name":"i have amazing aim","steam_id":76561199222920753,"connected_time":3092000000000,"state":"active","ping":54},{"user_id":405,"name":"Astro","steam_id":76561198035676106,"connected_time":174000000000,"state":"active","ping":89},{"user_id":385,"name":"eat Pant","steam_id":76561197974965536,"connected_time":1561000000000,"state":"active","ping":59},{"user_id":379,"name":"Numenization","steam_id":76561198046357532,"connected_time":1915000000000,"state":"active","ping":53},{"user_id":406,"name":"*","steam_id":76561198173047169,"connected_time":137000000000,"state":"active","ping":63},{"user_id":301,"name":"thecal","steam_id":76561198307893384,"connected_time":7907000000000,"state":"active","ping":53},{"user_id":407,"name":"'93","steam_id":76561198069979962,"connected_time":47000000000,"state":"active","ping":93},{"user_id":393,"name":"Zigadox","steam_id":76561198079813479,"connected_time":1262000000000,"state":"active","ping":90},{"user_id":394,"name":"chloe when she","steam_id":76561198128537564,"connected_time":1255000000000,"state":"active","ping":46},{"user_id":387,"name":"Odyessy","steam_id":76561198051564419,"connected_time":1480000000000,"state":"active","ping":92},{"user_id":388,"name":"Antifa Supersoldier","steam_id":76561198141816516,"connected_time":1460000000000,"state":"active","ping":64},{"user_id":395,"name":"kiseek","steam_id":76561198075474088,"connected_time":1217000000000,"state":"active","ping":89}]},{"server_id":38,"name":"Uncletopia | Chicago | 7 | Stopwatch Beta","name_short":"chi-7","host":"chi-2.us.uncletopia.com","port":27035,"enabled":true,"region":"us-central","cc":"us","latitude":41.881832,"longitude":-87.62318,"reserved":0,"last_update":"0001-01-01T00:00:00Z","name_a2s":"Uncletopia | Chicago | 7 | Stopwatch Beta","protocol":17,"map":"pl_upward","folder":"tf","game":"Team Fortress","app_id":440,"player_count":0,"max_players":24,"Bots":0,"server_type":"Dedicated","server_os":"Linux","password":true,"vac":true,"version":"7882260","steam_id":85568392924866364,"keywords":["nocrits","nodmgspread","payload","uncletopia"],"game_id":440,"stv_port":27036,"stv_name":"Uncletopia | Chicago | 7 | Stopwatch Beta | STV","players":null},{"server_id":39,"name":"Uncletopia | Chicago | 8 | Community","name_short":"chi-8","host":"chi-2.us.uncletopia.com","port":27045,"enabled":true,"region":"us-central","cc":"us","latitude":41.881832,"longitude":-87.62318,"reserved":0,"last_update":"0001-01-01T00:00:00Z","name_a2s":"Uncletopia | Chicago | 8 | Community","protocol":17,"map":"workshop/cp_caldera_rc2.ugc2834196889","folder":"tf","game":"Team Fortress","app_id":440,"player_count":6,"max_players":24,"Bots":0,"server_type":"Dedicated","server_os":"Linux","password":true,"vac":true,"version":"7882260","steam_id":85568392924866365,"keywords":["cp","nocrits","nodmgspread","uncletopia"],"game_id":440,"stv_port":27046,"stv_name":"Uncletopia | Chicago | 8 | Community | STV","players":[{"user_id":27,"name":"Lavender","steam_id":76561198142770666,"connected_time":4674000000000,"state":"active","ping":59},{"user_id":39,"name":"Rykah","steam_id":76561198095040360,"connected_time":2234000000000,"state":"active","ping":68},{"user_id":43,"name":"zeredis","steam_id":76561198076596689,"connected_time":1409000000000,"state":"active","ping":57},{"user_id":45,"name":"Gh0w0st","steam_id":76561199471261226,"connected_time":861000000000,"state":"active","ping":80},{"user_id":31,"name":"flasky","steam_id":76561198079119793,"connected_time":4371000000000,"state":"active","ping":60},{"user_id":47,"name":"Delle PC","steam_id":76561199079655568,"connected_time":674000000000,"state":"active","ping":77}]},{"server_id":8,"name":"Uncletopia | Dallas | 1 | All Maps","name_short":"dal-1","host":"dal-1.us.uncletopia.com","port":27015,"enabled":true,"region":"us-central","cc":"us","latitude":32.779167,"longitude":-96.80889,"reserved":0,"last_update":"0001-01-01T00:00:00Z","name_a2s":"Uncletopia | Dallas | 1 | All Maps","protocol":17,"map":"cp_well","folder":"tf","game":"Team Fortress","app_id":440,"player_count":22,"max_players":24,"Bots":0,"server_type":"Dedicated","server_os":"Linux","password":true,"vac":true,"version":"7882260","steam_id":85568392924469986,"keywords":["cp","nocrits","nodmgspread","uncletopia"],"game_id":440,"stv_port":27016,"stv_name":"Uncletopia | Dallas | 1 | All Maps | STV","players":[{"user_id":777,"name":"DRAG","steam_id":76561198091788521,"connected_time":1749000000000,"state":"active","ping":64},{"user_id":792,"name":"Bogey","steam_id":76561198096227944,"connected_time":268000000000,"state":"active","ping":45},{"user_id":787,"name":"Crispy","steam_id":76561198037481161,"connected_time":1367000000000,"state":"active","ping":67},{"user_id":788,"name":"log","steam_id":76561198386992717,"connected_time":1344000000000,"state":"active","ping":94},{"user_id":791,"name":"$5 biggie bag","steam_id":76561198298310744,"connected_time":501000000000,"state":"active","ping":82},{"user_id":745,"name":"LooperDooper","steam_id":76561198162464484,"connected_time":4866000000000,"state":"active","ping":81},{"user_id":794,"name":"Jezzus","steam_id":76561199289676387,"connected_time":35000000000,"state":"spawning","ping":62},{"user_id":776,"name":"LtK","steam_id":76561197993180943,"connected_time":1774000000000,"state":"active","ping":36},{"user_id":768,"name":"hycoda","steam_id":76561198045197971,"connected_time":2575000000000,"state":"active","ping":64},{"user_id":737,"name":"skegeton","steam_id":76561198095581099,"connected_time":5634000000000,"state":"active","ping":65},{"user_id":779,"name":"bed0tter","steam_id":76561197992298455,"connected_time":1699000000000,"state":"active","ping":64},{"user_id":780,"name":"plink","steam_id":76561198057829889,"connected_time":1685000000000,"state":"active","ping":49},{"user_id":763,"name":"Imrgrim","steam_id":76561198135866481,"connected_time":3333000000000,"state":"active","ping":68},{"user_id":793,"name":"soltuno","steam_id":76561198074430565,"connected_time":151000000000,"state":"active","ping":103},{"user_id":782,"name":"TTV.silverfan420","steam_id":76561198013873028,"connected_time":1666000000000,"state":"spawning","ping":175},{"user_id":795,"name":"Perky Turkey","steam_id":76561198163420636,"connected_time":35000000000,"state":"spawning","ping":3232},{"user_id":749,"name":"Maurix6","steam_id":76561198066634370,"connected_time":3946000000000,"state":"active","ping":62},{"user_id":796,"name":"armando godbody","steam_id":76561197996819313,"connected_time":30000000000,"state":"active","ping":79},{"user_id":784,"name":"DeckofDragons","steam_id":76561198057398213,"connected_time":1660000000000,"state":"spawning","ping":61},{"user_id":762,"name":"meggie","steam_id":76561198038291026,"connected_time":3468000000000,"state":"active","ping":39},{"user_id":785,"name":"[S]Mr. X [No Monitor]","steam_id":76561197963746035,"connected_time":1656000000000,"state":"active","ping":147},{"user_id":719,"name":"Battery Acid Slurper","steam_id":76561198439793697,"connected_time":7506000000000,"state":"spawning","ping":119}]},{"server_id":108,"name":"Uncletopia | Dallas | 2 | All Maps","name_short":"dal-2","host":"dal-1.us.uncletopia.com","port":27025,"enabled":true,"region":"us-central","cc":"us","latitude":32.779167,"longitude":-96.80889,"reserved":0,"last_update":"0001-01-01T00:00:00Z","name_a2s":"Uncletopia | Dallas | 2 | All Maps","protocol":17,"map":"pl_barnblitz","folder":"tf","game":"Team Fortress","app_id":440,"player_count":23,"max_players":24,"Bots":0,"server_type":"Dedicated","server_os":"Linux","password":true,"vac":true,"version":"7882260","steam_id":85568392924469988,"keywords":["nocrits","nodmgspread","payload","uncletopia"],"game_id":440,"stv_port":27026,"stv_name":"Uncletopia | Dallas | 2 | All Maps | STV","players":[{"user_id":837,"name":"Idiot Princess","steam_id":76561198048205270,"connected_time":283000000000,"state":"active","ping":101},{"user_id":831,"name":"Dingus_the_bingus","steam_id":76561198999719888,"connected_time":404000000000,"state":"active","ping":66},{"user_id":828,"name":"dweaver","steam_id":76561198119610135,"connected_time":889000000000,"state":"active","ping":73},{"user_id":782,"name":"G–µ—è–æ","steam_id":76561198082463658,"connected_time":4014000000000,"state":"active","ping":108},{"user_id":802,"name":"DragonHeart","steam_id":76561198013245625,"connected_time":2599000000000,"state":"active","ping":75},{"user_id":803,"name":"dicksnip","steam_id":76561198356515396,"connected_time":2593000000000,"state":"active","ping":72},{"user_id":821,"name":"Dinner","steam_id":76561198067294811,"connected_time":1136000000000,"state":"active","ping":44},{"user_id":784,"name":"Fermenting Kiwi","steam_id":76561198253303497,"connected_time":3807000000000,"state":"active","ping":69},{"user_id":815,"name":"RUF","steam_id":76561198062315805,"connected_time":1698000000000,"state":"active","ping":86},{"user_id":839,"name":"0x01FE","steam_id":76561198838881917,"connected_time":72000000000,"state":"active","ping":60},{"user_id":787,"name":"Machine Learning","steam_id":76561199191382768,"connected_time":3753000000000,"state":"active","ping":55},{"user_id":818,"name":"dave","steam_id":76561198135961731,"connected_time":1194000000000,"state":"active","ping":65},{"user_id":810,"name":"Dahseui","steam_id":76561198048176962,"connected_time":2426000000000,"state":"active","ping":52},{"user_id":788,"name":"Lore","steam_id":76561198098407538,"connected_time":3743000000000,"state":"active","ping":74},{"user_id":834,"name":"Drake from State Farm","steam_id":76561199069029812,"connected_time":341000000000,"state":"active","ping":92},{"user_id":827,"name":"clopherite","steam_id":76561198860351700,"connected_time":968000000000,"state":"active","ping":65},{"user_id":829,"name":"**[–£–§–õ]Zaraza","steam_id":76561198037110879,"connected_time":734000000000,"state":"active","ping":189},{"user_id":835,"name":"crayonnipple","steam_id":76561198070253331,"connected_time":337000000000,"state":"active","ping":112},{"user_id":799,"name":"Nut Bustray","steam_id":76561198092403883,"connected_time":2841000000000,"state":"active","ping":84},{"user_id":836,"name":"MoonWolf","steam_id":76561198095735033,"connected_time":308000000000,"state":"active","ping":70},{"user_id":838,"name":"2 for $3.50 McChickens","steam_id":76561198089908660,"connected_time":275000000000,"state":"active","ping":75},{"user_id":808,"name":"R√ºcc","steam_id":76561198210249963,"connected_time":2526000000000,"state":"active","ping":71},{"user_id":811,"name":"white woman","steam_id":76561199116679777,"connected_time":2144000000000,"state":"active","ping":73}]},{"server_id":5,"name":"Uncletopia | Frankfurt | 1 | All Maps","name_short":"frk-1","host":"frk-1.de.uncletopia.com","port":27015,"enabled":true,"region":"eu","cc":"de","latitude":50.110924,"longitude":8.682127,"reserved":0,"last_update":"0001-01-01T00:00:00Z","name_a2s":"Uncletopia | Frankfurt | 1 | All Maps","protocol":17,"map":"pl_snowycoast","folder":"tf","game":"Team Fortress","app_id":440,"player_count":0,"max_players":24,"Bots":0,"server_type":"Dedicated","server_os":"Linux","password":true,"vac":true,"version":"7882260","steam_id":85568392924469989,"keywords":["nocrits","nodmgspread","payload","uncletopia"],"game_id":440,"stv_port":27016,"stv_name":"Uncletopia | Frankfurt | 1 | All Maps | STV","players":null},{"server_id":110,"name":"Uncletopia | Frankfurt | 2 | All Maps","name_short":"frk-2","host":"frk-1.de.uncletopia.com","port":27025,"enabled":true,"region":"eu","cc":"de","latitude":50.110924,"longitude":8.682127,"reserved":0,"last_update":"0001-01-01T00:00:00Z","name_a2s":"Uncletopia | Frankfurt | 2 | All Maps","protocol":17,"map":"pl_upward","folder":"tf","game":"Team Fortress","app_id":440,"player_count":0,"max_players":24,"Bots":0,"server_type":"Dedicated","server_os":"Linux","password":true,"vac":true,"version":"7882260","steam_id":85568392924469990,"keywords":["nocrits","nodmgspread","payload","uncletopia"],"game_id":440,"stv_port":27026,"stv_name":"Uncletopia | Frankfurt | 2 | All Maps | STV","players":null},{"server_id":308,"name":"Uncletopia | Frankfurt | 3 | All Maps","name_short":"frk-3","host":"frk-1.de.uncletopia.com","port":27035,"enabled":true,"region":"eu","cc":"de","latitude":50.110924,"longitude":8.682127,"reserved":0,"last_update":"0001-01-01T00:00:00Z","name_a2s":"Uncletopia | Frankfurt | 3 | All Maps","protocol":17,"map":"cp_process_final","folder":"tf","game":"Team Fortress","app_id":440,"player_count":0,"max_players":24,"Bots":0,"server_type":"Dedicated","server_os":"Linux","password":true,"vac":true,"version":"7882260","steam_id":85568392924504274,"keywords":["cp","nocrits","nodmgspread","uncletopia"],"game_id":440,"stv_port":27036,"stv_name":"Uncletopia | Frankfurt | 3 | All Maps | STV","players":null},{"server_id":309,"name":"Uncletopia | Frankfurt | 4 | All Maps","name_short":"frk-4","host":"frk-1.de.uncletopia.com","port":27045,"enabled":true,"region":"eu","cc":"de","latitude":50.110924,"longitude":8.682127,"reserved":0,"last_update":"0001-01-01T00:00:00Z","name_a2s":"Uncletopia | Frankfurt | 4 | All Maps","protocol":17,"map":"pl_swiftwater_final1","folder":"tf","game":"Team Fortress","app_id":440,"player_count":0,"max_players":24,"Bots":0,"server_type":"Dedicated","server_os":"Linux","password":true,"vac":true,"version":"7882260","steam_id":85568392924504275,"keywords":["nocrits","nodmgspread","payload","uncletopia"],"game_id":440,"stv_port":27046,"stv_name":"Uncletopia | Frankfurt | 4 | All Maps | STV","players":null},{"server_id":310,"name":"Uncletopia | Frankfurt | 5 | All Maps","name_short":"frk-5","host":"frk-1.de.uncletopia.com","port":27055,"enabled":true,"region":"eu","cc":"de","latitude":50.110924,"longitude":8.682127,"reserved":0,"last_update":"0001-01-01T00:00:00Z","name_a2s":"Uncletopia | Frankfurt | 5 | All Maps","protocol":17,"map":"pl_borneo","folder":"tf","game":"Team Fortress","app_id":440,"player_count":0,"max_players":24,"Bots":0,"server_type":"Dedicated","server_os":"Linux","password":true,"vac":true,"version":"7882260","steam_id":85568392924504277,"keywords":["nocrits","nodmgspread","payload","uncletopia"],"game_id":440,"stv_port":27056,"stv_name":"Uncletopia | Frankfurt | 5 | All Maps | STV","players":null},{"server_id":311,"name":"Uncletopia | Frankfurt | 6 | All Maps","name_short":"frk-6","host":"frk-1.de.uncletopia.com","port":27065,"enabled":true,"region":"eu","cc":"de","latitude":50.110924,"longitude":8.682127,"reserved":0,"last_update":"0001-01-01T00:00:00Z","name_a2s":"Uncletopia | Frankfurt | 6 | All Maps","protocol":17,"map":"cp_snakewater_final1","folder":"tf","game":"Team Fortress","app_id":440,"player_count":0,"max_players":24,"Bots":0,"server_type":"Dedicated","server_os":"Linux","password":true,"vac":true,"version":"7882260","steam_id":85568392924504278,"keywords":["cp","nocrits","nodmgspread","uncletopia"],"game_id":440,"stv_port":27066,"stv_name":"Uncletopia | Frankfurt | 6 | All Maps | STV","players":null},{"server_id":23,"name":"Uncletopia | Frankfurt | 7 | Stopwatch Beta","name_short":"frk-7","host":"frk-1.de.uncletopia.com","port":27075,"enabled":true,"region":"eu","cc":"de","latitude":50.110924,"longitude":8.682127,"reserved":0,"last_update":"0001-01-01T00:00:00Z","name_a2s":"Uncletopia | Frankfurt | 7 | Stopwatch Beta","protocol":17,"map":"cp_snakewater_final1","folder":"tf","game":"Team Fortress","app_id":440,"player_count":0,"max_players":24,"Bots":0,"server_type":"Dedicated","server_os":"Linux","password":true,"vac":true,"version":"7882260","steam_id":85568392924742827,"keywords":["cp","nocrits","nodmgspread","uncletopia"],"game_id":440,"stv_port":27076,"stv_name":"Uncletopia | Frankfurt | 7 | Stopwatch Beta | STV","players":null},{"server_id":24,"name":"Uncletopia | Frankfurt | 8 | Community","name_short":"frk-8","host":"frk-1.de.uncletopia.com","port":27085,"enabled":true,"region":"eu","cc":"de","latitude":50.110924,"longitude":8.682127,"reserved":0,"last_update":"0001-01-01T00:00:00Z","name_a2s":"Uncletopia | Frankfurt | 8 | Community","protocol":17,"map":"cp_mountainlab","folder":"tf","game":"Team Fortress","app_id":440,"player_count":0,"max_players":24,"Bots":0,"server_type":"Dedicated","server_os":"Linux","password":true,"vac":true,"version":"7882260","steam_id":85568392924742828,"keywords":["cp","nocrits","nodmgspread","uncletopia"],"game_id":440,"stv_port":27086,"stv_name":"Uncletopia | Frankfurt | 8 | Community | STV","players":null},{"server_id":202,"name":"Uncletopia | Hong Kong | 1 | All Maps","name_short":"hgk-1","host":"hgk-1.hk.uncletopia.com","port":27015,"enabled":true,"region":"asia","cc":"hk","latitude":22.302711,"longitude":114.177216,"reserved":0,"last_update":"0001-01-01T00:00:00Z","name_a2s":"Uncletopia | Hong Kong | 1 | All Maps","protocol":17,"map":"koth_viaduct","folder":"tf","game":"Team Fortress","app_id":440,"player_count":0,"max_players":24,"Bots":0,"server_type":"Dedicated","server_os":"Linux","password":true,"vac":true,"version":"7882260","steam_id":85568392924494504,"keywords":["cp","nocrits","nodmgspread","uncletopia"],"game_id":440,"stv_port":27016,"stv_name":"Uncletopia | Hong Kong | 1 | All Maps | STV","players":null},{"server_id":1,"name":"Uncletopia | Los Angeles | 1 | All Maps","name_short":"lax-1","host":"lax-1.us.uncletopia.com","port":27015,"enabled":true,"region":"us-west","cc":"us","latitude":33.94279,"longitude":-118.41004,"reserved":0,"last_update":"0001-01-01T00:00:00Z","name_a2s":"Uncletopia | Los Angeles | 1 | All Maps","protocol":17,"map":"koth_viaduct","folder":"tf","game":"Team Fortress","app_id":440,"player_count":20,"max_players":24,"Bots":0,"server_type":"Dedicated","server_os":"Linux","password":true,"vac":true,"version":"7882260","steam_id":85568392924469991,"keywords":["cp","nocrits","nodmgspread","uncletopia"],"game_id":440,"stv_port":27016,"stv_name":"Uncletopia | Los Angeles | 1 | All Maps | STV","players":[{"user_id":599,"name":"RavenwolF","steam_id":76561197963374354,"connected_time":1210000000000,"state":"active","ping":97},{"user_id":608,"name":"Grizzakk","steam_id":76561198115821923,"connected_time":267000000000,"state":"active","ping":76},{"user_id":602,"name":"UnusualTofu","steam_id":76561198060103750,"connected_time":984000000000,"state":"active","ping":56},{"user_id":603,"name":"Sartupial","steam_id":76561198443169940,"connected_time":963000000000,"state":"active","ping":100},{"user_id":604,"name":"Mathatguy","steam_id":76561198225432188,"connected_time":913000000000,"state":"active","ping":118},{"user_id":610,"name":"Sage","steam_id":76561198095296744,"connected_time":240000000000,"state":"active","ping":76},{"user_id":590,"name":"HeroOfTime","steam_id":76561199096218001,"connected_time":1798000000000,"state":"active","ping":59},{"user_id":606,"name":"A Little Guy","steam_id":76561198142464684,"connected_time":835000000000,"state":"active","ping":85},{"user_id":578,"name":"who is gavin?","steam_id":76561198069415057,"connected_time":2232000000000,"state":"active","ping":101},{"user_id":611,"name":"Ayayayayayahuasca","steam_id":76561199002906056,"connected_time":230000000000,"state":"active","ping":75},{"user_id":612,"name":"üíÄ Tezcatl (#saveTF2) üíÄ","steam_id":76561198065758269,"connected_time":227000000000,"state":"active","ping":67},{"user_id":596,"name":"...","steam_id":76561198121508845,"connected_time":1586000000000,"state":"active","ping":72},{"user_id":520,"name":"flo rida","steam_id":76561198226169704,"connected_time":6340000000000,"state":"active","ping":53},{"user_id":613,"name":"Amogous Supreme","steam_id":76561198025476774,"connected_time":226000000000,"state":"active","ping":60},{"user_id":614,"name":"Dongus","steam_id":76561197979056451,"connected_time":133000000000,"state":"active","ping":75},{"user_id":473,"name":"Gerbias","steam_id":76561198001002427,"connected_time":10073000000000,"state":"active","ping":60},{"user_id":485,"name":"Jimmy","steam_id":76561198857959855,"connected_time":9398000000000,"state":"active","ping":44},{"user_id":584,"name":"MOGAN","steam_id":76561198071700821,"connected_time":2124000000000,"state":"active","ping":121},{"user_id":615,"name":"Whisper!","steam_id":76561198119609795,"connected_time":119000000000,"state":"active","ping":49},{"user_id":597,"name":"orio","steam_id":76561198116550170,"connected_time":1551000000000,"state":"active","ping":55}]},{"server_id":112,"name":"Uncletopia | Los Angeles | 2 | All Maps","name_short":"lax-2","host":"lax-1.us.uncletopia.com","port":27025,"enabled":true,"region":"us-west","cc":"us","latitude":33.94279,"longitude":-118.41004,"reserved":0,"last_update":"0001-01-01T00:00:00Z","name_a2s":"Uncletopia | Los Angeles | 2 | All Maps","protocol":17,"map":"pl_borneo","folder":"tf","game":"Team Fortress","app_id":440,"player_count":24,"max_players":24,"Bots":0,"server_type":"Dedicated","server_os":"Linux","password":true,"vac":true,"version":"7882260","steam_id":85568392924469992,"keywords":["nocrits","nodmgspread","payload","uncletopia"],"game_id":440,"stv_port":27026,"stv_name":"Uncletopia | Los Angeles | 2 | All Maps | STV","players":[{"user_id":119,"name":"Squatter1","steam_id":76561198078987734,"connected_time":4100000000000,"state":"active","ping":74},{"user_id":163,"name":"Mania","steam_id":76561198116313064,"connected_time":585000000000,"state":"active","ping":59},{"user_id":129,"name":"rimble","steam_id":76561198150137369,"connected_time":3528000000000,"state":"active","ping":57},{"user_id":154,"name":"Testiclees Peesaschmidt","steam_id":76561198050582941,"connected_time":1392000000000,"state":"active","ping":115},{"user_id":106,"name":"Steejans","steam_id":76561198053211279,"connected_time":4870000000000,"state":"active","ping":74},{"user_id":144,"name":"BlitzTheBlock","steam_id":76561198239546394,"connected_time":2106000000000,"state":"active","ping":54},{"user_id":146,"name":"Birb","steam_id":76561198220234419,"connected_time":1995000000000,"state":"active","ping":75},{"user_id":159,"name":"Joe Biden (Deceased)","steam_id":76561198170427507,"connected_time":762000000000,"state":"active","ping":69},{"user_id":161,"name":"ThermallyInsane","steam_id":76561198434837539,"connected_time":665000000000,"state":"active","ping":98},{"user_id":157,"name":"BurdBrain","steam_id":76561197962097737,"connected_time":1303000000000,"state":"active","ping":59},{"user_id":85,"name":"Ralph Kramden (Slim Charles)","steam_id":76561197981687895,"connected_time":6467000000000,"state":"active","ping":57},{"user_id":155,"name":"-The_Under_Miner-","steam_id":76561199195735972,"connected_time":1366000000000,"state":"active","ping":67},{"user_id":162,"name":"the fool","steam_id":76561198133933158,"connected_time":626000000000,"state":"active","ping":46},{"user_id":164,"name":"neo-liberal furry supercollider","steam_id":76561198070136627,"connected_time":560000000000,"state":"active","ping":45},{"user_id":127,"name":"Ice cream sandwich","steam_id":76561198172748357,"connected_time":3789000000000,"state":"active","ping":54},{"user_id":143,"name":"A Pile Of Bacon","steam_id":76561198105243785,"connected_time":2450000000000,"state":"active","ping":69},{"user_id":167,"name":"Gnome Chompski","steam_id":76561198003130703,"connected_time":359000000000,"state":"active","ping":100},{"user_id":90,"name":"Pile of Spinach","steam_id":76561198043068841,"connected_time":6009000000000,"state":"active","ping":64},{"user_id":136,"name":"‰ªôÂ•≥Â§¥Â≠ê‰∫éË∞¶","steam_id":76561199031075505,"connected_time":3263000000000,"state":"active","ping":143},{"user_id":165,"name":"Generator","steam_id":76561198011762257,"connected_time":556000000000,"state":"active","ping":122},{"user_id":149,"name":"MasterGeek.MX","steam_id":76561198063355220,"connected_time":1948000000000,"state":"active","ping":129},{"user_id":166,"name":"Igrium","steam_id":76561198119549811,"connected_time":545000000000,"state":"active","ping":62},{"user_id":107,"name":"Loamy","steam_id":76561198064183674,"connected_time":4663000000000,"state":"active","ping":64},{"user_id":156,"name":"Spruce","steam_id":76561198081684676,"connected_time":1355000000000,"state":"active","ping":90}]},{"server_id":324,"name":"Uncletopia | Los Angeles | 3 | All Maps","name_short":"lax-3","host":"lax-1.us.uncletopia.com","port":27035,"enabled":true,"region":"us-west","cc":"us","latitude":33.94279,"longitude":-118.41004,"reserved":0,"last_update":"0001-01-01T00:00:00Z","name_a2s":"Uncletopia | Los Angeles | 3 | All Maps","protocol":17,"map":"pl_swiftwater_final1","folder":"tf","game":"Team Fortress","app_id":440,"player_count":24,"max_players":24,"Bots":0,"server_type":"Dedicated","server_os":"Linux","password":true,"vac":true,"version":"7882260","steam_id":85568392924510198,"keywords":["nocrits","nodmgspread","payload","uncletopia"],"game_id":440,"stv_port":27036,"stv_name":"Uncletopia | Los Angeles | 3 | All Maps | STV","players":[{"user_id":319,"name":"yoboidaniel45","steam_id":76561199059236666,"connected_time":1548000000000,"state":"active","ping":96},{"user_id":343,"name":"Kuudere","steam_id":76561198075028016,"connected_time":439000000000,"state":"active","ping":75},{"user_id":338,"name":"CheeseCake488","steam_id":76561199407617942,"connected_time":867000000000,"state":"active","ping":120},{"user_id":317,"name":"XxDragon4321xX","steam_id":76561198046705735,"connected_time":1657000000000,"state":"active","ping":69},{"user_id":321,"name":"‚Ä∫ Pikmeir","steam_id":76561198027373503,"connected_time":1480000000000,"state":"active","ping":46},{"user_id":309,"name":"HOG RIDER","steam_id":76561198298589502,"connected_time":2482000000000,"state":"active","ping":54},{"user_id":339,"name":"MirroredFenix","steam_id":76561198309423550,"connected_time":625000000000,"state":"active","ping":108},{"user_id":306,"name":"SPAMTON G. SPAMTON","steam_id":76561198055836483,"connected_time":3047000000000,"state":"active","ping":95},{"user_id":323,"name":"dairy delinquent","steam_id":76561198971552734,"connected_time":1399000000000,"state":"active","ping":42},{"user_id":285,"name":"Coolbreadguy","steam_id":76561198139544202,"connected_time":3785000000000,"state":"active","ping":42},{"user_id":336,"name":"Tuba","steam_id":76561198209166329,"connected_time":1067000000000,"state":"active","ping":71},{"user_id":325,"name":"shakoiwa","steam_id":76561199059441773,"connected_time":1356000000000,"state":"active","ping":54},{"user_id":344,"name":"it's peanut time","steam_id":76561198236028020,"connected_time":407000000000,"state":"active","ping":135},{"user_id":308,"name":"sweaterfan","steam_id":76561199389567214,"connected_time":2696000000000,"state":"active","ping":98},{"user_id":327,"name":"beeble!","steam_id":76561198219538525,"connected_time":1348000000000,"state":"active","ping":107},{"user_id":328,"name":"Leaderofthe00fkins","steam_id":76561198281999872,"connected_time":1348000000000,"state":"active","ping":59},{"user_id":329,"name":"CCNikova","steam_id":76561198398190933,"connected_time":1303000000000,"state":"active","ping":64},{"user_id":341,"name":"Gootaur Supreme‚Ñ¢","steam_id":76561198840393384,"connected_time":528000000000,"state":"active","ping":190},{"user_id":337,"name":"pencil champion","steam_id":76561198871758639,"connected_time":975000000000,"state":"active","ping":136},{"user_id":345,"name":"Antwan","steam_id":76561198246200638,"connected_time":39000000000,"state":"active","ping":94},{"user_id":342,"name":"perc 10","steam_id":76561198116471653,"connected_time":528000000000,"state":"active","ping":70},{"user_id":335,"name":"!","steam_id":76561199189013920,"connected_time":1140000000000,"state":"active","ping":45},{"user_id":316,"name":"Ad3ptus","steam_id":76561198272045750,"connected_time":1749000000000,"state":"active","ping":58},{"user_id":334,"name":"b0urbaki7","steam_id":76561198141342345,"connected_time":1192000000000,"state":"active","ping":90}]},{"server_id":25,"name":"Uncletopia | Los Angeles | 4 | Stopwatch Beta","name_short":"lax-4","host":"lax-1.us.uncletopia.com","port":27045,"enabled":true,"region":"us-west","cc":"us","latitude":33.94279,"longitude":-118.41004,"reserved":0,"last_update":"0001-01-01T00:00:00Z","name_a2s":"Uncletopia | Los Angeles | 4 | Stopwatch Beta","protocol":17,"map":"koth_viaduct","folder":"tf","game":"Team Fortress","app_id":440,"player_count":0,"max_players":24,"Bots":0,"server_type":"Dedicated","server_os":"Linux","password":true,"vac":true,"version":"7882260","steam_id":85568392924510199,"keywords":["cp","nocrits","nodmgspread","uncletopia"],"game_id":440,"stv_port":27046,"stv_name":"Uncletopia | Los Angeles | 4 | Stopwatch Beta | STV","players":null},{"server_id":11,"name":"Uncletopia | London | 1 | All Maps","name_short":"lon-1","host":"lon-1.uk.uncletopia.com","port":27015,"enabled":true,"region":"eu","cc":"gb","latitude":51.509865,"longitude":-0.118092,"reserved":0,"last_update":"0001-01-01T00:00:00Z","name_a2s":"Uncletopia | London | 1 | All Maps","protocol":17,"map":"koth_highpass","folder":"tf","game":"Team Fortress","app_id":440,"player_count":7,"max_players":24,"Bots":0,"server_type":"Dedicated","server_os":"Linux","password":true,"vac":true,"version":"7882260","steam_id":85568392924367362,"keywords":["cp","nocrits","nodmgspread","uncletopia"],"game_id":440,"stv_port":27016,"stv_name":"Uncletopia | London | 1 | All Maps | STV","players":[{"user_id":721,"name":"Mick Mundy","steam_id":76561198796108943,"connected_time":1604000000000,"state":"active","ping":80},{"user_id":719,"name":"Ivan the space biker","steam_id":76561199388308203,"connected_time":1921000000000,"state":"active","ping":154},{"user_id":720,"name":"ja","steam_id":76561199228540618,"connected_time":1749000000000,"state":"active","ping":78},{"user_id":722,"name":"Bada Bing!","steam_id":76561198073332036,"connected_time":1509000000000,"state":"active","ping":108},{"user_id":723,"name":"ultra lox","steam_id":76561199427318825,"connected_time":1477000000000,"state":"active","ping":182},{"user_id":725,"name":"Grease Huffer","steam_id":76561198982674420,"connected_time":971000000000,"state":"active","ping":36},{"user_id":712,"name":"Kegs","steam_id":76561198353712949,"connected_time":4011000000000,"state":"active","ping":67}]},{"server_id":114,"name":"Uncletopia | London | 2 | All Maps","name_short":"lon-2","host":"lon-1.uk.uncletopia.com","port":27025,"enabled":true,"region":"eu","cc":"gb","latitude":51.509865,"longitude":-0.118092,"reserved":0,"last_update":"0001-01-01T00:00:00Z","name_a2s":"Uncletopia | London | 2 | All Maps","protocol":17,"map":"pl_pier","folder":"tf","game":"Team Fortress","app_id":440,"player_count":0,"max_players":24,"Bots":0,"server_type":"Dedicated","server_os":"Linux","password":true,"vac":true,"version":"7882260","steam_id":85568392924470941,"keywords":["nocrits","nodmgspread","payload","uncletopia"],"game_id":440,"stv_port":27026,"stv_name":"Uncletopia | London | 2 | All Maps | STV","players":null},{"server_id":320,"name":"Uncletopia | London | 3 | All Maps","name_short":"lon-3","host":"lon-1.uk.uncletopia.com","port":27035,"enabled":true,"region":"eu","cc":"gb","latitude":51.509865,"longitude":-0.118092,"reserved":0,"last_update":"0001-01-01T00:00:00Z","name_a2s":"Uncletopia | London | 3 | All Maps","protocol":17,"map":"koth_viaduct","folder":"tf","game":"Team Fortress","app_id":440,"player_count":0,"max_players":24,"Bots":0,"server_type":"Dedicated","server_os":"Linux","password":true,"vac":true,"version":"7882260","steam_id":85568392924510192,"keywords":["cp","nocrits","nodmgspread","uncletopia"],"game_id":440,"stv_port":27036,"stv_name":"Uncletopia | London | 3 | All Maps | STV","players":null},{"server_id":321,"name":"Uncletopia | London | 4 | All Maps","name_short":"lon-4","host":"lon-1.uk.uncletopia.com","port":27045,"enabled":true,"region":"eu","cc":"gb","latitude":51.509865,"longitude":-0.118092,"reserved":0,"last_update":"0001-01-01T00:00:00Z","name_a2s":"Uncletopia | London | 4 | All Maps","protocol":17,"map":"koth_highpass","folder":"tf","game":"Team Fortress","app_id":440,"player_count":0,"max_players":24,"Bots":0,"server_type":"Dedicated","server_os":"Linux","password":true,"vac":true,"version":"7882260","steam_id":85568392924510193,"keywords":["cp","nocrits","nodmgspread","uncletopia"],"game_id":440,"stv_port":27046,"stv_name":"Uncletopia | London | 4 | All Maps | STV","players":null},{"server_id":21,"name":"Uncletopia | London | 5 | All Maps","name_short":"lon-5","host":"lon-1.uk.uncletopia.com","port":27055,"enabled":true,"region":"eu","cc":"gb","latitude":51.509865,"longitude":-0.118092,"reserved":0,"last_update":"0001-01-01T00:00:00Z","name_a2s":"Uncletopia | London | 5 | All Maps","protocol":17,"map":"cp_altitude","folder":"tf","game":"Team Fortress","app_id":440,"player_count":0,"max_players":24,"Bots":0,"server_type":"Dedicated","server_os":"Linux","password":true,"vac":true,"version":"7882260","steam_id":85568392924742829,"keywords":["cp","nocrits","nodmgspread","uncletopia"],"game_id":440,"stv_port":27056,"stv_name":"Uncletopia | London | 5 | All Maps | STV","players":null},{"server_id":22,"name":"Uncletopia | London | 6 | All Maps","name_short":"lon-6","host":"lon-1.uk.uncletopia.com","port":27065,"enabled":true,"region":"eu","cc":"gb","latitude":51.509865,"longitude":-0.118092,"reserved":0,"last_update":"0001-01-01T00:00:00Z","name_a2s":"Uncletopia | London | 6 | All Maps","protocol":17,"map":"koth_lakeside_final","folder":"tf","game":"Team Fortress","app_id":440,"player_count":0,"max_players":24,"Bots":0,"server_type":"Dedicated","server_os":"Linux","password":true,"vac":true,"version":"7882260","steam_id":85568392924742830,"keywords":["cp","nocrits","nodmgspread","uncletopia"],"game_id":440,"stv_port":27066,"stv_name":"Uncletopia | London | 6 | All Maps | STV","players":null},{"server_id":40,"name":"Uncletopia | London | 7 | No Payload","name_short":"lon-7","host":"lon-1.uk.uncletopia.com","port":27075,"enabled":true,"region":"eu","cc":"gb","latitude":51.509865,"longitude":-0.118092,"reserved":0,"last_update":"0001-01-01T00:00:00Z","name_a2s":"Uncletopia | London | 7 | No Payload","protocol":17,"map":"koth_nucleus","folder":"tf","game":"Team Fortress","app_id":440,"player_count":0,"max_players":24,"Bots":0,"server_type":"Dedicated","server_os":"Linux","password":true,"vac":true,"version":"7882260","steam_id":85568392924964314,"keywords":["cp","nocrits","nodmgspread","uncletopia"],"game_id":440,"stv_port":27076,"stv_name":"Uncletopia | London | 7 | No Payload | STV","players":null},{"server_id":41,"name":"Uncletopia | London | 8 | Community","name_short":"lon-8","host":"lon-1.uk.uncletopia.com","port":27085,"enabled":true,"region":"eu","cc":"gb","latitude":51.509865,"longitude":-0.118092,"reserved":0,"last_update":"0001-01-01T00:00:00Z","name_a2s":"Uncletopia | London | 8 | Community","protocol":17,"map":"workshop/cp_croissant_final.ugc458840209","folder":"tf","game":"Team Fortress","app_id":440,"player_count":0,"max_players":24,"Bots":0,"server_type":"Dedicated","server_os":"Linux","password":true,"vac":true,"version":"7882260","steam_id":85568392924964315,"keywords":["cp","nocrits","nodmgspread","uncletopia"],"game_id":440,"stv_port":27086,"stv_name":"Uncletopia | London | 8 | Community | STV","players":null},{"server_id":300,"name":"Uncletopia | Montr√©al | 1 | All Maps","name_short":"mtl-1","host":"mtl-1.ca.uncletopia.com","port":27015,"enabled":true,"region":"us-east","cc":"ca","latitude":45.50889,"longitude":-73.56167,"reserved":0,"last_update":"0001-01-01T00:00:00Z","name_a2s":"Uncletopia | Montr√©al | 1 | All Maps","protocol":17,"map":"koth_lakeside_final","folder":"tf","game":"Team Fortress","app_id":440,"player_count":0,"max_players":24,"Bots":0,"server_type":"Dedicated","server_os":"Linux","password":true,"vac":true,"version":"7882260","steam_id":85568392924500087,"keywords":["cp","nocrits","nodmgspread","uncletopia"],"game_id":440,"stv_port":27016,"stv_name":"Uncletopia | Montr√©al | 1 | All Maps | STV","players":null},{"server_id":301,"name":"Uncletopia | Montr√©al | 2 | All Maps","name_short":"mtl-2","host":"mtl-1.ca.uncletopia.com","port":27025,"enabled":true,"region":"us-east","cc":"ca","latitude":45.50889,"longitude":-73.56167,"reserved":0,"last_update":"0001-01-01T00:00:00Z","name_a2s":"Uncletopia | Montr√©al | 2 | All Maps","protocol":17,"map":"cp_snakewater_final1","folder":"tf","game":"Team Fortress","app_id":440,"player_count":0,"max_players":24,"Bots":0,"server_type":"Dedicated","server_os":"Linux","password":true,"vac":true,"version":"7882260","steam_id":85568392924500088,"keywords":["cp","nocrits","nodmgspread","uncletopia"],"game_id":440,"stv_port":27026,"stv_name":"Uncletopia | Montr√©al | 2 | All Maps | STV","players":null},{"server_id":302,"name":"Uncletopia | Montr√©al | 3 | All Maps","name_short":"mtl-3","host":"mtl-1.ca.uncletopia.com","port":27035,"enabled":true,"region":"us-east","cc":"ca","latitude":45.50889,"longitude":-73.56167,"reserved":0,"last_update":"0001-01-01T00:00:00Z","name_a2s":"Uncletopia | Montr√©al | 3 | All Maps","protocol":17,"map":"koth_viaduct","folder":"tf","game":"Team Fortress","app_id":440,"player_count":0,"max_players":24,"Bots":0,"server_type":"Dedicated","server_os":"Linux","password":true,"vac":true,"version":"7882260","steam_id":85568392924500089,"keywords":["cp","nocrits","nodmgspread","uncletopia"],"game_id":440,"stv_port":27036,"stv_name":"Uncletopia | Montr√©al | 3 | All Maps | STV","players":null},{"server_id":303,"name":"Uncletopia | Montr√©al | 4 | No Payload","name_short":"mtl-4","host":"mtl-1.ca.uncletopia.com","port":27045,"enabled":true,"region":"us-east","cc":"ca","latitude":45.50889,"longitude":-73.56167,"reserved":0,"last_update":"0001-01-01T00:00:00Z","name_a2s":"Uncletopia | Montr√©al | 4 | No Payload","protocol":17,"map":"cp_vanguard","folder":"tf","game":"Team Fortress","app_id":440,"player_count":0,"max_players":24,"Bots":0,"server_type":"Dedicated","server_os":"Linux","password":true,"vac":true,"version":"7882260","steam_id":85568392924500090,"keywords":["cp","nocrits","nodmgspread","uncletopia"],"game_id":440,"stv_port":27046,"stv_name":"Uncletopia | Montr√©al | 4 | No Payload | STV","players":null},{"server_id":13,"name":"Uncletopia | New York City | 1 | All Maps","name_short":"nyc-1","host":"nyc-1.us.uncletopia.com","port":27015,"enabled":true,"region":"us-east","cc":"us","latitude":40.73061,"longitude":-73.93524,"reserved":0,"last_update":"0001-01-01T00:00:00Z","name_a2s":"Uncletopia | New York City | 1 | All Maps","protocol":17,"map":"pl_pier","folder":"tf","game":"Team Fortress","app_id":440,"player_count":22,"max_players":24,"Bots":0,"server_type":"Dedicated","server_os":"Linux","password":true,"vac":true,"version":"7882260","steam_id":85568392924469993,"keywords":["nocrits","nodmgspread","payload","uncletopia"],"game_id":440,"stv_port":27016,"stv_name":"Uncletopia | New York City | 1 | All Maps | STV","players":[{"user_id":730,"name":"Wallet","steam_id":76561198081067377,"connected_time":1988000000000,"state":"active","ping":42},{"user_id":731,"name":"Yesu","steam_id":76561198026522528,"connected_time":1969000000000,"state":"active","ping":47},{"user_id":734,"name":"elpargo","steam_id":76561197998764140,"connected_time":1624000000000,"state":"active","ping":125},{"user_id":725,"name":"·óúÀ¨·óú","steam_id":76561198049076233,"connected_time":2518000000000,"state":"active","ping":92},{"user_id":735,"name":"Wan Shi Tong","steam_id":76561198076441225,"connected_time":1585000000000,"state":"active","ping":56},{"user_id":732,"name":"O-mega","steam_id":76561199175970696,"connected_time":1951000000000,"state":"active","ping":145},{"user_id":707,"name":"Mochi","steam_id":76561199151314140,"connected_time":4208000000000,"state":"active","ping":42},{"user_id":746,"name":"Potato","steam_id":76561198115604238,"connected_time":318000000000,"state":"active","ping":113},{"user_id":739,"name":"Lo-Pan","steam_id":76561198085670133,"connected_time":699000000000,"state":"active","ping":98},{"user_id":740,"name":"Minnie","steam_id":76561198091052019,"connected_time":674000000000,"state":"active","ping":46},{"user_id":710,"name":"[WKB‚úø] ÈÇ£Ôºåsuper","steam_id":76561198010094350,"connected_time":3922000000000,"state":"active","ping":82},{"user_id":711,"name":"Frajer","steam_id":76561198059129680,"connected_time":3879000000000,"state":"active","ping":57},{"user_id":722,"name":"n8","steam_id":76561198306380767,"connected_time":2685000000000,"state":"active","ping":50},{"user_id":716,"name":"Mi1stOG","steam_id":76561198158796326,"connected_time":3676000000000,"state":"active","ping":52},{"user_id":747,"name":"big coat season","steam_id":76561198047689205,"connected_time":305000000000,"state":"active","ping":55},{"user_id":728,"name":"tf2 enjoyer TF2EASY.COM","steam_id":76561198172732375,"connected_time":2174000000000,"state":"active","ping":60},{"user_id":742,"name":"Len","steam_id":76561199141913673,"connected_time":593000000000,"state":"active","ping":74},{"user_id":744,"name":"blink","steam_id":76561198324228489,"connected_time":406000000000,"state":"active","ping":76},{"user_id":696,"name":"kohlhagen","steam_id":76561198120440587,"connected_time":4742000000000,"state":"active","ping":61},{"user_id":479,"name":"Periculosum PhD in Funny","steam_id":76561198123370914,"connected_time":17025000000000,"state":"active","ping":87},{"user_id":715,"name":"Latif | trade.tf","steam_id":76561198136502483,"connected_time":3721000000000,"state":"active","ping":81},{"user_id":745,"name":"frizzle fried","steam_id":76561198062991744,"connected_time":401000000000,"state":"active","ping":49}]},{"server_id":14,"name":"Uncletopia | New York City | 2 | All Maps","name_short":"nyc-2","host":"nyc-1.us.uncletopia.com","port":27025,"enabled":true,"region":"us-east","cc":"us","latitude":40.73061,"longitude":-73.93524,"reserved":0,"last_update":"0001-01-01T00:00:00Z","name_a2s":"Uncletopia | New York City | 2 | All Maps","protocol":17,"map":"pl_barnblitz","folder":"tf","game":"Team Fortress","app_id":440,"player_count":0,"max_players":24,"Bots":0,"server_type":"Dedicated","server_os":"Linux","password":true,"vac":true,"version":"7882260","steam_id":85568392924469994,"keywords":["nocrits","nodmgspread","payload","uncletopia"],"game_id":440,"stv_port":27026,"stv_name":"Uncletopia | New York City | 2 | All Maps | STV","players":null},{"server_id":15,"name":"Uncletopia | New York City | 3 | Stopwatch Beta","name_short":"nyc-3","host":"nyc-1.us.uncletopia.com","port":27035,"enabled":true,"region":"us-east","cc":"us","latitude":40.73061,"longitude":-73.93524,"reserved":0,"last_update":"0001-01-01T00:00:00Z","name_a2s":"Uncletopia | New York City | 3 | Stopwatch Beta","protocol":17,"map":"koth_highpass","folder":"tf","game":"Team Fortress","app_id":440,"player_count":8,"max_players":24,"Bots":0,"server_type":"Dedicated","server_os":"Linux","password":true,"vac":true,"version":"7882260","steam_id":85568392924742820,"keywords":["cp","nocrits","nodmgspread","uncletopia"],"game_id":440,"stv_port":27036,"stv_name":"Uncletopia | New York City | 3 | Stopwatch Beta | STV","players":[{"user_id":535,"name":"KJKUOD","steam_id":76561198036448935,"connected_time":346000000000,"state":"active","ping":45},{"user_id":483,"name":"craven","steam_id":76561198088191503,"connected_time":3562000000000,"state":"active","ping":79},{"user_id":532,"name":"Cup O' Tea","steam_id":76561199181963791,"connected_time":667000000000,"state":"active","ping":116},{"user_id":504,"name":"Kickpuncher","steam_id":76561198121528357,"connected_time":2140000000000,"state":"active","ping":66},{"user_id":505,"name":"theconqueror","steam_id":76561199229806456,"connected_time":2063000000000,"state":"active","ping":71},{"user_id":508,"name":"tb.averted","steam_id":76561198067784310,"connected_time":1979000000000,"state":"active","ping":37},{"user_id":524,"name":"terrapieseven","steam_id":76561198072062415,"connected_time":1256000000000,"state":"active","ping":60},{"user_id":519,"name":"alfredodan #RunThatBack","steam_id":76561198025011044,"connected_time":1858000000000,"state":"active","ping":75}]},{"server_id":16,"name":"Uncletopia | New York City | 4 | Community","name_short":"nyc-4","host":"nyc-1.us.uncletopia.com","port":27045,"enabled":true,"region":"us-east","cc":"us","latitude":40.73061,"longitude":-73.93524,"reserved":0,"last_update":"0001-01-01T00:00:00Z","name_a2s":"Uncletopia | New York City | 4 | Community","protocol":17,"map":"workshop/koth_slaughter_rc1.ugc1712845210","folder":"tf","game":"Team Fortress","app_id":440,"player_count":0,"max_players":24,"Bots":0,"server_type":"Dedicated","server_os":"Linux","password":true,"vac":true,"version":"7882260","steam_id":85568392924742821,"keywords":["cp","nocrits","nodmgspread","uncletopia"],"game_id":440,"stv_port":27046,"stv_name":"Uncletopia | New York City | 4 | Community | STV","players":null},{"server_id":142,"name":"Uncletopia | S√£o Paulo | 1 | All Maps","name_short":"sao-1","host":"sao-1.br.uncletopia.com","port":27015,"enabled":true,"region":"sa","cc":"br","latitude":-23.533773,"longitude":-46.62529,"reserved":0,"last_update":"0001-01-01T00:00:00Z","name_a2s":"Uncletopia | S√£o Paulo | 1 | All Maps","protocol":17,"map":"koth_lakeside_final","folder":"tf","game":"Team Fortress","app_id":440,"player_count":0,"max_players":24,"Bots":0,"server_type":"Dedicated","server_os":"Linux","password":true,"vac":true,"version":"7882260","steam_id":85568392924469996,"keywords":["cp","nocrits","nodmgspread","uncletopia"],"game_id":440,"stv_port":27016,"stv_name":"Uncletopia | S√£o Paulo | 1 | All Maps | STV","players":null},{"server_id":143,"name":"Uncletopia | S√£o Paulo | 2 | All Maps","name_short":"sao-2","host":"sao-2.br.uncletopia.com","port":27015,"enabled":true,"region":"sa","cc":"br","latitude":-23.533773,"longitude":-46.62529,"reserved":0,"last_update":"0001-01-01T00:00:00Z","name_a2s":"Uncletopia | S√£o Paulo | 2 | All Maps","protocol":17,"map":"koth_lakeside_final","folder":"tf","game":"Team Fortress","app_id":440,"player_count":0,"max_players":24,"Bots":0,"server_type":"Dedicated","server_os":"Linux","password":true,"vac":true,"version":"7882260","steam_id":85568392924485349,"keywords":["cp","nocrits","nodmgspread","uncletopia"],"game_id":440,"stv_port":27016,"stv_name":"Uncletopia | S√£o Paulo | 2 | All Maps | STV","players":null},{"server_id":7,"name":"Uncletopia | Seattle | 1 | All Maps","name_short":"sea-1","host":"sea-1.us.uncletopia.com","port":27015,"enabled":true,"region":"us-west","cc":"us","latitude":47.608013,"longitude":-122.33517,"reserved":0,"last_update":"0001-01-01T00:00:00Z","name_a2s":"Uncletopia | Seattle | 1 | All Maps","protocol":17,"map":"cp_process_final","folder":"tf","game":"Team Fortress","app_id":440,"player_count":24,"max_players":24,"Bots":0,"server_type":"Dedicated","server_os":"Linux","password":true,"vac":true,"version":"7882260","steam_id":85568392924469997,"keywords":["cp","nocrits","nodmgspread","uncletopia"],"game_id":440,"stv_port":27016,"stv_name":"Uncletopia | Seattle | 1 | All Maps | STV","players":[{"user_id":806,"name":"Henchie!","steam_id":76561198047567464,"connected_time":94000000000,"state":"active","ping":85},{"user_id":722,"name":"smeasly","steam_id":76561198028718812,"connected_time":6594000000000,"state":"active","ping":40},{"user_id":775,"name":"Byrdman","steam_id":76561198063879878,"connected_time":2261000000000,"state":"active","ping":110},{"user_id":805,"name":"Mike Bean Burritos","steam_id":76561198173430607,"connected_time":418000000000,"state":"active","ping":54},{"user_id":802,"name":"oil","steam_id":76561198099980149,"connected_time":462000000000,"state":"active","ping":79},{"user_id":756,"name":"squash","steam_id":76561198150281353,"connected_time":4373000000000,"state":"active","ping":58},{"user_id":801,"name":"Scut","steam_id":76561198973734291,"connected_time":475000000000,"state":"active","ping":62},{"user_id":773,"name":"Dreamzapp","steam_id":76561199084936632,"connected_time":2365000000000,"state":"active","ping":98},{"user_id":798,"name":"hosewater","steam_id":76561198023383126,"connected_time":700000000000,"state":"active","ping":47},{"user_id":771,"name":"snorpus","steam_id":76561198420683272,"connected_time":2570000000000,"state":"active","ping":49},{"user_id":789,"name":"SCUD missile up your ass","steam_id":76561198066452726,"connected_time":1451000000000,"state":"active","ping":78},{"user_id":804,"name":"theycallmesoup","steam_id":76561198141514537,"connected_time":441000000000,"state":"active","ping":126},{"user_id":778,"name":"DaBigA","steam_id":76561198326492538,"connected_time":2176000000000,"state":"active","ping":54},{"user_id":761,"name":"Domopon","steam_id":76561199080347686,"connected_time":4170000000000,"state":"active","ping":70},{"user_id":790,"name":"ghostglitch","steam_id":76561197991608573,"connected_time":1418000000000,"state":"active","ping":69},{"user_id":796,"name":"quaq","steam_id":76561198059604047,"connected_time":780000000000,"state":"active","ping":44},{"user_id":760,"name":"GasNarr","steam_id":76561198027807933,"connected_time":4183000000000,"state":"active","ping":56},{"user_id":794,"name":"Milk T34","steam_id":76561198116115227,"connected_time":1033000000000,"state":"active","ping":94},{"user_id":799,"name":"spenca","steam_id":76561198025371154,"connected_time":498000000000,"state":"active","ping":74},{"user_id":666,"name":"‚ô•haunti","steam_id":76561199235580556,"connected_time":12043000000000,"state":"active","ping":48},{"user_id":762,"name":"tonyoslen","steam_id":76561198286627157,"connected_time":4167000000000,"state":"active","ping":74},{"user_id":787,"name":"Big Oil","steam_id":76561199238964574,"connected_time":1493000000000,"state":"active","ping":58},{"user_id":780,"name":"bbbbb","steam_id":76561198095480838,"connected_time":2080000000000,"state":"active","ping":46},{"user_id":795,"name":"lusty","steam_id":76561198138478947,"connected_time":892000000000,"state":"active","ping":37}]},{"server_id":119,"name":"Uncletopia | Seattle | 2 | All Maps","name_short":"sea-2","host":"sea-1.us.uncletopia.com","port":27025,"enabled":true,"region":"us-west","cc":"us","latitude":47.608013,"longitude":-122.33517,"reserved":0,"last_update":"0001-01-01T00:00:00Z","name_a2s":"Uncletopia | Seattle | 2 | All Maps","protocol":17,"map":"pl_badwater","folder":"tf","game":"Team Fortress","app_id":440,"player_count":24,"max_players":24,"Bots":0,"server_type":"Dedicated","server_os":"Linux","password":true,"vac":true,"version":"7882260","steam_id":85568392924469998,"keywords":["nocrits","nodmgspread","payload","uncletopia"],"game_id":440,"stv_port":27026,"stv_name":"Uncletopia | Seattle | 2 | All Maps | STV","players":[{"user_id":621,"name":"MasterCrafter27","steam_id":76561198151035981,"connected_time":2381000000000,"state":"active","ping":47},{"user_id":647,"name":"Slothy","steam_id":76561198967069349,"connected_time":454000000000,"state":"active","ping":57},{"user_id":622,"name":"Captain Underbelly","steam_id":76561198811270935,"connected_time":2362000000000,"state":"active","ping":70},{"user_id":655,"name":"Septamoosecane","steam_id":76561198077661620,"connected_time":15000000000,"state":"active","ping":73},{"user_id":623,"name":"rxqueen","steam_id":76561198049258493,"connected_time":2355000000000,"state":"active","ping":54},{"user_id":638,"name":"R5-D4","steam_id":76561198025196439,"connected_time":1443000000000,"state":"active","ping":58},{"user_id":652,"name":"mango cafe","steam_id":76561198142328193,"connected_time":141000000000,"state":"active","ping":46},{"user_id":645,"name":"Rusty","steam_id":76561198055585129,"connected_time":461000000000,"state":"active","ping":52},{"user_id":629,"name":"Daso","steam_id":76561198219209367,"connected_time":2129000000000,"state":"active","ping":55},{"user_id":644,"name":"Grill Skills","steam_id":76561198053575147,"connected_time":469000000000,"state":"active","ping":65},{"user_id":631,"name":"Idontknow","steam_id":76561199207044048,"connected_time":1995000000000,"state":"active","ping":43},{"user_id":625,"name":"The Horselords and Animal Gods","steam_id":76561197975094050,"connected_time":2344000000000,"state":"active","ping":89},{"user_id":603,"name":"SQbuilder","steam_id":76561198076473375,"connected_time":3062000000000,"state":"active","ping":68},{"user_id":649,"name":"CHIKN","steam_id":76561198277792665,"connected_time":431000000000,"state":"active","ping":80},{"user_id":646,"name":"charley","steam_id":76561198828238339,"connected_time":457000000000,"state":"active","ping":87},{"user_id":654,"name":"benji","steam_id":76561198084417967,"connected_time":134000000000,"state":"active","ping":72},{"user_id":650,"name":"TimTam","steam_id":76561198080434949,"connected_time":424000000000,"state":"active","ping":120},{"user_id":651,"name":"Mak","steam_id":76561198089197922,"connected_time":386000000000,"state":"active","ping":58},{"user_id":639,"name":"Coolshroomish","steam_id":76561199109440924,"connected_time":1354000000000,"state":"active","ping":45},{"user_id":635,"name":"louise sneeze","steam_id":76561198062451648,"connected_time":1666000000000,"state":"active","ping":91},{"user_id":642,"name":"Ayyyojimbo","steam_id":76561198020324687,"connected_time":689000000000,"state":"active","ping":62},{"user_id":640,"name":"no vc no c","steam_id":76561197989503095,"connected_time":1300000000000,"state":"active","ping":157},{"user_id":634,"name":"eau:","steam_id":76561198110020262,"connected_time":1895000000000,"state":"active","ping":71},{"user_id":643,"name":"sillymoder2005","steam_id":76561198202235495,"connected_time":689000000000,"state":"active","ping":44}]},{"server_id":406,"name":"Uncletopia | Seattle | 3 | Stopwatch Beta","name_short":"sea-3","host":"sea-1.us.uncletopia.com","port":27035,"enabled":true,"region":"us-west","cc":"us","latitude":47.608013,"longitude":-122.33517,"reserved":0,"last_update":"0001-01-01T00:00:00Z","name_a2s":"Uncletopia | Seattle | 3 | Stopwatch Beta","protocol":17,"map":"workshop/cp_reckoner_rc6.ugc674719999","folder":"tf","game":"Team Fortress","app_id":440,"player_count":10,"max_players":24,"Bots":0,"server_type":"Dedicated","server_os":"Linux","password":true,"vac":true,"version":"7882260","steam_id":85568392924515217,"keywords":["cp","nocrits","nodmgspread","uncletopia"],"game_id":440,"stv_port":27036,"stv_name":"Uncletopia | Seattle | 3 | Stopwatch Beta | STV","players":[{"user_id":159,"name":"TheOnlyItchy","steam_id":76561198964202303,"connected_time":381000000000,"state":"active","ping":146},{"user_id":109,"name":"This is hat is one of a kind","steam_id":76561198065649195,"connected_time":3980000000000,"state":"active","ping":141},{"user_id":145,"name":"CŒîPT‚õßMŒîRF","steam_id":76561198072101319,"connected_time":1501000000000,"state":"active","ping":75},{"user_id":144,"name":"KingDoop","steam_id":76561198088568427,"connected_time":1684000000000,"state":"active","ping":43},{"user_id":119,"name":"Foxyminion","steam_id":76561198325586743,"connected_time":3319000000000,"state":"active","ping":57},{"user_id":121,"name":"SolarusD","steam_id":76561198029279861,"connected_time":3308000000000,"state":"active","ping":63},{"user_id":146,"name":"Mint","steam_id":76561198798903270,"connected_time":1497000000000,"state":"active","ping":189},{"user_id":156,"name":"CozzyEh","steam_id":76561199137063042,"connected_time":596000000000,"state":"active","ping":58},{"user_id":157,"name":"T√ºCold","steam_id":76561198111278197,"connected_time":543000000000,"state":"active","ping":46},{"user_id":161,"name":"porksoda","steam_id":76561198021451377,"connected_time":366000000000,"state":"active","ping":44}]},{"server_id":17,"name":"Uncletopia | San Francisco | 1 | All Maps","name_short":"sfo-1","host":"sfo-1.us.uncletopia.com","port":27015,"enabled":true,"region":"us-west","cc":"us","latitude":37.77397,"longitude":-122.4313,"reserved":0,"last_update":"0001-01-01T00:00:00Z","name_a2s":"Uncletopia | San Francisco | 1 | All Maps","protocol":17,"map":"pl_frontier_final","folder":"tf","game":"Team Fortress","app_id":440,"player_count":20,"max_players":24,"Bots":0,"server_type":"Dedicated","server_os":"Linux","password":true,"vac":true,"version":"7882260","steam_id":85568392924469999,"keywords":["nocrits","nodmgspread","payload","uncletopia"],"game_id":440,"stv_port":27016,"stv_name":"Uncletopia | San Francisco | 1 | All Maps | STV","players":[{"user_id":345,"name":"Aux","steam_id":76561199091651065,"connected_time":11000000000,"state":"spawning","ping":58},{"user_id":315,"name":"Butters","steam_id":76561198318525860,"connected_time":1691000000000,"state":"active","ping":105},{"user_id":344,"name":"JamesBlakeFan11","steam_id":76561198440539769,"connected_time":70000000000,"state":"active","ping":53},{"user_id":316,"name":"Goldrush Ram","steam_id":76561198160317465,"connected_time":1690000000000,"state":"active","ping":57},{"user_id":328,"name":"gmagnum","steam_id":76561199034260371,"connected_time":851000000000,"state":"active","ping":52},{"user_id":336,"name":"Little Shuriken","steam_id":76561199020477560,"connected_time":356000000000,"state":"active","ping":60},{"user_id":302,"name":"SleezeBaggerMcSwagger","steam_id":76561198397836238,"connected_time":2143000000000,"state":"active","ping":49},{"user_id":331,"name":"FaceLaces","steam_id":76561198194417725,"connected_time":749000000000,"state":"active","ping":66},{"user_id":304,"name":"a jungle ride cool","steam_id":76561198068543939,"connected_time":2112000000000,"state":"active","ping":145},{"user_id":311,"name":"Horsey Surprise","steam_id":76561198176920433,"connected_time":2017000000000,"state":"active","ping":104},{"user_id":325,"name":"Monarch of Glass","steam_id":76561198165638237,"connected_time":1001000000000,"state":"active","ping":60},{"user_id":339,"name":"Eric4bz","steam_id":76561198054439606,"connected_time":201000000000,"state":"active","ping":81},{"user_id":281,"name":"Jax O'Gaytor","steam_id":76561198288922168,"connected_time":4019000000000,"state":"active","ping":69},{"user_id":333,"name":"Tomatm0_","steam_id":76561198369658842,"connected_time":722000000000,"state":"active","ping":78},{"user_id":340,"name":"Cypress [ +/- ] ‚úî","steam_id":76561198067164431,"connected_time":197000000000,"state":"active","ping":46},{"user_id":332,"name":"Dungeonless DM","steam_id":76561198097595539,"connected_time":744000000000,"state":"active","ping":80},{"user_id":341,"name":"Pyrotek‚Å¥","steam_id":76561198072747672,"connected_time":182000000000,"state":"active","ping":49},{"user_id":342,"name":"Escapist Robot","steam_id":76561198121501913,"connected_time":158000000000,"state":"active","ping":57},{"user_id":343,"name":"Skip Hop Doo Bop","steam_id":76561199161571849,"connected_time":154000000000,"state":"active","ping":47},{"user_id":310,"name":"10 years in the joint man","steam_id":76561199007540371,"connected_time":2043000000000,"state":"active","ping":118}]},{"server_id":18,"name":"Uncletopia | San Francisco | 2 | All Maps","name_short":"sfo-2","host":"sfo-1.us.uncletopia.com","port":27025,"enabled":true,"region":"us-west","cc":"us","latitude":37.77397,"longitude":-122.4313,"reserved":0,"last_update":"0001-01-01T00:00:00Z","name_a2s":"Uncletopia | San Francisco | 2 | All Maps","protocol":17,"map":"pl_pier","folder":"tf","game":"Team Fortress","app_id":440,"player_count":0,"max_players":24,"Bots":0,"server_type":"Dedicated","server_os":"Linux","password":true,"vac":true,"version":"7882260","steam_id":85568392924470000,"keywords":["nocrits","nodmgspread","payload","uncletopia"],"game_id":440,"stv_port":27026,"stv_name":"Uncletopia | San Francisco | 2 | All Maps | STV","players":null},{"server_id":19,"name":"Uncletopia | San Francisco | 3 | Stopwatch Beta","name_short":"sfo-3","host":"sfo-1.us.uncletopia.com","port":27035,"enabled":true,"region":"us-west","cc":"us","latitude":37.77397,"longitude":-122.4313,"reserved":0,"last_update":"0001-01-01T00:00:00Z","name_a2s":"Uncletopia | San Francisco | 3 | Stopwatch Beta","protocol":17,"map":"pl_snowycoast","folder":"tf","game":"Team Fortress","app_id":440,"player_count":0,"max_players":24,"Bots":0,"server_type":"Dedicated","server_os":"Linux","password":true,"vac":true,"version":"7882260","steam_id":85568392924742824,"keywords":["nocrits","nodmgspread","payload","uncletopia"],"game_id":440,"stv_port":27036,"stv_name":"Uncletopia | San Francisco | 3 | Stopwatch Beta | STV","players":null},{"server_id":20,"name":"Uncletopia | San Francisco | 4 | Community","name_short":"sfo-4","host":"sfo-1.us.uncletopia.com","port":27045,"enabled":true,"region":"us-west","cc":"us","latitude":37.77397,"longitude":-122.4313,"reserved":0,"last_update":"0001-01-01T00:00:00Z","name_a2s":"Uncletopia | San Francisco | 4 | Community","protocol":17,"map":"workshop/koth_ramjam_rc1.ugc459778887","folder":"tf","game":"Team Fortress","app_id":440,"player_count":0,"max_players":24,"Bots":0,"server_type":"Dedicated","server_os":"Linux","password":true,"vac":true,"version":"7882260","steam_id":85568392924742826,"keywords":["cp","nocrits","nodmgspread","uncletopia"],"game_id":440,"stv_port":27046,"stv_name":"Uncletopia | San Francisco | 4 | Community | STV","players":null},{"server_id":141,"name":"Uncletopia | Sydney | 1 | All Maps","name_short":"syd-1","host":"syd-1.au.uncletopia.com","port":27015,"enabled":true,"region":"au","cc":"au","latitude":-33.865143,"longitude":151.2099,"reserved":0,"last_update":"0001-01-01T00:00:00Z","name_a2s":"Uncletopia | Sydney | 1 | All Maps","protocol":17,"map":"pl_frontier_final","folder":"tf","game":"Team Fortress","app_id":440,"player_count":0,"max_players":24,"Bots":0,"server_type":"Dedicated","server_os":"Linux","password":true,"vac":true,"version":"7882260","steam_id":85568392924470001,"keywords":["nocrits","nodmgspread","payload","uncletopia"],"game_id":440,"stv_port":27016,"stv_name":"Uncletopia | Sydney | 1 | All Maps | STV","players":null},{"server_id":123,"name":"Uncletopia | Sydney | 2 | All Maps","name_short":"syd-2","host":"syd-1.au.uncletopia.com","port":27025,"enabled":true,"region":"au","cc":"au","latitude":-33.865143,"longitude":151.2099,"reserved":0,"last_update":"0001-01-01T00:00:00Z","name_a2s":"Uncletopia | Sydney | 2 | All Maps","protocol":17,"map":"cp_process_final","folder":"tf","game":"Team Fortress","app_id":440,"player_count":0,"max_players":24,"Bots":0,"server_type":"Dedicated","server_os":"Linux","password":true,"vac":true,"version":"7882260","steam_id":85568392924470002,"keywords":["cp","nocrits","nodmgspread","uncletopia"],"game_id":440,"stv_port":27026,"stv_name":"Uncletopia | Sydney | 2 | All Maps | STV","players":null},{"server_id":395,"name":"Uncletopia | Sydney | 3 | All Maps","name_short":"syd-3","host":"syd-1.au.uncletopia.com","port":27035,"enabled":true,"region":"au","cc":"au","latitude":-33.865143,"longitude":151.2099,"reserved":0,"last_update":"0001-01-01T00:00:00Z","name_a2s":"Uncletopia | Sydney | 3 | All Maps","protocol":17,"map":"pl_pier","folder":"tf","game":"Team Fortress","app_id":440,"player_count":0,"max_players":24,"Bots":0,"server_type":"Dedicated","server_os":"Linux","password":true,"vac":true,"version":"7882260","steam_id":85568392925194467,"keywords":["nocrits","nodmgspread","payload","uncletopia"],"game_id":440,"stv_port":27036,"stv_name":"Uncletopia | Sydney | 3 | All Maps | STV","players":null},{"server_id":396,"name":"Uncletopia | Sydney | 4 | All Maps","name_short":"syd-4","host":"syd-1.au.uncletopia.com","port":27045,"enabled":true,"region":"au","cc":"au","latitude":-33.865143,"longitude":151.2099,"reserved":0,"last_update":"0001-01-01T00:00:00Z","name_a2s":"Uncletopia | Sydney | 4 | All Maps","protocol":17,"map":"cp_mountainlab","folder":"tf","game":"Team Fortress","app_id":440,"player_count":0,"max_players":24,"Bots":0,"server_type":"Dedicated","server_os":"Linux","password":true,"vac":true,"version":"7882260","steam_id":85568392925397958,"keywords":["cp","nocrits","nodmgspread","uncletopia"],"game_id":440,"stv_port":27046,"stv_name":"Uncletopia | Sydney | 4 | All Maps | STV","players":null},{"server_id":58,"name":"Uncletopia | Sydney | 5 | Stopwatch Beta","name_short":"syd-5","host":"syd-1.au.uncletopia.com","port":27055,"enabled":true,"region":"au","cc":"au","latitude":-33.865143,"longitude":151.2099,"reserved":0,"last_update":"0001-01-01T00:00:00Z","name_a2s":"Uncletopia | Sydney | 5 | Stopwatch Beta","protocol":17,"map":"koth_viaduct","folder":"tf","game":"Team Fortress","app_id":440,"player_count":0,"max_players":24,"Bots":0,"server_type":"Dedicated","server_os":"Linux","password":true,"vac":true,"version":"7882260","steam_id":85568392925397959,"keywords":["cp","nocrits","nodmgspread","uncletopia"],"game_id":440,"stv_port":27056,"stv_name":"Uncletopia | Sydney | 5 | Stopwatch Beta | STV","players":null},{"server_id":59,"name":"Uncletopia | Sydney | 6 | Community","name_short":"syd-6","host":"syd-1.au.uncletopia.com","port":27065,"enabled":true,"region":"au","cc":"au","latitude":-33.865143,"longitude":151.2099,"reserved":0,"last_update":"0001-01-01T00:00:00Z","name_a2s":"Uncletopia | Sydney | 6 | Community","protocol":17,"map":"pl_upward","folder":"tf","game":"Team Fortress","app_id":440,"player_count":0,"max_players":24,"Bots":0,"server_type":"Dedicated","server_os":"Linux","password":true,"vac":true,"version":"7882260","steam_id":85568392925397960,"keywords":["nocrits","nodmgspread","payload","uncletopia"],"game_id":440,"stv_port":27066,"stv_name":"Uncletopia | Sydney | 6 | Community | STV","players":null},{"server_id":49,"name":"Uncletopia | Warsaw | 1 | All Maps","name_short":"waw-1","host":"waw-1.pl.uncletopia.com","port":27015,"enabled":true,"region":"eu","cc":"pl","latitude":52.2297,"longitude":21.017532,"reserved":0,"last_update":"0001-01-01T00:00:00Z","name_a2s":"","protocol":0,"map":"","folder":"","game":"","app_id":0,"player_count":0,"max_players":0,"Bots":0,"server_type":"","server_os":"","password":false,"vac":false,"version":"","steam_id":0,"keywords":null,"game_id":0,"stv_port":0,"stv_name":"","players":null},{"server_id":50,"name":"Uncletopia | Warsaw | 2 | All Maps","name_short":"waw-2","host":"waw-1.pl.uncletopia.com","port":27025,"enabled":true,"region":"eu","cc":"pl","latitude":52.2297,"longitude":21.017532,"reserved":0,"last_update":"0001-01-01T00:00:00Z","name_a2s":"Uncletopia | Warsaw | 2 | All Maps","protocol":17,"map":"koth_viaduct","folder":"tf","game":"Team Fortress","app_id":440,"player_count":0,"max_players":24,"Bots":0,"server_type":"Dedicated","server_os":"Linux","password":true,"vac":true,"version":"7882260","steam_id":85568392925397851,"keywords":["cp","nocrits","nodmgspread","uncletopia"],"game_id":440,"stv_port":27026,"stv_name":"Uncletopia | Warsaw | 2 | All Maps | STV","players":null},{"server_id":51,"name":"Uncletopia | Warsaw | 3 | All Maps","name_short":"waw-3","host":"waw-1.pl.uncletopia.com","port":27035,"enabled":true,"region":"eu","cc":"pl","latitude":52.2297,"longitude":21.017532,"reserved":0,"last_update":"0001-01-01T00:00:00Z","name_a2s":"Uncletopia | Warsaw | 3 | All Maps","protocol":17,"map":"pl_badwater","folder":"tf","game":"Team Fortress","app_id":440,"player_count":0,"max_players":24,"Bots":0,"server_type":"Dedicated","server_os":"Linux","password":true,"vac":true,"version":"7882260","steam_id":85568392925397852,"keywords":["nocrits","nodmgspread","payload","uncletopia"],"game_id":440,"stv_port":27036,"stv_name":"Uncletopia | Warsaw | 3 | All Maps | STV","players":null},{"server_id":52,"name":"Uncletopia | Warsaw | 4 | All Maps","name_short":"waw-4","host":"waw-1.pl.uncletopia.com","port":27045,"enabled":true,"region":"eu","cc":"pl","latitude":52.2297,"longitude":21.017532,"reserved":0,"last_update":"0001-01-01T00:00:00Z","name_a2s":"Uncletopia | Warsaw | 4 | All Maps","protocol":17,"map":"koth_cascade","folder":"tf","game":"Team Fortress","app_id":440,"player_count":0,"max_players":24,"Bots":0,"server_type":"Dedicated","server_os":"Linux","password":true,"vac":true,"version":"7882260","steam_id":85568392925397853,"keywords":["cp","nocrits","nodmgspread","uncletopia"],"game_id":440,"stv_port":27046,"stv_name":"Uncletopia | Warsaw | 4 | All Maps | STV","players":null},{"server_id":53,"name":"Uncletopia | Warsaw | 5 | Stopwatch Beta","name_short":"waw-5","host":"waw-1.pl.uncletopia.com","port":27055,"enabled":true,"region":"eu","cc":"pl","latitude":52.2297,"longitude":21.017532,"reserved":0,"last_update":"0001-01-01T00:00:00Z","name_a2s":"Uncletopia | Warsaw | 5 | Stopwatch Beta","protocol":17,"map":"cp_dustbowl","folder":"tf","game":"Team Fortress","app_id":440,"player_count":0,"max_players":24,"Bots":0,"server_type":"Dedicated","server_os":"Linux","password":true,"vac":true,"version":"7882260","steam_id":85568392925397854,"keywords":["cp","nocrits","nodmgspread","uncletopia"],"game_id":440,"stv_port":27056,"stv_name":"Uncletopia | Warsaw | 5 | Stopwatch Beta | STV","players":null},{"server_id":54,"name":"Uncletopia | Warsaw | 6 | Community","name_short":"waw-6","host":"waw-1.pl.uncletopia.com","port":27065,"enabled":true,"region":"eu","cc":"pl","latitude":52.2297,"longitude":21.017532,"reserved":0,"last_update":"0001-01-01T00:00:00Z","name_a2s":"Uncletopia | Warsaw | 6 | Community","protocol":17,"map":"cp_dustbowl","folder":"tf","game":"Team Fortress","app_id":440,"player_count":0,"max_players":24,"Bots":0,"server_type":"Dedicated","server_os":"Linux","password":true,"vac":true,"version":"7882260","steam_id":85568392925397856,"keywords":["cp","nocrits","nodmgspread","uncletopia"],"game_id":440,"stv_port":27066,"stv_name":"Uncletopia | Warsaw | 6 | Community | STV","players":null}]}