{"status":true,"message":"","result":[{"server_id":2,"name":"Uncletopia | Chicago | 1 | All Maps","name_short":"chi-1","host":"chi-1.us.uncletopia.com","port":27015,"enabled":true,"region":"us-central","cc":"us","latitude":41.881832,"longitude":-87.62318,"reserved":0,"last_update":"0001-01-01T00:00:00Z","name_a2s":"Uncletopia | Chicago | 1 | All Maps","protocol":17,"map":"pl_thundermountain","folder":"tf","game":"Team Fortress","app_id":440,"player_count":24,"max_players":24,"Bots":0,"server_type":"Dedicated","server_os":"Linux","password":true,"vac":true,"version":"7961495","steam_id":85568392924469984,"keywords":["nocrits","nodmgspread","payload","uncletopia"],"game_id":440,"stv_port":27016,"stv_name":"Uncletopia | Chicago | 1 | All Maps | STV","players":[{"user_id":738,"name":"CyberZayne","steam_id":76561198002351356,"connected_time":188000000000,"state":"active","ping":91},{"user_id":732,"name":"CharaDreemurr","steam_id":76561198843330128,"connected_time":228000000000,"state":"active","ping":113},{"user_id":710,"name":"igotmail","steam_id":76561198070631899,"connected_time":2273000000000,"state":"active","ping":69},{"user_id":720,"name":"Technomancer","steam_id":76561198137758683,"connected_time":1587000000000,"state":"active","ping":86},{"user_id":740,"name":"wack","steam_id":76561198095697330,"connected_time":48000000000,"state":"active","ping":81},{"user_id":734,"name":"Ripheart","steam_id":76561198089661561,"connected_time":226000000000,"state":"active","ping":41},{"user_id":663,"name":"Grand","steam_id":76561198290143399,"connected_time":4238000000000,"state":"active","ping":62},{"user_id":695,"name":"King","steam_id":76561198039763676,"connected_time":3489000000000,"state":"active","ping":81},{"user_id":736,"name":"Thatguy_1029","steam_id":76561199232419803,"connected_time":212000000000,"state":"active","ping":93},{"user_id":702,"name":"TheAlmightyG","steam_id":76561198235946096,"connected_time":3280000000000,"state":"active","ping":91},{"user_id":730,"name":"Posture Check","steam_id":76561198998634786,"connected_time":250000000000,"state":"active","ping":98},{"user_id":717,"name":"StonedGiant","steam_id":76561197984386932,"connected_time":1644000000000,"state":"active","ping":60},{"user_id":708,"name":"Celestial Bodies","steam_id":76561198212572955,"connected_time":2749000000000,"state":"active","ping":84},{"user_id":735,"name":"Ademar","steam_id":76561199391802581,"connected_time":218000000000,"state":"active","ping":58},{"user_id":737,"name":"God's Sleepiest Puppy Girl","steam_id":76561198070315609,"connected_time":209000000000,"state":"active","ping":61},{"user_id":731,"name":"cheese burger","steam_id":76561198999217575,"connected_time":250000000000,"state":"active","ping":68},{"user_id":680,"name":"Girl gamer","steam_id":76561198237827742,"connected_time":3975000000000,"state":"active","ping":68},{"user_id":723,"name":"Wilhelmktx","steam_id":76561198158102295,"connected_time":1547000000000,"state":"active","ping":45},{"user_id":727,"name":"Null","steam_id":76561198062791227,"connected_time":887000000000,"state":"active","ping":75},{"user_id":707,"name":"Tile(s)","steam_id":76561198196660338,"connected_time":3189000000000,"state":"active","ping":77},{"user_id":739,"name":"Mega","steam_id":76561198121258379,"connected_time":183000000000,"state":"active","ping":87},{"user_id":728,"name":"Glue Gulper","steam_id":76561198158014525,"connected_time":886000000000,"state":"active","ping":69},{"user_id":725,"name":"PEPSIMAN","steam_id":76561198045143630,"connected_time":912000000000,"state":"active","ping":89}]},{"server_id":106,"name":"Uncletopia | Chicago | 2 | All Maps","name_short":"chi-2","host":"chi-1.us.uncletopia.com","port":27025,"enabled":true,"region":"us-central","cc":"us","latitude":41.881832,"longitude":-87.62318,"reserved":0,"last_update":"0001-01-01T00:00:00Z","name_a2s":"Uncletopia | Chicago | 2 | All Maps","protocol":17,"map":"pl_swiftwater_final1","folder":"tf","game":"Team Fortress","app_id":440,"player_count":24,"max_players":24,"Bots":0,"server_type":"Dedicated","server_os":"Linux","password":true,"vac":true,"version":"7961495","steam_id":85568392924469985,"keywords":["nocrits","nodmgspread","payload","uncletopia"],"game_id":440,"stv_port":27026,"stv_name":"Uncletopia | Chicago | 2 | All Maps | STV","players":[{"user_id":411,"name":"tA.CHRONIC","steam_id":76561197960760990,"connected_time":1625000000000,"state":"active","ping":78},{"user_id":427,"name":"shalankawanak","steam_id":76561198987719376,"connected_time":48000000000,"state":"active","ping":50},{"user_id":423,"name":"Menlymen","steam_id":76561198046508051,"connected_time":886000000000,"state":"active","ping":65},{"user_id":424,"name":"TheOneZoot","steam_id":76561198121944243,"connected_time":869000000000,"state":"active","ping":75},{"user_id":406,"name":"RUF","steam_id":76561198062315805,"connected_time":2127000000000,"state":"active","ping":103},{"user_id":405,"name":"Hooked","steam_id":76561198007302139,"connected_time":2140000000000,"state":"active","ping":67},{"user_id":416,"name":"SSBM Pelican","steam_id":76561198040697907,"connected_time":1605000000000,"state":"active","ping":72},{"user_id":401,"name":"Pixel","steam_id":76561198129243055,"connected_time":2534000000000,"state":"active","ping":87},{"user_id":397,"name":"Stranger in a Strange Land","steam_id":76561198049843671,"connected_time":2838000000000,"state":"active","ping":63},{"user_id":419,"name":"Mr. Green","steam_id":76561198037778253,"connected_time":1121000000000,"state":"active","ping":62},{"user_id":343,"name":"D(b) Hell","steam_id":76561198067869016,"connected_time":8155000000000,"state":"active","ping":37},{"user_id":400,"name":"bootyrash","steam_id":76561198164114737,"connected_time":2741000000000,"state":"active","ping":67},{"user_id":373,"name":"hej","steam_id":76561197996366940,"connected_time":5212000000000,"state":"active","ping":60},{"user_id":428,"name":"'Ki||-Your_Landlords7","steam_id":76561197999542043,"connected_time":45000000000,"state":"active","ping":57},{"user_id":404,"name":"Pattar","steam_id":76561198146276146,"connected_time":2238000000000,"state":"active","ping":60},{"user_id":420,"name":"Thundermonkey (SMOKE)","steam_id":76561198017631728,"connected_time":952000000000,"state":"active","ping":66},{"user_id":393,"name":"anipe10","steam_id":76561199084698417,"connected_time":3093000000000,"state":"active","ping":96},{"user_id":425,"name":"Jill the Owl","steam_id":76561197999210583,"connected_time":599000000000,"state":"active","ping":78},{"user_id":338,"name":"Swash","steam_id":76561197969421355,"connected_time":8639000000000,"state":"active","ping":63},{"user_id":410,"name":"Lia_Rein","steam_id":76561198151569597,"connected_time":1932000000000,"state":"active","ping":137},{"user_id":310,"name":"Word To Your Mothership","steam_id":76561198034329138,"connected_time":11064000000000,"state":"active","ping":101},{"user_id":429,"name":"delight","steam_id":76561199098687288,"connected_time":36000000000,"state":"connecting","ping":71},{"user_id":426,"name":"richard clock","steam_id":76561198048455671,"connected_time":53000000000,"state":"active","ping":61},{"user_id":414,"name":"Christmas Ham","steam_id":76561198119601623,"connected_time":1622000000000,"state":"active","ping":141}]},{"server_id":402,"name":"Uncletopia | Chicago | 3 | All Maps","name_short":"chi-3","host":"chi-1.us.uncletopia.com","port":27035,"enabled":true,"region":"us-central","cc":"us","latitude":41.881832,"longitude":-87.62318,"reserved":0,"last_update":"0001-01-01T00:00:00Z","name_a2s":"Uncletopia | Chicago | 3 | All Maps","protocol":17,"map":"pl_barnblitz","folder":"tf","game":"Team Fortress","app_id":440,"player_count":24,"max_players":24,"Bots":0,"server_type":"Dedicated","server_os":"Linux","password":true,"vac":true,"version":"7961495","steam_id":85568392924515191,"keywords":["nocrits","nodmgspread","payload","uncletopia"],"game_id":440,"stv_port":27036,"stv_name":"Uncletopia | Chicago | 3 | All Maps | STV","players":[{"user_id":475,"name":"peepoAngry","steam_id":76561198062437310,"connected_time":732000000000,"state":"active","ping":72},{"user_id":422,"name":"DISCHARGEENJOYER2004","steam_id":76561198273568117,"connected_time":3684000000000,"state":"active","ping":70},{"user_id":463,"name":"Morpheus","steam_id":76561198012390236,"connected_time":1619000000000,"state":"active","ping":80},{"user_id":451,"name":"Peppino Spaghetti","steam_id":76561199390353195,"connected_time":2643000000000,"state":"active","ping":48},{"user_id":464,"name":"Dyson","steam_id":76561198267838329,"connected_time":1366000000000,"state":"active","ping":81},{"user_id":440,"name":"resh!","steam_id":76561198066619792,"connected_time":3082000000000,"state":"active","ping":70},{"user_id":446,"name":"dmikewilcox","steam_id":76561198060700489,"connected_time":2773000000000,"state":"active","ping":44},{"user_id":458,"name":"Chimi","steam_id":76561198067800540,"connected_time":1909000000000,"state":"active","ping":76},{"user_id":473,"name":"Furniture Living Set $299","steam_id":76561198077756206,"connected_time":767000000000,"state":"active","ping":131},{"user_id":453,"name":"MILKY","steam_id":76561198073114061,"connected_time":2324000000000,"state":"active","ping":71},{"user_id":465,"name":"mrappledumb","steam_id":76561199133590774,"connected_time":934000000000,"state":"active","ping":93},{"user_id":466,"name":"Dareka","steam_id":76561198371183174,"connected_time":833000000000,"state":"active","ping":187},{"user_id":459,"name":"Verse","steam_id":76561198996078605,"connected_time":1906000000000,"state":"active","ping":67},{"user_id":478,"name":"NCR Trooper","steam_id":76561198032239301,"connected_time":54000000000,"state":"active","ping":164},{"user_id":477,"name":"FishermanSteve23","steam_id":76561198422103060,"connected_time":248000000000,"state":"active","ping":177},{"user_id":472,"name":"wwhg","steam_id":76561198140658919,"connected_time":783000000000,"state":"active","ping":67},{"user_id":443,"name":"LUIGI DANGEROUS","steam_id":76561198303944190,"connected_time":2849000000000,"state":"active","ping":67},{"user_id":426,"name":"[DATS➡] Sugar Meowth","steam_id":76561197995251793,"connected_time":3567000000000,"state":"active","ping":90},{"user_id":427,"name":"aisu","steam_id":76561198043768507,"connected_time":3542000000000,"state":"active","ping":67},{"user_id":461,"name":"portal","steam_id":76561198094569952,"connected_time":1901000000000,"state":"active","ping":129},{"user_id":444,"name":"earl sweatshirt fan","steam_id":76561199177165894,"connected_time":2827000000000,"state":"active","ping":45},{"user_id":462,"name":"OG Penguin","steam_id":76561199240575933,"connected_time":1766000000000,"state":"active","ping":115},{"user_id":471,"name":"Potato","steam_id":76561198115677693,"connected_time":801000000000,"state":"active","ping":58},{"user_id":468,"name":"Brimp","steam_id":76561198066947783,"connected_time":828000000000,"state":"active","ping":46}]},{"server_id":403,"name":"Uncletopia | Chicago | 4 | All Maps","name_short":"chi-4","host":"chi-1.us.uncletopia.com","port":27045,"enabled":true,"region":"us-central","cc":"us","latitude":41.881832,"longitude":-87.62318,"reserved":0,"last_update":"0001-01-01T00:00:00Z","name_a2s":"Uncletopia | Chicago | 4 | All Maps","protocol":17,"map":"cp_dustbowl","folder":"tf","game":"Team Fortress","app_id":440,"player_count":24,"max_players":24,"Bots":0,"server_type":"Dedicated","server_os":"Linux","password":true,"vac":true,"version":"7961495","steam_id":85568392924515193,"keywords":["cp","nocrits","nodmgspread","uncletopia"],"game_id":440,"stv_port":27046,"stv_name":"Uncletopia | Chicago | 4 | All Maps | STV","players":[{"user_id":249,"name":"Willem Dafoe","steam_id":76561198037453253,"connected_time":2908000000000,"state":"active","ping":61},{"user_id":260,"name":"Jousty","steam_id":76561199162677853,"connected_time":2018000000000,"state":"active","ping":102},{"user_id":272,"name":"Jammer Power","steam_id":76561198435691014,"connected_time":1798000000000,"state":"active","ping":100},{"user_id":266,"name":"SanitysEdge","steam_id":76561198130732813,"connected_time":1985000000000,"state":"active","ping":96},{"user_id":198,"name":"v8o1","steam_id":76561198127599257,"connected_time":5892000000000,"state":"active","ping":87},{"user_id":268,"name":"NUt","steam_id":76561198031007966,"connected_time":1947000000000,"state":"active","ping":107},{"user_id":283,"name":"The Lucky Wheel","steam_id":76561198063567691,"connected_time":176000000000,"state":"active","ping":82},{"user_id":225,"name":"Crimson G","steam_id":76561198112970195,"connected_time":4332000000000,"state":"active","ping":116},{"user_id":226,"name":"defcon","steam_id":76561198100656328,"connected_time":4316000000000,"state":"active","ping":80},{"user_id":216,"name":"Emily50AE","steam_id":76561198088619665,"connected_time":4883000000000,"state":"active","ping":82},{"user_id":278,"name":"wud","steam_id":76561198265200834,"connected_time":594000000000,"state":"active","ping":80},{"user_id":221,"name":"Kirby.exe","steam_id":76561198242714582,"connected_time":4618000000000,"state":"active","ping":70},{"user_id":284,"name":"girl.","steam_id":76561198314897603,"connected_time":118000000000,"state":"active","ping":59},{"user_id":197,"name":"Nobody","steam_id":76561198085808754,"connected_time":5915000000000,"state":"active","ping":88},{"user_id":261,"name":"Usseewa","steam_id":76561198142683193,"connected_time":2017000000000,"state":"active","ping":81},{"user_id":256,"name":"[Melon]","steam_id":76561198010161125,"connected_time":2521000000000,"state":"active","ping":38},{"user_id":171,"name":"ryan55510","steam_id":76561198054750052,"connected_time":9119000000000,"state":"active","ping":162},{"user_id":279,"name":"Cogbjörn","steam_id":76561198305487648,"connected_time":559000000000,"state":"active","ping":56},{"user_id":233,"name":"Saggy Haggis Balls","steam_id":76561198047845399,"connected_time":4205000000000,"state":"active","ping":68},{"user_id":282,"name":"ChebJeb","steam_id":76561198981377081,"connected_time":339000000000,"state":"active","ping":87},{"user_id":270,"name":"eaglesfan609","steam_id":76561198151032242,"connected_time":1857000000000,"state":"active","ping":70},{"user_id":264,"name":"a table","steam_id":76561198158461279,"connected_time":1994000000000,"state":"active","ping":66},{"user_id":276,"name":"Epifiny","steam_id":76561198027958086,"connected_time":1399000000000,"state":"active","ping":68},{"user_id":271,"name":"slowdance","steam_id":76561198097427947,"connected_time":1814000000000,"state":"active","ping":139}]},{"server_id":36,"name":"Uncletopia | Chicago | 5 | All Maps","name_short":"chi-5","host":"chi-2.us.uncletopia.com","port":27015,"enabled":true,"region":"us-central","cc":"us","latitude":41.881832,"longitude":-87.62318,"reserved":0,"last_update":"0001-01-01T00:00:00Z","name_a2s":"Uncletopia | Chicago | 5 | All Maps","protocol":17,"map":"pl_pier","folder":"tf","game":"Team Fortress","app_id":440,"player_count":22,"max_players":24,"Bots":0,"server_type":"Dedicated","server_os":"Linux","password":true,"vac":true,"version":"7961495","steam_id":85568392924866362,"keywords":["nocrits","nodmgspread","payload","uncletopia"],"game_id":440,"stv_port":27016,"stv_name":"Uncletopia | Chicago | 5 | All Maps | STV","players":[{"user_id":456,"name":"GreenApples","steam_id":76561198120559543,"connected_time":1019000000000,"state":"active","ping":96},{"user_id":466,"name":"supcupman","steam_id":76561198051513866,"connected_time":298000000000,"state":"active","ping":109},{"user_id":423,"name":"Margo_Rae","steam_id":76561198035046430,"connected_time":2184000000000,"state":"active","ping":85},{"user_id":462,"name":"Ark","steam_id":76561198053000340,"connected_time":893000000000,"state":"active","ping":61},{"user_id":460,"name":"PrismDraco","steam_id":76561198417653604,"connected_time":951000000000,"state":"active","ping":85},{"user_id":404,"name":"Synergy","steam_id":76561198098630198,"connected_time":3873000000000,"state":"active","ping":104},{"user_id":449,"name":"i failed my finals","steam_id":76561198174751517,"connected_time":1136000000000,"state":"active","ping":111},{"user_id":392,"name":"FiddyFoMike","steam_id":76561198057072581,"connected_time":4549000000000,"state":"active","ping":101},{"user_id":467,"name":"BreadGod","steam_id":76561198050665205,"connected_time":134000000000,"state":"active","ping":60},{"user_id":468,"name":"harold","steam_id":76561199016285746,"connected_time":88000000000,"state":"active","ping":89},{"user_id":453,"name":"Sweattadpole","steam_id":76561199456100100,"connected_time":1102000000000,"state":"active","ping":130},{"user_id":469,"name":"xXConManABQXx","steam_id":76561198875469297,"connected_time":18000000000,"state":"spawning","ping":56},{"user_id":440,"name":"Mysterious Stranger","steam_id":76561198212044371,"connected_time":1612000000000,"state":"active","ping":66},{"user_id":454,"name":"MF SHROOM","steam_id":76561199051344147,"connected_time":1101000000000,"state":"active","ping":107},{"user_id":442,"name":"ntjohn","steam_id":76561198043367011,"connected_time":1397000000000,"state":"active","ping":61},{"user_id":457,"name":"thatguy_luigi","steam_id":76561198968055462,"connected_time":1019000000000,"state":"active","ping":105},{"user_id":412,"name":"BlasterPrime","steam_id":76561198084154062,"connected_time":3688000000000,"state":"active","ping":60},{"user_id":417,"name":"BugsAreMyWorstEnemy","steam_id":76561199440395505,"connected_time":2782000000000,"state":"active","ping":79},{"user_id":458,"name":"eggo","steam_id":76561198028147388,"connected_time":1016000000000,"state":"active","ping":75},{"user_id":430,"name":"The Noob Sire","steam_id":76561198119219754,"connected_time":2118000000000,"state":"active","ping":96},{"user_id":463,"name":"Rhutebeer","steam_id":76561198018302761,"connected_time":708000000000,"state":"active","ping":100},{"user_id":459,"name":"sandman","steam_id":76561198144772540,"connected_time":978000000000,"state":"active","ping":106}]},{"server_id":37,"name":"Uncletopia | Chicago | 6 | All Maps","name_short":"chi-6","host":"chi-2.us.uncletopia.com","port":27025,"enabled":true,"region":"us-central","cc":"us","latitude":41.881832,"longitude":-87.62318,"reserved":0,"last_update":"0001-01-01T00:00:00Z","name_a2s":"Uncletopia | Chicago | 6 | All Maps","protocol":17,"map":"cp_dustbowl","folder":"tf","game":"Team Fortress","app_id":440,"player_count":24,"max_players":24,"Bots":0,"server_type":"Dedicated","server_os":"Linux","password":true,"vac":true,"version":"7961495","steam_id":85568392924866363,"keywords":["cp","nocrits","nodmgspread","uncletopia"],"game_id":440,"stv_port":27026,"stv_name":"Uncletopia | Chicago | 6 | All Maps | STV","players":[{"user_id":239,"name":"Eric4bz","steam_id":76561198054439606,"connected_time":1331000000000,"state":"active","ping":114},{"user_id":196,"name":"eish","steam_id":76561198089463603,"connected_time":3747000000000,"state":"active","ping":134},{"user_id":207,"name":"DrNook","steam_id":76561198074626309,"connected_time":3191000000000,"state":"active","ping":87},{"user_id":242,"name":"Hindmost","steam_id":76561199081837220,"connected_time":1247000000000,"state":"active","ping":80},{"user_id":241,"name":"volta","steam_id":76561199214283884,"connected_time":1328000000000,"state":"active","ping":123},{"user_id":144,"name":"scapegoat","steam_id":76561198188722751,"connected_time":8045000000000,"state":"active","ping":99},{"user_id":247,"name":"ElZeto","steam_id":76561198252322622,"connected_time":685000000000,"state":"active","ping":109},{"user_id":245,"name":"corned beef","steam_id":76561199366782761,"connected_time":999000000000,"state":"active","ping":156},{"user_id":231,"name":"MikeLovesRabbit","steam_id":76561197997742625,"connected_time":1682000000000,"state":"active","ping":67},{"user_id":199,"name":"dicksnip","steam_id":76561198356515396,"connected_time":3691000000000,"state":"active","ping":74},{"user_id":200,"name":"Oddball","steam_id":76561198040440984,"connected_time":3662000000000,"state":"active","ping":70},{"user_id":213,"name":"ikean","steam_id":76561198313364985,"connected_time":2873000000000,"state":"active","ping":77},{"user_id":238,"name":"slashproc","steam_id":76561198035307579,"connected_time":1339000000000,"state":"active","ping":71},{"user_id":250,"name":"lexi","steam_id":76561198176299759,"connected_time":131000000000,"state":"active","ping":81},{"user_id":223,"name":"Yung Boosie Badazzz","steam_id":76561198079416065,"connected_time":2576000000000,"state":"active","ping":80},{"user_id":226,"name":"DARCRY","steam_id":76561198886229798,"connected_time":2365000000000,"state":"active","ping":103},{"user_id":188,"name":"crispylego_","steam_id":76561199453679719,"connected_time":4361000000000,"state":"active","ping":137},{"user_id":248,"name":"Discourse","steam_id":76561198984286678,"connected_time":669000000000,"state":"active","ping":57},{"user_id":232,"name":"Pat4laifu","steam_id":76561198133618292,"connected_time":1578000000000,"state":"active","ping":60},{"user_id":243,"name":"gorf?","steam_id":76561198142286417,"connected_time":1181000000000,"state":"active","ping":57},{"user_id":193,"name":"Poo","steam_id":76561198265144507,"connected_time":3863000000000,"state":"active","ping":96},{"user_id":251,"name":"HarryjusttHarry","steam_id":76561198982810452,"connected_time":37000000000,"state":"active","ping":85},{"user_id":140,"name":"Rappitor","steam_id":76561198105613110,"connected_time":8327000000000,"state":"active","ping":63},{"user_id":179,"name":"Tax evader","steam_id":76561199062081467,"connected_time":5239000000000,"state":"active","ping":83}]},{"server_id":38,"name":"Uncletopia | Chicago | 7 | Stopwatch Beta","name_short":"chi-7","host":"chi-2.us.uncletopia.com","port":27035,"enabled":true,"region":"us-central","cc":"us","latitude":41.881832,"longitude":-87.62318,"reserved":0,"last_update":"0001-01-01T00:00:00Z","name_a2s":"Uncletopia | Chicago | 7 | Stopwatch Beta","protocol":17,"map":"workshop/pl_barnblitz_pro7.ugc582280235","folder":"tf","game":"Team Fortress","app_id":440,"player_count":0,"max_players":24,"Bots":0,"server_type":"Dedicated","server_os":"Linux","password":true,"vac":true,"version":"7961495","steam_id":85568392924866364,"keywords":["nocrits","nodmgspread","payload","uncletopia"],"game_id":440,"stv_port":27036,"stv_name":"Uncletopia | Chicago | 7 | Stopwatch Beta | STV","players":null},{"server_id":39,"name":"Uncletopia | Chicago | 8 | Community","name_short":"chi-8","host":"chi-2.us.uncletopia.com","port":27045,"enabled":true,"region":"us-central","cc":"us","latitude":41.881832,"longitude":-87.62318,"reserved":0,"last_update":"0001-01-01T00:00:00Z","name_a2s":"Uncletopia | Chicago | 8 | Community","protocol":17,"map":"workshop/pl_cashworks_final1.ugc2904065412","folder":"tf","game":"Team Fortress","app_id":440,"player_count":24,"max_players":24,"Bots":0,"server_type":"Dedicated","server_os":"Linux","password":true,"vac":true,"version":"7961495","steam_id":85568392924866365,"keywords":["nocrits","nodmgspread","payload","uncletopia"],"game_id":440,"stv_port":27046,"stv_name":"Uncletopia | Chicago | 8 | Community | STV","players":[{"user_id":259,"name":"Spectre","steam_id":76561198025652246,"connected_time":1416000000000,"state":"active","ping":53},{"user_id":204,"name":"Runny Eggs","steam_id":76561198006785882,"connected_time":5817000000000,"state":"active","ping":77},{"user_id":280,"name":"po","steam_id":76561198281948574,"connected_time":270000000000,"state":"active","ping":54},{"user_id":282,"name":"Yayifications","steam_id":76561198066227208,"connected_time":193000000000,"state":"active","ping":64},{"user_id":283,"name":"BLTxheal","steam_id":76561198106286287,"connected_time":66000000000,"state":"active","ping":79},{"user_id":279,"name":"Marie","steam_id":76561198056104899,"connected_time":319000000000,"state":"active","ping":92},{"user_id":270,"name":"Buddy_boi_man","steam_id":76561199158344783,"connected_time":722000000000,"state":"active","ping":69},{"user_id":258,"name":"gvincentfroyo","steam_id":76561199473171461,"connected_time":1437000000000,"state":"active","ping":75},{"user_id":281,"name":"canofspaghettios","steam_id":76561198124204246,"connected_time":216000000000,"state":"active","ping":60},{"user_id":274,"name":"GamingJuice42","steam_id":76561198110469437,"connected_time":571000000000,"state":"active","ping":67},{"user_id":284,"name":"flameboy50","steam_id":76561198258638052,"connected_time":23000000000,"state":"active","ping":146},{"user_id":232,"name":"Cheesemelt","steam_id":76561198008221847,"connected_time":3233000000000,"state":"active","ping":54},{"user_id":273,"name":"Seal","steam_id":76561198043985619,"connected_time":667000000000,"state":"active","ping":82},{"user_id":252,"name":"Centila","steam_id":76561197992671606,"connected_time":1561000000000,"state":"active","ping":45},{"user_id":216,"name":"FROYO Ding Dong","steam_id":76561198379421700,"connected_time":4599000000000,"state":"active","ping":74},{"user_id":233,"name":"BluCoffee","steam_id":76561198214995967,"connected_time":3233000000000,"state":"active","ping":77},{"user_id":159,"name":"Tankless Water Heater","steam_id":76561198014574925,"connected_time":8025000000000,"state":"active","ping":75},{"user_id":234,"name":"ispongebobz11","steam_id":76561198862843572,"connected_time":3221000000000,"state":"active","ping":74},{"user_id":269,"name":"scaring the hoes","steam_id":76561198332519926,"connected_time":741000000000,"state":"active","ping":85},{"user_id":191,"name":"Shush","steam_id":76561198123902813,"connected_time":6280000000000,"state":"active","ping":101},{"user_id":254,"name":"Mephistopheles","steam_id":76561198253731826,"connected_time":1504000000000,"state":"active","ping":77},{"user_id":236,"name":"Matt","steam_id":76561198008108521,"connected_time":3180000000000,"state":"active","ping":78},{"user_id":268,"name":"Scoundrel","steam_id":76561198056672372,"connected_time":775000000000,"state":"active","ping":84},{"user_id":278,"name":"EmeraldCola","steam_id":76561198066663687,"connected_time":363000000000,"state":"active","ping":74}]},{"server_id":8,"name":"Uncletopia | Dallas | 1 | All Maps","name_short":"dal-1","host":"dal-1.us.uncletopia.com","port":27015,"enabled":true,"region":"us-central","cc":"us","latitude":32.779167,"longitude":-96.80889,"reserved":0,"last_update":"0001-01-01T00:00:00Z","name_a2s":"Uncletopia | Dallas | 1 | All Maps","protocol":17,"map":"koth_nucleus","folder":"tf","game":"Team Fortress","app_id":440,"player_count":24,"max_players":24,"Bots":0,"server_type":"Dedicated","server_os":"Linux","password":true,"vac":true,"version":"7961495","steam_id":85568392924469986,"keywords":["cp","nocrits","nodmgspread","uncletopia"],"game_id":440,"stv_port":27016,"stv_name":"Uncletopia | Dallas | 1 | All Maps | STV","players":[{"user_id":312,"name":"plink","steam_id":76561198057829889,"connected_time":3813000000000,"state":"active","ping":59},{"user_id":304,"name":"Shrederatershan","steam_id":76561199211707598,"connected_time":4776000000000,"state":"active","ping":85},{"user_id":202,"name":"Streetcleaner","steam_id":76561199160439080,"connected_time":12873000000000,"state":"active","ping":66},{"user_id":365,"name":"Andromeda","steam_id":76561199070853177,"connected_time":639000000000,"state":"active","ping":90},{"user_id":372,"name":"qawzse543","steam_id":76561198049425694,"connected_time":15000000000,"state":"active","ping":141},{"user_id":337,"name":"Marzz","steam_id":76561198059034982,"connected_time":2591000000000,"state":"active","ping":100},{"user_id":285,"name":"fleepore (:","steam_id":76561199238295034,"connected_time":6334000000000,"state":"active","ping":70},{"user_id":366,"name":"Your Dad™","steam_id":76561198254739340,"connected_time":636000000000,"state":"active","ping":89},{"user_id":332,"name":"GOLDIE","steam_id":76561199375258674,"connected_time":3454000000000,"state":"active","ping":84},{"user_id":367,"name":"glue","steam_id":76561198382076026,"connected_time":622000000000,"state":"active","ping":81},{"user_id":262,"name":"pinglefingle","steam_id":76561198216580197,"connected_time":7525000000000,"state":"active","ping":56},{"user_id":358,"name":"PapaAbdul","steam_id":76561198177185722,"connected_time":937000000000,"state":"active","ping":176},{"user_id":355,"name":"Googas","steam_id":76561198332855869,"connected_time":1206000000000,"state":"active","ping":63},{"user_id":353,"name":"soulless cop (thug shaker)","steam_id":76561198150535873,"connected_time":1744000000000,"state":"active","ping":74},{"user_id":371,"name":"Taco","steam_id":76561198034670953,"connected_time":445000000000,"state":"active","ping":62},{"user_id":349,"name":"ShadowHero","steam_id":76561198444565919,"connected_time":2009000000000,"state":"active","ping":177},{"user_id":354,"name":"y e e t o  b u r r i t o","steam_id":76561198963628161,"connected_time":1601000000000,"state":"active","ping":49},{"user_id":368,"name":"MayKaye","steam_id":76561199016092265,"connected_time":604000000000,"state":"active","ping":84},{"user_id":369,"name":"SomeSimpleton","steam_id":76561199183492031,"connected_time":599000000000,"state":"active","ping":90},{"user_id":335,"name":"LampMan","steam_id":76561198079857527,"connected_time":2700000000000,"state":"active","ping":60},{"user_id":370,"name":"Unreliable Narrator","steam_id":76561198021303959,"connected_time":595000000000,"state":"active","ping":64},{"user_id":326,"name":"irritable vowel syndrome","steam_id":76561198117033273,"connected_time":3622000000000,"state":"active","ping":163},{"user_id":348,"name":"Jim","steam_id":76561198998398262,"connected_time":2016000000000,"state":"active","ping":77},{"user_id":362,"name":"The destroyer of foreskin","steam_id":76561198135275966,"connected_time":707000000000,"state":"active","ping":60}]},{"server_id":108,"name":"Uncletopia | Dallas | 2 | All Maps","name_short":"dal-2","host":"dal-1.us.uncletopia.com","port":27025,"enabled":true,"region":"us-central","cc":"us","latitude":32.779167,"longitude":-96.80889,"reserved":0,"last_update":"0001-01-01T00:00:00Z","name_a2s":"Uncletopia | Dallas | 2 | All Maps","protocol":17,"map":"pl_pier","folder":"tf","game":"Team Fortress","app_id":440,"player_count":24,"max_players":24,"Bots":0,"server_type":"Dedicated","server_os":"Linux","password":true,"vac":true,"version":"7961495","steam_id":85568392924469988,"keywords":["nocrits","nodmgspread","payload","uncletopia"],"game_id":440,"stv_port":27026,"stv_name":"Uncletopia | Dallas | 2 | All Maps | STV","players":[{"user_id":477,"name":"schmuck","steam_id":76561198143789773,"connected_time":454000000000,"state":"active","ping":52},{"user_id":472,"name":"Sup m8","steam_id":76561198081659121,"connected_time":955000000000,"state":"active","ping":44},{"user_id":450,"name":"mdharsy","steam_id":76561198065831053,"connected_time":3188000000000,"state":"active","ping":99},{"user_id":473,"name":"FRm","steam_id":76561198017539604,"connected_time":951000000000,"state":"active","ping":63},{"user_id":482,"name":"Jake_Spencer","steam_id":76561198025176750,"connected_time":22000000000,"state":"spawning","ping":132},{"user_id":448,"name":"GlizzLord","steam_id":76561198321010427,"connected_time":3235000000000,"state":"active","ping":81},{"user_id":374,"name":"cringineer","steam_id":76561198864841966,"connected_time":9486000000000,"state":"active","ping":95},{"user_id":479,"name":"Rob","steam_id":76561199187786660,"connected_time":283000000000,"state":"active","ping":54},{"user_id":443,"name":"3am drywall","steam_id":76561198964609865,"connected_time":3833000000000,"state":"active","ping":54},{"user_id":469,"name":"beden","steam_id":76561198075387996,"connected_time":1498000000000,"state":"active","ping":78},{"user_id":480,"name":"North","steam_id":76561198814844969,"connected_time":273000000000,"state":"active","ping":68},{"user_id":454,"name":"bubba simp club","steam_id":76561199338554815,"connected_time":2938000000000,"state":"active","ping":81},{"user_id":471,"name":"We Go Crazy","steam_id":76561198209641359,"connected_time":1031000000000,"state":"active","ping":72},{"user_id":475,"name":"Southern Pacific AC-9","steam_id":76561198126859977,"connected_time":690000000000,"state":"active","ping":67},{"user_id":417,"name":"Soda","steam_id":76561198219209367,"connected_time":6313000000000,"state":"active","ping":62},{"user_id":462,"name":"TechnoBear2099","steam_id":76561198238863596,"connected_time":1980000000000,"state":"active","ping":49},{"user_id":476,"name":"twitch.tv/cccilytf2","steam_id":76561198322125595,"connected_time":685000000000,"state":"active","ping":95},{"user_id":478,"name":"uncletopia dallas 2 player","steam_id":76561198412786186,"connected_time":290000000000,"state":"active","ping":63},{"user_id":468,"name":"Chol","steam_id":76561198122054259,"connected_time":1738000000000,"state":"active","ping":90},{"user_id":449,"name":"shellaa","steam_id":76561198044124102,"connected_time":3229000000000,"state":"active","ping":72},{"user_id":483,"name":"crusherty7","steam_id":76561199158729541,"connected_time":21000000000,"state":"active","ping":63},{"user_id":463,"name":"GaiBerd","steam_id":76561198177100634,"connected_time":1960000000000,"state":"active","ping":81},{"user_id":458,"name":"Lemony Lilly (She/Her)","steam_id":76561198042479066,"connected_time":2914000000000,"state":"active","ping":76},{"user_id":466,"name":"John16Mark","steam_id":76561198119445407,"connected_time":1854000000000,"state":"active","ping":65}]},{"server_id":5,"name":"Uncletopia | Frankfurt | 1 | All Maps","name_short":"frk-1","host":"frk-1.de.uncletopia.com","port":27015,"enabled":true,"region":"eu","cc":"de","latitude":50.110924,"longitude":8.682127,"reserved":0,"last_update":"0001-01-01T00:00:00Z","name_a2s":"Uncletopia | Frankfurt | 1 | All Maps","protocol":17,"map":"pl_frontier_final","folder":"tf","game":"Team Fortress","app_id":440,"player_count":24,"max_players":24,"Bots":0,"server_type":"Dedicated","server_os":"Linux","password":true,"vac":true,"version":"7961495","steam_id":85568392924469989,"keywords":["nocrits","nodmgspread","payload","uncletopia"],"game_id":440,"stv_port":27016,"stv_name":"Uncletopia | Frankfurt | 1 | All Maps | STV","players":[{"user_id":790,"name":"bigmonkay8","steam_id":76561199434161773,"connected_time":2092000000000,"state":"active","ping":154},{"user_id":813,"name":"siarczan (VI) miedzi (II)","steam_id":76561198327848460,"connected_time":1069000000000,"state":"active","ping":67},{"user_id":811,"name":"the bigman archive","steam_id":76561199062586342,"connected_time":1098000000000,"state":"active","ping":70},{"user_id":825,"name":"jijiklidrop","steam_id":76561198042328253,"connected_time":775000000000,"state":"active","ping":70},{"user_id":830,"name":"the least schizo med main","steam_id":76561198048530109,"connected_time":296000000000,"state":"active","ping":63},{"user_id":812,"name":"zoinks!","steam_id":76561198068645362,"connected_time":1091000000000,"state":"active","ping":54},{"user_id":831,"name":"Mr_Pulse_","steam_id":76561198095001602,"connected_time":190000000000,"state":"active","ping":86},{"user_id":818,"name":"veto vuyisio","steam_id":76561199101145470,"connected_time":925000000000,"state":"active","ping":77},{"user_id":827,"name":"carl","steam_id":76561199199758759,"connected_time":651000000000,"state":"active","ping":60},{"user_id":792,"name":"Neckbeard","steam_id":76561198167546068,"connected_time":1933000000000,"state":"active","ping":151},{"user_id":817,"name":"r06u3","steam_id":76561198254099253,"connected_time":951000000000,"state":"active","ping":166},{"user_id":819,"name":"FarD","steam_id":76561199098960193,"connected_time":922000000000,"state":"active","ping":64},{"user_id":798,"name":"Chucko Kokos","steam_id":76561198112553005,"connected_time":1737000000000,"state":"active","ping":66},{"user_id":829,"name":"Dåvid","steam_id":76561198184135755,"connected_time":330000000000,"state":"active","ping":58},{"user_id":820,"name":"KingPotatoChips","steam_id":76561198035156465,"connected_time":875000000000,"state":"active","ping":63},{"user_id":821,"name":"Baba Sraka","steam_id":76561198128292318,"connected_time":859000000000,"state":"active","ping":126},{"user_id":794,"name":"A S T R A L","steam_id":76561198350245055,"connected_time":1923000000000,"state":"active","ping":139},{"user_id":796,"name":"Gavin8130","steam_id":76561198188935558,"connected_time":1864000000000,"state":"active","ping":154},{"user_id":828,"name":"Ptahotep","steam_id":76561198008708645,"connected_time":610000000000,"state":"active","ping":52},{"user_id":832,"name":"mister squibward","steam_id":76561198718760200,"connected_time":170000000000,"state":"active","ping":60},{"user_id":804,"name":"KaasKrans","steam_id":76561198240451972,"connected_time":1588000000000,"state":"active","ping":65},{"user_id":824,"name":"CrushingHit","steam_id":76561198355200839,"connected_time":821000000000,"state":"active","ping":115},{"user_id":666,"name":"ehehehehehhe","steam_id":76561198044502435,"connected_time":10853000000000,"state":"active","ping":84},{"user_id":809,"name":"BreadAcres","steam_id":76561198098217082,"connected_time":1311000000000,"state":"active","ping":57}]},{"server_id":110,"name":"Uncletopia | Frankfurt | 2 | All Maps","name_short":"frk-2","host":"frk-1.de.uncletopia.com","port":27025,"enabled":true,"region":"eu","cc":"de","latitude":50.110924,"longitude":8.682127,"reserved":0,"last_update":"0001-01-01T00:00:00Z","name_a2s":"Uncletopia | Frankfurt | 2 | All Maps","protocol":17,"map":"pl_goldrush","folder":"tf","game":"Team Fortress","app_id":440,"player_count":20,"max_players":24,"Bots":0,"server_type":"Dedicated","server_os":"Linux","password":true,"vac":true,"version":"7961495","steam_id":85568392924469990,"keywords":["nocrits","nodmgspread","payload","uncletopia"],"game_id":440,"stv_port":27026,"stv_name":"Uncletopia | Frankfurt | 2 | All Maps | STV","players":[{"user_id":707,"name":"Панцирь С1","steam_id":76561198094765856,"connected_time":1582000000000,"state":"active","ping":105},{"user_id":668,"name":"PsychoПАТ","steam_id":76561198074777220,"connected_time":3193000000000,"state":"active","ping":88},{"user_id":667,"name":"Penis Contortionist","steam_id":76561198073663784,"connected_time":3205000000000,"state":"active","ping":55},{"user_id":660,"name":"rmz.ssj","steam_id":76561198329613930,"connected_time":3422000000000,"state":"active","ping":63},{"user_id":721,"name":"cold","steam_id":76561199017901552,"connected_time":292000000000,"state":"active","ping":177},{"user_id":708,"name":"Fem","steam_id":76561198398529841,"connected_time":1433000000000,"state":"active","ping":59},{"user_id":670,"name":"Gugu","steam_id":76561198161822358,"connected_time":3105000000000,"state":"active","ping":56},{"user_id":711,"name":"[T]aKer","steam_id":76561198001778013,"connected_time":1264000000000,"state":"active","ping":45},{"user_id":672,"name":"thia","steam_id":76561198186366599,"connected_time":3075000000000,"state":"active","ping":83},{"user_id":712,"name":"Nyoom","steam_id":76561198054585002,"connected_time":1244000000000,"state":"active","ping":56},{"user_id":727,"name":"onion pizza with onions","steam_id":76561198382668057,"connected_time":34000000000,"state":"active","ping":62},{"user_id":713,"name":"Galex","steam_id":76561198045637579,"connected_time":1172000000000,"state":"active","ping":56},{"user_id":644,"name":"ThreeSixSteve","steam_id":76561198156221826,"connected_time":3562000000000,"state":"active","ping":58},{"user_id":728,"name":"Donkey Kong on the IPhone X","steam_id":76561198206522056,"connected_time":26000000000,"state":"active","ping":69},{"user_id":726,"name":"Milosz52","steam_id":76561199060940204,"connected_time":77000000000,"state":"active","ping":84},{"user_id":725,"name":"garymg","steam_id":76561198028368190,"connected_time":128000000000,"state":"active","ping":102},{"user_id":720,"name":"JujuBalu","steam_id":76561198207253071,"connected_time":583000000000,"state":"active","ping":51},{"user_id":700,"name":"peace of sheet","steam_id":76561197997323419,"connected_time":2409000000000,"state":"active","ping":64},{"user_id":716,"name":"Ricey","steam_id":76561198832961307,"connected_time":933000000000,"state":"active","ping":59},{"user_id":718,"name":"Mr. Master","steam_id":76561199198569317,"connected_time":914000000000,"state":"active","ping":63}]},{"server_id":308,"name":"Uncletopia | Frankfurt | 3 | All Maps","name_short":"frk-3","host":"frk-1.de.uncletopia.com","port":27035,"enabled":true,"region":"eu","cc":"de","latitude":50.110924,"longitude":8.682127,"reserved":0,"last_update":"0001-01-01T00:00:00Z","name_a2s":"Uncletopia | Frankfurt | 3 | All Maps","protocol":17,"map":"koth_badlands","folder":"tf","game":"Team Fortress","app_id":440,"player_count":23,"max_players":24,"Bots":0,"server_type":"Dedicated","server_os":"Linux","password":true,"vac":true,"version":"7961495","steam_id":85568392924504274,"keywords":["cp","nocrits","nodmgspread","uncletopia"],"game_id":440,"stv_port":27036,"stv_name":"Uncletopia | Frankfurt | 3 | All Maps | STV","players":[{"user_id":643,"name":"Envy","steam_id":76561198132723219,"connected_time":2928000000000,"state":"active","ping":94},{"user_id":644,"name":"Qwerty","steam_id":76561198023525894,"connected_time":2904000000000,"state":"active","ping":78},{"user_id":677,"name":"Pefor","steam_id":76561199477114157,"connected_time":799000000000,"state":"active","ping":120},{"user_id":678,"name":"chillean peso","steam_id":76561197988085026,"connected_time":533000000000,"state":"active","ping":70},{"user_id":561,"name":"xavier","steam_id":76561198076494034,"connected_time":7040000000000,"state":"active","ping":56},{"user_id":605,"name":"Wilderhammer","steam_id":76561198132133702,"connected_time":4058000000000,"state":"active","ping":45},{"user_id":592,"name":"Mi Manchi","steam_id":76561198171573129,"connected_time":4668000000000,"state":"active","ping":59},{"user_id":675,"name":"Dirty goblin","steam_id":76561198153207632,"connected_time":986000000000,"state":"active","ping":79},{"user_id":680,"name":"Sand","steam_id":76561198103761268,"connected_time":308000000000,"state":"active","ping":51},{"user_id":670,"name":"tompp","steam_id":76561198143529110,"connected_time":1515000000000,"state":"active","ping":46},{"user_id":683,"name":"Peat","steam_id":76561197992168067,"connected_time":184000000000,"state":"active","ping":73},{"user_id":655,"name":"REN","steam_id":76561198000596385,"connected_time":2233000000000,"state":"active","ping":77},{"user_id":686,"name":"Definitely J.P. Morgan","steam_id":76561199122376235,"connected_time":52000000000,"state":"active","ping":171},{"user_id":630,"name":"twscsvl","steam_id":76561198045304929,"connected_time":3428000000000,"state":"active","ping":91},{"user_id":672,"name":"KingofCubes","steam_id":76561198258037513,"connected_time":1330000000000,"state":"active","ping":73},{"user_id":554,"name":"Gen","steam_id":76561198021775885,"connected_time":7332000000000,"state":"active","ping":55},{"user_id":669,"name":"Test_Subject _9730","steam_id":76561198065594171,"connected_time":1561000000000,"state":"active","ping":101},{"user_id":638,"name":"Shovelhalfrusty","steam_id":76561198346447513,"connected_time":3268000000000,"state":"active","ping":69},{"user_id":682,"name":"Captain Slow","steam_id":76561199071095638,"connected_time":253000000000,"state":"active","ping":86},{"user_id":659,"name":"kubanamaxa","steam_id":76561198154315656,"connected_time":2109000000000,"state":"active","ping":89},{"user_id":552,"name":"Yangus","steam_id":76561198147796010,"connected_time":7472000000000,"state":"active","ping":63},{"user_id":685,"name":"Vershal Smershal","steam_id":76561198116223995,"connected_time":110000000000,"state":"active","ping":61},{"user_id":676,"name":"FROYO yumyum","steam_id":76561198150567198,"connected_time":872000000000,"state":"active","ping":134}]},{"server_id":309,"name":"Uncletopia | Frankfurt | 4 | All Maps","name_short":"frk-4","host":"frk-1.de.uncletopia.com","port":27045,"enabled":true,"region":"eu","cc":"de","latitude":50.110924,"longitude":8.682127,"reserved":0,"last_update":"0001-01-01T00:00:00Z","name_a2s":"Uncletopia | Frankfurt | 4 | All Maps","protocol":17,"map":"cp_snakewater_final1","folder":"tf","game":"Team Fortress","app_id":440,"player_count":0,"max_players":24,"Bots":0,"server_type":"Dedicated","server_os":"Linux","password":true,"vac":true,"version":"7961495","steam_id":85568392924504275,"keywords":["cp","nocrits","nodmgspread","uncletopia"],"game_id":440,"stv_port":27046,"stv_name":"Uncletopia | Frankfurt | 4 | All Maps | STV","players":null},{"server_id":310,"name":"Uncletopia | Frankfurt | 5 | All Maps","name_short":"frk-5","host":"frk-1.de.uncletopia.com","port":27055,"enabled":true,"region":"eu","cc":"de","latitude":50.110924,"longitude":8.682127,"reserved":0,"last_update":"0001-01-01T00:00:00Z","name_a2s":"Uncletopia | Frankfurt | 5 | All Maps","protocol":17,"map":"pl_frontier_final","folder":"tf","game":"Team Fortress","app_id":440,"player_count":0,"max_players":24,"Bots":0,"server_type":"Dedicated","server_os":"Linux","password":true,"vac":true,"version":"7961495","steam_id":85568392924504277,"keywords":["nocrits","nodmgspread","payload","uncletopia"],"game_id":440,"stv_port":27056,"stv_name":"Uncletopia | Frankfurt | 5 | All Maps | STV","players":null},{"server_id":311,"name":"Uncletopia | Frankfurt | 6 | All Maps","name_short":"frk-6","host":"frk-1.de.uncletopia.com","port":27065,"enabled":true,"region":"eu","cc":"de","latitude":50.110924,"longitude":8.682127,"reserved":0,"last_update":"0001-01-01T00:00:00Z","name_a2s":"Uncletopia | Frankfurt | 6 | All Maps","protocol":17,"map":"cp_mountainlab","folder":"tf","game":"Team Fortress","app_id":440,"player_count":0,"max_players":24,"Bots":0,"server_type":"Dedicated","server_os":"Linux","password":true,"vac":true,"version":"7961495","steam_id":85568392924504278,"keywords":["cp","nocrits","nodmgspread","uncletopia"],"game_id":440,"stv_port":27066,"stv_name":"Uncletopia | Frankfurt | 6 | All Maps | STV","players":null},{"server_id":23,"name":"Uncletopia | Frankfurt | 7 | Stopwatch Beta","name_short":"frk-7","host":"frk-1.de.uncletopia.com","port":27075,"enabled":true,"region":"eu","cc":"de","latitude":50.110924,"longitude":8.682127,"reserved":0,"last_update":"0001-01-01T00:00:00Z","name_a2s":"Uncletopia | Frankfurt | 7 | Stopwatch Beta","protocol":17,"map":"workshop/koth_ashville_final.ugc2130459942","folder":"tf","game":"Team Fortress","app_id":440,"player_count":0,"max_players":24,"Bots":0,"server_type":"Dedicated","server_os":"Linux","password":true,"vac":true,"version":"7961495","steam_id":85568392924742827,"keywords":["cp","nocrits","nodmgspread","uncletopia"],"game_id":440,"stv_port":27076,"stv_name":"Uncletopia | Frankfurt | 7 | Stopwatch Beta | STV","players":null},{"server_id":24,"name":"Uncletopia | Frankfurt | 8 | Community","name_short":"frk-8","host":"frk-1.de.uncletopia.com","port":27085,"enabled":true,"region":"eu","cc":"de","latitude":50.110924,"longitude":8.682127,"reserved":0,"last_update":"0001-01-01T00:00:00Z","name_a2s":"Uncletopia | Frankfurt | 8 | Community","protocol":17,"map":"workshop/pl_emerge_rc2.ugc888027758","folder":"tf","game":"Team Fortress","app_id":440,"player_count":0,"max_players":24,"Bots":0,"server_type":"Dedicated","server_os":"Linux","password":true,"vac":true,"version":"7961495","steam_id":85568392924742828,"keywords":["nocrits","nodmgspread","payload","uncletopia"],"game_id":440,"stv_port":27086,"stv_name":"Uncletopia | Frankfurt | 8 | Community | STV","players":null},{"server_id":202,"name":"Uncletopia | Hong Kong | 1 | All Maps","name_short":"hgk-1","host":"hgk-1.hk.uncletopia.com","port":27015,"enabled":true,"region":"asia","cc":"hk","latitude":22.302711,"longitude":114.177216,"reserved":0,"last_update":"0001-01-01T00:00:00Z","name_a2s":"Uncletopia | Hong Kong | 1 | All Maps","protocol":17,"map":"cp_process_final","folder":"tf","game":"Team Fortress","app_id":440,"player_count":0,"max_players":24,"Bots":0,"server_type":"Dedicated","server_os":"Linux","password":true,"vac":true,"version":"7961495","steam_id":85568392924494504,"keywords":["cp","nocrits","nodmgspread","uncletopia"],"game_id":440,"stv_port":27016,"stv_name":"Uncletopia | Hong Kong | 1 | All Maps | STV","players":null},{"server_id":1,"name":"Uncletopia | Los Angeles | 1 | All Maps","name_short":"lax-1","host":"lax-1.us.uncletopia.com","port":27015,"enabled":true,"region":"us-west","cc":"us","latitude":33.94279,"longitude":-118.41004,"reserved":0,"last_update":"0001-01-01T00:00:00Z","name_a2s":"Uncletopia | Los Angeles | 1 | All Maps","protocol":17,"map":"pl_borneo","folder":"tf","game":"Team Fortress","app_id":440,"player_count":24,"max_players":24,"Bots":0,"server_type":"Dedicated","server_os":"Linux","password":true,"vac":true,"version":"7961495","steam_id":85568392924469991,"keywords":["nocrits","nodmgspread","payload","uncletopia"],"game_id":440,"stv_port":27016,"stv_name":"Uncletopia | Los Angeles | 1 | All Maps | STV","players":[{"user_id":298,"name":"isomething","steam_id":76561199221951548,"connected_time":1582000000000,"state":"active","ping":56},{"user_id":243,"name":"[Industrial] A_HUMBLEBUMBLED","steam_id":76561198064771878,"connected_time":6680000000000,"state":"active","ping":74},{"user_id":258,"name":"riSygneD","steam_id":76561198331618687,"connected_time":5169000000000,"state":"active","ping":34},{"user_id":263,"name":"flop","steam_id":76561197989058876,"connected_time":4778000000000,"state":"active","ping":80},{"user_id":318,"name":"porksoda","steam_id":76561198021451377,"connected_time":287000000000,"state":"active","ping":72},{"user_id":283,"name":"vareh","steam_id":76561197993190926,"connected_time":2564000000000,"state":"active","ping":97},{"user_id":281,"name":"dirty30","steam_id":76561198021226566,"connected_time":2610000000000,"state":"active","ping":75},{"user_id":245,"name":"LennyDaLemon","steam_id":76561198855962735,"connected_time":6569000000000,"state":"active","ping":62},{"user_id":304,"name":"Lock'd","steam_id":76561198170108230,"connected_time":1301000000000,"state":"active","ping":45},{"user_id":307,"name":"Petrivus","steam_id":76561198202152453,"connected_time":1264000000000,"state":"active","ping":71},{"user_id":319,"name":"Whisper!","steam_id":76561198119609795,"connected_time":276000000000,"state":"active","ping":50},{"user_id":314,"name":"wingzero0310","steam_id":76561199419868505,"connected_time":848000000000,"state":"active","ping":166},{"user_id":302,"name":"Obama","steam_id":76561198194065283,"connected_time":1319000000000,"state":"active","ping":46},{"user_id":317,"name":"Eurobeat too loud, can't hear :","steam_id":76561198330743199,"connected_time":300000000000,"state":"active","ping":78},{"user_id":315,"name":"Kontrast","steam_id":76561198822353564,"connected_time":800000000000,"state":"active","ping":77},{"user_id":316,"name":"zinnk","steam_id":76561198092081825,"connected_time":774000000000,"state":"active","ping":51},{"user_id":313,"name":"Altruisticailuridae","steam_id":76561198335295596,"connected_time":974000000000,"state":"active","ping":55},{"user_id":286,"name":"boof^","steam_id":76561198087074444,"connected_time":2485000000000,"state":"active","ping":47},{"user_id":278,"name":"Vlad","steam_id":76561198072334604,"connected_time":2787000000000,"state":"active","ping":85},{"user_id":311,"name":"Neophyte","steam_id":76561198027183394,"connected_time":1117000000000,"state":"active","ping":85},{"user_id":296,"name":"FI LO","steam_id":76561198976530881,"connected_time":1773000000000,"state":"active","ping":30},{"user_id":287,"name":"StanchAxis","steam_id":76561199489268564,"connected_time":2484000000000,"state":"active","ping":60},{"user_id":310,"name":"Artic_Ryuu","steam_id":76561198182194918,"connected_time":1147000000000,"state":"active","ping":72},{"user_id":300,"name":"Banzai","steam_id":76561198196503877,"connected_time":1508000000000,"state":"active","ping":76}]},{"server_id":112,"name":"Uncletopia | Los Angeles | 2 | All Maps","name_short":"lax-2","host":"lax-1.us.uncletopia.com","port":27025,"enabled":true,"region":"us-west","cc":"us","latitude":33.94279,"longitude":-118.41004,"reserved":0,"last_update":"0001-01-01T00:00:00Z","name_a2s":"Uncletopia | Los Angeles | 2 | All Maps","protocol":17,"map":"pl_borneo","folder":"tf","game":"Team Fortress","app_id":440,"player_count":24,"max_players":24,"Bots":0,"server_type":"Dedicated","server_os":"Linux","password":true,"vac":true,"version":"7961495","steam_id":85568392924469992,"keywords":["nocrits","nodmgspread","payload","uncletopia"],"game_id":440,"stv_port":27026,"stv_name":"Uncletopia | Los Angeles | 2 | All Maps | STV","players":[{"user_id":222,"name":"||BassMan||","steam_id":76561198279865229,"connected_time":553000000000,"state":"active","ping":91},{"user_id":182,"name":"Just a Good Friend","steam_id":76561198140052403,"connected_time":3476000000000,"state":"active","ping":45},{"user_id":59,"name":"A UsedNom","steam_id":76561198402832756,"connected_time":13652000000000,"state":"active","ping":45},{"user_id":225,"name":"Shmootis","steam_id":76561198128764422,"connected_time":448000000000,"state":"active","ping":60},{"user_id":219,"name":"exx","steam_id":76561198090552145,"connected_time":989000000000,"state":"active","ping":47},{"user_id":226,"name":"HTML","steam_id":76561198099061153,"connected_time":444000000000,"state":"active","ping":42},{"user_id":209,"name":"delight","steam_id":76561197980280272,"connected_time":1826000000000,"state":"active","ping":74},{"user_id":205,"name":"grape","steam_id":76561197993980328,"connected_time":2090000000000,"state":"active","ping":90},{"user_id":210,"name":"the biggest bird","steam_id":76561198361999761,"connected_time":1815000000000,"state":"active","ping":49},{"user_id":183,"name":"yall need me frfr","steam_id":76561198294192287,"connected_time":3475000000000,"state":"active","ping":52},{"user_id":207,"name":"Ice cream sandwich","steam_id":76561198172748357,"connected_time":2051000000000,"state":"active","ping":50},{"user_id":221,"name":"Marz","steam_id":76561198799364911,"connected_time":804000000000,"state":"active","ping":72},{"user_id":213,"name":"Hbadger","steam_id":76561198010204346,"connected_time":1629000000000,"state":"active","ping":100},{"user_id":217,"name":"Geobeetle","steam_id":76561198207400124,"connected_time":1301000000000,"state":"active","ping":75},{"user_id":188,"name":"Будда","steam_id":76561198824691581,"connected_time":3385000000000,"state":"active","ping":117},{"user_id":214,"name":"GibbusGod","steam_id":76561199232436690,"connected_time":1570000000000,"state":"active","ping":118},{"user_id":215,"name":"Lord Pretty Flocko Jordye","steam_id":76561198962880749,"connected_time":1564000000000,"state":"active","ping":87},{"user_id":165,"name":"Moomin","steam_id":76561198072726213,"connected_time":6072000000000,"state":"active","ping":49},{"user_id":174,"name":"YungKeet","steam_id":76561198293854963,"connected_time":4647000000000,"state":"active","ping":92},{"user_id":176,"name":"Pie","steam_id":76561198054721133,"connected_time":4481000000000,"state":"active","ping":49},{"user_id":177,"name":"Roosevelt Chadwick","steam_id":76561198278169311,"connected_time":4435000000000,"state":"active","ping":68},{"user_id":220,"name":"Rock Kickass","steam_id":76561198450510841,"connected_time":988000000000,"state":"active","ping":76},{"user_id":216,"name":"Ralph Kramden (Slim Charles)","steam_id":76561197981687895,"connected_time":1499000000000,"state":"active","ping":54},{"user_id":227,"name":"Pan Enthusiast","steam_id":76561199062953996,"connected_time":102000000000,"state":"active","ping":51}]},{"server_id":324,"name":"Uncletopia | Los Angeles | 3 | All Maps","name_short":"lax-3","host":"lax-1.us.uncletopia.com","port":27035,"enabled":true,"region":"us-west","cc":"us","latitude":33.94279,"longitude":-118.41004,"reserved":0,"last_update":"0001-01-01T00:00:00Z","name_a2s":"Uncletopia | Los Angeles | 3 | All Maps","protocol":17,"map":"pl_borneo","folder":"tf","game":"Team Fortress","app_id":440,"player_count":24,"max_players":24,"Bots":0,"server_type":"Dedicated","server_os":"Linux","password":true,"vac":true,"version":"7961495","steam_id":85568392924510198,"keywords":["nocrits","nodmgspread","payload","uncletopia"],"game_id":440,"stv_port":27036,"stv_name":"Uncletopia | Los Angeles | 3 | All Maps | STV","players":[{"user_id":10,"name":"a cat plushie","steam_id":76561198080046542,"connected_time":1811000000000,"state":"active","ping":72},{"user_id":11,"name":"ilun","steam_id":76561198042913843,"connected_time":1768000000000,"state":"active","ping":80},{"user_id":40,"name":"reject drugs and embrace God","steam_id":76561198452519031,"connected_time":197000000000,"state":"active","ping":81},{"user_id":14,"name":"Shalom","steam_id":76561198410005222,"connected_time":1194000000000,"state":"active","ping":77},{"user_id":18,"name":"EduardoLopez2005","steam_id":76561198188481309,"connected_time":885000000000,"state":"active","ping":60},{"user_id":39,"name":"CamiTheBrick","steam_id":76561198070394002,"connected_time":247000000000,"state":"active","ping":50},{"user_id":19,"name":"finman","steam_id":76561198127639913,"connected_time":777000000000,"state":"active","ping":47},{"user_id":41,"name":"DrWilloughby","steam_id":76561198095260357,"connected_time":125000000000,"state":"active","ping":57},{"user_id":21,"name":"RossMob","steam_id":76561198359557812,"connected_time":701000000000,"state":"active","ping":104},{"user_id":22,"name":"Intro","steam_id":76561199001940197,"connected_time":689000000000,"state":"active","ping":146},{"user_id":24,"name":"Ender_J","steam_id":76561198415360910,"connected_time":598000000000,"state":"active","ping":155},{"user_id":25,"name":"hobo gaming (real)","steam_id":76561198870068763,"connected_time":583000000000,"state":"active","ping":129},{"user_id":26,"name":"Irritated Duck","steam_id":76561198247792076,"connected_time":566000000000,"state":"active","ping":179},{"user_id":27,"name":"Hakuyer","steam_id":76561198098618247,"connected_time":521000000000,"state":"active","ping":84},{"user_id":28,"name":"a homeless cat","steam_id":76561198058388903,"connected_time":519000000000,"state":"active","ping":81},{"user_id":29,"name":"Slimeboy Enthusiast","steam_id":76561199200969139,"connected_time":502000000000,"state":"active","ping":127},{"user_id":30,"name":"SsleepyVibez","steam_id":76561199293903079,"connected_time":493000000000,"state":"active","ping":148},{"user_id":31,"name":"raphaim #bb","steam_id":76561198089649422,"connected_time":476000000000,"state":"active","ping":45},{"user_id":32,"name":"Stryder","steam_id":76561199387418697,"connected_time":475000000000,"state":"active","ping":104},{"user_id":33,"name":"sadlaxx","steam_id":76561198061354919,"connected_time":419000000000,"state":"active","ping":73},{"user_id":38,"name":"SPEEEEEEEEEEEEEEEEEEEEED","steam_id":76561198316768819,"connected_time":271000000000,"state":"active","ping":105},{"user_id":35,"name":"St. Bimmius","steam_id":76561198013595716,"connected_time":415000000000,"state":"active","ping":61},{"user_id":36,"name":"Yatchi.","steam_id":76561198878073232,"connected_time":414000000000,"state":"active","ping":101},{"user_id":37,"name":"gold","steam_id":76561199085827238,"connected_time":388000000000,"state":"active","ping":68}]},{"server_id":25,"name":"Uncletopia | Los Angeles | 4 | Stopwatch Beta","name_short":"lax-4","host":"lax-1.us.uncletopia.com","port":27045,"enabled":true,"region":"us-west","cc":"us","latitude":33.94279,"longitude":-118.41004,"reserved":0,"last_update":"0001-01-01T00:00:00Z","name_a2s":"Uncletopia | Los Angeles | 4 | Stopwatch Beta","protocol":17,"map":"pl_frontier_final","folder":"tf","game":"Team Fortress","app_id":440,"player_count":0,"max_players":24,"Bots":0,"server_type":"Dedicated","server_os":"Linux","password":true,"vac":true,"version":"7961495","steam_id":85568392924510199,"keywords":["nocrits","nodmgspread","payload","uncletopia"],"game_id":440,"stv_port":27046,"stv_name":"Uncletopia | Los Angeles | 4 | Stopwatch Beta | STV","players":null},{"server_id":11,"name":"Uncletopia | London | 1 | All Maps","name_short":"lon-1","host":"lon-1.uk.uncletopia.com","port":27015,"enabled":true,"region":"eu","cc":"gb","latitude":51.509865,"longitude":-0.118092,"reserved":0,"last_update":"0001-01-01T00:00:00Z","name_a2s":"Uncletopia | London | 1 | All Maps","protocol":17,"map":"pl_rumford_event","folder":"tf","game":"Team Fortress","app_id":440,"player_count":24,"max_players":24,"Bots":0,"server_type":"Dedicated","server_os":"Linux","password":true,"vac":true,"version":"7961495","steam_id":85568392924367362,"keywords":["nocrits","nodmgspread","payload","uncletopia"],"game_id":440,"stv_port":27016,"stv_name":"Uncletopia | London | 1 | All Maps | STV","players":[{"user_id":767,"name":"Zwoz","steam_id":76561198221841968,"connected_time":3778000000000,"state":"active","ping":88},{"user_id":805,"name":"Rai-the-CobaltClaw","steam_id":76561198027741747,"connected_time":312000000000,"state":"active","ping":70},{"user_id":807,"name":"big","steam_id":76561198073870893,"connected_time":222000000000,"state":"active","ping":44},{"user_id":797,"name":"SOPHIIEE","steam_id":76561198443798981,"connected_time":1308000000000,"state":"active","ping":55},{"user_id":754,"name":"BreadBubbles","steam_id":76561198174332826,"connected_time":5677000000000,"state":"active","ping":58},{"user_id":765,"name":"Slifer The Sky Dragon","steam_id":76561198062255803,"connected_time":3963000000000,"state":"active","ping":74},{"user_id":777,"name":"AWildTamim","steam_id":76561198048060652,"connected_time":3126000000000,"state":"active","ping":39},{"user_id":712,"name":"Prome","steam_id":76561199050383942,"connected_time":8434000000000,"state":"active","ping":62},{"user_id":801,"name":"uwu","steam_id":76561199209906710,"connected_time":625000000000,"state":"active","ping":48},{"user_id":793,"name":"Boks","steam_id":76561198083466907,"connected_time":1944000000000,"state":"active","ping":60},{"user_id":783,"name":"bebeda blacked out","steam_id":76561198277943630,"connected_time":2326000000000,"state":"active","ping":75},{"user_id":781,"name":"snake","steam_id":76561198378235611,"connected_time":2957000000000,"state":"active","ping":77},{"user_id":771,"name":"fabacher","steam_id":76561198057905272,"connected_time":3629000000000,"state":"active","ping":70},{"user_id":714,"name":"shooer","steam_id":76561198110531281,"connected_time":8432000000000,"state":"active","ping":82},{"user_id":796,"name":"✪ J","steam_id":76561198094911581,"connected_time":1555000000000,"state":"active","ping":50},{"user_id":759,"name":"Eidolon","steam_id":76561198043919565,"connected_time":4490000000000,"state":"active","ping":68},{"user_id":804,"name":"ʲᶠᵍ ♛","steam_id":76561199062437546,"connected_time":468000000000,"state":"active","ping":59},{"user_id":806,"name":"SPIN THE WHEEL!","steam_id":76561198140514381,"connected_time":305000000000,"state":"active","ping":58},{"user_id":802,"name":"owo","steam_id":76561198158209651,"connected_time":598000000000,"state":"active","ping":60},{"user_id":721,"name":"beebo","steam_id":76561199120277007,"connected_time":7788000000000,"state":"active","ping":84},{"user_id":779,"name":"Toofy","steam_id":76561197989727907,"connected_time":3120000000000,"state":"active","ping":37},{"user_id":745,"name":"ein'd","steam_id":76561198152162834,"connected_time":6541000000000,"state":"active","ping":90},{"user_id":758,"name":"sora","steam_id":76561198096547662,"connected_time":4702000000000,"state":"active","ping":53},{"user_id":735,"name":"Anri Okita's Massive Milkers","steam_id":76561199186352720,"connected_time":6836000000000,"state":"active","ping":66}]},{"server_id":114,"name":"Uncletopia | London | 2 | All Maps","name_short":"lon-2","host":"lon-1.uk.uncletopia.com","port":27025,"enabled":true,"region":"eu","cc":"gb","latitude":51.509865,"longitude":-0.118092,"reserved":0,"last_update":"0001-01-01T00:00:00Z","name_a2s":"Uncletopia | London | 2 | All Maps","protocol":17,"map":"koth_highpass","folder":"tf","game":"Team Fortress","app_id":440,"player_count":22,"max_players":24,"Bots":0,"server_type":"Dedicated","server_os":"Linux","password":true,"vac":true,"version":"7961495","steam_id":85568392924470941,"keywords":["cp","nocrits","nodmgspread","uncletopia"],"game_id":440,"stv_port":27026,"stv_name":"Uncletopia | London | 2 | All Maps | STV","players":[{"user_id":878,"name":"A Succulent Chinese Meal","steam_id":76561198069472440,"connected_time":130000000000,"state":"active","ping":74},{"user_id":801,"name":"www.earnGBP.online","steam_id":76561198005777437,"connected_time":7867000000000,"state":"active","ping":31},{"user_id":874,"name":"Sarahtonin","steam_id":76561197992144115,"connected_time":504000000000,"state":"active","ping":75},{"user_id":833,"name":"sushii","steam_id":76561198297987372,"connected_time":5453000000000,"state":"active","ping":64},{"user_id":859,"name":"The Lady","steam_id":76561198029895809,"connected_time":2932000000000,"state":"active","ping":85},{"user_id":794,"name":"LiterallyRyanGosling","steam_id":76561199017856691,"connected_time":8593000000000,"state":"active","ping":55},{"user_id":879,"name":"Gravy","steam_id":76561198029548074,"connected_time":62000000000,"state":"active","ping":50},{"user_id":873,"name":"ender45","steam_id":76561198840955715,"connected_time":674000000000,"state":"active","ping":39},{"user_id":880,"name":"Grimlock","steam_id":76561198087751260,"connected_time":50000000000,"state":"active","ping":70},{"user_id":773,"name":"Sixie","steam_id":76561198251675360,"connected_time":10252000000000,"state":"active","ping":52},{"user_id":864,"name":"Megatron","steam_id":76561198873401935,"connected_time":1533000000000,"state":"active","ping":44},{"user_id":861,"name":"f0x","steam_id":76561198072921704,"connected_time":2230000000000,"state":"active","ping":48},{"user_id":851,"name":"eddee","steam_id":76561198046121468,"connected_time":4142000000000,"state":"active","ping":30},{"user_id":870,"name":"William Afton Gaming","steam_id":76561198220227199,"connected_time":827000000000,"state":"active","ping":53},{"user_id":863,"name":"CaptainMac","steam_id":76561198273156139,"connected_time":2208000000000,"state":"active","ping":45},{"user_id":869,"name":"svantezch","steam_id":76561198373831657,"connected_time":1098000000000,"state":"active","ping":76},{"user_id":852,"name":"Island","steam_id":76561198100757161,"connected_time":3996000000000,"state":"active","ping":69},{"user_id":848,"name":"twpsyn","steam_id":76561198057121917,"connected_time":4405000000000,"state":"active","ping":76},{"user_id":832,"name":"juicy","steam_id":76561198127264835,"connected_time":5804000000000,"state":"active","ping":46},{"user_id":782,"name":"pizzaboob","steam_id":76561198097507847,"connected_time":10005000000000,"state":"active","ping":88},{"user_id":795,"name":"C#","steam_id":76561198067204908,"connected_time":8487000000000,"state":"active","ping":60},{"user_id":868,"name":"Dinaldduk","steam_id":76561198862259149,"connected_time":1260000000000,"state":"active","ping":37}]},{"server_id":320,"name":"Uncletopia | London | 3 | All Maps","name_short":"lon-3","host":"lon-1.uk.uncletopia.com","port":27035,"enabled":true,"region":"eu","cc":"gb","latitude":51.509865,"longitude":-0.118092,"reserved":0,"last_update":"0001-01-01T00:00:00Z","name_a2s":"Uncletopia | London | 3 | All Maps","protocol":17,"map":"pl_barnblitz","folder":"tf","game":"Team Fortress","app_id":440,"player_count":24,"max_players":24,"Bots":0,"server_type":"Dedicated","server_os":"Linux","password":true,"vac":true,"version":"7961495","steam_id":85568392924510192,"keywords":["nocrits","nodmgspread","payload","uncletopia"],"game_id":440,"stv_port":27036,"stv_name":"Uncletopia | London | 3 | All Maps | STV","players":[{"user_id":692,"name":"highest noon","steam_id":76561199103959197,"connected_time":2555000000000,"state":"active","ping":100},{"user_id":707,"name":"da turd wit da worm","steam_id":76561198057722639,"connected_time":1511000000000,"state":"active","ping":74},{"user_id":735,"name":"Hydrone","steam_id":76561198046485365,"connected_time":494000000000,"state":"active","ping":45},{"user_id":717,"name":"Yes, 100 Percent.","steam_id":76561198104896547,"connected_time":897000000000,"state":"active","ping":74},{"user_id":742,"name":"Desp4","steam_id":76561198040767473,"connected_time":31000000000,"state":"active","ping":75},{"user_id":719,"name":"TheLogick","steam_id":76561198008748649,"connected_time":815000000000,"state":"active","ping":47},{"user_id":718,"name":"Lee Mi-Alon","steam_id":76561198049312442,"connected_time":831000000000,"state":"active","ping":52},{"user_id":678,"name":"Helusion","steam_id":76561198207207269,"connected_time":3166000000000,"state":"active","ping":57},{"user_id":736,"name":"Jiipeeze","steam_id":76561198316154333,"connected_time":433000000000,"state":"active","ping":88},{"user_id":670,"name":"S.T. Inckee","steam_id":76561197973053298,"connected_time":3472000000000,"state":"active","ping":47},{"user_id":706,"name":"TheEventGuy","steam_id":76561197972797744,"connected_time":1660000000000,"state":"active","ping":73},{"user_id":704,"name":"[PKBG] Pipera","steam_id":76561197998280567,"connected_time":1682000000000,"state":"active","ping":53},{"user_id":681,"name":"Wakalakakashi","steam_id":76561198003887384,"connected_time":2879000000000,"state":"active","ping":55},{"user_id":711,"name":"Miss Bari","steam_id":76561198365286092,"connected_time":1413000000000,"state":"active","ping":40},{"user_id":737,"name":"mr gaming","steam_id":76561198110103308,"connected_time":373000000000,"state":"active","ping":45},{"user_id":738,"name":"Cahl","steam_id":76561198980863125,"connected_time":353000000000,"state":"active","ping":45},{"user_id":739,"name":"Cosmetic brain","steam_id":76561198055936410,"connected_time":337000000000,"state":"active","ping":86},{"user_id":701,"name":"Chicken pot pie","steam_id":76561198084997090,"connected_time":2278000000000,"state":"active","ping":34},{"user_id":713,"name":"a chair","steam_id":76561199085472085,"connected_time":1376000000000,"state":"active","ping":76},{"user_id":741,"name":"Sir Crust","steam_id":76561199122077146,"connected_time":126000000000,"state":"active","ping":56},{"user_id":714,"name":"Fido","steam_id":76561198019826483,"connected_time":1333000000000,"state":"active","ping":63},{"user_id":675,"name":"LuCroGi","steam_id":76561198057283891,"connected_time":3436000000000,"state":"active","ping":59},{"user_id":691,"name":"Fiurius","steam_id":76561198151910950,"connected_time":2583000000000,"state":"active","ping":76},{"user_id":740,"name":"My left foot itches","steam_id":76561198078411001,"connected_time":327000000000,"state":"active","ping":85}]},{"server_id":321,"name":"Uncletopia | London | 4 | All Maps","name_short":"lon-4","host":"lon-1.uk.uncletopia.com","port":27045,"enabled":true,"region":"eu","cc":"gb","latitude":51.509865,"longitude":-0.118092,"reserved":0,"last_update":"0001-01-01T00:00:00Z","name_a2s":"Uncletopia | London | 4 | All Maps","protocol":17,"map":"koth_harvest_final","folder":"tf","game":"Team Fortress","app_id":440,"player_count":0,"max_players":24,"Bots":0,"server_type":"Dedicated","server_os":"Linux","password":true,"vac":true,"version":"7961495","steam_id":85568392924510193,"keywords":["cp","nocrits","nodmgspread","uncletopia"],"game_id":440,"stv_port":27046,"stv_name":"Uncletopia | London | 4 | All Maps | STV","players":null},{"server_id":21,"name":"Uncletopia | London | 5 | All Maps","name_short":"lon-5","host":"lon-1.uk.uncletopia.com","port":27055,"enabled":true,"region":"eu","cc":"gb","latitude":51.509865,"longitude":-0.118092,"reserved":0,"last_update":"0001-01-01T00:00:00Z","name_a2s":"Uncletopia | London | 5 | All Maps","protocol":17,"map":"pl_pier","folder":"tf","game":"Team Fortress","app_id":440,"player_count":24,"max_players":24,"Bots":0,"server_type":"Dedicated","server_os":"Linux","password":true,"vac":true,"version":"7961495","steam_id":85568392924742829,"keywords":["nocrits","nodmgspread","payload","uncletopia"],"game_id":440,"stv_port":27056,"stv_name":"Uncletopia | London | 5 | All Maps | STV","players":[{"user_id":625,"name":"Tort","steam_id":76561198329646769,"connected_time":462000000000,"state":"active","ping":56},{"user_id":622,"name":"Maks","steam_id":76561198315278876,"connected_time":1192000000000,"state":"active","ping":42},{"user_id":618,"name":"Alienketchup","steam_id":76561197970585162,"connected_time":1489000000000,"state":"active","ping":88},{"user_id":624,"name":"D0kai","steam_id":76561198389271720,"connected_time":1018000000000,"state":"active","ping":48},{"user_id":542,"name":"Marquis de Hoto","steam_id":76561198080687708,"connected_time":5660000000000,"state":"active","ping":75},{"user_id":576,"name":"s a i","steam_id":76561197970379754,"connected_time":2738000000000,"state":"active","ping":60},{"user_id":602,"name":"yuno appreciator","steam_id":76561198083286511,"connected_time":1938000000000,"state":"active","ping":43},{"user_id":631,"name":"tm`","steam_id":76561197993580412,"connected_time":74000000000,"state":"active","ping":60},{"user_id":629,"name":"randompixel","steam_id":76561198003941207,"connected_time":266000000000,"state":"active","ping":56},{"user_id":600,"name":"SomeDink","steam_id":76561198114874429,"connected_time":1988000000000,"state":"active","ping":162},{"user_id":619,"name":"bco","steam_id":76561198124462767,"connected_time":1477000000000,"state":"active","ping":97},{"user_id":608,"name":"OceanMan","steam_id":76561198391833371,"connected_time":1812000000000,"state":"active","ping":44},{"user_id":611,"name":"Thing","steam_id":76561197997904403,"connected_time":1799000000000,"state":"active","ping":107},{"user_id":626,"name":"Professional facestab","steam_id":76561198258721056,"connected_time":454000000000,"state":"active","ping":58},{"user_id":553,"name":"levnemcev","steam_id":76561198057205970,"connected_time":4571000000000,"state":"active","ping":92},{"user_id":632,"name":"ack","steam_id":76561198139796077,"connected_time":44000000000,"state":"active","ping":58},{"user_id":623,"name":"Reprobus","steam_id":76561198332243756,"connected_time":1142000000000,"state":"active","ping":71},{"user_id":514,"name":"Cabbch","steam_id":76561198045955679,"connected_time":7562000000000,"state":"active","ping":45},{"user_id":595,"name":"AnalBypass1989","steam_id":76561198052356557,"connected_time":2234000000000,"state":"active","ping":66},{"user_id":612,"name":"Gustavo Fring","steam_id":76561198034769199,"connected_time":1793000000000,"state":"active","ping":46},{"user_id":621,"name":"Abby","steam_id":76561198170528489,"connected_time":1349000000000,"state":"active","ping":62},{"user_id":428,"name":"Personano","steam_id":76561198994355577,"connected_time":13040000000000,"state":"active","ping":56},{"user_id":330,"name":"Ixsus\u003c3","steam_id":76561198094756869,"connected_time":19505000000000,"state":"active","ping":69},{"user_id":613,"name":"ROX","steam_id":76561198272289320,"connected_time":1771000000000,"state":"active","ping":63}]},{"server_id":22,"name":"Uncletopia | London | 6 | All Maps","name_short":"lon-6","host":"lon-1.uk.uncletopia.com","port":27065,"enabled":true,"region":"eu","cc":"gb","latitude":51.509865,"longitude":-0.118092,"reserved":0,"last_update":"0001-01-01T00:00:00Z","name_a2s":"Uncletopia | London | 6 | All Maps","protocol":17,"map":"koth_cascade","folder":"tf","game":"Team Fortress","app_id":440,"player_count":5,"max_players":24,"Bots":0,"server_type":"Dedicated","server_os":"Linux","password":true,"vac":true,"version":"7961495","steam_id":85568392924742830,"keywords":["cp","nocrits","nodmgspread","uncletopia"],"game_id":440,"stv_port":27066,"stv_name":"Uncletopia | London | 6 | All Maps | STV","players":[{"user_id":48,"name":"Concorde","steam_id":76561199141714627,"connected_time":1256000000000,"state":"active","ping":70},{"user_id":49,"name":"GREEP","steam_id":76561199443547191,"connected_time":1240000000000,"state":"active","ping":54},{"user_id":50,"name":"cute and funny","steam_id":76561198372699365,"connected_time":1200000000000,"state":"active","ping":87},{"user_id":51,"name":"MagicA","steam_id":76561198454494204,"connected_time":1013000000000,"state":"active","ping":55},{"user_id":52,"name":"Gachalover","steam_id":76561199231552074,"connected_time":971000000000,"state":"active","ping":159}]},{"server_id":40,"name":"Uncletopia | London | 7 | No Payload","name_short":"lon-7","host":"lon-1.uk.uncletopia.com","port":27075,"enabled":true,"region":"eu","cc":"gb","latitude":51.509865,"longitude":-0.118092,"reserved":0,"last_update":"0001-01-01T00:00:00Z","name_a2s":"Uncletopia | London | 7 | No Payload","protocol":17,"map":"cp_snakewater_final1","folder":"tf","game":"Team Fortress","app_id":440,"player_count":24,"max_players":24,"Bots":0,"server_type":"Dedicated","server_os":"Linux","password":true,"vac":true,"version":"7961495","steam_id":85568392924964314,"keywords":["cp","nocrits","nodmgspread","uncletopia"],"game_id":440,"stv_port":27076,"stv_name":"Uncletopia | London | 7 | No Payload | STV","players":[{"user_id":349,"name":"MR ASSMAN","steam_id":76561198206227241,"connected_time":441000000000,"state":"active","ping":56},{"user_id":310,"name":"Certified Bug Lady","steam_id":76561198262682428,"connected_time":3587000000000,"state":"active","ping":61},{"user_id":338,"name":"7Tales","steam_id":76561198121572869,"connected_time":1311000000000,"state":"active","ping":46},{"user_id":261,"name":"7oid","steam_id":76561198142074232,"connected_time":5795000000000,"state":"active","ping":99},{"user_id":288,"name":"avalon","steam_id":76561198003212528,"connected_time":4442000000000,"state":"active","ping":73},{"user_id":322,"name":"Lyncurion","steam_id":76561199260022725,"connected_time":2268000000000,"state":"active","ping":84},{"user_id":339,"name":"Marty Pants","steam_id":76561198004449634,"connected_time":1261000000000,"state":"active","ping":56},{"user_id":291,"name":"N","steam_id":76561198257342972,"connected_time":4356000000000,"state":"active","ping":60},{"user_id":303,"name":"a bullet","steam_id":76561198809248362,"connected_time":3850000000000,"state":"active","ping":90},{"user_id":350,"name":"CBT","steam_id":76561199439141531,"connected_time":407000000000,"state":"active","ping":54},{"user_id":316,"name":"frosty","steam_id":76561198094560834,"connected_time":2978000000000,"state":"active","ping":51},{"user_id":328,"name":"˹Fate's·Marionette˼","steam_id":76561198034197381,"connected_time":2050000000000,"state":"active","ping":48},{"user_id":336,"name":"Huskey","steam_id":76561198152392309,"connected_time":1598000000000,"state":"active","ping":45},{"user_id":329,"name":"♥ImWithMilk","steam_id":76561198269577569,"connected_time":2023000000000,"state":"active","ping":52},{"user_id":340,"name":"Uncle Moomin","steam_id":76561198011628656,"connected_time":1182000000000,"state":"active","ping":76},{"user_id":351,"name":"the skrunkle","steam_id":76561198880309700,"connected_time":390000000000,"state":"active","ping":68},{"user_id":346,"name":"Star in a pond","steam_id":76561198205501279,"connected_time":598000000000,"state":"active","ping":103},{"user_id":347,"name":"pellio","steam_id":76561199094535057,"connected_time":583000000000,"state":"active","ping":53},{"user_id":348,"name":"Patafoin","steam_id":76561198142395913,"connected_time":566000000000,"state":"active","ping":67},{"user_id":332,"name":"ChPerette 🎮","steam_id":76561198060004887,"connected_time":1952000000000,"state":"active","ping":45},{"user_id":343,"name":"bowchika wowa #SlavaUkraine","steam_id":76561198159564550,"connected_time":1086000000000,"state":"active","ping":75},{"user_id":352,"name":"Mike","steam_id":76561198266996665,"connected_time":300000000000,"state":"active","ping":46},{"user_id":299,"name":"Ash","steam_id":76561198148738525,"connected_time":3994000000000,"state":"active","ping":101},{"user_id":287,"name":"cinny","steam_id":76561198832112629,"connected_time":4554000000000,"state":"active","ping":85}]},{"server_id":41,"name":"Uncletopia | London | 8 | Community","name_short":"lon-8","host":"lon-1.uk.uncletopia.com","port":27085,"enabled":true,"region":"eu","cc":"gb","latitude":51.509865,"longitude":-0.118092,"reserved":0,"last_update":"0001-01-01T00:00:00Z","name_a2s":"Uncletopia | London | 8 | Community","protocol":17,"map":"workshop/koth_ramjam_rc1.ugc459778887","folder":"tf","game":"Team Fortress","app_id":440,"player_count":0,"max_players":24,"Bots":0,"server_type":"Dedicated","server_os":"Linux","password":true,"vac":true,"version":"7961495","steam_id":85568392924964315,"keywords":["cp","nocrits","nodmgspread","uncletopia"],"game_id":440,"stv_port":27086,"stv_name":"Uncletopia | London | 8 | Community | STV","players":null},{"server_id":300,"name":"Uncletopia | Montréal | 1 | All Maps","name_short":"mtl-1","host":"mtl-1.ca.uncletopia.com","port":27015,"enabled":true,"region":"us-east","cc":"ca","latitude":45.50889,"longitude":-73.56167,"reserved":0,"last_update":"0001-01-01T00:00:00Z","name_a2s":"Uncletopia | Montréal | 1 | All Maps","protocol":17,"map":"pl_borneo","folder":"tf","game":"Team Fortress","app_id":440,"player_count":24,"max_players":24,"Bots":0,"server_type":"Dedicated","server_os":"Linux","password":true,"vac":true,"version":"7961495","steam_id":85568392924500087,"keywords":["nocrits","nodmgspread","payload","uncletopia"],"game_id":440,"stv_port":27016,"stv_name":"Uncletopia | Montréal | 1 | All Maps | STV","players":[{"user_id":57,"name":"Bird","steam_id":76561198247484514,"connected_time":118000000000,"state":"active","ping":64},{"user_id":50,"name":"Mr fish","steam_id":76561198418502664,"connected_time":356000000000,"state":"active","ping":191},{"user_id":49,"name":"SoundKitKiller","steam_id":76561198053535873,"connected_time":392000000000,"state":"active","ping":73},{"user_id":24,"name":"plastic tub of sour cherry ball","steam_id":76561199390537886,"connected_time":1108000000000,"state":"active","ping":116},{"user_id":19,"name":"SneakyJayMLP","steam_id":76561198969565685,"connected_time":1318000000000,"state":"active","ping":69},{"user_id":20,"name":"Xrath","steam_id":76561198220741860,"connected_time":1317000000000,"state":"active","ping":65},{"user_id":52,"name":"AMBROTOS","steam_id":76561198042600523,"connected_time":267000000000,"state":"active","ping":77},{"user_id":26,"name":"bobthebuilder3y","steam_id":76561199490681815,"connected_time":1077000000000,"state":"active","ping":103},{"user_id":28,"name":"Asura","steam_id":76561198197227615,"connected_time":998000000000,"state":"active","ping":72},{"user_id":59,"name":"Sergeant Joker #savetf2","steam_id":76561198854616604,"connected_time":79000000000,"state":"active","ping":49},{"user_id":30,"name":"Nerdycatgamer","steam_id":76561198235698272,"connected_time":982000000000,"state":"active","ping":86},{"user_id":31,"name":"Gay Mushroom","steam_id":76561198151549658,"connected_time":956000000000,"state":"active","ping":80},{"user_id":32,"name":"Spy (I Love spy)","steam_id":76561199138738952,"connected_time":938000000000,"state":"active","ping":93},{"user_id":33,"name":"Terrence.minecraft2008","steam_id":76561198317113179,"connected_time":928000000000,"state":"active","ping":75},{"user_id":53,"name":"Goblin","steam_id":76561198338245497,"connected_time":260000000000,"state":"active","ping":73},{"user_id":58,"name":"Sulong","steam_id":76561198798244209,"connected_time":102000000000,"state":"active","ping":83},{"user_id":55,"name":"CHIEF_JUSTICE_FUCKASS","steam_id":76561199261675844,"connected_time":232000000000,"state":"active","ping":128},{"user_id":37,"name":"nhbiker","steam_id":76561198081277675,"connected_time":883000000000,"state":"active","ping":60},{"user_id":48,"name":"Ellis McGruber","steam_id":76561198060739536,"connected_time":459000000000,"state":"active","ping":60},{"user_id":60,"name":"shp","steam_id":76561198994761483,"connected_time":64000000000,"state":"active","ping":96},{"user_id":47,"name":"KBoneski ♡","steam_id":76561198307409065,"connected_time":572000000000,"state":"active","ping":84},{"user_id":44,"name":"the GOAT of all time","steam_id":76561198241948526,"connected_time":793000000000,"state":"active","ping":47},{"user_id":54,"name":"Mossey_Wang","steam_id":76561198180184306,"connected_time":253000000000,"state":"active","ping":123},{"user_id":56,"name":"Khaicchi","steam_id":76561198104454754,"connected_time":216000000000,"state":"active","ping":163}]},{"server_id":301,"name":"Uncletopia | Montréal | 2 | All Maps","name_short":"mtl-2","host":"mtl-1.ca.uncletopia.com","port":27025,"enabled":true,"region":"us-east","cc":"ca","latitude":45.50889,"longitude":-73.56167,"reserved":0,"last_update":"0001-01-01T00:00:00Z","name_a2s":"Uncletopia | Montréal | 2 | All Maps","protocol":17,"map":"koth_viaduct","folder":"tf","game":"Team Fortress","app_id":440,"player_count":0,"max_players":24,"Bots":0,"server_type":"Dedicated","server_os":"Linux","password":true,"vac":true,"version":"7961495","steam_id":85568392924500088,"keywords":["cp","nocrits","nodmgspread","uncletopia"],"game_id":440,"stv_port":27026,"stv_name":"Uncletopia | Montréal | 2 | All Maps | STV","players":null},{"server_id":302,"name":"Uncletopia | Montréal | 3 | All Maps","name_short":"mtl-3","host":"mtl-1.ca.uncletopia.com","port":27035,"enabled":true,"region":"us-east","cc":"ca","latitude":45.50889,"longitude":-73.56167,"reserved":0,"last_update":"0001-01-01T00:00:00Z","name_a2s":"Uncletopia | Montréal | 3 | All Maps","protocol":17,"map":"cp_mountainlab","folder":"tf","game":"Team Fortress","app_id":440,"player_count":0,"max_players":24,"Bots":0,"server_type":"Dedicated","server_os":"Linux","password":true,"vac":true,"version":"7961495","steam_id":85568392924500089,"keywords":["cp","nocrits","nodmgspread","uncletopia"],"game_id":440,"stv_port":27036,"stv_name":"Uncletopia | Montréal | 3 | All Maps | STV","players":null},{"server_id":303,"name":"Uncletopia | Montréal | 4 | No Payload","name_short":"mtl-4","host":"mtl-1.ca.uncletopia.com","port":27045,"enabled":true,"region":"us-east","cc":"ca","latitude":45.50889,"longitude":-73.56167,"reserved":0,"last_update":"0001-01-01T00:00:00Z","name_a2s":"Uncletopia | Montréal | 4 | No Payload","protocol":17,"map":"cp_mossrock","folder":"tf","game":"Team Fortress","app_id":440,"player_count":22,"max_players":24,"Bots":0,"server_type":"Dedicated","server_os":"Linux","password":true,"vac":true,"version":"7961495","steam_id":85568392924500090,"keywords":["cp","nocrits","nodmgspread","uncletopia"],"game_id":440,"stv_port":27046,"stv_name":"Uncletopia | Montréal | 4 | No Payload | STV","players":[{"user_id":148,"name":"Fuzzy","steam_id":76561199100612353,"connected_time":1486000000000,"state":"active","ping":70},{"user_id":82,"name":"jimmyfnaf172198yay","steam_id":76561198311446636,"connected_time":5285000000000,"state":"active","ping":78},{"user_id":166,"name":"Johnny Lawrence #JohnnyMaxxing","steam_id":76561199367141671,"connected_time":242000000000,"state":"active","ping":60},{"user_id":113,"name":"Vegerot","steam_id":76561197997843710,"connected_time":3184000000000,"state":"active","ping":45},{"user_id":158,"name":"aunt may kills Batman","steam_id":76561198300250162,"connected_time":855000000000,"state":"active","ping":50},{"user_id":138,"name":"Dreysidel","steam_id":76561198056496183,"connected_time":2218000000000,"state":"active","ping":42},{"user_id":128,"name":"Σ-男","steam_id":76561199124332716,"connected_time":2850000000000,"state":"active","ping":82},{"user_id":57,"name":"Bubbles","steam_id":76561199009540283,"connected_time":5978000000000,"state":"active","ping":62},{"user_id":167,"name":"aiming with drawing tablet","steam_id":76561198397662124,"connected_time":228000000000,"state":"active","ping":103},{"user_id":160,"name":"Lumberjohn","steam_id":76561199058049384,"connected_time":699000000000,"state":"active","ping":76},{"user_id":168,"name":"Maybe","steam_id":76561198268304564,"connected_time":150000000000,"state":"active","ping":60},{"user_id":18,"name":"Fangirl","steam_id":76561198253710690,"connected_time":8620000000000,"state":"active","ping":73},{"user_id":141,"name":"Kreacher |","steam_id":76561198061639792,"connected_time":2145000000000,"state":"active","ping":83},{"user_id":161,"name":"The Hentai Hacker","steam_id":76561198375866407,"connected_time":649000000000,"state":"active","ping":79},{"user_id":132,"name":"Impresio","steam_id":76561198129127347,"connected_time":2727000000000,"state":"active","ping":85},{"user_id":124,"name":"gravid baby","steam_id":76561198318646867,"connected_time":2993000000000,"state":"active","ping":44},{"user_id":149,"name":"dox","steam_id":76561198838245430,"connected_time":1462000000000,"state":"active","ping":76},{"user_id":83,"name":"Nungel","steam_id":76561198272961376,"connected_time":5264000000000,"state":"active","ping":100},{"user_id":125,"name":"skoops","steam_id":76561198083276946,"connected_time":2948000000000,"state":"active","ping":64},{"user_id":145,"name":"sagekiss","steam_id":76561198038831240,"connected_time":1586000000000,"state":"active","ping":130},{"user_id":87,"name":"Bheem","steam_id":76561198170453459,"connected_time":5214000000000,"state":"active","ping":113},{"user_id":169,"name":"you forgot the sauce","steam_id":76561198387016713,"connected_time":84000000000,"state":"active","ping":51}]},{"server_id":13,"name":"Uncletopia | New York City | 1 | All Maps","name_short":"nyc-1","host":"nyc-1.us.uncletopia.com","port":27015,"enabled":true,"region":"us-east","cc":"us","latitude":40.73061,"longitude":-73.93524,"reserved":0,"last_update":"0001-01-01T00:00:00Z","name_a2s":"Uncletopia | New York City | 1 | All Maps","protocol":17,"map":"cp_powerhouse","folder":"tf","game":"Team Fortress","app_id":440,"player_count":24,"max_players":24,"Bots":0,"server_type":"Dedicated","server_os":"Linux","password":true,"vac":true,"version":"7961495","steam_id":85568392924469993,"keywords":["cp","nocrits","nodmgspread","uncletopia"],"game_id":440,"stv_port":27016,"stv_name":"Uncletopia | New York City | 1 | All Maps | STV","players":[{"user_id":539,"name":"Misterwipeout","steam_id":76561198068900320,"connected_time":2619000000000,"state":"active","ping":120},{"user_id":488,"name":"Baron von Whoopsie","steam_id":76561197996691013,"connected_time":5420000000000,"state":"active","ping":53},{"user_id":515,"name":"Kobrakiddmeow","steam_id":76561198080696266,"connected_time":4127000000000,"state":"active","ping":87},{"user_id":367,"name":"Monsieur l'INGENIEUR","steam_id":76561198090504334,"connected_time":12770000000000,"state":"active","ping":57},{"user_id":519,"name":"SPOOKY_","steam_id":76561198073395404,"connected_time":4005000000000,"state":"active","ping":138},{"user_id":556,"name":"20 miles for a Quaalude","steam_id":76561198042579477,"connected_time":1108000000000,"state":"active","ping":50},{"user_id":549,"name":"cobhlaith","steam_id":76561198039851829,"connected_time":1554000000000,"state":"active","ping":60},{"user_id":525,"name":"Ruby Gillman","steam_id":76561198366299848,"connected_time":3584000000000,"state":"active","ping":61},{"user_id":508,"name":"Another Neko Weeb","steam_id":76561198051785884,"connected_time":4344000000000,"state":"active","ping":44},{"user_id":541,"name":"Elixir","steam_id":76561198154415647,"connected_time":2294000000000,"state":"active","ping":64},{"user_id":551,"name":"Lili Rouxxx","steam_id":76561198000522179,"connected_time":1520000000000,"state":"active","ping":62},{"user_id":554,"name":"jamzine","steam_id":76561198186168293,"connected_time":1277000000000,"state":"active","ping":54},{"user_id":517,"name":"(no monitor) ayylien","steam_id":76561198042127970,"connected_time":4020000000000,"state":"active","ping":68},{"user_id":560,"name":"Flump","steam_id":76561198044848415,"connected_time":984000000000,"state":"active","ping":98},{"user_id":545,"name":"Mr. Nickel","steam_id":76561198108722399,"connected_time":1755000000000,"state":"active","ping":133},{"user_id":552,"name":"Colonel Flintfukk","steam_id":76561198031990822,"connected_time":1441000000000,"state":"active","ping":67},{"user_id":538,"name":"Cooldogjoe","steam_id":76561198105543698,"connected_time":2687000000000,"state":"active","ping":83},{"user_id":542,"name":"JoCaleb02","steam_id":76561198272389829,"connected_time":2211000000000,"state":"active","ping":48},{"user_id":516,"name":"Birch","steam_id":76561198316231704,"connected_time":4095000000000,"state":"active","ping":44},{"user_id":558,"name":"rosable ☆","steam_id":76561199164371592,"connected_time":1049000000000,"state":"active","ping":67},{"user_id":534,"name":"Vitzenhauzer","steam_id":76561198116449787,"connected_time":2886000000000,"state":"active","ping":53},{"user_id":555,"name":"Yesu","steam_id":76561198026522528,"connected_time":1114000000000,"state":"active","ping":51},{"user_id":563,"name":"saurhead","steam_id":76561198132937722,"connected_time":52000000000,"state":"active","ping":46},{"user_id":559,"name":"Idk","steam_id":76561198971629959,"connected_time":1039000000000,"state":"active","ping":142}]},{"server_id":14,"name":"Uncletopia | New York City | 2 | All Maps","name_short":"nyc-2","host":"nyc-1.us.uncletopia.com","port":27025,"enabled":true,"region":"us-east","cc":"us","latitude":40.73061,"longitude":-73.93524,"reserved":0,"last_update":"0001-01-01T00:00:00Z","name_a2s":"Uncletopia | New York City | 2 | All Maps","protocol":17,"map":"cp_process_final","folder":"tf","game":"Team Fortress","app_id":440,"player_count":23,"max_players":24,"Bots":0,"server_type":"Dedicated","server_os":"Linux","password":true,"vac":true,"version":"7961495","steam_id":85568392924469994,"keywords":["cp","nocrits","nodmgspread","uncletopia"],"game_id":440,"stv_port":27026,"stv_name":"Uncletopia | New York City | 2 | All Maps | STV","players":[{"user_id":475,"name":"Popkornz","steam_id":76561198195971173,"connected_time":83000000000,"state":"active","ping":65},{"user_id":478,"name":"Salt","steam_id":76561198418001135,"connected_time":2000000000,"state":"spawning","ping":91},{"user_id":440,"name":"Webelwober","steam_id":76561197981087545,"connected_time":1788000000000,"state":"active","ping":57},{"user_id":459,"name":"Poi","steam_id":76561198176914898,"connected_time":474000000000,"state":"active","ping":76},{"user_id":466,"name":"P.C. Baby","steam_id":76561198067011379,"connected_time":327000000000,"state":"active","ping":131},{"user_id":469,"name":"Snugboo","steam_id":76561198147970327,"connected_time":290000000000,"state":"active","ping":35},{"user_id":471,"name":"sonikro","steam_id":76561197989428692,"connected_time":231000000000,"state":"active","ping":60},{"user_id":472,"name":"A Very Confused Gentleman","steam_id":76561198051686391,"connected_time":209000000000,"state":"active","ping":70},{"user_id":463,"name":"Rick Astley Is A F2P?","steam_id":76561199258805660,"connected_time":432000000000,"state":"active","ping":54},{"user_id":464,"name":"Mediocre Gaming","steam_id":76561199230467980,"connected_time":418000000000,"state":"active","ping":76},{"user_id":461,"name":"VelocityCubeR","steam_id":76561198044351011,"connected_time":448000000000,"state":"active","ping":63},{"user_id":390,"name":"JPSS","steam_id":76561199239530493,"connected_time":4628000000000,"state":"active","ping":64},{"user_id":426,"name":"The Jar","steam_id":76561198146013385,"connected_time":3422000000000,"state":"active","ping":55},{"user_id":451,"name":"Cpt. Rex","steam_id":76561199104175331,"connected_time":828000000000,"state":"active","ping":60},{"user_id":445,"name":"cyberas","steam_id":76561198257092290,"connected_time":1277000000000,"state":"active","ping":69},{"user_id":447,"name":"ReGaBe","steam_id":76561198126005470,"connected_time":1234000000000,"state":"active","ping":83},{"user_id":467,"name":"BigNugs","steam_id":76561198056402610,"connected_time":308000000000,"state":"active","ping":80},{"user_id":462,"name":"Copter_Boy","steam_id":76561198322921312,"connected_time":447000000000,"state":"active","ping":46},{"user_id":403,"name":"RuinLucky","steam_id":76561199481172481,"connected_time":3899000000000,"state":"active","ping":87},{"user_id":443,"name":"Orange Triangle","steam_id":76561198320498182,"connected_time":1767000000000,"state":"active","ping":78},{"user_id":458,"name":"ThatGamingKiwi","steam_id":76561199170522237,"connected_time":495000000000,"state":"active","ping":82},{"user_id":446,"name":"Buck","steam_id":76561198064244796,"connected_time":1277000000000,"state":"active","ping":34},{"user_id":450,"name":"Dmax","steam_id":76561198409699839,"connected_time":910000000000,"state":"active","ping":129}]},{"server_id":15,"name":"Uncletopia | New York City | 3 | Stopwatch Beta","name_short":"nyc-3","host":"nyc-1.us.uncletopia.com","port":27035,"enabled":true,"region":"us-east","cc":"us","latitude":40.73061,"longitude":-73.93524,"reserved":0,"last_update":"0001-01-01T00:00:00Z","name_a2s":"Uncletopia | New York City | 3 | Stopwatch Beta","protocol":17,"map":"cp_snakewater_final1","folder":"tf","game":"Team Fortress","app_id":440,"player_count":23,"max_players":24,"Bots":0,"server_type":"Dedicated","server_os":"Linux","password":true,"vac":true,"version":"7961495","steam_id":85568392924742820,"keywords":["cp","nocrits","nodmgspread","uncletopia"],"game_id":440,"stv_port":27036,"stv_name":"Uncletopia | New York City | 3 | Stopwatch Beta | STV","players":[{"user_id":326,"name":"ROME Vio","steam_id":76561198068686187,"connected_time":1637000000000,"state":"active","ping":89},{"user_id":295,"name":"sonny","steam_id":76561198078381913,"connected_time":3375000000000,"state":"active","ping":75},{"user_id":336,"name":"Ground Control to Majortom","steam_id":76561198065589126,"connected_time":875000000000,"state":"active","ping":86},{"user_id":342,"name":"s","steam_id":76561198143826450,"connected_time":384000000000,"state":"active","ping":65},{"user_id":316,"name":"HUMBY","steam_id":76561198065045867,"connected_time":2173000000000,"state":"active","ping":94},{"user_id":341,"name":"get scrongled, idiot","steam_id":76561198115874625,"connected_time":503000000000,"state":"active","ping":100},{"user_id":329,"name":"Kung fu Mungus","steam_id":76561198069281556,"connected_time":1048000000000,"state":"active","ping":102},{"user_id":330,"name":"WesyUWU (The mini crit pig)","steam_id":76561198069188177,"connected_time":1047000000000,"state":"active","ping":105},{"user_id":348,"name":"msay","steam_id":76561198170888029,"connected_time":19000000000,"state":"active","ping":75},{"user_id":346,"name":"jacklumin","steam_id":76561198029502901,"connected_time":308000000000,"state":"active","ping":103},{"user_id":312,"name":"hashmap","steam_id":76561198043794014,"connected_time":2472000000000,"state":"active","ping":54},{"user_id":306,"name":"Junko","steam_id":76561198146089003,"connected_time":2716000000000,"state":"active","ping":30},{"user_id":302,"name":"sc67","steam_id":76561199302471485,"connected_time":2995000000000,"state":"active","ping":58},{"user_id":283,"name":"luh twonk chocolate","steam_id":76561199048057457,"connected_time":4027000000000,"state":"active","ping":56},{"user_id":343,"name":"Techdub","steam_id":76561198265392756,"connected_time":378000000000,"state":"active","ping":64},{"user_id":334,"name":"beep!","steam_id":76561198111674607,"connected_time":909000000000,"state":"active","ping":130},{"user_id":344,"name":"Jin Mu-Won","steam_id":76561198414122318,"connected_time":375000000000,"state":"active","ping":67},{"user_id":325,"name":"Evan","steam_id":76561197972292926,"connected_time":1642000000000,"state":"active","ping":63},{"user_id":345,"name":"Vorzky","steam_id":76561198201184510,"connected_time":371000000000,"state":"active","ping":60},{"user_id":347,"name":"rbjunk","steam_id":76561198123458199,"connected_time":249000000000,"state":"active","ping":68},{"user_id":324,"name":"Frisbee","steam_id":76561197962808987,"connected_time":1686000000000,"state":"active","ping":86},{"user_id":317,"name":"LittleFieryOne","steam_id":76561198107463724,"connected_time":2168000000000,"state":"active","ping":77},{"user_id":332,"name":"Scuff1e","steam_id":76561198272995728,"connected_time":1014000000000,"state":"active","ping":89}]},{"server_id":16,"name":"Uncletopia | New York City | 4 | Community","name_short":"nyc-4","host":"nyc-1.us.uncletopia.com","port":27045,"enabled":true,"region":"us-east","cc":"us","latitude":40.73061,"longitude":-73.93524,"reserved":0,"last_update":"0001-01-01T00:00:00Z","name_a2s":"Uncletopia | New York City | 4 | Community","protocol":17,"map":"workshop/koth_slaughter_rc1.ugc1712845210","folder":"tf","game":"Team Fortress","app_id":440,"player_count":0,"max_players":24,"Bots":0,"server_type":"Dedicated","server_os":"Linux","password":true,"vac":true,"version":"7961495","steam_id":85568392924742821,"keywords":["cp","nocrits","nodmgspread","uncletopia"],"game_id":440,"stv_port":27046,"stv_name":"Uncletopia | New York City | 4 | Community | STV","players":null},{"server_id":142,"name":"Uncletopia | São Paulo | 1 | All Maps","name_short":"sao-1","host":"sao-1.br.uncletopia.com","port":27015,"enabled":true,"region":"sa","cc":"br","latitude":-23.533773,"longitude":-46.62529,"reserved":0,"last_update":"0001-01-01T00:00:00Z","name_a2s":"Uncletopia | São Paulo | 1 | All Maps","protocol":17,"map":"cp_process_final","folder":"tf","game":"Team Fortress","app_id":440,"player_count":0,"max_players":24,"Bots":0,"server_type":"Dedicated","server_os":"Linux","password":true,"vac":true,"version":"7961495","steam_id":85568392924469996,"keywords":["cp","nocrits","nodmgspread","uncletopia"],"game_id":440,"stv_port":27016,"stv_name":"Uncletopia | São Paulo | 1 | All Maps | STV","players":null},{"server_id":143,"name":"Uncletopia | São Paulo | 2 | All Maps","name_short":"sao-2","host":"sao-2.br.uncletopia.com","port":27015,"enabled":true,"region":"sa","cc":"br","latitude":-23.533773,"longitude":-46.62529,"reserved":0,"last_update":"0001-01-01T00:00:00Z","name_a2s":"Uncletopia | São Paulo | 2 | All Maps","protocol":17,"map":"koth_lakeside_final","folder":"tf","game":"Team Fortress","app_id":440,"player_count":0,"max_players":24,"Bots":0,"server_type":"Dedicated","server_os":"Linux","password":true,"vac":true,"version":"7961495","steam_id":85568392924485349,"keywords":["cp","nocrits","nodmgspread","uncletopia"],"game_id":440,"stv_port":27016,"stv_name":"Uncletopia | São Paulo | 2 | All Maps | STV","players":null},{"server_id":7,"name":"Uncletopia | Seattle | 1 | All Maps","name_short":"sea-1","host":"sea-1.us.uncletopia.com","port":27015,"enabled":true,"region":"us-west","cc":"us","latitude":47.608013,"longitude":-122.33517,"reserved":0,"last_update":"0001-01-01T00:00:00Z","name_a2s":"Uncletopia | Seattle | 1 | All Maps","protocol":17,"map":"pl_borneo","folder":"tf","game":"Team Fortress","app_id":440,"player_count":24,"max_players":24,"Bots":0,"server_type":"Dedicated","server_os":"Linux","password":true,"vac":true,"version":"7961495","steam_id":85568392924469997,"keywords":["nocrits","nodmgspread","payload","uncletopia"],"game_id":440,"stv_port":27016,"stv_name":"Uncletopia | Seattle | 1 | All Maps | STV","players":[{"user_id":276,"name":"Daz","steam_id":76561198041431938,"connected_time":2232000000000,"state":"active","ping":49},{"user_id":255,"name":"| L O S T |","steam_id":76561198062620333,"connected_time":3649000000000,"state":"active","ping":119},{"user_id":262,"name":"ender_the_degenerate","steam_id":76561198258135395,"connected_time":3294000000000,"state":"active","ping":79},{"user_id":297,"name":"Career","steam_id":76561198028542212,"connected_time":566000000000,"state":"active","ping":122},{"user_id":248,"name":"Deluxe_Taco34","steam_id":76561199037653437,"connected_time":3978000000000,"state":"active","ping":160},{"user_id":299,"name":"The Scatman","steam_id":76561198071693469,"connected_time":339000000000,"state":"active","ping":54},{"user_id":268,"name":"green bean","steam_id":76561198113099204,"connected_time":2889000000000,"state":"active","ping":58},{"user_id":280,"name":"pizzalover_2014","steam_id":76561198870649125,"connected_time":1546000000000,"state":"active","ping":80},{"user_id":237,"name":"Robuttnik","steam_id":76561198985726752,"connected_time":4314000000000,"state":"active","ping":83},{"user_id":226,"name":"Username","steam_id":76561199033122306,"connected_time":4416000000000,"state":"active","ping":168},{"user_id":270,"name":"Closed.","steam_id":76561198212598967,"connected_time":2849000000000,"state":"active","ping":82},{"user_id":295,"name":"iphone 7 plus","steam_id":76561198335836405,"connected_time":712000000000,"state":"active","ping":72},{"user_id":298,"name":"I LOVE CATS!!!!!1!1!!111!1111!!","steam_id":76561199090700964,"connected_time":436000000000,"state":"active","ping":54},{"user_id":291,"name":"minimalpair","steam_id":76561198071788709,"connected_time":1101000000000,"state":"active","ping":143},{"user_id":288,"name":"The biggest fool","steam_id":76561198085813708,"connected_time":1293000000000,"state":"active","ping":121},{"user_id":273,"name":"NEBULA","steam_id":76561198086878595,"connected_time":2676000000000,"state":"active","ping":74},{"user_id":224,"name":"Mr defrost","steam_id":76561198322125657,"connected_time":4417000000000,"state":"active","ping":69},{"user_id":302,"name":"Neptune˖⁺｡˚⋆˙♥","steam_id":76561199054203198,"connected_time":245000000000,"state":"active","ping":128},{"user_id":176,"name":"Donny Q","steam_id":76561198020901703,"connected_time":8969000000000,"state":"active","ping":60},{"user_id":301,"name":"moe","steam_id":76561198929586245,"connected_time":322000000000,"state":"active","ping":78},{"user_id":293,"name":"dust | she/it","steam_id":76561198045218909,"connected_time":900000000000,"state":"active","ping":37},{"user_id":246,"name":"Zee✞","steam_id":76561198274550638,"connected_time":4000000000000,"state":"active","ping":105},{"user_id":265,"name":"K2f","steam_id":76561198049600563,"connected_time":3250000000000,"state":"active","ping":77},{"user_id":278,"name":"HaphazardHazel","steam_id":76561198316812693,"connected_time":2223000000000,"state":"active","ping":135}]},{"server_id":119,"name":"Uncletopia | Seattle | 2 | All Maps","name_short":"sea-2","host":"sea-1.us.uncletopia.com","port":27025,"enabled":true,"region":"us-west","cc":"us","latitude":47.608013,"longitude":-122.33517,"reserved":0,"last_update":"0001-01-01T00:00:00Z","name_a2s":"Uncletopia | Seattle | 2 | All Maps","protocol":17,"map":"pl_snowycoast","folder":"tf","game":"Team Fortress","app_id":440,"player_count":24,"max_players":24,"Bots":0,"server_type":"Dedicated","server_os":"Linux","password":true,"vac":true,"version":"7961495","steam_id":85568392924469998,"keywords":["nocrits","nodmgspread","payload","uncletopia"],"game_id":440,"stv_port":27026,"stv_name":"Uncletopia | Seattle | 2 | All Maps | STV","players":[{"user_id":248,"name":"Punished Jeff (Drain Messiah)","steam_id":76561198304252584,"connected_time":1399000000000,"state":"active","ping":74},{"user_id":230,"name":"Villchip","steam_id":76561198198599982,"connected_time":2767000000000,"state":"active","ping":46},{"user_id":252,"name":"BlazedBunny","steam_id":76561198243610560,"connected_time":704000000000,"state":"active","ping":75},{"user_id":213,"name":"DrD","steam_id":76561198067266383,"connected_time":3773000000000,"state":"active","ping":34},{"user_id":265,"name":"Yasumi","steam_id":76561198089021933,"connected_time":63000000000,"state":"active","ping":44},{"user_id":258,"name":"Rodgedan","steam_id":76561198226236524,"connected_time":338000000000,"state":"active","ping":144},{"user_id":257,"name":"Teddy","steam_id":76561198048106221,"connected_time":344000000000,"state":"active","ping":63},{"user_id":158,"name":"♦Benji♦","steam_id":76561198313529973,"connected_time":8363000000000,"state":"active","ping":39},{"user_id":259,"name":"magunyamu","steam_id":76561198823083676,"connected_time":328000000000,"state":"active","ping":86},{"user_id":264,"name":"Shadow Monster Man","steam_id":76561198838739421,"connected_time":105000000000,"state":"active","ping":75},{"user_id":260,"name":"Tmiracle","steam_id":76561198052375275,"connected_time":308000000000,"state":"active","ping":75},{"user_id":147,"name":"Wheaty","steam_id":76561198003553412,"connected_time":9868000000000,"state":"active","ping":49},{"user_id":223,"name":"AstronautPug","steam_id":76561198162372709,"connected_time":3155000000000,"state":"active","ping":113},{"user_id":98,"name":"LederBoy","steam_id":76561198051822369,"connected_time":13842000000000,"state":"active","ping":70},{"user_id":266,"name":"Green Bastard","steam_id":76561198033885983,"connected_time":50000000000,"state":"active","ping":95},{"user_id":255,"name":"Pukei-Pukei","steam_id":76561197992722546,"connected_time":432000000000,"state":"active","ping":86},{"user_id":261,"name":"cinnamon","steam_id":76561198130086375,"connected_time":269000000000,"state":"active","ping":45},{"user_id":256,"name":"notkadenk","steam_id":76561198837454396,"connected_time":349000000000,"state":"active","ping":35},{"user_id":267,"name":"Ghwhaine","steam_id":76561199045414702,"connected_time":50000000000,"state":"active","ping":102},{"user_id":262,"name":"The Grim Heaper","steam_id":76561197987759101,"connected_time":265000000000,"state":"active","ping":66},{"user_id":238,"name":"TüCold","steam_id":76561198111278197,"connected_time":2351000000000,"state":"active","ping":60},{"user_id":251,"name":"孫子","steam_id":76561198083112681,"connected_time":752000000000,"state":"active","ping":110},{"user_id":243,"name":"selling rice","steam_id":76561198063357023,"connected_time":1718000000000,"state":"active","ping":67},{"user_id":101,"name":"VascoLeder","steam_id":76561198035813854,"connected_time":13470000000000,"state":"active","ping":77}]},{"server_id":406,"name":"Uncletopia | Seattle | 3 | Stopwatch Beta","name_short":"sea-3","host":"sea-1.us.uncletopia.com","port":27035,"enabled":true,"region":"us-west","cc":"us","latitude":47.608013,"longitude":-122.33517,"reserved":0,"last_update":"0001-01-01T00:00:00Z","name_a2s":"Uncletopia | Seattle | 3 | Stopwatch Beta","protocol":17,"map":"pl_borneo","folder":"tf","game":"Team Fortress","app_id":440,"player_count":0,"max_players":24,"Bots":0,"server_type":"Dedicated","server_os":"Linux","password":true,"vac":true,"version":"7961495","steam_id":85568392924515217,"keywords":["nocrits","nodmgspread","payload","uncletopia"],"game_id":440,"stv_port":27036,"stv_name":"Uncletopia | Seattle | 3 | Stopwatch Beta | STV","players":null},{"server_id":17,"name":"Uncletopia | San Francisco | 1 | All Maps","name_short":"sfo-1","host":"sfo-1.us.uncletopia.com","port":27015,"enabled":true,"region":"us-west","cc":"us","latitude":37.77397,"longitude":-122.4313,"reserved":0,"last_update":"0001-01-01T00:00:00Z","name_a2s":"Uncletopia | San Francisco | 1 | All Maps","protocol":17,"map":"pl_frontier_final","folder":"tf","game":"Team Fortress","app_id":440,"player_count":0,"max_players":24,"Bots":0,"server_type":"Dedicated","server_os":"Linux","password":true,"vac":true,"version":"7932396","steam_id":85568392924469999,"keywords":["nocrits","nodmgspread","payload","uncletopia"],"game_id":440,"stv_port":27016,"stv_name":"Uncletopia | San Francisco | 1 | All Maps | STV","players":null},{"server_id":18,"name":"Uncletopia | San Francisco | 2 | All Maps","name_short":"sfo-2","host":"sfo-1.us.uncletopia.com","port":27025,"enabled":true,"region":"us-west","cc":"us","latitude":37.77397,"longitude":-122.4313,"reserved":0,"last_update":"0001-01-01T00:00:00Z","name_a2s":"Uncletopia | San Francisco | 2 | All Maps","protocol":17,"map":"cp_snakewater_final1","folder":"tf","game":"Team Fortress","app_id":440,"player_count":0,"max_players":24,"Bots":0,"server_type":"Dedicated","server_os":"Linux","password":true,"vac":true,"version":"7932396","steam_id":85568392924470000,"keywords":["cp","nocrits","nodmgspread","uncletopia"],"game_id":440,"stv_port":27026,"stv_name":"Uncletopia | San Francisco | 2 | All Maps | STV","players":null},{"server_id":19,"name":"Uncletopia | San Francisco | 3 | Stopwatch Beta","name_short":"sfo-3","host":"sfo-1.us.uncletopia.com","port":27035,"enabled":true,"region":"us-west","cc":"us","latitude":37.77397,"longitude":-122.4313,"reserved":0,"last_update":"0001-01-01T00:00:00Z","name_a2s":"Uncletopia | San Francisco | 3 | Stopwatch Beta","protocol":17,"map":"koth_lakeside_final","folder":"tf","game":"Team Fortress","app_id":440,"player_count":0,"max_players":24,"Bots":0,"server_type":"Dedicated","server_os":"Linux","password":true,"vac":true,"version":"7932396","steam_id":85568392924742824,"keywords":["cp","nocrits","nodmgspread","uncletopia"],"game_id":440,"stv_port":27036,"stv_name":"Uncletopia | San Francisco | 3 | Stopwatch Beta | STV","players":null},{"server_id":20,"name":"Uncletopia | San Francisco | 4 | Community","name_short":"sfo-4","host":"sfo-1.us.uncletopia.com","port":27045,"enabled":true,"region":"us-west","cc":"us","latitude":37.77397,"longitude":-122.4313,"reserved":0,"last_update":"0001-01-01T00:00:00Z","name_a2s":"Uncletopia | San Francisco | 4 | Community","protocol":17,"map":"pl_borneo","folder":"tf","game":"Team Fortress","app_id":440,"player_count":0,"max_players":24,"Bots":0,"server_type":"Dedicated","server_os":"Linux","password":true,"vac":true,"version":"7932396","steam_id":85568392924742826,"keywords":["nocrits","nodmgspread","payload","uncletopia"],"game_id":440,"stv_port":27046,"stv_name":"Uncletopia | San Francisco | 4 | Community | STV","players":null},{"server_id":141,"name":"Uncletopia | Sydney | 1 | All Maps","name_short":"syd-1","host":"syd-1.au.uncletopia.com","port":27015,"enabled":true,"region":"au","cc":"au","latitude":-33.865143,"longitude":151.2099,"reserved":0,"last_update":"0001-01-01T00:00:00Z","name_a2s":"Uncletopia | Sydney | 1 | All Maps","protocol":17,"map":"pl_borneo","folder":"tf","game":"Team Fortress","app_id":440,"player_count":0,"max_players":24,"Bots":0,"server_type":"Dedicated","server_os":"Linux","password":true,"vac":true,"version":"7961495","steam_id":85568392924470001,"keywords":["nocrits","nodmgspread","payload","uncletopia"],"game_id":440,"stv_port":27016,"stv_name":"Uncletopia | Sydney | 1 | All Maps | STV","players":null},{"server_id":123,"name":"Uncletopia | Sydney | 2 | All Maps","name_short":"syd-2","host":"syd-1.au.uncletopia.com","port":27025,"enabled":true,"region":"au","cc":"au","latitude":-33.865143,"longitude":151.2099,"reserved":0,"last_update":"0001-01-01T00:00:00Z","name_a2s":"Uncletopia | Sydney | 2 | All Maps","protocol":17,"map":"koth_viaduct","folder":"tf","game":"Team Fortress","app_id":440,"player_count":0,"max_players":24,"Bots":0,"server_type":"Dedicated","server_os":"Linux","password":true,"vac":true,"version":"7961495","steam_id":85568392924470002,"keywords":["cp","nocrits","nodmgspread","uncletopia"],"game_id":440,"stv_port":27026,"stv_name":"Uncletopia | Sydney | 2 | All Maps | STV","players":null},{"server_id":395,"name":"Uncletopia | Sydney | 3 | All Maps","name_short":"syd-3","host":"syd-1.au.uncletopia.com","port":27035,"enabled":true,"region":"au","cc":"au","latitude":-33.865143,"longitude":151.2099,"reserved":0,"last_update":"0001-01-01T00:00:00Z","name_a2s":"Uncletopia | Sydney | 3 | All Maps","protocol":17,"map":"cp_dustbowl","folder":"tf","game":"Team Fortress","app_id":440,"player_count":0,"max_players":24,"Bots":0,"server_type":"Dedicated","server_os":"Linux","password":true,"vac":true,"version":"7961495","steam_id":85568392925194467,"keywords":["cp","nocrits","nodmgspread","uncletopia"],"game_id":440,"stv_port":27036,"stv_name":"Uncletopia | Sydney | 3 | All Maps | STV","players":null},{"server_id":396,"name":"Uncletopia | Sydney | 4 | All Maps","name_short":"syd-4","host":"syd-1.au.uncletopia.com","port":27045,"enabled":true,"region":"au","cc":"au","latitude":-33.865143,"longitude":151.2099,"reserved":0,"last_update":"0001-01-01T00:00:00Z","name_a2s":"Uncletopia | Sydney | 4 | All Maps","protocol":17,"map":"koth_cascade","folder":"tf","game":"Team Fortress","app_id":440,"player_count":0,"max_players":24,"Bots":0,"server_type":"Dedicated","server_os":"Linux","password":true,"vac":true,"version":"7961495","steam_id":85568392925397958,"keywords":["cp","nocrits","nodmgspread","uncletopia"],"game_id":440,"stv_port":27046,"stv_name":"Uncletopia | Sydney | 4 | All Maps | STV","players":null},{"server_id":58,"name":"Uncletopia | Sydney | 5 | Stopwatch Beta","name_short":"syd-5","host":"syd-1.au.uncletopia.com","port":27055,"enabled":true,"region":"au","cc":"au","latitude":-33.865143,"longitude":151.2099,"reserved":0,"last_update":"0001-01-01T00:00:00Z","name_a2s":"Uncletopia | Sydney | 5 | Stopwatch Beta","protocol":17,"map":"koth_viaduct","folder":"tf","game":"Team Fortress","app_id":440,"player_count":0,"max_players":24,"Bots":0,"server_type":"Dedicated","server_os":"Linux","password":true,"vac":true,"version":"7961495","steam_id":85568392925397959,"keywords":["cp","nocrits","nodmgspread","uncletopia"],"game_id":440,"stv_port":27056,"stv_name":"Uncletopia | Sydney | 5 | Stopwatch Beta | STV","players":null},{"server_id":59,"name":"Uncletopia | Sydney | 6 | Community","name_short":"syd-6","host":"syd-1.au.uncletopia.com","port":27065,"enabled":true,"region":"au","cc":"au","latitude":-33.865143,"longitude":151.2099,"reserved":0,"last_update":"0001-01-01T00:00:00Z","name_a2s":"Uncletopia | Sydney | 6 | Community","protocol":17,"map":"pl_barnblitz","folder":"tf","game":"Team Fortress","app_id":440,"player_count":0,"max_players":24,"Bots":0,"server_type":"Dedicated","server_os":"Linux","password":true,"vac":true,"version":"7961495","steam_id":85568392925397960,"keywords":["nocrits","nodmgspread","payload","uncletopia"],"game_id":440,"stv_port":27066,"stv_name":"Uncletopia | Sydney | 6 | Community | STV","players":null},{"server_id":49,"name":"Uncletopia | Warsaw | 1 | All Maps","name_short":"waw-1","host":"waw-1.pl.uncletopia.com","port":27015,"enabled":true,"region":"eu","cc":"pl","latitude":52.2297,"longitude":21.017532,"reserved":0,"last_update":"0001-01-01T00:00:00Z","name_a2s":"","protocol":0,"map":"","folder":"","game":"","app_id":0,"player_count":0,"max_players":0,"Bots":0,"server_type":"","server_os":"","password":false,"vac":false,"version":"","steam_id":0,"keywords":null,"game_id":0,"stv_port":0,"stv_name":"","players":null},{"server_id":50,"name":"Uncletopia | Warsaw | 2 | All Maps","name_short":"waw-2","host":"waw-1.pl.uncletopia.com","port":27025,"enabled":true,"region":"eu","cc":"pl","latitude":52.2297,"longitude":21.017532,"reserved":0,"last_update":"0001-01-01T00:00:00Z","name_a2s":"Uncletopia | Warsaw | 2 | All Maps","protocol":17,"map":"koth_cascade","folder":"tf","game":"Team Fortress","app_id":440,"player_count":0,"max_players":24,"Bots":0,"server_type":"Dedicated","server_os":"Linux","password":true,"vac":true,"version":"7961495","steam_id":85568392925397851,"keywords":["cp","nocrits","nodmgspread","uncletopia"],"game_id":440,"stv_port":27026,"stv_name":"Uncletopia | Warsaw | 2 | All Maps | STV","players":null},{"server_id":51,"name":"Uncletopia | Warsaw | 3 | All Maps","name_short":"waw-3","host":"waw-1.pl.uncletopia.com","port":27035,"enabled":true,"region":"eu","cc":"pl","latitude":52.2297,"longitude":21.017532,"reserved":0,"last_update":"0001-01-01T00:00:00Z","name_a2s":"Uncletopia | Warsaw | 3 | All Maps","protocol":17,"map":"koth_lakeside_final","folder":"tf","game":"Team Fortress","app_id":440,"player_count":0,"max_players":24,"Bots":0,"server_type":"Dedicated","server_os":"Linux","password":true,"vac":true,"version":"7961495","steam_id":85568392925397852,"keywords":["cp","nocrits","nodmgspread","uncletopia"],"game_id":440,"stv_port":27036,"stv_name":"Uncletopia | Warsaw | 3 | All Maps | STV","players":null},{"server_id":52,"name":"Uncletopia | Warsaw | 4 | All Maps","name_short":"waw-4","host":"waw-1.pl.uncletopia.com","port":27045,"enabled":true,"region":"eu","cc":"pl","latitude":52.2297,"longitude":21.017532,"reserved":0,"last_update":"0001-01-01T00:00:00Z","name_a2s":"Uncletopia | Warsaw | 4 | All Maps","protocol":17,"map":"pl_barnblitz","folder":"tf","game":"Team Fortress","app_id":440,"player_count":21,"max_players":24,"Bots":0,"server_type":"Dedicated","server_os":"Linux","password":true,"vac":true,"version":"7961495","steam_id":85568392925397853,"keywords":["nocrits","nodmgspread","payload","uncletopia"],"game_id":440,"stv_port":27046,"stv_name":"Uncletopia | Warsaw | 4 | All Maps | STV","players":[{"user_id":117,"name":"mob","steam_id":76561198099696876,"connected_time":438000000000,"state":"active","ping":81},{"user_id":94,"name":"Vitun vittu","steam_id":76561198110679463,"connected_time":2287000000000,"state":"active","ping":91},{"user_id":67,"name":"rudy rumcajs","steam_id":76561199388980355,"connected_time":3908000000000,"state":"active","ping":50},{"user_id":95,"name":"Twitch.tv/frostsnail","steam_id":76561197989859175,"connected_time":2207000000000,"state":"active","ping":72},{"user_id":110,"name":"Ewelinka Zniszczenia","steam_id":76561198307374456,"connected_time":1150000000000,"state":"active","ping":46},{"user_id":118,"name":"Pasi","steam_id":76561198118160557,"connected_time":433000000000,"state":"active","ping":115},{"user_id":74,"name":"Kreos","steam_id":76561198094772516,"connected_time":3582000000000,"state":"active","ping":71},{"user_id":105,"name":"pop","steam_id":76561198283225935,"connected_time":1372000000000,"state":"active","ping":97},{"user_id":93,"name":"Cdkatpifuzrmeu-uhfffaoysa-","steam_id":76561198185348855,"connected_time":2315000000000,"state":"active","ping":87},{"user_id":64,"name":"Burarum","steam_id":76561198009114251,"connected_time":4290000000000,"state":"active","ping":89},{"user_id":115,"name":"Nekramite","steam_id":76561198166617261,"connected_time":716000000000,"state":"active","ping":38},{"user_id":97,"name":"Norwegian Individual","steam_id":76561198427965963,"connected_time":2128000000000,"state":"active","ping":106},{"user_id":119,"name":"ninja fortnajt","steam_id":76561198442437488,"connected_time":408000000000,"state":"active","ping":40},{"user_id":120,"name":"IlikeChowMien","steam_id":76561199466131782,"connected_time":320000000000,"state":"active","ping":168},{"user_id":121,"name":"fénix","steam_id":76561198083199151,"connected_time":207000000000,"state":"active","ping":76},{"user_id":112,"name":"Evoc","steam_id":76561198045488607,"connected_time":957000000000,"state":"active","ping":52},{"user_id":63,"name":"PanAdrian00","steam_id":76561199170844894,"connected_time":4376000000000,"state":"active","ping":60},{"user_id":65,"name":"Искусство ZZ","steam_id":76561198057438629,"connected_time":4250000000000,"state":"active","ping":85},{"user_id":81,"name":"Coja","steam_id":76561198083974982,"connected_time":3320000000000,"state":"active","ping":82},{"user_id":107,"name":"spinning on uncletopia","steam_id":76561199233979726,"connected_time":1288000000000,"state":"active","ping":100},{"user_id":123,"name":"RDZ","steam_id":76561198203921628,"connected_time":83000000000,"state":"active","ping":41}]},{"server_id":53,"name":"Uncletopia | Warsaw | 5 | Stopwatch Beta","name_short":"waw-5","host":"waw-1.pl.uncletopia.com","port":27055,"enabled":true,"region":"eu","cc":"pl","latitude":52.2297,"longitude":21.017532,"reserved":0,"last_update":"0001-01-01T00:00:00Z","name_a2s":"Uncletopia | Warsaw | 5 | Stopwatch Beta","protocol":17,"map":"workshop/koth_ashville_final.ugc2130459942","folder":"tf","game":"Team Fortress","app_id":440,"player_count":0,"max_players":24,"Bots":0,"server_type":"Dedicated","server_os":"Linux","password":true,"vac":true,"version":"7961495","steam_id":85568392925397854,"keywords":["cp","nocrits","nodmgspread","uncletopia"],"game_id":440,"stv_port":27056,"stv_name":"Uncletopia | Warsaw | 5 | Stopwatch Beta | STV","players":null},{"server_id":54,"name":"Uncletopia | Warsaw | 6 | Community","name_short":"waw-6","host":"waw-1.pl.uncletopia.com","port":27065,"enabled":true,"region":"eu","cc":"pl","latitude":52.2297,"longitude":21.017532,"reserved":0,"last_update":"0001-01-01T00:00:00Z","name_a2s":"Uncletopia | Warsaw | 6 | Community","protocol":17,"map":"workshop/cp_indulge.ugc528106646","folder":"tf","game":"Team Fortress","app_id":440,"player_count":0,"max_players":24,"Bots":0,"server_type":"Dedicated","server_os":"Linux","password":true,"vac":true,"version":"7961495","steam_id":85568392925397856,"keywords":["cp","nocrits","nodmgspread","uncletopia"],"game_id":440,"stv_port":27066,"stv_name":"Uncletopia | Warsaw | 6 | Community | STV","players":null}]}