{"status":true,"message":"","result":[{"server_id":9,"name":"Uncletopia | Atlanta | 1 | All Maps","name_short":"atl-1","host":"atl-1.us.uncletopia.com","port":27015,"enabled":true,"region":"us-east","cc":"us","latitude":33.753746,"longitude":-84.38633,"reserved":0,"last_update":"0001-01-01T00:00:00Z","name_a2s":"Uncletopia | Atlanta | 1 | All Maps","protocol":17,"map":"cp_mountainlab","folder":"tf","game":"Team Fortress","app_id":440,"player_count":0,"max_players":24,"Bots":0,"server_type":"Dedicated","server_os":"Linux","password":true,"vac":true,"version":"7708610","steam_id":85568392924469982,"keywords":["cp","nocrits","nodmgspread","uncletopia"],"game_id":440,"stv_port":27016,"stv_name":"Uncletopia | Atlanta | 1 | All Maps | STV","players":null},{"server_id":400,"name":"Uncletopia | Atlanta | 3 | All Maps","name_short":"atl-3","host":"atl-1.us.uncletopia.com","port":27035,"enabled":true,"region":"us-east","cc":"us","latitude":33.753746,"longitude":-84.38633,"reserved":0,"last_update":"0001-01-01T00:00:00Z","name_a2s":"Uncletopia | Atlanta | 3 | All Maps","protocol":17,"map":"pl_pier","folder":"tf","game":"Team Fortress","app_id":440,"player_count":24,"max_players":24,"Bots":0,"server_type":"Dedicated","server_os":"Linux","password":true,"vac":true,"version":"7708610","steam_id":85568392924515187,"keywords":["nocrits","nodmgspread","payload","uncletopia"],"game_id":440,"stv_port":27036,"stv_name":"Uncletopia | Atlanta | 3 | All Maps | STV","players":[{"user_id":513,"name":"Mal","steam_id":76561198051415265,"connected_time":2633000000000,"state":"active","ping":69},{"user_id":530,"name":"i have a gun","steam_id":76561198016121536,"connected_time":1203000000000,"state":"active","ping":94},{"user_id":534,"name":"G_Bob","steam_id":76561198098133233,"connected_time":954000000000,"state":"active","ping":79},{"user_id":535,"name":"Outermootmoot","steam_id":76561198987551326,"connected_time":463000000000,"state":"active","ping":89},{"user_id":541,"name":"Aniz","steam_id":76561199226665024,"connected_time":169000000000,"state":"active","ping":165},{"user_id":518,"name":"InYoFace05","steam_id":76561198383630887,"connected_time":2304000000000,"state":"active","ping":91},{"user_id":514,"name":"SlipperyBiz","steam_id":76561198011132403,"connected_time":2494000000000,"state":"active","ping":95},{"user_id":536,"name":"Rukks","steam_id":76561197993918954,"connected_time":390000000000,"state":"active","ping":75},{"user_id":537,"name":"Dr. Adolf Sponge","steam_id":76561198072573105,"connected_time":365000000000,"state":"active","ping":74},{"user_id":538,"name":"Brunch","steam_id":76561198045933938,"connected_time":362000000000,"state":"active","ping":55},{"user_id":539,"name":"raduski","steam_id":76561198795699119,"connected_time":304000000000,"state":"active","ping":105},{"user_id":504,"name":"Throckmorton627","steam_id":76561199147734259,"connected_time":3661000000000,"state":"active","ping":74},{"user_id":487,"name":"t.tv/Mikeymare_","steam_id":76561198977264806,"connected_time":4719000000000,"state":"active","ping":62},{"user_id":533,"name":"MistGlow","steam_id":76561198964375610,"connected_time":1056000000000,"state":"active","ping":87},{"user_id":505,"name":"ClayXros (Plain Cereal)","steam_id":76561198097025072,"connected_time":3528000000000,"state":"active","ping":68},{"user_id":523,"name":"You Want Me","steam_id":76561198135492119,"connected_time":2125000000000,"state":"active","ping":67},{"user_id":528,"name":"beats","steam_id":76561199245717718,"connected_time":1330000000000,"state":"active","ping":72},{"user_id":540,"name":"Bruce Leeroy","steam_id":76561198010708247,"connected_time":287000000000,"state":"active","ping":68},{"user_id":521,"name":"ap sap","steam_id":76561198202273263,"connected_time":2235000000000,"state":"active","ping":68},{"user_id":527,"name":"Iron","steam_id":76561198247918478,"connected_time":1563000000000,"state":"active","ping":80},{"user_id":524,"name":"♥Ranman♥Femboy♥","steam_id":76561198042144492,"connected_time":2051000000000,"state":"active","ping":58},{"user_id":464,"name":"¡ayudame!","steam_id":76561198071421094,"connected_time":6598000000000,"state":"active","ping":78},{"user_id":466,"name":"That Guy","steam_id":76561198074138740,"connected_time":6483000000000,"state":"active","ping":49},{"user_id":525,"name":"Death_Esquire","steam_id":76561198372526899,"connected_time":1837000000000,"state":"active","ping":61}]},{"server_id":401,"name":"Uncletopia | Atlanta | 4 | No Payload","name_short":"atl-4","host":"atl-1.us.uncletopia.com","port":27045,"enabled":true,"region":"us-east","cc":"us","latitude":33.753746,"longitude":-84.38633,"reserved":0,"last_update":"0001-01-01T00:00:00Z","name_a2s":"Uncletopia | Atlanta | 4 | No Payload","protocol":17,"map":"koth_nucleus","folder":"tf","game":"Team Fortress","app_id":440,"player_count":0,"max_players":24,"Bots":0,"server_type":"Dedicated","server_os":"Linux","password":true,"vac":true,"version":"7708610","steam_id":85568392924515188,"keywords":["cp","nocrits","nodmgspread","uncletopia"],"game_id":440,"stv_port":27046,"stv_name":"Uncletopia | Atlanta | 4 | No Payload | STV","players":null},{"server_id":2,"name":"Uncletopia | Chicago | 1 | All Maps","name_short":"chi-1","host":"chi-1.us.uncletopia.com","port":27015,"enabled":true,"region":"us-central","cc":"us","latitude":41.881832,"longitude":-87.62318,"reserved":0,"last_update":"0001-01-01T00:00:00Z","name_a2s":"Uncletopia | Chicago | 1 | All Maps","protocol":17,"map":"pl_badwater","folder":"tf","game":"Team Fortress","app_id":440,"player_count":24,"max_players":24,"Bots":0,"server_type":"Dedicated","server_os":"Linux","password":true,"vac":true,"version":"7708610","steam_id":85568392924469984,"keywords":["nocrits","nodmgspread","payload","uncletopia"],"game_id":440,"stv_port":27016,"stv_name":"Uncletopia | Chicago | 1 | All Maps | STV","players":[{"user_id":690,"name":"aqua","steam_id":76561199407709552,"connected_time":1319000000000,"state":"active","ping":45},{"user_id":689,"name":"BlueCrue","steam_id":76561198066698869,"connected_time":1361000000000,"state":"active","ping":61},{"user_id":707,"name":"Kapu1178","steam_id":76561198107212766,"connected_time":435000000000,"state":"active","ping":82},{"user_id":679,"name":"bubbiesaurus","steam_id":76561198860460013,"connected_time":2707000000000,"state":"active","ping":83},{"user_id":708,"name":"Livid","steam_id":76561199444470755,"connected_time":318000000000,"state":"active","ping":94},{"user_id":703,"name":"Shmoopy","steam_id":76561198030459152,"connected_time":947000000000,"state":"active","ping":76},{"user_id":710,"name":"bauxoffdagloop","steam_id":76561199196442823,"connected_time":266000000000,"state":"active","ping":136},{"user_id":653,"name":"Caught a Thundah","steam_id":76561198054495572,"connected_time":4347000000000,"state":"active","ping":79},{"user_id":680,"name":"swift","steam_id":76561198190461447,"connected_time":2690000000000,"state":"active","ping":42},{"user_id":711,"name":"Maj","steam_id":76561198154203415,"connected_time":189000000000,"state":"active","ping":73},{"user_id":695,"name":"CFDv20","steam_id":76561198450073779,"connected_time":1137000000000,"state":"active","ping":84},{"user_id":700,"name":"super-oofio64","steam_id":76561198954052123,"connected_time":978000000000,"state":"active","ping":109},{"user_id":712,"name":"NotAWeeb","steam_id":76561198165530739,"connected_time":152000000000,"state":"active","ping":95},{"user_id":696,"name":"ZenkoZSprite","steam_id":76561198190132250,"connected_time":1128000000000,"state":"active","ping":63},{"user_id":685,"name":"KillerHatDude","steam_id":76561198088322912,"connected_time":2543000000000,"state":"active","ping":93},{"user_id":713,"name":"GAUGUIN","steam_id":76561198246193520,"connected_time":149000000000,"state":"active","ping":59},{"user_id":714,"name":"♿","steam_id":76561199267854031,"connected_time":146000000000,"state":"active","ping":77},{"user_id":668,"name":"TeaPirate [TTC]","steam_id":76561197993068398,"connected_time":3789000000000,"state":"active","ping":80},{"user_id":718,"name":"Strange Child","steam_id":76561198082523009,"connected_time":24000000000,"state":"active","ping":58},{"user_id":676,"name":"GamingTNT","steam_id":76561198164384967,"connected_time":2885000000000,"state":"active","ping":61},{"user_id":701,"name":"IZISOO","steam_id":76561198970380577,"connected_time":978000000000,"state":"active","ping":63},{"user_id":716,"name":"(1)Swift","steam_id":76561198143805924,"connected_time":71000000000,"state":"active","ping":84},{"user_id":717,"name":"i aint hard to find","steam_id":76561198017539604,"connected_time":68000000000,"state":"active","ping":64},{"user_id":683,"name":"teddysaurus","steam_id":76561198277979851,"connected_time":2655000000000,"state":"active","ping":90}]},{"server_id":106,"name":"Uncletopia | Chicago | 2 | All Maps","name_short":"chi-2","host":"chi-1.us.uncletopia.com","port":27025,"enabled":true,"region":"us-central","cc":"us","latitude":41.881832,"longitude":-87.62318,"reserved":0,"last_update":"0001-01-01T00:00:00Z","name_a2s":"Uncletopia | Chicago | 2 | All Maps","protocol":17,"map":"pl_frontier_final","folder":"tf","game":"Team Fortress","app_id":440,"player_count":11,"max_players":24,"Bots":0,"server_type":"Dedicated","server_os":"Linux","password":true,"vac":true,"version":"7708610","steam_id":85568392924469985,"keywords":["nocrits","nodmgspread","payload","uncletopia"],"game_id":440,"stv_port":27026,"stv_name":"Uncletopia | Chicago | 2 | All Maps | STV","players":[{"user_id":624,"name":"AmpFestivecap","steam_id":76561198042453057,"connected_time":365000000000,"state":"active","ping":63},{"user_id":537,"name":"G-G-G-GAMERSHOT","steam_id":76561198798980951,"connected_time":8003000000000,"state":"active","ping":45},{"user_id":621,"name":"Eddieboy","steam_id":76561198009166712,"connected_time":521000000000,"state":"active","ping":69},{"user_id":617,"name":"Audiphon","steam_id":76561198051340300,"connected_time":1398000000000,"state":"active","ping":141},{"user_id":622,"name":"Zach-Man","steam_id":76561198058805749,"connected_time":440000000000,"state":"active","ping":91},{"user_id":626,"name":"Puro","steam_id":76561199440523721,"connected_time":68000000000,"state":"active","ping":92},{"user_id":613,"name":"Be Gay, Do Crimes, Smoke Weed!","steam_id":76561198092419868,"connected_time":1542000000000,"state":"active","ping":92},{"user_id":545,"name":"ikercard","steam_id":76561198821297273,"connected_time":7879000000000,"state":"active","ping":84},{"user_id":597,"name":"ElectronX","steam_id":76561198116034988,"connected_time":3522000000000,"state":"active","ping":90},{"user_id":577,"name":"Akrin","steam_id":76561199254804349,"connected_time":5506000000000,"state":"active","ping":86},{"user_id":616,"name":"[K.Y.L.L.]Friday (They/Them)","steam_id":76561198027321950,"connected_time":1489000000000,"state":"active","ping":93}]},{"server_id":402,"name":"Uncletopia | Chicago | 3 | All Maps","name_short":"chi-3","host":"chi-1.us.uncletopia.com","port":27035,"enabled":true,"region":"us-central","cc":"us","latitude":41.881832,"longitude":-87.62318,"reserved":0,"last_update":"0001-01-01T00:00:00Z","name_a2s":"Uncletopia | Chicago | 3 | All Maps","protocol":17,"map":"cp_process_final","folder":"tf","game":"Team Fortress","app_id":440,"player_count":20,"max_players":24,"Bots":0,"server_type":"Dedicated","server_os":"Linux","password":true,"vac":true,"version":"7708610","steam_id":85568392924515191,"keywords":["cp","nocrits","nodmgspread","uncletopia"],"game_id":440,"stv_port":27036,"stv_name":"Uncletopia | Chicago | 3 | All Maps | STV","players":[{"user_id":433,"name":"liebestraum","steam_id":76561198082470182,"connected_time":240000000000,"state":"active","ping":77},{"user_id":424,"name":"Civic Wayfinder","steam_id":76561198060320953,"connected_time":935000000000,"state":"active","ping":56},{"user_id":400,"name":"Sharmat","steam_id":76561198103492042,"connected_time":2617000000000,"state":"active","ping":51},{"user_id":437,"name":"gorf?","steam_id":76561198142286417,"connected_time":38000000000,"state":"active","ping":50},{"user_id":413,"name":"fuckwit","steam_id":76561198342160837,"connected_time":1846000000000,"state":"active","ping":64},{"user_id":436,"name":"CassandraRC7 (She/her)","steam_id":76561198094123940,"connected_time":97000000000,"state":"active","ping":66},{"user_id":404,"name":"Uber","steam_id":76561198139793532,"connected_time":2420000000000,"state":"active","ping":46},{"user_id":367,"name":"Ibby","steam_id":76561198001095962,"connected_time":4744000000000,"state":"active","ping":59},{"user_id":359,"name":"peter slideinher","steam_id":76561198000564263,"connected_time":4966000000000,"state":"active","ping":74},{"user_id":438,"name":"Colin102004","steam_id":76561198202384334,"connected_time":5000000000,"state":"spawning","ping":213},{"user_id":384,"name":"yuji","steam_id":76561198401572620,"connected_time":3505000000000,"state":"active","ping":58},{"user_id":366,"name":"AlecTheNefarious","steam_id":76561198035291230,"connected_time":4844000000000,"state":"active","ping":60},{"user_id":368,"name":"lanoc","steam_id":76561198055415367,"connected_time":4641000000000,"state":"active","ping":59},{"user_id":421,"name":"Gunkzilla","steam_id":76561198068228415,"connected_time":1158000000000,"state":"active","ping":64},{"user_id":386,"name":"q!k.glodfyeehs","steam_id":76561198086008437,"connected_time":3451000000000,"state":"active","ping":75},{"user_id":361,"name":"java","steam_id":76561198030276792,"connected_time":4959000000000,"state":"active","ping":68},{"user_id":419,"name":"Soundproof","steam_id":76561198133392504,"connected_time":1348000000000,"state":"active","ping":58},{"user_id":397,"name":"PoltergussyLordoftheAsstralVoid","steam_id":76561199195004708,"connected_time":2732000000000,"state":"active","ping":120},{"user_id":430,"name":"maArk","steam_id":76561198200380143,"connected_time":544000000000,"state":"active","ping":137},{"user_id":427,"name":"DJ Blazkowicz","steam_id":76561198010201227,"connected_time":913000000000,"state":"active","ping":73}]},{"server_id":403,"name":"Uncletopia | Chicago | 4 | All Maps","name_short":"chi-4","host":"chi-1.us.uncletopia.com","port":27045,"enabled":true,"region":"us-central","cc":"us","latitude":41.881832,"longitude":-87.62318,"reserved":0,"last_update":"0001-01-01T00:00:00Z","name_a2s":"Uncletopia | Chicago | 4 | All Maps","protocol":17,"map":"pl_badwater","folder":"tf","game":"Team Fortress","app_id":440,"player_count":5,"max_players":24,"Bots":0,"server_type":"Dedicated","server_os":"Linux","password":true,"vac":true,"version":"7708610","steam_id":85568392924515193,"keywords":["nocrits","nodmgspread","payload","uncletopia"],"game_id":440,"stv_port":27046,"stv_name":"Uncletopia | Chicago | 4 | All Maps | STV","players":[{"user_id":576,"name":"Jousty","steam_id":76561199162677853,"connected_time":3141000000000,"state":"active","ping":81},{"user_id":610,"name":"Scrumpy Main","steam_id":76561198146302597,"connected_time":795000000000,"state":"active","ping":37},{"user_id":606,"name":"Fraglin","steam_id":76561198124964000,"connected_time":1208000000000,"state":"active","ping":69},{"user_id":478,"name":"tofu yum yum","steam_id":76561198026589960,"connected_time":10805000000000,"state":"active","ping":47},{"user_id":607,"name":"TheFoolOnTheHill","steam_id":76561198088140076,"connected_time":1206000000000,"state":"active","ping":93}]},{"server_id":36,"name":"Uncletopia | Chicago | 5 | All Maps","name_short":"chi-5","host":"chi-2.us.uncletopia.com","port":27015,"enabled":true,"region":"us-central","cc":"us","latitude":41.881832,"longitude":-87.62318,"reserved":0,"last_update":"0001-01-01T00:00:00Z","name_a2s":"Uncletopia | Chicago | 5 | All Maps","protocol":17,"map":"koth_lakeside_final","folder":"tf","game":"Team Fortress","app_id":440,"player_count":0,"max_players":24,"Bots":0,"server_type":"Dedicated","server_os":"Linux","password":true,"vac":true,"version":"7708610","steam_id":85568392924866362,"keywords":["cp","nocrits","nodmgspread","uncletopia"],"game_id":440,"stv_port":27016,"stv_name":"Uncletopia | Chicago | 5 | All Maps | STV","players":null},{"server_id":37,"name":"Uncletopia | Chicago | 6 | All Maps","name_short":"chi-6","host":"chi-2.us.uncletopia.com","port":27025,"enabled":true,"region":"us-central","cc":"us","latitude":41.881832,"longitude":-87.62318,"reserved":0,"last_update":"0001-01-01T00:00:00Z","name_a2s":"Uncletopia | Chicago | 6 | All Maps","protocol":17,"map":"pl_borneo","folder":"tf","game":"Team Fortress","app_id":440,"player_count":24,"max_players":24,"Bots":0,"server_type":"Dedicated","server_os":"Linux","password":true,"vac":true,"version":"7708610","steam_id":85568392924866363,"keywords":["nocrits","nodmgspread","payload","uncletopia"],"game_id":440,"stv_port":27026,"stv_name":"Uncletopia | Chicago | 6 | All Maps | STV","players":[{"user_id":149,"name":"koompa_stomp","steam_id":76561198073081735,"connected_time":814000000000,"state":"active","ping":102},{"user_id":108,"name":"Kuyumiester","steam_id":76561198126835302,"connected_time":3793000000000,"state":"active","ping":59},{"user_id":154,"name":"mommy","steam_id":76561198129195009,"connected_time":606000000000,"state":"active","ping":75},{"user_id":127,"name":"watchfull","steam_id":76561198433266742,"connected_time":1929000000000,"state":"active","ping":98},{"user_id":146,"name":"Rudy","steam_id":76561198013456828,"connected_time":1261000000000,"state":"active","ping":66},{"user_id":148,"name":"The Poop Dog","steam_id":76561198156845599,"connected_time":856000000000,"state":"active","ping":55},{"user_id":128,"name":"Importality","steam_id":76561198049943127,"connected_time":1927000000000,"state":"active","ping":71},{"user_id":167,"name":"BERBBLES","steam_id":76561198815107994,"connected_time":131000000000,"state":"active","ping":66},{"user_id":151,"name":"GymliDanny","steam_id":76561198049566796,"connected_time":721000000000,"state":"active","ping":59},{"user_id":131,"name":"ColonelGuy5509","steam_id":76561198050493174,"connected_time":1891000000000,"state":"active","ping":68},{"user_id":132,"name":"Splinto","steam_id":76561198111260488,"connected_time":1833000000000,"state":"active","ping":48},{"user_id":138,"name":"Walking Eye!","steam_id":76561198059501252,"connected_time":1473000000000,"state":"active","ping":64},{"user_id":139,"name":"LalitoTV","steam_id":76561198334302951,"connected_time":1468000000000,"state":"active","ping":118},{"user_id":147,"name":"ButtholeMagic","steam_id":76561198865971290,"connected_time":939000000000,"state":"active","ping":98},{"user_id":165,"name":"pupy dogy","steam_id":76561198173128765,"connected_time":202000000000,"state":"active","ping":57},{"user_id":141,"name":"totally not a pile of beans","steam_id":76561198119851931,"connected_time":1449000000000,"state":"active","ping":78},{"user_id":164,"name":"Mommy Cloud Audios Gaming","steam_id":76561198880304614,"connected_time":359000000000,"state":"active","ping":59},{"user_id":155,"name":"GGMetro","steam_id":76561198069103783,"connected_time":597000000000,"state":"active","ping":90},{"user_id":80,"name":"lukamine","steam_id":76561198166827208,"connected_time":5755000000000,"state":"active","ping":91},{"user_id":156,"name":"XDKJHom","steam_id":76561199116963922,"connected_time":582000000000,"state":"active","ping":62},{"user_id":168,"name":"UNIT 220","steam_id":76561198042243497,"connected_time":100000000000,"state":"active","ping":73},{"user_id":158,"name":"lol emoji","steam_id":76561198072796208,"connected_time":480000000000,"state":"active","ping":90},{"user_id":144,"name":"conventtinal man","steam_id":76561198090962230,"connected_time":1348000000000,"state":"active","ping":111},{"user_id":145,"name":"toastman","steam_id":76561198207073088,"connected_time":1340000000000,"state":"active","ping":70}]},{"server_id":38,"name":"Uncletopia | Chicago | 7 | No Payload","name_short":"chi-7","host":"chi-2.us.uncletopia.com","port":27035,"enabled":true,"region":"us-central","cc":"us","latitude":41.881832,"longitude":-87.62318,"reserved":0,"last_update":"0001-01-01T00:00:00Z","name_a2s":"Uncletopia | Chicago | 7 | No Payload","protocol":17,"map":"koth_badlands","folder":"tf","game":"Team Fortress","app_id":440,"player_count":0,"max_players":24,"Bots":0,"server_type":"Dedicated","server_os":"Linux","password":true,"vac":true,"version":"7708610","steam_id":85568392924866364,"keywords":["cp","nocrits","nodmgspread","uncletopia"],"game_id":440,"stv_port":27036,"stv_name":"Uncletopia | Chicago | 7 | No Payload | STV","players":null},{"server_id":39,"name":"Uncletopia | Chicago | 8 | Community","name_short":"chi-8","host":"chi-2.us.uncletopia.com","port":27045,"enabled":true,"region":"us-central","cc":"us","latitude":41.881832,"longitude":-87.62318,"reserved":0,"last_update":"0001-01-01T00:00:00Z","name_a2s":"Uncletopia | Chicago | 8 | Community","protocol":17,"map":"workshop/pl_fifthcurve_rc1.ugc648227046","folder":"tf","game":"Team Fortress","app_id":440,"player_count":0,"max_players":24,"Bots":0,"server_type":"Dedicated","server_os":"Linux","password":true,"vac":true,"version":"7708610","steam_id":85568392924866365,"keywords":["nocrits","nodmgspread","payload","uncletopia"],"game_id":440,"stv_port":27046,"stv_name":"Uncletopia | Chicago | 8 | Community | STV","players":null},{"server_id":8,"name":"Uncletopia | Dallas | 1 | All Maps","name_short":"dal-1","host":"dal-1.us.uncletopia.com","port":27015,"enabled":true,"region":"us-central","cc":"us","latitude":32.779167,"longitude":-96.80889,"reserved":0,"last_update":"0001-01-01T00:00:00Z","name_a2s":"Uncletopia | Dallas | 1 | All Maps","protocol":17,"map":"pl_goldrush","folder":"tf","game":"Team Fortress","app_id":440,"player_count":24,"max_players":24,"Bots":0,"server_type":"Dedicated","server_os":"Linux","password":true,"vac":true,"version":"7708610","steam_id":85568392924469986,"keywords":["nocrits","nodmgspread","payload","uncletopia"],"game_id":440,"stv_port":27016,"stv_name":"Uncletopia | Dallas | 1 | All Maps | STV","players":[{"user_id":406,"name":"Genius Meme","steam_id":76561198162911254,"connected_time":2080000000000,"state":"active","ping":79},{"user_id":414,"name":"John F. Kennedy","steam_id":76561198068825962,"connected_time":1574000000000,"state":"active","ping":80},{"user_id":428,"name":"tokemaster69","steam_id":76561198083996924,"connected_time":319000000000,"state":"active","ping":117},{"user_id":361,"name":"looloopaa","steam_id":76561198048179242,"connected_time":4098000000000,"state":"active","ping":64},{"user_id":309,"name":"Moonflower ✦","steam_id":76561198191782483,"connected_time":7466000000000,"state":"active","ping":51},{"user_id":370,"name":"TriM","steam_id":76561198048332533,"connected_time":3090000000000,"state":"active","ping":67},{"user_id":419,"name":"MIKESAVAGE","steam_id":76561198996777622,"connected_time":1103000000000,"state":"active","ping":60},{"user_id":420,"name":"kratos messi","steam_id":76561198803749668,"connected_time":1090000000000,"state":"active","ping":49},{"user_id":424,"name":"Luther","steam_id":76561198299605778,"connected_time":825000000000,"state":"active","ping":56},{"user_id":409,"name":"Kaptain. P","steam_id":76561198064159324,"connected_time":1939000000000,"state":"active","ping":73},{"user_id":429,"name":"Kyaaaaa!!!","steam_id":76561198066384337,"connected_time":266000000000,"state":"active","ping":74},{"user_id":353,"name":"DRplays","steam_id":76561198199400266,"connected_time":4393000000000,"state":"active","ping":97},{"user_id":423,"name":"A Gamer [F2P]","steam_id":76561198138712892,"connected_time":926000000000,"state":"active","ping":41},{"user_id":413,"name":"Jacck916","steam_id":76561198176874157,"connected_time":1699000000000,"state":"active","ping":108},{"user_id":422,"name":"Dimension","steam_id":76561198132803810,"connected_time":1077000000000,"state":"active","ping":58},{"user_id":412,"name":"Swamp Trash","steam_id":76561198152532873,"connected_time":1765000000000,"state":"active","ping":50},{"user_id":415,"name":"Obama from Gaming","steam_id":76561198136302388,"connected_time":1480000000000,"state":"active","ping":70},{"user_id":427,"name":"Killerfish360","steam_id":76561198115029584,"connected_time":422000000000,"state":"active","ping":71},{"user_id":430,"name":"The CEO of cement","steam_id":76561199107177460,"connected_time":259000000000,"state":"active","ping":90},{"user_id":425,"name":"gangstalker","steam_id":76561198363267009,"connected_time":793000000000,"state":"active","ping":46},{"user_id":417,"name":"Caoticaos","steam_id":76561198114800227,"connected_time":1429000000000,"state":"active","ping":161},{"user_id":408,"name":"Ngsterson","steam_id":76561198162108154,"connected_time":2042000000000,"state":"active","ping":104},{"user_id":399,"name":"ungr8t","steam_id":76561198063521721,"connected_time":2594000000000,"state":"active","ping":56},{"user_id":401,"name":"geg hafly","steam_id":76561198123679124,"connected_time":2513000000000,"state":"active","ping":91}]},{"server_id":108,"name":"Uncletopia | Dallas | 2 | All Maps","name_short":"dal-2","host":"dal-1.us.uncletopia.com","port":27025,"enabled":true,"region":"us-central","cc":"us","latitude":32.779167,"longitude":-96.80889,"reserved":0,"last_update":"0001-01-01T00:00:00Z","name_a2s":"Uncletopia | Dallas | 2 | All Maps","protocol":17,"map":"pl_swiftwater_final1","folder":"tf","game":"Team Fortress","app_id":440,"player_count":24,"max_players":24,"Bots":0,"server_type":"Dedicated","server_os":"Linux","password":true,"vac":true,"version":"7708610","steam_id":85568392924469988,"keywords":["nocrits","nodmgspread","payload","uncletopia"],"game_id":440,"stv_port":27026,"stv_name":"Uncletopia | Dallas | 2 | All Maps | STV","players":[{"user_id":328,"name":"License","steam_id":76561197967501494,"connected_time":2715000000000,"state":"active","ping":63},{"user_id":368,"name":"Sowens","steam_id":76561198287652766,"connected_time":298000000000,"state":"active","ping":117},{"user_id":338,"name":"Supertoaster","steam_id":76561198010758235,"connected_time":2071000000000,"state":"active","ping":51},{"user_id":355,"name":"Stran","steam_id":76561198143389308,"connected_time":779000000000,"state":"active","ping":88},{"user_id":318,"name":"APOTATO","steam_id":76561198118199858,"connected_time":3309000000000,"state":"active","ping":69},{"user_id":367,"name":"Feed","steam_id":76561199066148889,"connected_time":340000000000,"state":"active","ping":62},{"user_id":356,"name":"HalcyonicHound","steam_id":76561198158750199,"connected_time":754000000000,"state":"active","ping":72},{"user_id":357,"name":"hazelsnail","steam_id":76561198862764679,"connected_time":741000000000,"state":"active","ping":79},{"user_id":299,"name":"TheAilingSword","steam_id":76561198250350844,"connected_time":4852000000000,"state":"active","ping":51},{"user_id":264,"name":"+","steam_id":76561198262422184,"connected_time":7684000000000,"state":"active","ping":53},{"user_id":361,"name":"Kamin","steam_id":76561198255299559,"connected_time":599000000000,"state":"active","ping":58},{"user_id":349,"name":"Sicko Mode (Chris Pratt Cover)","steam_id":76561198315786174,"connected_time":1106000000000,"state":"active","ping":88},{"user_id":365,"name":"Wonderface","steam_id":76561198080497109,"connected_time":398000000000,"state":"active","ping":70},{"user_id":350,"name":"Mythical Lag","steam_id":76561198347031281,"connected_time":1069000000000,"state":"active","ping":49},{"user_id":360,"name":"shadow3004","steam_id":76561198064870076,"connected_time":636000000000,"state":"active","ping":79},{"user_id":362,"name":"Rear Admiral Crunch","steam_id":76561198020007558,"connected_time":538000000000,"state":"active","ping":60},{"user_id":326,"name":"Chaosfall","steam_id":76561198155492265,"connected_time":2921000000000,"state":"active","ping":74},{"user_id":306,"name":"Klip","steam_id":76561198316254429,"connected_time":4694000000000,"state":"active","ping":58},{"user_id":363,"name":"maybe 3 brain cells","steam_id":76561198081282228,"connected_time":490000000000,"state":"active","ping":75},{"user_id":369,"name":"cicero","steam_id":76561198174799574,"connected_time":199000000000,"state":"active","ping":78},{"user_id":330,"name":"ArnoldGaming","steam_id":76561198040140247,"connected_time":2708000000000,"state":"active","ping":86},{"user_id":331,"name":"Juice Jetson","steam_id":76561197964629823,"connected_time":2705000000000,"state":"active","ping":63},{"user_id":334,"name":"DaRoyalYoshi","steam_id":76561198145186375,"connected_time":2558000000000,"state":"active","ping":70},{"user_id":347,"name":"SHADOW","steam_id":76561198207768148,"connected_time":1642000000000,"state":"active","ping":97}]},{"server_id":5,"name":"Uncletopia | Frankfurt | 1 | All Maps","name_short":"frk-1","host":"frk-1.de.uncletopia.com","port":27015,"enabled":true,"region":"eu","cc":"de","latitude":50.110924,"longitude":8.682127,"reserved":0,"last_update":"0001-01-01T00:00:00Z","name_a2s":"Uncletopia | Frankfurt | 1 | All Maps","protocol":17,"map":"koth_cascade","folder":"tf","game":"Team Fortress","app_id":440,"player_count":0,"max_players":24,"Bots":0,"server_type":"Dedicated","server_os":"Linux","password":true,"vac":true,"version":"7708610","steam_id":85568392924469989,"keywords":["cp","nocrits","nodmgspread","uncletopia"],"game_id":440,"stv_port":27016,"stv_name":"Uncletopia | Frankfurt | 1 | All Maps | STV","players":null},{"server_id":110,"name":"Uncletopia | Frankfurt | 2 | All Maps","name_short":"frk-2","host":"frk-1.de.uncletopia.com","port":27025,"enabled":true,"region":"eu","cc":"de","latitude":50.110924,"longitude":8.682127,"reserved":0,"last_update":"0001-01-01T00:00:00Z","name_a2s":"Uncletopia | Frankfurt | 2 | All Maps","protocol":17,"map":"pl_frontier_final","folder":"tf","game":"Team Fortress","app_id":440,"player_count":0,"max_players":24,"Bots":0,"server_type":"Dedicated","server_os":"Linux","password":true,"vac":true,"version":"7708610","steam_id":85568392924469990,"keywords":["nocrits","nodmgspread","payload","uncletopia"],"game_id":440,"stv_port":27026,"stv_name":"Uncletopia | Frankfurt | 2 | All Maps | STV","players":null},{"server_id":308,"name":"Uncletopia | Frankfurt | 3 | All Maps","name_short":"frk-3","host":"frk-1.de.uncletopia.com","port":27035,"enabled":true,"region":"eu","cc":"de","latitude":50.110924,"longitude":8.682127,"reserved":0,"last_update":"0001-01-01T00:00:00Z","name_a2s":"Uncletopia | Frankfurt | 3 | All Maps","protocol":17,"map":"cp_process_final","folder":"tf","game":"Team Fortress","app_id":440,"player_count":0,"max_players":24,"Bots":0,"server_type":"Dedicated","server_os":"Linux","password":true,"vac":true,"version":"7708610","steam_id":85568392924504274,"keywords":["cp","nocrits","nodmgspread","uncletopia"],"game_id":440,"stv_port":27036,"stv_name":"Uncletopia | Frankfurt | 3 | All Maps | STV","players":null},{"server_id":309,"name":"Uncletopia | Frankfurt | 4 | All Maps","name_short":"frk-4","host":"frk-1.de.uncletopia.com","port":27045,"enabled":true,"region":"eu","cc":"de","latitude":50.110924,"longitude":8.682127,"reserved":0,"last_update":"0001-01-01T00:00:00Z","name_a2s":"Uncletopia | Frankfurt | 4 | All Maps","protocol":17,"map":"pl_upward","folder":"tf","game":"Team Fortress","app_id":440,"player_count":0,"max_players":24,"Bots":0,"server_type":"Dedicated","server_os":"Linux","password":true,"vac":true,"version":"7708610","steam_id":85568392924504275,"keywords":["nocrits","nodmgspread","payload","uncletopia"],"game_id":440,"stv_port":27046,"stv_name":"Uncletopia | Frankfurt | 4 | All Maps | STV","players":null},{"server_id":310,"name":"Uncletopia | Frankfurt | 5 | All Maps","name_short":"frk-5","host":"frk-1.de.uncletopia.com","port":27055,"enabled":true,"region":"eu","cc":"de","latitude":50.110924,"longitude":8.682127,"reserved":0,"last_update":"0001-01-01T00:00:00Z","name_a2s":"Uncletopia | Frankfurt | 5 | All Maps","protocol":17,"map":"cp_sunshine","folder":"tf","game":"Team Fortress","app_id":440,"player_count":0,"max_players":24,"Bots":0,"server_type":"Dedicated","server_os":"Linux","password":true,"vac":true,"version":"7708610","steam_id":85568392924504277,"keywords":["cp","nocrits","nodmgspread","uncletopia"],"game_id":440,"stv_port":27056,"stv_name":"Uncletopia | Frankfurt | 5 | All Maps | STV","players":null},{"server_id":311,"name":"Uncletopia | Frankfurt | 6 | All Maps","name_short":"frk-6","host":"frk-1.de.uncletopia.com","port":27065,"enabled":true,"region":"eu","cc":"de","latitude":50.110924,"longitude":8.682127,"reserved":0,"last_update":"0001-01-01T00:00:00Z","name_a2s":"Uncletopia | Frankfurt | 6 | All Maps","protocol":17,"map":"pl_frontier_final","folder":"tf","game":"Team Fortress","app_id":440,"player_count":0,"max_players":24,"Bots":0,"server_type":"Dedicated","server_os":"Linux","password":true,"vac":true,"version":"7708610","steam_id":85568392924504278,"keywords":["nocrits","nodmgspread","payload","uncletopia"],"game_id":440,"stv_port":27066,"stv_name":"Uncletopia | Frankfurt | 6 | All Maps | STV","players":null},{"server_id":23,"name":"Uncletopia | Frankfurt | 7 | No Payload","name_short":"frk-7","host":"frk-1.de.uncletopia.com","port":27075,"enabled":true,"region":"eu","cc":"de","latitude":50.110924,"longitude":8.682127,"reserved":0,"last_update":"0001-01-01T00:00:00Z","name_a2s":"Uncletopia | Frankfurt | 7 | No Payload","protocol":17,"map":"koth_viaduct","folder":"tf","game":"Team Fortress","app_id":440,"player_count":0,"max_players":24,"Bots":0,"server_type":"Dedicated","server_os":"Linux","password":true,"vac":true,"version":"7708610","steam_id":85568392924742827,"keywords":["cp","nocrits","nodmgspread","uncletopia"],"game_id":440,"stv_port":27076,"stv_name":"Uncletopia | Frankfurt | 7 | No Payload | STV","players":null},{"server_id":24,"name":"Uncletopia | Frankfurt | 8 | Community","name_short":"frk-8","host":"frk-1.de.uncletopia.com","port":27085,"enabled":true,"region":"eu","cc":"de","latitude":50.110924,"longitude":8.682127,"reserved":0,"last_update":"0001-01-01T00:00:00Z","name_a2s":"Uncletopia | Frankfurt | 8 | Community","protocol":17,"map":"pl_borneo","folder":"tf","game":"Team Fortress","app_id":440,"player_count":0,"max_players":24,"Bots":0,"server_type":"Dedicated","server_os":"Linux","password":true,"vac":true,"version":"7708610","steam_id":85568392924742828,"keywords":["nocrits","nodmgspread","payload","uncletopia"],"game_id":440,"stv_port":27086,"stv_name":"Uncletopia | Frankfurt | 8 | Community | STV","players":null},{"server_id":202,"name":"Uncletopia | Hong Kong | 1 | All Maps","name_short":"hgk-1","host":"hgk-1.hk.uncletopia.com","port":27015,"enabled":true,"region":"asia","cc":"hk","latitude":22.302711,"longitude":114.177216,"reserved":0,"last_update":"0001-01-01T00:00:00Z","name_a2s":"Uncletopia | Hong Kong | 1 | All Maps","protocol":17,"map":"koth_highpass","folder":"tf","game":"Team Fortress","app_id":440,"player_count":11,"max_players":24,"Bots":0,"server_type":"Dedicated","server_os":"Linux","password":true,"vac":true,"version":"7708610","steam_id":85568392924494504,"keywords":["cp","nocrits","nodmgspread","uncletopia"],"game_id":440,"stv_port":27016,"stv_name":"Uncletopia | Hong Kong | 1 | All Maps | STV","players":[{"user_id":32,"name":"keieeem","steam_id":76561199200702132,"connected_time":1869000000000,"state":"active","ping":74},{"user_id":31,"name":"666Sandvich Eater999","steam_id":76561199224347967,"connected_time":1906000000000,"state":"active","ping":79},{"user_id":33,"name":"Aiko Kanata Zhenco","steam_id":76561199262955185,"connected_time":1831000000000,"state":"active","ping":88},{"user_id":34,"name":"GOD","steam_id":76561198846610729,"connected_time":1543000000000,"state":"active","ping":105},{"user_id":43,"name":"Hλi","steam_id":76561198872566128,"connected_time":463000000000,"state":"active","ping":85},{"user_id":37,"name":"tuxy","steam_id":76561198996816684,"connected_time":1254000000000,"state":"active","ping":71},{"user_id":40,"name":"About","steam_id":76561198198273477,"connected_time":612000000000,"state":"active","ping":74},{"user_id":41,"name":"samartpayakaroon99","steam_id":76561199223934899,"connected_time":581000000000,"state":"active","ping":63},{"user_id":44,"name":"Tensio","steam_id":76561198220566417,"connected_time":408000000000,"state":"active","ping":63},{"user_id":46,"name":"spark.hh","steam_id":76561198452972532,"connected_time":123000000000,"state":"active","ping":96},{"user_id":47,"name":"thebozo","steam_id":76561198402695655,"connected_time":93000000000,"state":"active","ping":99}]},{"server_id":1,"name":"Uncletopia | Los Angeles | 1 | All Maps","name_short":"lax-1","host":"lax-1.us.uncletopia.com","port":27015,"enabled":true,"region":"us-west","cc":"us","latitude":33.94279,"longitude":-118.41004,"reserved":0,"last_update":"0001-01-01T00:00:00Z","name_a2s":"Uncletopia | Los Angeles | 1 | All Maps","protocol":17,"map":"pl_borneo","folder":"tf","game":"Team Fortress","app_id":440,"player_count":0,"max_players":24,"Bots":0,"server_type":"Dedicated","server_os":"Linux","password":true,"vac":true,"version":"7708610","steam_id":85568392924469991,"keywords":["nocrits","nodmgspread","payload","uncletopia"],"game_id":440,"stv_port":27016,"stv_name":"Uncletopia | Los Angeles | 1 | All Maps | STV","players":null},{"server_id":112,"name":"Uncletopia | Los Angeles | 2 | All Maps","name_short":"lax-2","host":"lax-1.us.uncletopia.com","port":27025,"enabled":true,"region":"us-west","cc":"us","latitude":33.94279,"longitude":-118.41004,"reserved":0,"last_update":"0001-01-01T00:00:00Z","name_a2s":"Uncletopia | Los Angeles | 2 | All Maps","protocol":17,"map":"cp_well","folder":"tf","game":"Team Fortress","app_id":440,"player_count":24,"max_players":24,"Bots":0,"server_type":"Dedicated","server_os":"Linux","password":true,"vac":true,"version":"7708610","steam_id":85568392924469992,"keywords":["cp","nocrits","nodmgspread","uncletopia"],"game_id":440,"stv_port":27026,"stv_name":"Uncletopia | Los Angeles | 2 | All Maps | STV","players":[{"user_id":341,"name":"MinusSoup918","steam_id":76561198060902773,"connected_time":3785000000000,"state":"active","ping":60},{"user_id":375,"name":"glizzygladiator","steam_id":76561198279228769,"connected_time":1326000000000,"state":"active","ping":46},{"user_id":362,"name":"FiddyFoMike","steam_id":76561198057072581,"connected_time":2685000000000,"state":"active","ping":56},{"user_id":366,"name":"ChoccyMiltank","steam_id":76561198981474284,"connected_time":2061000000000,"state":"active","ping":51},{"user_id":386,"name":"Jokezonyu","steam_id":76561198213167893,"connected_time":787000000000,"state":"active","ping":59},{"user_id":354,"name":"Doc Deau","steam_id":76561197999548922,"connected_time":2826000000000,"state":"active","ping":65},{"user_id":345,"name":"HOG RIDER","steam_id":76561198298589502,"connected_time":3221000000000,"state":"active","ping":49},{"user_id":330,"name":"jimmy outlaw","steam_id":76561198070380402,"connected_time":4437000000000,"state":"active","ping":78},{"user_id":355,"name":"Sir Onionbro of Catarina","steam_id":76561198070987281,"connected_time":2814000000000,"state":"active","ping":100},{"user_id":260,"name":"Nez","steam_id":76561197963109059,"connected_time":8883000000000,"state":"active","ping":56},{"user_id":356,"name":"RyanTheKat","steam_id":76561198261728547,"connected_time":2811000000000,"state":"active","ping":60},{"user_id":357,"name":"Mug Smuggler","steam_id":76561199091198011,"connected_time":2791000000000,"state":"active","ping":58},{"user_id":387,"name":"Mark","steam_id":76561198838106719,"connected_time":677000000000,"state":"active","ping":56},{"user_id":379,"name":"Pescado","steam_id":76561198122437426,"connected_time":1104000000000,"state":"active","ping":86},{"user_id":380,"name":"Luffa Rigno","steam_id":76561197998700507,"connected_time":1090000000000,"state":"active","ping":87},{"user_id":316,"name":"happer","steam_id":76561198018252253,"connected_time":5604000000000,"state":"active","ping":55},{"user_id":372,"name":"Amogous Supreme","steam_id":76561198025476774,"connected_time":1604000000000,"state":"active","ping":52},{"user_id":334,"name":"MoopStoop","steam_id":76561198140936620,"connected_time":4178000000000,"state":"active","ping":73},{"user_id":370,"name":"uskthedwarf","steam_id":76561199076096095,"connected_time":1896000000000,"state":"active","ping":82},{"user_id":335,"name":"Sham Cow","steam_id":76561198064556977,"connected_time":4175000000000,"state":"active","ping":105},{"user_id":361,"name":"the","steam_id":76561198079418310,"connected_time":2705000000000,"state":"active","ping":80},{"user_id":344,"name":"hypotenuse","steam_id":76561198062479158,"connected_time":3443000000000,"state":"active","ping":84},{"user_id":384,"name":"Rusty","steam_id":76561198055585129,"connected_time":839000000000,"state":"active","ping":73},{"user_id":385,"name":"Belmore","steam_id":76561198009355231,"connected_time":811000000000,"state":"active","ping":44}]},{"server_id":324,"name":"Uncletopia | Los Angeles | 3 | All Maps","name_short":"lax-3","host":"lax-1.us.uncletopia.com","port":27035,"enabled":true,"region":"us-west","cc":"us","latitude":33.94279,"longitude":-118.41004,"reserved":0,"last_update":"0001-01-01T00:00:00Z","name_a2s":"Uncletopia | Los Angeles | 3 | All Maps","protocol":17,"map":"koth_viaduct","folder":"tf","game":"Team Fortress","app_id":440,"player_count":0,"max_players":24,"Bots":0,"server_type":"Dedicated","server_os":"Linux","password":true,"vac":true,"version":"7708610","steam_id":85568392924510198,"keywords":["cp","nocrits","nodmgspread","uncletopia"],"game_id":440,"stv_port":27036,"stv_name":"Uncletopia | Los Angeles | 3 | All Maps | STV","players":null},{"server_id":25,"name":"Uncletopia | Los Angeles | 4 | No Payload","name_short":"lax-4","host":"lax-1.us.uncletopia.com","port":27045,"enabled":true,"region":"us-west","cc":"us","latitude":33.94279,"longitude":-118.41004,"reserved":0,"last_update":"0001-01-01T00:00:00Z","name_a2s":"Uncletopia | Los Angeles | 4 | No Payload","protocol":17,"map":"koth_king","folder":"tf","game":"Team Fortress","app_id":440,"player_count":0,"max_players":24,"Bots":0,"server_type":"Dedicated","server_os":"Linux","password":true,"vac":true,"version":"7708610","steam_id":85568392924510199,"keywords":["cp","nocrits","nodmgspread","uncletopia"],"game_id":440,"stv_port":27046,"stv_name":"Uncletopia | Los Angeles | 4 | No Payload | STV","players":null},{"server_id":11,"name":"Uncletopia | London | 1 | All Maps","name_short":"lon-1","host":"lon-1.uk.uncletopia.com","port":27015,"enabled":true,"region":"eu","cc":"gb","latitude":51.509865,"longitude":-0.118092,"reserved":0,"last_update":"0001-01-01T00:00:00Z","name_a2s":"Uncletopia | London | 1 | All Maps","protocol":17,"map":"cp_sunshine","folder":"tf","game":"Team Fortress","app_id":440,"player_count":0,"max_players":24,"Bots":0,"server_type":"Dedicated","server_os":"Linux","password":true,"vac":true,"version":"7708610","steam_id":85568392924367362,"keywords":["cp","nocrits","nodmgspread","uncletopia"],"game_id":440,"stv_port":27016,"stv_name":"Uncletopia | London | 1 | All Maps | STV","players":null},{"server_id":114,"name":"Uncletopia | London | 2 | All Maps","name_short":"lon-2","host":"lon-1.uk.uncletopia.com","port":27025,"enabled":true,"region":"eu","cc":"gb","latitude":51.509865,"longitude":-0.118092,"reserved":0,"last_update":"0001-01-01T00:00:00Z","name_a2s":"Uncletopia | London | 2 | All Maps","protocol":17,"map":"koth_lakeside_final","folder":"tf","game":"Team Fortress","app_id":440,"player_count":0,"max_players":24,"Bots":0,"server_type":"Dedicated","server_os":"Linux","password":true,"vac":true,"version":"7708610","steam_id":85568392924470941,"keywords":["cp","nocrits","nodmgspread","uncletopia"],"game_id":440,"stv_port":27026,"stv_name":"Uncletopia | London | 2 | All Maps | STV","players":null},{"server_id":320,"name":"Uncletopia | London | 3 | All Maps","name_short":"lon-3","host":"lon-1.uk.uncletopia.com","port":27035,"enabled":true,"region":"eu","cc":"gb","latitude":51.509865,"longitude":-0.118092,"reserved":0,"last_update":"0001-01-01T00:00:00Z","name_a2s":"Uncletopia | London | 3 | All Maps","protocol":17,"map":"koth_cascade","folder":"tf","game":"Team Fortress","app_id":440,"player_count":0,"max_players":24,"Bots":0,"server_type":"Dedicated","server_os":"Linux","password":true,"vac":true,"version":"7708610","steam_id":85568392924510192,"keywords":["cp","nocrits","nodmgspread","uncletopia"],"game_id":440,"stv_port":27036,"stv_name":"Uncletopia | London | 3 | All Maps | STV","players":null},{"server_id":321,"name":"Uncletopia | London | 4 | All Maps","name_short":"lon-4","host":"lon-1.uk.uncletopia.com","port":27045,"enabled":true,"region":"eu","cc":"gb","latitude":51.509865,"longitude":-0.118092,"reserved":0,"last_update":"0001-01-01T00:00:00Z","name_a2s":"Uncletopia | London | 4 | All Maps","protocol":17,"map":"koth_harvest_final","folder":"tf","game":"Team Fortress","app_id":440,"player_count":0,"max_players":24,"Bots":0,"server_type":"Dedicated","server_os":"Linux","password":true,"vac":true,"version":"7708610","steam_id":85568392924510193,"keywords":["cp","nocrits","nodmgspread","uncletopia"],"game_id":440,"stv_port":27046,"stv_name":"Uncletopia | London | 4 | All Maps | STV","players":null},{"server_id":21,"name":"Uncletopia | London | 5 | All Maps","name_short":"lon-5","host":"lon-1.uk.uncletopia.com","port":27055,"enabled":true,"region":"eu","cc":"gb","latitude":51.509865,"longitude":-0.118092,"reserved":0,"last_update":"0001-01-01T00:00:00Z","name_a2s":"Uncletopia | London | 5 | All Maps","protocol":17,"map":"koth_lakeside_final","folder":"tf","game":"Team Fortress","app_id":440,"player_count":0,"max_players":24,"Bots":0,"server_type":"Dedicated","server_os":"Linux","password":true,"vac":true,"version":"7708610","steam_id":85568392924742829,"keywords":["cp","nocrits","nodmgspread","uncletopia"],"game_id":440,"stv_port":27056,"stv_name":"Uncletopia | London | 5 | All Maps | STV","players":null},{"server_id":22,"name":"Uncletopia | London | 6 | All Maps","name_short":"lon-6","host":"lon-1.uk.uncletopia.com","port":27065,"enabled":true,"region":"eu","cc":"gb","latitude":51.509865,"longitude":-0.118092,"reserved":0,"last_update":"0001-01-01T00:00:00Z","name_a2s":"Uncletopia | London | 6 | All Maps","protocol":17,"map":"koth_highpass","folder":"tf","game":"Team Fortress","app_id":440,"player_count":0,"max_players":24,"Bots":0,"server_type":"Dedicated","server_os":"Linux","password":true,"vac":true,"version":"7708610","steam_id":85568392924742830,"keywords":["cp","nocrits","nodmgspread","uncletopia"],"game_id":440,"stv_port":27066,"stv_name":"Uncletopia | London | 6 | All Maps | STV","players":null},{"server_id":40,"name":"Uncletopia | London | 7 | No Payload","name_short":"lon-7","host":"lon-1.uk.uncletopia.com","port":27075,"enabled":true,"region":"eu","cc":"gb","latitude":51.509865,"longitude":-0.118092,"reserved":0,"last_update":"0001-01-01T00:00:00Z","name_a2s":"Uncletopia | London | 7 | No Payload","protocol":17,"map":"koth_highpass","folder":"tf","game":"Team Fortress","app_id":440,"player_count":0,"max_players":24,"Bots":0,"server_type":"Dedicated","server_os":"Linux","password":true,"vac":true,"version":"7708610","steam_id":85568392924964314,"keywords":["cp","nocrits","nodmgspread","uncletopia"],"game_id":440,"stv_port":27076,"stv_name":"Uncletopia | London | 7 | No Payload | STV","players":null},{"server_id":41,"name":"Uncletopia | London | 8 | Community","name_short":"lon-8","host":"lon-1.uk.uncletopia.com","port":27085,"enabled":true,"region":"eu","cc":"gb","latitude":51.509865,"longitude":-0.118092,"reserved":0,"last_update":"0001-01-01T00:00:00Z","name_a2s":"Uncletopia | London | 8 | Community","protocol":17,"map":"workshop/koth_synthetic_rc6a.ugc1549817316","folder":"tf","game":"Team Fortress","app_id":440,"player_count":0,"max_players":24,"Bots":0,"server_type":"Dedicated","server_os":"Linux","password":true,"vac":true,"version":"7708610","steam_id":85568392924964315,"keywords":["cp","nocrits","nodmgspread","uncletopia"],"game_id":440,"stv_port":27086,"stv_name":"Uncletopia | London | 8 | Community | STV","players":null},{"server_id":300,"name":"Uncletopia | Montréal | 1 | All Maps","name_short":"mtl-1","host":"mtl-1.ca.uncletopia.com","port":27015,"enabled":true,"region":"us-east","cc":"ca","latitude":45.50889,"longitude":-73.56167,"reserved":0,"last_update":"0001-01-01T00:00:00Z","name_a2s":"Uncletopia | Montréal | 1 | All Maps","protocol":17,"map":"pl_barnblitz","folder":"tf","game":"Team Fortress","app_id":440,"player_count":0,"max_players":24,"Bots":0,"server_type":"Dedicated","server_os":"Linux","password":true,"vac":true,"version":"7708610","steam_id":85568392924500087,"keywords":["nocrits","nodmgspread","payload","uncletopia"],"game_id":440,"stv_port":27016,"stv_name":"Uncletopia | Montréal | 1 | All Maps | STV","players":null},{"server_id":301,"name":"Uncletopia | Montréal | 2 | All Maps","name_short":"mtl-2","host":"mtl-1.ca.uncletopia.com","port":27025,"enabled":true,"region":"us-east","cc":"ca","latitude":45.50889,"longitude":-73.56167,"reserved":0,"last_update":"0001-01-01T00:00:00Z","name_a2s":"Uncletopia | Montréal | 2 | All Maps","protocol":17,"map":"pl_swiftwater_final1","folder":"tf","game":"Team Fortress","app_id":440,"player_count":0,"max_players":24,"Bots":0,"server_type":"Dedicated","server_os":"Linux","password":true,"vac":true,"version":"7708610","steam_id":85568392924500088,"keywords":["nocrits","nodmgspread","payload","uncletopia"],"game_id":440,"stv_port":27026,"stv_name":"Uncletopia | Montréal | 2 | All Maps | STV","players":null},{"server_id":302,"name":"Uncletopia | Montréal | 3 | All Maps","name_short":"mtl-3","host":"mtl-1.ca.uncletopia.com","port":27035,"enabled":true,"region":"us-east","cc":"ca","latitude":45.50889,"longitude":-73.56167,"reserved":0,"last_update":"0001-01-01T00:00:00Z","name_a2s":"Uncletopia | Montréal | 3 | All Maps","protocol":17,"map":"cp_mountainlab","folder":"tf","game":"Team Fortress","app_id":440,"player_count":0,"max_players":24,"Bots":0,"server_type":"Dedicated","server_os":"Linux","password":true,"vac":true,"version":"7708610","steam_id":85568392924500089,"keywords":["cp","nocrits","nodmgspread","uncletopia"],"game_id":440,"stv_port":27036,"stv_name":"Uncletopia | Montréal | 3 | All Maps | STV","players":null},{"server_id":303,"name":"Uncletopia | Montréal | 4 | No Payload","name_short":"mtl-4","host":"mtl-1.ca.uncletopia.com","port":27045,"enabled":true,"region":"us-east","cc":"ca","latitude":45.50889,"longitude":-73.56167,"reserved":0,"last_update":"0001-01-01T00:00:00Z","name_a2s":"Uncletopia | Montréal | 4 | No Payload","protocol":17,"map":"koth_cascade","folder":"tf","game":"Team Fortress","app_id":440,"player_count":0,"max_players":24,"Bots":0,"server_type":"Dedicated","server_os":"Linux","password":true,"vac":true,"version":"7708610","steam_id":85568392924500090,"keywords":["cp","nocrits","nodmgspread","uncletopia"],"game_id":440,"stv_port":27046,"stv_name":"Uncletopia | Montréal | 4 | No Payload | STV","players":null},{"server_id":13,"name":"Uncletopia | New York City | 1 | All Maps","name_short":"nyc-1","host":"nyc-1.us.uncletopia.com","port":27015,"enabled":true,"region":"us-east","cc":"us","latitude":40.73061,"longitude":-73.93524,"reserved":0,"last_update":"0001-01-01T00:00:00Z","name_a2s":"Uncletopia | New York City | 1 | All Maps","protocol":17,"map":"koth_lakeside_final","folder":"tf","game":"Team Fortress","app_id":440,"player_count":0,"max_players":24,"Bots":0,"server_type":"Dedicated","server_os":"Linux","password":true,"vac":true,"version":"7708610","steam_id":85568392924469993,"keywords":["cp","nocrits","nodmgspread","uncletopia"],"game_id":440,"stv_port":27016,"stv_name":"Uncletopia | New York City | 1 | All Maps | STV","players":null},{"server_id":14,"name":"Uncletopia | New York City | 2 | All Maps","name_short":"nyc-2","host":"nyc-1.us.uncletopia.com","port":27025,"enabled":true,"region":"us-east","cc":"us","latitude":40.73061,"longitude":-73.93524,"reserved":0,"last_update":"0001-01-01T00:00:00Z","name_a2s":"Uncletopia | New York City | 2 | All Maps","protocol":17,"map":"pl_borneo","folder":"tf","game":"Team Fortress","app_id":440,"player_count":22,"max_players":24,"Bots":0,"server_type":"Dedicated","server_os":"Linux","password":true,"vac":true,"version":"7708610","steam_id":85568392924469994,"keywords":["nocrits","nodmgspread","payload","uncletopia"],"game_id":440,"stv_port":27026,"stv_name":"Uncletopia | New York City | 2 | All Maps | STV","players":[{"user_id":440,"name":"Hideous Kojima","steam_id":76561198145430036,"connected_time":272000000000,"state":"spawning","ping":102},{"user_id":419,"name":"flappyflap2","steam_id":76561198285048973,"connected_time":1259000000000,"state":"active","ping":132},{"user_id":435,"name":"Spearmint","steam_id":76561198134215373,"connected_time":464000000000,"state":"active","ping":81},{"user_id":356,"name":"Dark bum","steam_id":76561198076908920,"connected_time":6604000000000,"state":"spawning","ping":169},{"user_id":426,"name":"Nebibua","steam_id":76561198048736311,"connected_time":944000000000,"state":"active","ping":179},{"user_id":445,"name":"kezia","steam_id":76561198059815894,"connected_time":22000000000,"state":"active","ping":60},{"user_id":389,"name":"Collin","steam_id":76561198341399913,"connected_time":4109000000000,"state":"active","ping":73},{"user_id":427,"name":"Jaypelt","steam_id":76561198053906849,"connected_time":933000000000,"state":"active","ping":94},{"user_id":428,"name":"Karma's Kringle Caper","steam_id":76561198059385185,"connected_time":843000000000,"state":"spawning","ping":63},{"user_id":353,"name":"Moonsided","steam_id":76561198055707285,"connected_time":6662000000000,"state":"active","ping":148},{"user_id":407,"name":"Ipseiit","steam_id":76561198294670312,"connected_time":2296000000000,"state":"active","ping":108},{"user_id":446,"name":"GARY","steam_id":76561198271997114,"connected_time":19000000000,"state":"connecting","ping":47},{"user_id":447,"name":"The Coolest Pants","steam_id":76561198142290648,"connected_time":10000000000,"state":"active","ping":143},{"user_id":408,"name":"Match","steam_id":76561198080402807,"connected_time":2278000000000,"state":"spawning","ping":94},{"user_id":433,"name":"lilchicky","steam_id":76561198951121530,"connected_time":661000000000,"state":"spawning","ping":80},{"user_id":434,"name":"nova the actual","steam_id":76561198186799367,"connected_time":643000000000,"state":"spawning","ping":62},{"user_id":411,"name":"blarthour","steam_id":76561198151534880,"connected_time":2162000000000,"state":"active","ping":71},{"user_id":438,"name":"Skaibae","steam_id":76561198134178824,"connected_time":397000000000,"state":"active","ping":81},{"user_id":413,"name":"Medic","steam_id":76561198067869016,"connected_time":2148000000000,"state":"spawning","ping":72},{"user_id":443,"name":"Raven57p","steam_id":76561198118992563,"connected_time":224000000000,"state":"spawning","ping":69},{"user_id":442,"name":"CougarHunter445","steam_id":76561198389342917,"connected_time":256000000000,"state":"spawning","ping":52},{"user_id":444,"name":"Shadow Fox","steam_id":76561197993585706,"connected_time":165000000000,"state":"spawning","ping":64}]},{"server_id":15,"name":"Uncletopia | New York City | 3 | All Maps","name_short":"nyc-3","host":"nyc-1.us.uncletopia.com","port":27035,"enabled":true,"region":"us-east","cc":"us","latitude":40.73061,"longitude":-73.93524,"reserved":0,"last_update":"0001-01-01T00:00:00Z","name_a2s":"Uncletopia | New York City | 3 | All Maps","protocol":17,"map":"koth_viaduct","folder":"tf","game":"Team Fortress","app_id":440,"player_count":24,"max_players":24,"Bots":0,"server_type":"Dedicated","server_os":"Linux","password":true,"vac":true,"version":"7708610","steam_id":85568392924742820,"keywords":["cp","nocrits","nodmgspread","uncletopia"],"game_id":440,"stv_port":27036,"stv_name":"Uncletopia | New York City | 3 | All Maps | STV","players":[{"user_id":489,"name":"willingly ate cement at age -1.","steam_id":76561198294013916,"connected_time":1061000000000,"state":"active","ping":40},{"user_id":457,"name":"Amaretto Sour","steam_id":76561198063112844,"connected_time":3607000000000,"state":"active","ping":54},{"user_id":496,"name":"liamishere","steam_id":76561199036719261,"connected_time":636000000000,"state":"active","ping":51},{"user_id":490,"name":"ChickenManPhil","steam_id":76561199139508332,"connected_time":937000000000,"state":"active","ping":89},{"user_id":445,"name":"tac","steam_id":76561198155113345,"connected_time":4197000000000,"state":"active","ping":84},{"user_id":395,"name":"Ghost","steam_id":76561198110914180,"connected_time":8914000000000,"state":"active","ping":176},{"user_id":500,"name":"Superfly Johnson","steam_id":76561198130438044,"connected_time":213000000000,"state":"active","ping":66},{"user_id":498,"name":"Cosmo","steam_id":76561198971354161,"connected_time":400000000000,"state":"active","ping":40},{"user_id":446,"name":"BTS COME BRASIL PLESE","steam_id":76561198158408338,"connected_time":4192000000000,"state":"active","ping":90},{"user_id":501,"name":"Balerion the Black Dread","steam_id":76561198003728369,"connected_time":181000000000,"state":"active","ping":95},{"user_id":406,"name":"Smuggs","steam_id":76561197999456003,"connected_time":7588000000000,"state":"active","ping":112},{"user_id":492,"name":"$200 Shirt","steam_id":76561197977329534,"connected_time":821000000000,"state":"active","ping":55},{"user_id":502,"name":"Rust","steam_id":76561198063959574,"connected_time":159000000000,"state":"active","ping":58},{"user_id":448,"name":"Anyar","steam_id":76561198160174097,"connected_time":4155000000000,"state":"active","ping":82},{"user_id":475,"name":"{ST} Aperture Science Prototype","steam_id":76561198299290069,"connected_time":2173000000000,"state":"active","ping":96},{"user_id":449,"name":"MiddleC","steam_id":76561198170332855,"connected_time":4150000000000,"state":"active","ping":90},{"user_id":495,"name":"Halcyon","steam_id":76561197999409268,"connected_time":655000000000,"state":"active","ping":60},{"user_id":462,"name":"Got Hat?","steam_id":76561197998486431,"connected_time":2911000000000,"state":"active","ping":51},{"user_id":438,"name":"Gay Cake","steam_id":76561198004388831,"connected_time":4492000000000,"state":"active","ping":79},{"user_id":504,"name":"yesterday once more","steam_id":76561198038486613,"connected_time":5000000000,"state":"spawning","ping":59},{"user_id":497,"name":"Bali","steam_id":76561198038693845,"connected_time":460000000000,"state":"active","ping":108},{"user_id":476,"name":"Pacific","steam_id":76561198271745821,"connected_time":2160000000000,"state":"active","ping":43},{"user_id":465,"name":"tarzan","steam_id":76561198050715408,"connected_time":2830000000000,"state":"active","ping":147},{"user_id":481,"name":"busy busy bee :D","steam_id":76561198128222331,"connected_time":1463000000000,"state":"active","ping":59}]},{"server_id":16,"name":"Uncletopia | New York City | 4 | Community","name_short":"nyc-4","host":"nyc-1.us.uncletopia.com","port":27045,"enabled":true,"region":"us-east","cc":"us","latitude":40.73061,"longitude":-73.93524,"reserved":0,"last_update":"0001-01-01T00:00:00Z","name_a2s":"Uncletopia | New York City | 4 | Community","protocol":17,"map":"workshop/cp_villa_b19.ugc2113052569","folder":"tf","game":"Team Fortress","app_id":440,"player_count":0,"max_players":24,"Bots":0,"server_type":"Dedicated","server_os":"Linux","password":true,"vac":true,"version":"7708610","steam_id":85568392924742821,"keywords":["cp","nocrits","nodmgspread","uncletopia"],"game_id":440,"stv_port":27046,"stv_name":"Uncletopia | New York City | 4 | Community | STV","players":null},{"server_id":142,"name":"Uncletopia | São Paulo | 1 | All Maps","name_short":"sao-1","host":"sao-1.br.uncletopia.com","port":27015,"enabled":true,"region":"sa","cc":"br","latitude":-23.533773,"longitude":-46.62529,"reserved":0,"last_update":"0001-01-01T00:00:00Z","name_a2s":"Uncletopia | São Paulo | 1 | All Maps","protocol":17,"map":"pl_barnblitz","folder":"tf","game":"Team Fortress","app_id":440,"player_count":0,"max_players":24,"Bots":0,"server_type":"Dedicated","server_os":"Linux","password":true,"vac":true,"version":"7708610","steam_id":85568392924469996,"keywords":["nocrits","nodmgspread","payload","uncletopia"],"game_id":440,"stv_port":27016,"stv_name":"Uncletopia | São Paulo | 1 | All Maps | STV","players":null},{"server_id":143,"name":"Uncletopia | São Paulo | 2 | All Maps","name_short":"sao-2","host":"sao-2.br.uncletopia.com","port":27015,"enabled":true,"region":"sa","cc":"br","latitude":-23.533773,"longitude":-46.62529,"reserved":0,"last_update":"0001-01-01T00:00:00Z","name_a2s":"Uncletopia | São Paulo | 2 | All Maps","protocol":17,"map":"pl_frontier_final","folder":"tf","game":"Team Fortress","app_id":440,"player_count":0,"max_players":24,"Bots":0,"server_type":"Dedicated","server_os":"Linux","password":true,"vac":true,"version":"7708610","steam_id":85568392924485349,"keywords":["nocrits","nodmgspread","payload","uncletopia"],"game_id":440,"stv_port":27016,"stv_name":"Uncletopia | São Paulo | 2 | All Maps | STV","players":null},{"server_id":7,"name":"Uncletopia | Seattle | 1 | All Maps","name_short":"sea-1","host":"sea-1.us.uncletopia.com","port":27015,"enabled":true,"region":"us-west","cc":"us","latitude":47.608013,"longitude":-122.33517,"reserved":0,"last_update":"0001-01-01T00:00:00Z","name_a2s":"Uncletopia | Seattle | 1 | All Maps","protocol":17,"map":"pl_snowycoast","folder":"tf","game":"Team Fortress","app_id":440,"player_count":24,"max_players":24,"Bots":0,"server_type":"Dedicated","server_os":"Linux","password":true,"vac":true,"version":"7708610","steam_id":85568392924469997,"keywords":["nocrits","nodmgspread","payload","uncletopia"],"game_id":440,"stv_port":27016,"stv_name":"Uncletopia | Seattle | 1 | All Maps | STV","players":[{"user_id":426,"name":"Ozzimo","steam_id":76561197961632819,"connected_time":452000000000,"state":"active","ping":53},{"user_id":407,"name":"KingToaster","steam_id":76561198007903802,"connected_time":2350000000000,"state":"active","ping":34},{"user_id":424,"name":"FrogRotated45Degrees","steam_id":76561198929021924,"connected_time":599000000000,"state":"active","ping":55},{"user_id":391,"name":"SpidercaxeZeGamer","steam_id":76561199189075618,"connected_time":3290000000000,"state":"active","ping":91},{"user_id":393,"name":"Da Bird","steam_id":76561198215677985,"connected_time":3110000000000,"state":"active","ping":86},{"user_id":406,"name":"elfy","steam_id":76561198061637177,"connected_time":2550000000000,"state":"active","ping":81},{"user_id":367,"name":"TROY","steam_id":76561197983852176,"connected_time":5419000000000,"state":"active","ping":75},{"user_id":423,"name":"Korey","steam_id":76561198210734407,"connected_time":790000000000,"state":"active","ping":118},{"user_id":422,"name":"DefectiveWarhead","steam_id":76561198067746049,"connected_time":823000000000,"state":"active","ping":63},{"user_id":378,"name":"Aardappel","steam_id":76561198030894676,"connected_time":4956000000000,"state":"active","ping":69},{"user_id":401,"name":"......","steam_id":76561198067612741,"connected_time":2750000000000,"state":"active","ping":46},{"user_id":418,"name":"Naffers","steam_id":76561198195957335,"connected_time":2087000000000,"state":"active","ping":50},{"user_id":356,"name":"Leidon","steam_id":76561198078386945,"connected_time":5937000000000,"state":"active","ping":69},{"user_id":390,"name":"Fh","steam_id":76561198000903511,"connected_time":3633000000000,"state":"active","ping":72},{"user_id":420,"name":"Captain Olimar Balancer of team","steam_id":76561198141737300,"connected_time":1915000000000,"state":"active","ping":67},{"user_id":380,"name":"ejschild745","steam_id":76561199013388867,"connected_time":4323000000000,"state":"active","ping":64},{"user_id":411,"name":"Tom Skirrett","steam_id":76561198014600788,"connected_time":2325000000000,"state":"active","ping":74},{"user_id":429,"name":"Icy_Rhyse","steam_id":76561198155661147,"connected_time":113000000000,"state":"active","ping":42},{"user_id":415,"name":"Skeleton Bones Ghoulie","steam_id":76561199138772722,"connected_time":2230000000000,"state":"active","ping":75},{"user_id":389,"name":"kiwisaturn","steam_id":76561198282357996,"connected_time":3714000000000,"state":"active","ping":59},{"user_id":419,"name":"Cheeseoid","steam_id":76561198073836524,"connected_time":2080000000000,"state":"active","ping":108},{"user_id":405,"name":"El Gato Paranoico","steam_id":76561198116567116,"connected_time":2586000000000,"state":"active","ping":116},{"user_id":421,"name":"your drunk dad","steam_id":76561198151596927,"connected_time":864000000000,"state":"active","ping":108},{"user_id":417,"name":"Bubbamanme","steam_id":76561198119778504,"connected_time":2178000000000,"state":"active","ping":61}]},{"server_id":119,"name":"Uncletopia | Seattle | 2 | All Maps","name_short":"sea-2","host":"sea-1.us.uncletopia.com","port":27025,"enabled":true,"region":"us-west","cc":"us","latitude":47.608013,"longitude":-122.33517,"reserved":0,"last_update":"0001-01-01T00:00:00Z","name_a2s":"Uncletopia | Seattle | 2 | All Maps","protocol":17,"map":"koth_viaduct","folder":"tf","game":"Team Fortress","app_id":440,"player_count":23,"max_players":24,"Bots":0,"server_type":"Dedicated","server_os":"Linux","password":true,"vac":true,"version":"7708610","steam_id":85568392924469998,"keywords":["cp","nocrits","nodmgspread","uncletopia"],"game_id":440,"stv_port":27026,"stv_name":"Uncletopia | Seattle | 2 | All Maps | STV","players":[{"user_id":274,"name":"padder b0i","steam_id":76561198088131563,"connected_time":2339000000000,"state":"active","ping":76},{"user_id":287,"name":"♥ Danny Hollow ♥","steam_id":76561198059010255,"connected_time":1287000000000,"state":"active","ping":180},{"user_id":192,"name":"Croxsbow","steam_id":76561198893327481,"connected_time":8566000000000,"state":"active","ping":52},{"user_id":288,"name":"Snale","steam_id":76561198039517965,"connected_time":627000000000,"state":"active","ping":64},{"user_id":291,"name":"Seriously Bruh","steam_id":76561198070408485,"connected_time":113000000000,"state":"active","ping":62},{"user_id":255,"name":"Dedlock","steam_id":76561198046290002,"connected_time":3925000000000,"state":"active","ping":56},{"user_id":290,"name":"Lily Thorn","steam_id":76561198305488625,"connected_time":134000000000,"state":"active","ping":63},{"user_id":262,"name":"Thanks Ants","steam_id":76561197966221018,"connected_time":3473000000000,"state":"active","ping":49},{"user_id":251,"name":"mu","steam_id":76561197997530228,"connected_time":4278000000000,"state":"active","ping":59},{"user_id":292,"name":"Sailor","steam_id":76561199081983517,"connected_time":112000000000,"state":"active","ping":94},{"user_id":289,"name":"Google","steam_id":76561198857237473,"connected_time":613000000000,"state":"active","ping":51},{"user_id":294,"name":"The Angel of Death","steam_id":76561198026079349,"connected_time":45000000000,"state":"active","ping":74},{"user_id":293,"name":"SesataPomang","steam_id":76561198145133059,"connected_time":100000000000,"state":"active","ping":94},{"user_id":234,"name":"The Caretaker","steam_id":76561198125241411,"connected_time":5219000000000,"state":"active","ping":104},{"user_id":283,"name":"Yo, merry Christmas!","steam_id":76561198421913648,"connected_time":1745000000000,"state":"active","ping":48},{"user_id":244,"name":"bitmappu","steam_id":76561199000786530,"connected_time":4855000000000,"state":"active","ping":82},{"user_id":282,"name":"Rx Auntie","steam_id":76561198051618393,"connected_time":1824000000000,"state":"active","ping":69},{"user_id":218,"name":"Clemont007","steam_id":76561198030935625,"connected_time":6822000000000,"state":"active","ping":68},{"user_id":270,"name":"King Keifer","steam_id":76561198141070466,"connected_time":2540000000000,"state":"active","ping":55},{"user_id":278,"name":"0xFUL","steam_id":76561198081684676,"connected_time":2307000000000,"state":"active","ping":65},{"user_id":280,"name":"mub","steam_id":76561197961943948,"connected_time":2146000000000,"state":"active","ping":45},{"user_id":189,"name":"Toaster WiFi","steam_id":76561198378832479,"connected_time":8796000000000,"state":"active","ping":117},{"user_id":286,"name":"Strikerbolt","steam_id":76561199095622897,"connected_time":1439000000000,"state":"active","ping":92}]},{"server_id":17,"name":"Uncletopia | San Francisco | 1 | All Maps","name_short":"sfo-1","host":"sfo-1.us.uncletopia.com","port":27015,"enabled":true,"region":"us-west","cc":"us","latitude":37.77397,"longitude":-122.4313,"reserved":0,"last_update":"0001-01-01T00:00:00Z","name_a2s":"Uncletopia | San Francisco | 1 | All Maps","protocol":17,"map":"pl_thundermountain","folder":"tf","game":"Team Fortress","app_id":440,"player_count":23,"max_players":24,"Bots":0,"server_type":"Dedicated","server_os":"Linux","password":true,"vac":true,"version":"7708610","steam_id":85568392924469999,"keywords":["nocrits","nodmgspread","payload","uncletopia"],"game_id":440,"stv_port":27016,"stv_name":"Uncletopia | San Francisco | 1 | All Maps | STV","players":[{"user_id":318,"name":"brae","steam_id":76561198047126327,"connected_time":71000000000,"state":"active","ping":74},{"user_id":319,"name":"☆Atomic Waffle☆","steam_id":76561198100385184,"connected_time":23000000000,"state":"active","ping":72},{"user_id":270,"name":"BrightOrangeMango","steam_id":76561198023144607,"connected_time":3108000000000,"state":"active","ping":60},{"user_id":259,"name":"Swag5","steam_id":76561198065311356,"connected_time":3841000000000,"state":"active","ping":50},{"user_id":309,"name":"Golden","steam_id":76561198822110508,"connected_time":1479000000000,"state":"active","ping":59},{"user_id":272,"name":"Delta","steam_id":76561198021957971,"connected_time":2475000000000,"state":"active","ping":50},{"user_id":310,"name":"A Fruit","steam_id":76561198951830050,"connected_time":1394000000000,"state":"active","ping":79},{"user_id":277,"name":"Cactus™ ♥","steam_id":76561198036441270,"connected_time":2348000000000,"state":"active","ping":92},{"user_id":295,"name":"Super Mighty G","steam_id":76561198020932806,"connected_time":1946000000000,"state":"active","ping":61},{"user_id":315,"name":"paint thinner victim","steam_id":76561198176069217,"connected_time":1042000000000,"state":"active","ping":94},{"user_id":207,"name":"Tmiracle","steam_id":76561198052375275,"connected_time":7805000000000,"state":"active","ping":45},{"user_id":313,"name":"MemeyBoi3rd","steam_id":76561199443570634,"connected_time":1196000000000,"state":"active","ping":79},{"user_id":314,"name":"facade","steam_id":76561199157009256,"connected_time":1105000000000,"state":"active","ping":43},{"user_id":280,"name":"Brando","steam_id":76561198078306678,"connected_time":2288000000000,"state":"active","ping":96},{"user_id":311,"name":"Surly Joe","steam_id":76561199150833796,"connected_time":1371000000000,"state":"active","ping":106},{"user_id":282,"name":"Black Jesus","steam_id":76561198076148442,"connected_time":2278000000000,"state":"active","ping":59},{"user_id":262,"name":"Swag6","steam_id":76561198064110837,"connected_time":3693000000000,"state":"active","ping":46},{"user_id":283,"name":"squinzi","steam_id":76561198086520846,"connected_time":2267000000000,"state":"active","ping":49},{"user_id":256,"name":"GrandpappyCripes","steam_id":76561198086994768,"connected_time":4061000000000,"state":"active","ping":60},{"user_id":312,"name":"PainInTheRuss","steam_id":76561197977960543,"connected_time":1270000000000,"state":"active","ping":53},{"user_id":273,"name":"LynBoByn","steam_id":76561198052911142,"connected_time":2449000000000,"state":"active","ping":107},{"user_id":316,"name":"Serupy","steam_id":76561198402330698,"connected_time":404000000000,"state":"active","ping":110},{"user_id":317,"name":"Chap","steam_id":76561198294226443,"connected_time":374000000000,"state":"active","ping":60}]},{"server_id":18,"name":"Uncletopia | San Francisco | 2 | All Maps","name_short":"sfo-2","host":"sfo-1.us.uncletopia.com","port":27025,"enabled":true,"region":"us-west","cc":"us","latitude":37.77397,"longitude":-122.4313,"reserved":0,"last_update":"0001-01-01T00:00:00Z","name_a2s":"Uncletopia | San Francisco | 2 | All Maps","protocol":17,"map":"cp_dustbowl","folder":"tf","game":"Team Fortress","app_id":440,"player_count":0,"max_players":24,"Bots":0,"server_type":"Dedicated","server_os":"Linux","password":true,"vac":true,"version":"7708610","steam_id":85568392924470000,"keywords":["cp","nocrits","nodmgspread","uncletopia"],"game_id":440,"stv_port":27026,"stv_name":"Uncletopia | San Francisco | 2 | All Maps | STV","players":null},{"server_id":19,"name":"Uncletopia | San Francisco | 3 | No Payload","name_short":"sfo-3","host":"sfo-1.us.uncletopia.com","port":27035,"enabled":true,"region":"us-west","cc":"us","latitude":37.77397,"longitude":-122.4313,"reserved":0,"last_update":"0001-01-01T00:00:00Z","name_a2s":"Uncletopia | San Francisco | 3 | No Payload","protocol":17,"map":"cp_dustbowl","folder":"tf","game":"Team Fortress","app_id":440,"player_count":23,"max_players":24,"Bots":0,"server_type":"Dedicated","server_os":"Linux","password":true,"vac":true,"version":"7708610","steam_id":85568392924742824,"keywords":["cp","nocrits","nodmgspread","uncletopia"],"game_id":440,"stv_port":27036,"stv_name":"Uncletopia | San Francisco | 3 | No Payload | STV","players":[{"user_id":160,"name":"nepeta from undertale","steam_id":76561198023770512,"connected_time":1749000000000,"state":"active","ping":95},{"user_id":104,"name":"Arbiter Soul","steam_id":76561198067798973,"connected_time":6204000000000,"state":"active","ping":71},{"user_id":162,"name":"Quack Kills","steam_id":76561197999237890,"connected_time":1702000000000,"state":"active","ping":110},{"user_id":176,"name":"Zombielunch","steam_id":76561198826863974,"connected_time":803000000000,"state":"active","ping":151},{"user_id":159,"name":"Cozy","steam_id":76561198440966552,"connected_time":1766000000000,"state":"active","ping":61},{"user_id":167,"name":"sloopyivycain #savetf2","steam_id":76561198838125622,"connected_time":1540000000000,"state":"active","ping":79},{"user_id":90,"name":"Soap Man","steam_id":76561198000490235,"connected_time":7257000000000,"state":"active","ping":83},{"user_id":164,"name":"amrick","steam_id":76561198271788192,"connected_time":1636000000000,"state":"active","ping":69},{"user_id":168,"name":"Stupid frogs!","steam_id":76561198069415057,"connected_time":1334000000000,"state":"active","ping":45},{"user_id":137,"name":"Goldblock369837","steam_id":76561198405515937,"connected_time":3375000000000,"state":"active","ping":120},{"user_id":123,"name":"Big Pete","steam_id":76561198100754827,"connected_time":4990000000000,"state":"active","ping":66},{"user_id":165,"name":"Pyro Team Forteress 2","steam_id":76561198081504766,"connected_time":1626000000000,"state":"active","ping":81},{"user_id":150,"name":"User Interface","steam_id":76561198049238840,"connected_time":2626000000000,"state":"active","ping":75},{"user_id":158,"name":"warm","steam_id":76561198022960795,"connected_time":1987000000000,"state":"active","ping":59},{"user_id":172,"name":"Brynkiwi","steam_id":76561198052177917,"connected_time":1006000000000,"state":"active","ping":66},{"user_id":151,"name":"MarshallMellows","steam_id":76561198231561020,"connected_time":2604000000000,"state":"active","ping":73},{"user_id":177,"name":"Angry grandma with cane","steam_id":76561198999712118,"connected_time":717000000000,"state":"active","ping":60},{"user_id":182,"name":"princedurdle","steam_id":76561199386789601,"connected_time":290000000000,"state":"active","ping":62},{"user_id":178,"name":"MintyPawz","steam_id":76561198111430103,"connected_time":614000000000,"state":"active","ping":79},{"user_id":179,"name":"Stroodle","steam_id":76561198175533691,"connected_time":556000000000,"state":"active","ping":49},{"user_id":152,"name":"Pikmin2.iso","steam_id":76561198131458027,"connected_time":2595000000000,"state":"active","ping":129},{"user_id":180,"name":"SpaceOak","steam_id":76561198072561549,"connected_time":525000000000,"state":"active","ping":96},{"user_id":181,"name":"Maxwell5123","steam_id":76561198025959510,"connected_time":491000000000,"state":"active","ping":94}]},{"server_id":20,"name":"Uncletopia | San Francisco | 4 | Community","name_short":"sfo-4","host":"sfo-1.us.uncletopia.com","port":27045,"enabled":true,"region":"us-west","cc":"us","latitude":37.77397,"longitude":-122.4313,"reserved":0,"last_update":"0001-01-01T00:00:00Z","name_a2s":"Uncletopia | San Francisco | 4 | Community","protocol":17,"map":"workshop/koth_ramjam_v2_b2.ugc2865676487","folder":"tf","game":"Team Fortress","app_id":440,"player_count":0,"max_players":24,"Bots":0,"server_type":"Dedicated","server_os":"Linux","password":true,"vac":true,"version":"7708610","steam_id":85568392924742826,"keywords":["cp","nocrits","nodmgspread","uncletopia"],"game_id":440,"stv_port":27046,"stv_name":"Uncletopia | San Francisco | 4 | Community | STV","players":null},{"server_id":141,"name":"Uncletopia | Sydney | 1 | All Maps","name_short":"syd-1","host":"syd-1.au.uncletopia.com","port":27015,"enabled":true,"region":"au","cc":"au","latitude":-33.865143,"longitude":151.2099,"reserved":0,"last_update":"0001-01-01T00:00:00Z","name_a2s":"Uncletopia | Sydney | 1 | All Maps","protocol":17,"map":"cp_dustbowl","folder":"tf","game":"Team Fortress","app_id":440,"player_count":24,"max_players":24,"Bots":0,"server_type":"Dedicated","server_os":"Linux","password":true,"vac":true,"version":"7708610","steam_id":85568392924470001,"keywords":["cp","nocrits","nodmgspread","uncletopia"],"game_id":440,"stv_port":27016,"stv_name":"Uncletopia | Sydney | 1 | All Maps | STV","players":[{"user_id":184,"name":"monocrumb","steam_id":76561199126588682,"connected_time":4384000000000,"state":"active","ping":65},{"user_id":214,"name":"Gurnie_dingo","steam_id":76561198041639674,"connected_time":2024000000000,"state":"active","ping":105},{"user_id":244,"name":"Tricka •","steam_id":76561197968440123,"connected_time":377000000000,"state":"active","ping":45},{"user_id":211,"name":"Wholesome","steam_id":76561199130430752,"connected_time":2063000000000,"state":"active","ping":49},{"user_id":251,"name":"Devious Little Man","steam_id":76561199229378255,"connected_time":190000000000,"state":"active","ping":50},{"user_id":198,"name":"whiteshaq","steam_id":76561198131988811,"connected_time":2712000000000,"state":"active","ping":69},{"user_id":233,"name":"GarlickGoat","steam_id":76561199093972370,"connected_time":887000000000,"state":"active","ping":59},{"user_id":252,"name":"apache.oru","steam_id":76561199275926883,"connected_time":179000000000,"state":"active","ping":81},{"user_id":248,"name":"SaltierThanYou","steam_id":76561198444395188,"connected_time":265000000000,"state":"active","ping":74},{"user_id":234,"name":"The Great Sire","steam_id":76561198364434072,"connected_time":852000000000,"state":"active","ping":40},{"user_id":210,"name":"Cudly Magma Shadow","steam_id":76561198146763306,"connected_time":2118000000000,"state":"active","ping":55},{"user_id":223,"name":"Parachuting_Parakeet","steam_id":76561198049986399,"connected_time":1554000000000,"state":"active","ping":49},{"user_id":236,"name":"Chum_Sock","steam_id":76561198315285049,"connected_time":763000000000,"state":"active","ping":56},{"user_id":230,"name":"A Purple Swirl","steam_id":76561197994590608,"connected_time":961000000000,"state":"active","ping":44},{"user_id":206,"name":"Mail Bomb Victim","steam_id":76561198284533039,"connected_time":2221000000000,"state":"active","ping":48},{"user_id":254,"name":"Docfelix","steam_id":76561198078038957,"connected_time":161000000000,"state":"active","ping":53},{"user_id":253,"name":"Pigmop","steam_id":76561199096494193,"connected_time":172000000000,"state":"active","ping":52},{"user_id":218,"name":"jeff","steam_id":76561198327306842,"connected_time":1950000000000,"state":"active","ping":133},{"user_id":240,"name":"highschool audio monster","steam_id":76561198836003115,"connected_time":670000000000,"state":"active","ping":65},{"user_id":238,"name":"kotamarley","steam_id":76561199403573019,"connected_time":708000000000,"state":"active","ping":71},{"user_id":241,"name":"Lateralus","steam_id":76561198007865860,"connected_time":651000000000,"state":"active","ping":107},{"user_id":243,"name":"Doctor Estonia","steam_id":76561198057365089,"connected_time":570000000000,"state":"active","ping":69},{"user_id":228,"name":"hawk","steam_id":76561198135164277,"connected_time":1295000000000,"state":"active","ping":142},{"user_id":242,"name":"EmmArrGus","steam_id":76561198106343847,"connected_time":588000000000,"state":"active","ping":49}]},{"server_id":123,"name":"Uncletopia | Sydney | 2 | All Maps","name_short":"syd-2","host":"syd-1.au.uncletopia.com","port":27025,"enabled":true,"region":"au","cc":"au","latitude":-33.865143,"longitude":151.2099,"reserved":0,"last_update":"0001-01-01T00:00:00Z","name_a2s":"Uncletopia | Sydney | 2 | All Maps","protocol":17,"map":"pl_upward","folder":"tf","game":"Team Fortress","app_id":440,"player_count":24,"max_players":24,"Bots":0,"server_type":"Dedicated","server_os":"Linux","password":true,"vac":true,"version":"7708610","steam_id":85568392924470002,"keywords":["nocrits","nodmgspread","payload","uncletopia"],"game_id":440,"stv_port":27026,"stv_name":"Uncletopia | Sydney | 2 | All Maps | STV","players":[{"user_id":303,"name":"Madison Ivy","steam_id":76561198074674290,"connected_time":1794000000000,"state":"active","ping":57},{"user_id":273,"name":"Queer Anarchist Joe Biden","steam_id":76561198120774968,"connected_time":4323000000000,"state":"active","ping":85},{"user_id":292,"name":"Infernal Parade","steam_id":76561198420949299,"connected_time":2948000000000,"state":"active","ping":75},{"user_id":245,"name":"Kiwoo","steam_id":76561198097429186,"connected_time":5905000000000,"state":"active","ping":89},{"user_id":277,"name":"SlenderFox","steam_id":76561198044002401,"connected_time":3996000000000,"state":"active","ping":56},{"user_id":315,"name":"Zoey","steam_id":76561198126153554,"connected_time":183000000000,"state":"active","ping":78},{"user_id":279,"name":"Extra Exotic","steam_id":76561198045191981,"connected_time":3934000000000,"state":"active","ping":71},{"user_id":306,"name":"k a z z","steam_id":76561198095560360,"connected_time":1596000000000,"state":"active","ping":86},{"user_id":304,"name":"toots","steam_id":76561198094589768,"connected_time":1686000000000,"state":"active","ping":66},{"user_id":318,"name":"xip","steam_id":76561198067871876,"connected_time":50000000000,"state":"active","ping":100},{"user_id":275,"name":"gerald","steam_id":76561198274740718,"connected_time":4187000000000,"state":"active","ping":61},{"user_id":308,"name":"Chops","steam_id":76561198071178936,"connected_time":1198000000000,"state":"active","ping":94},{"user_id":218,"name":"Performance Issues","steam_id":76561198202341454,"connected_time":7976000000000,"state":"active","ping":69},{"user_id":205,"name":"Biskuit","steam_id":76561198817606439,"connected_time":8548000000000,"state":"active","ping":51},{"user_id":302,"name":"skatebored","steam_id":76561198129299181,"connected_time":1828000000000,"state":"active","ping":61},{"user_id":310,"name":"INTENTIONS","steam_id":76561198241303512,"connected_time":1040000000000,"state":"active","ping":56},{"user_id":293,"name":"Marzell","steam_id":76561198151276153,"connected_time":2910000000000,"state":"active","ping":78},{"user_id":285,"name":"Spiffing","steam_id":76561199020105540,"connected_time":3668000000000,"state":"active","ping":80},{"user_id":307,"name":"Nenguu","steam_id":76561198243952386,"connected_time":1542000000000,"state":"active","ping":64},{"user_id":305,"name":"Big Booty Llama","steam_id":76561198074422721,"connected_time":1682000000000,"state":"active","ping":61},{"user_id":309,"name":"teleport (real)","steam_id":76561199061469566,"connected_time":1153000000000,"state":"active","ping":57},{"user_id":311,"name":"fuck it, we ball","steam_id":76561199096343199,"connected_time":1028000000000,"state":"active","ping":42},{"user_id":312,"name":"FrontlineNinja","steam_id":76561198046731954,"connected_time":658000000000,"state":"active","ping":44},{"user_id":262,"name":"Qwerty","steam_id":76561199157092367,"connected_time":5022000000000,"state":"active","ping":68}]},{"server_id":395,"name":"Uncletopia | Sydney | 3 | All Maps","name_short":"syd-3","host":"syd-1.au.uncletopia.com","port":27035,"enabled":true,"region":"au","cc":"au","latitude":-33.865143,"longitude":151.2099,"reserved":0,"last_update":"0001-01-01T00:00:00Z","name_a2s":"Uncletopia | Sydney | 3 | All Maps","protocol":17,"map":"pl_wutville_event","folder":"tf","game":"Team Fortress","app_id":440,"player_count":6,"max_players":24,"Bots":0,"server_type":"Dedicated","server_os":"Linux","password":true,"vac":true,"version":"7708610","steam_id":85568392925194467,"keywords":["nocrits","nodmgspread","payload","uncletopia"],"game_id":440,"stv_port":27036,"stv_name":"Uncletopia | Sydney | 3 | All Maps | STV","players":[{"user_id":34,"name":"ChairMcGaming™","steam_id":76561199215200562,"connected_time":169000000000,"state":"active","ping":58},{"user_id":37,"name":"Cyborgcupine","steam_id":76561198257389366,"connected_time":83000000000,"state":"active","ping":96},{"user_id":23,"name":"Branko","steam_id":76561199262196710,"connected_time":3255000000000,"state":"active","ping":34},{"user_id":26,"name":"chewy marmot","steam_id":76561198005340350,"connected_time":2908000000000,"state":"active","ping":78},{"user_id":36,"name":"Ozone_","steam_id":76561198202835099,"connected_time":136000000000,"state":"active","ping":57},{"user_id":38,"name":"Greg","steam_id":76561198299543780,"connected_time":5000000000,"state":"spawning","ping":263}]},{"server_id":396,"name":"Uncletopia | Sydney | 4 | All Maps","name_short":"syd-4","host":"syd-1.au.uncletopia.com","port":27045,"enabled":true,"region":"au","cc":"au","latitude":-33.865143,"longitude":151.2099,"reserved":0,"last_update":"0001-01-01T00:00:00Z","name_a2s":"Uncletopia | Sydney | 4 | All Maps","protocol":17,"map":"pl_frontier_final","folder":"tf","game":"Team Fortress","app_id":440,"player_count":0,"max_players":24,"Bots":0,"server_type":"Dedicated","server_os":"Linux","password":true,"vac":true,"version":"7708610","steam_id":85568392925397958,"keywords":["nocrits","nodmgspread","payload","uncletopia"],"game_id":440,"stv_port":27046,"stv_name":"Uncletopia | Sydney | 4 | All Maps | STV","players":null},{"server_id":58,"name":"Uncletopia | Sydney | 5 | No Payload","name_short":"syd-5","host":"syd-1.au.uncletopia.com","port":27055,"enabled":true,"region":"au","cc":"au","latitude":-33.865143,"longitude":151.2099,"reserved":0,"last_update":"0001-01-01T00:00:00Z","name_a2s":"Uncletopia | Sydney | 5 | No Payload","protocol":17,"map":"pl_pier","folder":"tf","game":"Team Fortress","app_id":440,"player_count":0,"max_players":24,"Bots":0,"server_type":"Dedicated","server_os":"Linux","password":true,"vac":true,"version":"7708610","steam_id":85568392925397959,"keywords":["nocrits","nodmgspread","payload","uncletopia"],"game_id":440,"stv_port":27056,"stv_name":"Uncletopia | Sydney | 5 | No Payload | STV","players":null},{"server_id":59,"name":"Uncletopia | Sydney | 6 | Community","name_short":"syd-6","host":"syd-1.au.uncletopia.com","port":27065,"enabled":true,"region":"au","cc":"au","latitude":-33.865143,"longitude":151.2099,"reserved":0,"last_update":"0001-01-01T00:00:00Z","name_a2s":"Uncletopia | Sydney | 6 | Community","protocol":17,"map":"workshop/pl_cactuscanyon_redux_rc4b.ugc2579644293","folder":"tf","game":"Team Fortress","app_id":440,"player_count":0,"max_players":24,"Bots":0,"server_type":"Dedicated","server_os":"Linux","password":true,"vac":true,"version":"7708610","steam_id":85568392925397960,"keywords":["nocrits","nodmgspread","payload","uncletopia"],"game_id":440,"stv_port":27066,"stv_name":"Uncletopia | Sydney | 6 | Community | STV","players":null},{"server_id":49,"name":"Uncletopia | Warsaw | 1 | All Maps","name_short":"waw-1","host":"waw-1.pl.uncletopia.com","port":27015,"enabled":true,"region":"eu","cc":"pl","latitude":52.2297,"longitude":21.017532,"reserved":0,"last_update":"0001-01-01T00:00:00Z","name_a2s":"Uncletopia | Warsaw | 1 | All Maps","protocol":17,"map":"pl_snowycoast","folder":"tf","game":"Team Fortress","app_id":440,"player_count":0,"max_players":24,"Bots":0,"server_type":"Dedicated","server_os":"Linux","password":true,"vac":true,"version":"7708610","steam_id":85568392925397850,"keywords":["nocrits","nodmgspread","payload","uncletopia"],"game_id":440,"stv_port":27016,"stv_name":"Uncletopia | Warsaw | 1 | All Maps | STV","players":null},{"server_id":50,"name":"Uncletopia | Warsaw | 2 | All Maps","name_short":"waw-2","host":"waw-1.pl.uncletopia.com","port":27025,"enabled":true,"region":"eu","cc":"pl","latitude":52.2297,"longitude":21.017532,"reserved":0,"last_update":"0001-01-01T00:00:00Z","name_a2s":"Uncletopia | Warsaw | 2 | All Maps","protocol":17,"map":"pl_barnblitz","folder":"tf","game":"Team Fortress","app_id":440,"player_count":0,"max_players":24,"Bots":0,"server_type":"Dedicated","server_os":"Linux","password":true,"vac":true,"version":"7708610","steam_id":85568392925397851,"keywords":["nocrits","nodmgspread","payload","uncletopia"],"game_id":440,"stv_port":27026,"stv_name":"Uncletopia | Warsaw | 2 | All Maps | STV","players":null},{"server_id":51,"name":"Uncletopia | Warsaw | 3 | All Maps","name_short":"waw-3","host":"waw-1.pl.uncletopia.com","port":27035,"enabled":true,"region":"eu","cc":"pl","latitude":52.2297,"longitude":21.017532,"reserved":0,"last_update":"0001-01-01T00:00:00Z","name_a2s":"Uncletopia | Warsaw | 3 | All Maps","protocol":17,"map":"pl_badwater","folder":"tf","game":"Team Fortress","app_id":440,"player_count":0,"max_players":24,"Bots":0,"server_type":"Dedicated","server_os":"Linux","password":true,"vac":true,"version":"7708610","steam_id":85568392925397852,"keywords":["nocrits","nodmgspread","payload","uncletopia"],"game_id":440,"stv_port":27036,"stv_name":"Uncletopia | Warsaw | 3 | All Maps | STV","players":null},{"server_id":52,"name":"Uncletopia | Warsaw | 4 | All Maps","name_short":"waw-4","host":"waw-1.pl.uncletopia.com","port":27045,"enabled":true,"region":"eu","cc":"pl","latitude":52.2297,"longitude":21.017532,"reserved":0,"last_update":"0001-01-01T00:00:00Z","name_a2s":"Uncletopia | Warsaw | 4 | All Maps","protocol":17,"map":"pl_pier","folder":"tf","game":"Team Fortress","app_id":440,"player_count":0,"max_players":24,"Bots":0,"server_type":"Dedicated","server_os":"Linux","password":true,"vac":true,"version":"7708610","steam_id":85568392925397853,"keywords":["nocrits","nodmgspread","payload","uncletopia"],"game_id":440,"stv_port":27046,"stv_name":"Uncletopia | Warsaw | 4 | All Maps | STV","players":null},{"server_id":53,"name":"Uncletopia | Warsaw | 5 | No Payload","name_short":"waw-5","host":"waw-1.pl.uncletopia.com","port":27055,"enabled":true,"region":"eu","cc":"pl","latitude":52.2297,"longitude":21.017532,"reserved":0,"last_update":"0001-01-01T00:00:00Z","name_a2s":"Uncletopia | Warsaw | 5 | No Payload","protocol":17,"map":"pl_borneo","folder":"tf","game":"Team Fortress","app_id":440,"player_count":0,"max_players":24,"Bots":0,"server_type":"Dedicated","server_os":"Linux","password":true,"vac":true,"version":"7708610","steam_id":85568392925397854,"keywords":["nocrits","nodmgspread","payload","uncletopia"],"game_id":440,"stv_port":27056,"stv_name":"Uncletopia | Warsaw | 5 | No Payload | STV","players":null},{"server_id":54,"name":"Uncletopia | Warsaw | 6 | Community","name_short":"waw-6","host":"waw-1.pl.uncletopia.com","port":27065,"enabled":true,"region":"eu","cc":"pl","latitude":52.2297,"longitude":21.017532,"reserved":0,"last_update":"0001-01-01T00:00:00Z","name_a2s":"Uncletopia | Warsaw | 6 | Community","protocol":17,"map":"pl_swiftwater_final1","folder":"tf","game":"Team Fortress","app_id":440,"player_count":0,"max_players":24,"Bots":0,"server_type":"Dedicated","server_os":"Linux","password":true,"vac":true,"version":"7708610","steam_id":85568392925397856,"keywords":["nocrits","nodmgspread","payload","uncletopia"],"game_id":440,"stv_port":27066,"stv_name":"Uncletopia | Warsaw | 6 | Community | STV","players":null}]}