{"status":true,"message":"","result":[{"server_id":9,"name":"Uncletopia | Atlanta | 1 | All Maps","name_short":"atl-1","host":"atl-1.us.uncletopia.com","port":27015,"enabled":true,"region":"us-east","cc":"us","latitude":33.753746,"longitude":-84.38633,"reserved":0,"last_update":"0001-01-01T00:00:00Z","name_a2s":"Uncletopia | Atlanta | 1 | All Maps","protocol":17,"map":"cp_sunshine","folder":"tf","game":"Team Fortress","app_id":440,"player_count":24,"max_players":24,"Bots":0,"server_type":"Dedicated","server_os":"Linux","password":true,"vac":true,"version":"7961495","steam_id":85568392924469982,"keywords":["cp","nocrits","nodmgspread","uncletopia"],"game_id":440,"stv_port":27016,"stv_name":"Uncletopia | Atlanta | 1 | All Maps | STV","players":[{"user_id":113,"name":"mid shitter 27","steam_id":76561199128531654,"connected_time":1473000000000,"state":"active","ping":63},{"user_id":125,"name":"Tyvek homewrap [NGW]","steam_id":76561198979625736,"connected_time":349000000000,"state":"active","ping":60},{"user_id":18,"name":"Night time Dan","steam_id":76561199022178492,"connected_time":7193000000000,"state":"active","ping":48},{"user_id":108,"name":"Dreszerg","steam_id":76561198838757422,"connected_time":1646000000000,"state":"active","ping":81},{"user_id":121,"name":"Oxygen User","steam_id":76561199111975528,"connected_time":644000000000,"state":"active","ping":65},{"user_id":87,"name":"Gaio","steam_id":76561198136293406,"connected_time":3392000000000,"state":"active","ping":68},{"user_id":128,"name":"nefarious criminal","steam_id":76561198077506415,"connected_time":254000000000,"state":"active","ping":59},{"user_id":126,"name":"Hertz","steam_id":76561198310927351,"connected_time":335000000000,"state":"active","ping":123},{"user_id":118,"name":"Zeelidox","steam_id":76561198110613375,"connected_time":991000000000,"state":"active","ping":82},{"user_id":127,"name":"Your Local Subway Employee","steam_id":76561198811130843,"connected_time":271000000000,"state":"active","ping":111},{"user_id":81,"name":"sansa musa","steam_id":76561198163723555,"connected_time":3905000000000,"state":"active","ping":75},{"user_id":104,"name":"Maestro #pride","steam_id":76561198157325020,"connected_time":2169000000000,"state":"active","ping":156},{"user_id":83,"name":"Heathcliff","steam_id":76561198044288534,"connected_time":3888000000000,"state":"active","ping":71},{"user_id":122,"name":"1920","steam_id":76561198111669774,"connected_time":361000000000,"state":"active","ping":70},{"user_id":107,"name":"aurro","steam_id":76561198315692300,"connected_time":1678000000000,"state":"active","ping":73},{"user_id":98,"name":"Sex Midfielder","steam_id":76561198048918192,"connected_time":2777000000000,"state":"active","ping":53},{"user_id":66,"name":"Obelisk","steam_id":76561198049416866,"connected_time":4608000000000,"state":"active","ping":55},{"user_id":103,"name":"freyja","steam_id":76561198249206656,"connected_time":2500000000000,"state":"active","ping":85},{"user_id":120,"name":"Skitz","steam_id":76561198079588236,"connected_time":692000000000,"state":"active","ping":60},{"user_id":116,"name":"DualiTea","steam_id":76561198081733870,"connected_time":1329000000000,"state":"active","ping":72},{"user_id":123,"name":"why","steam_id":76561199059732212,"connected_time":360000000000,"state":"active","ping":53},{"user_id":86,"name":"Stacks63bs","steam_id":76561198067797130,"connected_time":3405000000000,"state":"active","ping":67},{"user_id":51,"name":"SHUSH nikoOS","steam_id":76561198180020521,"connected_time":5836000000000,"state":"active","ping":107},{"user_id":124,"name":"november","steam_id":76561198042748172,"connected_time":360000000000,"state":"active","ping":59}]},{"server_id":104,"name":"Uncletopia | Atlanta | 2 | All Maps","name_short":"atl-2","host":"atl-1.us.uncletopia.com","port":27025,"enabled":true,"region":"us-east","cc":"us","latitude":33.753746,"longitude":-84.38633,"reserved":0,"last_update":"0001-01-01T00:00:00Z","name_a2s":"Uncletopia | Atlanta | 2 | All Maps","protocol":17,"map":"cp_dustbowl","folder":"tf","game":"Team Fortress","app_id":440,"player_count":23,"max_players":24,"Bots":0,"server_type":"Dedicated","server_os":"Linux","password":true,"vac":true,"version":"7961495","steam_id":85568392924469983,"keywords":["cp","nocrits","nodmgspread","uncletopia"],"game_id":440,"stv_port":27026,"stv_name":"Uncletopia | Atlanta | 2 | All Maps | STV","players":[{"user_id":310,"name":"alphe","steam_id":76561198039346340,"connected_time":172000000000,"state":"active","ping":55},{"user_id":297,"name":"glman","steam_id":76561198106930203,"connected_time":935000000000,"state":"active","ping":69},{"user_id":298,"name":"GRUG","steam_id":76561198143800300,"connected_time":891000000000,"state":"active","ping":98},{"user_id":295,"name":"Blake Belladonna","steam_id":76561198010169911,"connected_time":1096000000000,"state":"active","ping":65},{"user_id":268,"name":"Lobstar","steam_id":76561198015310322,"connected_time":2066000000000,"state":"active","ping":68},{"user_id":300,"name":"doop","steam_id":76561198370487545,"connected_time":854000000000,"state":"active","ping":69},{"user_id":259,"name":"·πΩ‚ßâ cookie","steam_id":76561197998884823,"connected_time":3038000000000,"state":"active","ping":83},{"user_id":282,"name":"shroom.","steam_id":76561198140792282,"connected_time":1706000000000,"state":"active","ping":86},{"user_id":171,"name":"Thoughtfully Ignorant","steam_id":76561199509991902,"connected_time":9472000000000,"state":"active","ping":77},{"user_id":301,"name":"neet","steam_id":76561197968115168,"connected_time":850000000000,"state":"active","ping":58},{"user_id":272,"name":"mu","steam_id":76561197997530228,"connected_time":2024000000000,"state":"active","ping":119},{"user_id":265,"name":"KhorneBread Ô∏ª„Éá ‰∏Ä","steam_id":76561198097069958,"connected_time":2233000000000,"state":"active","ping":81},{"user_id":302,"name":"hey thanks my friend","steam_id":76561199195104977,"connected_time":848000000000,"state":"active","ping":66},{"user_id":278,"name":"Allen Poe","steam_id":76561198115937355,"connected_time":1896000000000,"state":"active","ping":41},{"user_id":309,"name":"holl","steam_id":76561199212388215,"connected_time":249000000000,"state":"active","ping":52},{"user_id":284,"name":"Drygongames","steam_id":76561198250418424,"connected_time":1602000000000,"state":"active","ping":86},{"user_id":306,"name":"lego star wars on the psp","steam_id":76561198148014773,"connected_time":766000000000,"state":"active","ping":90},{"user_id":308,"name":"PixelSquidy","steam_id":76561198076249825,"connected_time":341000000000,"state":"active","ping":72},{"user_id":263,"name":"‚Ä¢PixelGhost25‚Ä¢","steam_id":76561197998922428,"connected_time":2283000000000,"state":"active","ping":77},{"user_id":279,"name":"Kaiju","steam_id":76561198243774754,"connected_time":1860000000000,"state":"active","ping":68},{"user_id":280,"name":"‚ôÇ I R O N ‚ôÇ M I K E ‚ôÇ","steam_id":76561199405378993,"connected_time":1829000000000,"state":"active","ping":87},{"user_id":281,"name":"UnkownGamerLOL","steam_id":76561198225902368,"connected_time":1806000000000,"state":"active","ping":88},{"user_id":307,"name":"The Chrisind","steam_id":76561198024980467,"connected_time":743000000000,"state":"active","ping":60}]},{"server_id":400,"name":"Uncletopia | Atlanta | 3 | Stopwatch","name_short":"atl-3","host":"atl-1.us.uncletopia.com","port":27035,"enabled":true,"region":"us-east","cc":"us","latitude":33.753746,"longitude":-84.38633,"reserved":0,"last_update":"0001-01-01T00:00:00Z","name_a2s":"Uncletopia | Atlanta | 3 | Stopwatch","protocol":17,"map":"workshop/pl_badwater_pro_v12.ugc2142942074","folder":"tf","game":"Team Fortress","app_id":440,"player_count":0,"max_players":24,"Bots":0,"server_type":"Dedicated","server_os":"Linux","password":true,"vac":true,"version":"7961495","steam_id":85568392924515187,"keywords":["nocrits","nodmgspread","payload","uncletopia"],"game_id":440,"stv_port":27036,"stv_name":"Uncletopia | Atlanta | 3 | Stopwatch | STV","players":null},{"server_id":401,"name":"Uncletopia | Atlanta | 4 | Community","name_short":"atl-4","host":"atl-1.us.uncletopia.com","port":27045,"enabled":true,"region":"us-east","cc":"us","latitude":33.753746,"longitude":-84.38633,"reserved":0,"last_update":"0001-01-01T00:00:00Z","name_a2s":"Uncletopia | Atlanta | 4 | Community","protocol":17,"map":"workshop/pl_phoenix_b4a.ugc2969509359","folder":"tf","game":"Team Fortress","app_id":440,"player_count":0,"max_players":24,"Bots":0,"server_type":"Dedicated","server_os":"Linux","password":true,"vac":true,"version":"7961495","steam_id":85568392924515188,"keywords":["nocrits","nodmgspread","payload","uncletopia"],"game_id":440,"stv_port":27046,"stv_name":"Uncletopia | Atlanta | 4 | Community | STV","players":null},{"server_id":2,"name":"Uncletopia | Chicago | 1 | All Maps","name_short":"chi-1","host":"chi-1.us.uncletopia.com","port":27015,"enabled":true,"region":"us-central","cc":"us","latitude":41.881832,"longitude":-87.62318,"reserved":0,"last_update":"0001-01-01T00:00:00Z","name_a2s":"Uncletopia | Chicago | 1 | All Maps","protocol":17,"map":"cp_altitude","folder":"tf","game":"Team Fortress","app_id":440,"player_count":20,"max_players":24,"Bots":0,"server_type":"Dedicated","server_os":"Linux","password":true,"vac":true,"version":"7961495","steam_id":85568392924469984,"keywords":["cp","nocrits","nodmgspread","uncletopia"],"game_id":440,"stv_port":27016,"stv_name":"Uncletopia | Chicago | 1 | All Maps | STV","players":[{"user_id":102,"name":"summer babe (winter version)","steam_id":76561198079504588,"connected_time":2916000000000,"state":"active","ping":75},{"user_id":44,"name":"Kitty","steam_id":76561198123758854,"connected_time":7470000000000,"state":"active","ping":113},{"user_id":113,"name":"john sniping","steam_id":76561198148059714,"connected_time":2345000000000,"state":"spawning","ping":176},{"user_id":137,"name":"PANNED RAT","steam_id":76561198328829278,"connected_time":508000000000,"state":"spawning","ping":46},{"user_id":142,"name":"ÂèñÂêçÂè´ÂÅöÂøç","steam_id":76561198278282836,"connected_time":37000000000,"state":"active","ping":56},{"user_id":138,"name":"dunk","steam_id":76561198132476501,"connected_time":279000000000,"state":"spawning","ping":51},{"user_id":127,"name":"Sco","steam_id":76561198081148684,"connected_time":1487000000000,"state":"spawning","ping":65},{"user_id":62,"name":"BiggFoot","steam_id":76561197998605599,"connected_time":5615000000000,"state":"active","ping":81},{"user_id":139,"name":"unidentified little fucker","steam_id":76561198058998371,"connected_time":266000000000,"state":"active","ping":91},{"user_id":141,"name":"tydogzilla","steam_id":76561198054254518,"connected_time":173000000000,"state":"spawning","ping":62},{"user_id":98,"name":"Jason","steam_id":76561198107058140,"connected_time":3330000000000,"state":"spawning","ping":62},{"user_id":132,"name":"Swedish Crowbar","steam_id":76561199105488936,"connected_time":756000000000,"state":"spawning","ping":123},{"user_id":128,"name":"Milkmur","steam_id":76561198210043821,"connected_time":1414000000000,"state":"spawning","ping":49},{"user_id":76,"name":"Heroofchaos","steam_id":76561199106660090,"connected_time":5170000000000,"state":"spawning","ping":160},{"user_id":129,"name":"Rornir","steam_id":76561198081829615,"connected_time":1249000000000,"state":"active","ping":64},{"user_id":73,"name":"The Jar","steam_id":76561198146013385,"connected_time":5350000000000,"state":"spawning","ping":277},{"user_id":135,"name":"KingPin","steam_id":76561198087366176,"connected_time":663000000000,"state":"active","ping":59},{"user_id":126,"name":"NovaGenetics","steam_id":76561198048539287,"connected_time":1520000000000,"state":"spawning","ping":75},{"user_id":134,"name":"Chadmander","steam_id":76561197974136337,"connected_time":712000000000,"state":"active","ping":101},{"user_id":94,"name":"dr. chungy ph.d","steam_id":76561198215559840,"connected_time":4407000000000,"state":"active","ping":71}]},{"server_id":106,"name":"Uncletopia | Chicago | 2 | All Maps","name_short":"chi-2","host":"chi-1.us.uncletopia.com","port":27025,"enabled":true,"region":"us-central","cc":"us","latitude":41.881832,"longitude":-87.62318,"reserved":0,"last_update":"0001-01-01T00:00:00Z","name_a2s":"Uncletopia | Chicago | 2 | All Maps","protocol":17,"map":"koth_harvest_final","folder":"tf","game":"Team Fortress","app_id":440,"player_count":6,"max_players":24,"Bots":0,"server_type":"Dedicated","server_os":"Linux","password":true,"vac":true,"version":"7961495","steam_id":85568392924469985,"keywords":["cp","nocrits","nodmgspread","uncletopia"],"game_id":440,"stv_port":27026,"stv_name":"Uncletopia | Chicago | 2 | All Maps | STV","players":[{"user_id":25,"name":"ball'd-out fist [NGW]","steam_id":76561199071209640,"connected_time":796000000000,"state":"active","ping":92},{"user_id":16,"name":"Annoying Thing","steam_id":76561199207075429,"connected_time":2543000000000,"state":"active","ping":131},{"user_id":21,"name":"Wafflehead","steam_id":76561198053539741,"connected_time":1586000000000,"state":"active","ping":66},{"user_id":31,"name":"Passionate Map Researcher","steam_id":76561199490508357,"connected_time":34000000000,"state":"active","ping":70},{"user_id":29,"name":"fully vacced, fully autistic","steam_id":76561198968058652,"connected_time":79000000000,"state":"active","ping":91},{"user_id":30,"name":"Cosmic Torgue","steam_id":76561198828724945,"connected_time":64000000000,"state":"active","ping":64}]},{"server_id":402,"name":"Uncletopia | Chicago | 3 | All Maps","name_short":"chi-3","host":"chi-1.us.uncletopia.com","port":27035,"enabled":true,"region":"us-central","cc":"us","latitude":41.881832,"longitude":-87.62318,"reserved":0,"last_update":"0001-01-01T00:00:00Z","name_a2s":"Uncletopia | Chicago | 3 | All Maps","protocol":17,"map":"pl_snowycoast","folder":"tf","game":"Team Fortress","app_id":440,"player_count":23,"max_players":24,"Bots":0,"server_type":"Dedicated","server_os":"Linux","password":true,"vac":true,"version":"7961495","steam_id":85568392924515191,"keywords":["nocrits","nodmgspread","payload","uncletopia"],"game_id":440,"stv_port":27036,"stv_name":"Uncletopia | Chicago | 3 | All Maps | STV","players":[{"user_id":176,"name":"Perfume Department","steam_id":76561198128299594,"connected_time":509000000000,"state":"active","ping":105},{"user_id":186,"name":"Gaming Grandpa","steam_id":76561198121418631,"connected_time":204000000000,"state":"active","ping":53},{"user_id":190,"name":"Joan The Kisaragi Cat","steam_id":76561199370650064,"connected_time":56000000000,"state":"spawning","ping":104},{"user_id":139,"name":"Ziath","steam_id":76561198094009164,"connected_time":3213000000000,"state":"active","ping":64},{"user_id":153,"name":"prop","steam_id":76561198866419663,"connected_time":1923000000000,"state":"active","ping":54},{"user_id":184,"name":"dentally ill","steam_id":76561198882758067,"connected_time":295000000000,"state":"active","ping":79},{"user_id":56,"name":"zoey","steam_id":76561198084679526,"connected_time":11254000000000,"state":"active","ping":53},{"user_id":162,"name":"Big Daddy's Worst Nightmare","steam_id":76561198087155304,"connected_time":1096000000000,"state":"active","ping":67},{"user_id":152,"name":"Mazdamundi!","steam_id":76561198044691081,"connected_time":2155000000000,"state":"active","ping":56},{"user_id":124,"name":"CyMeryy/TTV","steam_id":76561197984986540,"connected_time":4631000000000,"state":"active","ping":60},{"user_id":154,"name":"jorden crayola jr.","steam_id":76561198398918486,"connected_time":1844000000000,"state":"active","ping":65},{"user_id":188,"name":"Rat Cycle","steam_id":76561198113364714,"connected_time":110000000000,"state":"active","ping":55},{"user_id":174,"name":"Scarceblue","steam_id":76561198107882998,"connected_time":648000000000,"state":"active","ping":59},{"user_id":138,"name":"Bottom Trans Cowgirl","steam_id":76561198304239680,"connected_time":3243000000000,"state":"active","ping":71},{"user_id":175,"name":"Renota","steam_id":76561198058224488,"connected_time":539000000000,"state":"active","ping":57},{"user_id":117,"name":"Tyler\u0026Fingers","steam_id":76561198085154485,"connected_time":5182000000000,"state":"active","ping":80},{"user_id":126,"name":"DysfunctionJunction","steam_id":76561198051815183,"connected_time":4507000000000,"state":"active","ping":52},{"user_id":150,"name":"That_MF","steam_id":76561198077553888,"connected_time":2290000000000,"state":"active","ping":78},{"user_id":157,"name":"litroolay","steam_id":76561197995226856,"connected_time":1751000000000,"state":"active","ping":90},{"user_id":158,"name":"Doctor Bear  ï ‚Ä¢·¥•‚Ä¢ î","steam_id":76561197968103161,"connected_time":1741000000000,"state":"active","ping":62},{"user_id":159,"name":"Zonk","steam_id":76561198846893994,"connected_time":1735000000000,"state":"active","ping":82},{"user_id":133,"name":"Pixeled","steam_id":76561198088917077,"connected_time":3921000000000,"state":"active","ping":77},{"user_id":183,"name":"bigballerbill1137","steam_id":76561199256682338,"connected_time":315000000000,"state":"active","ping":74}]},{"server_id":403,"name":"Uncletopia | Chicago | 4 | All Maps","name_short":"chi-4","host":"chi-1.us.uncletopia.com","port":27045,"enabled":true,"region":"us-central","cc":"us","latitude":41.881832,"longitude":-87.62318,"reserved":0,"last_update":"0001-01-01T00:00:00Z","name_a2s":"Uncletopia | Chicago | 4 | All Maps","protocol":17,"map":"koth_viaduct","folder":"tf","game":"Team Fortress","app_id":440,"player_count":0,"max_players":24,"Bots":0,"server_type":"Dedicated","server_os":"Linux","password":true,"vac":true,"version":"7961495","steam_id":85568392924515193,"keywords":["cp","nocrits","nodmgspread","uncletopia"],"game_id":440,"stv_port":27046,"stv_name":"Uncletopia | Chicago | 4 | All Maps | STV","players":null},{"server_id":36,"name":"Uncletopia | Chicago | 5 | All Maps","name_short":"chi-5","host":"chi-2.us.uncletopia.com","port":27015,"enabled":true,"region":"us-central","cc":"us","latitude":41.881832,"longitude":-87.62318,"reserved":0,"last_update":"0001-01-01T00:00:00Z","name_a2s":"Uncletopia | Chicago | 5 | All Maps","protocol":17,"map":"pl_swiftwater_final1","folder":"tf","game":"Team Fortress","app_id":440,"player_count":0,"max_players":24,"Bots":0,"server_type":"Dedicated","server_os":"Linux","password":true,"vac":true,"version":"7961495","steam_id":85568392924866362,"keywords":["nocrits","nodmgspread","payload","uncletopia"],"game_id":440,"stv_port":27016,"stv_name":"Uncletopia | Chicago | 5 | All Maps | STV","players":null},{"server_id":37,"name":"Uncletopia | Chicago | 6 | All Maps","name_short":"chi-6","host":"chi-2.us.uncletopia.com","port":27025,"enabled":true,"region":"us-central","cc":"us","latitude":41.881832,"longitude":-87.62318,"reserved":0,"last_update":"0001-01-01T00:00:00Z","name_a2s":"Uncletopia | Chicago | 6 | All Maps","protocol":17,"map":"cp_sunshine","folder":"tf","game":"Team Fortress","app_id":440,"player_count":0,"max_players":24,"Bots":0,"server_type":"Dedicated","server_os":"Linux","password":true,"vac":true,"version":"7961495","steam_id":85568392924866363,"keywords":["cp","nocrits","nodmgspread","uncletopia"],"game_id":440,"stv_port":27026,"stv_name":"Uncletopia | Chicago | 6 | All Maps | STV","players":null},{"server_id":38,"name":"Uncletopia | Chicago | 7 | Stopwatch","name_short":"chi-7","host":"chi-2.us.uncletopia.com","port":27035,"enabled":true,"region":"us-central","cc":"us","latitude":41.881832,"longitude":-87.62318,"reserved":0,"last_update":"0001-01-01T00:00:00Z","name_a2s":"Uncletopia | Chicago | 7 | Stopwatch","protocol":17,"map":"workshop/koth_clearcut_b15.ugc2107050255","folder":"tf","game":"Team Fortress","app_id":440,"player_count":2,"max_players":24,"Bots":0,"server_type":"Dedicated","server_os":"Linux","password":true,"vac":true,"version":"7961495","steam_id":85568392924866364,"keywords":["cp","nocrits","nodmgspread","uncletopia"],"game_id":440,"stv_port":27036,"stv_name":"Uncletopia | Chicago | 7 | Stopwatch | STV","players":[{"user_id":6,"name":"spiderfat","steam_id":76561198957917221,"connected_time":2640000000000,"state":"active","ping":92},{"user_id":7,"name":"RoboticPyroRobo","steam_id":76561198355732200,"connected_time":2613000000000,"state":"active","ping":92}]},{"server_id":39,"name":"Uncletopia | Chicago | 8 | Community","name_short":"chi-8","host":"chi-2.us.uncletopia.com","port":27045,"enabled":true,"region":"us-central","cc":"us","latitude":41.881832,"longitude":-87.62318,"reserved":0,"last_update":"0001-01-01T00:00:00Z","name_a2s":"Uncletopia | Chicago | 8 | Community","protocol":17,"map":"workshop/cp_caldera_rc3.ugc2834196889","folder":"tf","game":"Team Fortress","app_id":440,"player_count":0,"max_players":24,"Bots":0,"server_type":"Dedicated","server_os":"Linux","password":true,"vac":true,"version":"7961495","steam_id":85568392924866365,"keywords":["cp","nocrits","nodmgspread","uncletopia"],"game_id":440,"stv_port":27046,"stv_name":"Uncletopia | Chicago | 8 | Community | STV","players":null},{"server_id":8,"name":"Uncletopia | Dallas | 1 | All Maps","name_short":"dal-1","host":"dal-1.us.uncletopia.com","port":27015,"enabled":true,"region":"us-central","cc":"us","latitude":32.779167,"longitude":-96.80889,"reserved":0,"last_update":"0001-01-01T00:00:00Z","name_a2s":"Uncletopia | Dallas | 1 | All Maps","protocol":17,"map":"pl_borneo","folder":"tf","game":"Team Fortress","app_id":440,"player_count":24,"max_players":24,"Bots":0,"server_type":"Dedicated","server_os":"Linux","password":true,"vac":true,"version":"7961495","steam_id":85568392924469986,"keywords":["nocrits","nodmgspread","payload","uncletopia"],"game_id":440,"stv_port":27016,"stv_name":"Uncletopia | Dallas | 1 | All Maps | STV","players":[{"user_id":216,"name":"MackDaddy69","steam_id":76561198060121935,"connected_time":9304000000000,"state":"active","ping":76},{"user_id":325,"name":"ATL1 | LOFILE","steam_id":76561198083798918,"connected_time":435000000000,"state":"active","ping":96},{"user_id":287,"name":"Sweet Tooth","steam_id":76561198830158092,"connected_time":3179000000000,"state":"active","ping":82},{"user_id":297,"name":"jojo","steam_id":76561199509297015,"connected_time":2854000000000,"state":"active","ping":90},{"user_id":313,"name":"The Notorious RBG","steam_id":76561198014275148,"connected_time":1240000000000,"state":"active","ping":94},{"user_id":311,"name":"Beezycakes","steam_id":76561197983368014,"connected_time":1283000000000,"state":"active","ping":83},{"user_id":314,"name":"Sad Sapling","steam_id":76561198075612150,"connected_time":1211000000000,"state":"active","ping":85},{"user_id":298,"name":"schmuck","steam_id":76561198143789773,"connected_time":2831000000000,"state":"active","ping":59},{"user_id":299,"name":"BLOCKHEAD","steam_id":76561198808224331,"connected_time":2799000000000,"state":"active","ping":100},{"user_id":268,"name":"MrHappyMAg","steam_id":76561198060359133,"connected_time":5017000000000,"state":"active","ping":49},{"user_id":315,"name":"Morrui","steam_id":76561198354436221,"connected_time":1209000000000,"state":"active","ping":81},{"user_id":230,"name":"Boxxed","steam_id":76561198255787237,"connected_time":8414000000000,"state":"active","ping":46},{"user_id":326,"name":"Mr. Fluffy Penguins","steam_id":76561198172538149,"connected_time":428000000000,"state":"active","ping":100},{"user_id":327,"name":"RAWRWAFL","steam_id":76561198032118386,"connected_time":418000000000,"state":"active","ping":72},{"user_id":328,"name":"Jandrix","steam_id":76561198065511083,"connected_time":116000000000,"state":"active","ping":53},{"user_id":304,"name":"Gotta Move That Gear Up","steam_id":76561197993467034,"connected_time":1812000000000,"state":"active","ping":60},{"user_id":312,"name":"squarg","steam_id":76561198857911015,"connected_time":1279000000000,"state":"active","ping":65},{"user_id":280,"name":"Rin \"Hindwing\" Redtail","steam_id":76561199074865638,"connected_time":4308000000000,"state":"active","ping":55},{"user_id":318,"name":"Eomy","steam_id":76561198297783627,"connected_time":1177000000000,"state":"active","ping":104},{"user_id":321,"name":"Mellou","steam_id":76561198212048740,"connected_time":906000000000,"state":"active","ping":48},{"user_id":323,"name":"Japan_Got_Boba","steam_id":76561198861813336,"connected_time":634000000000,"state":"active","ping":94},{"user_id":320,"name":"Bubby Koromon the 4rd","steam_id":76561198398729993,"connected_time":994000000000,"state":"active","ping":77},{"user_id":266,"name":"Boulvier","steam_id":76561198067834895,"connected_time":5042000000000,"state":"active","ping":62},{"user_id":303,"name":"smartest living creature","steam_id":76561198392069179,"connected_time":1863000000000,"state":"active","ping":74}]},{"server_id":108,"name":"Uncletopia | Dallas | 2 | All Maps","name_short":"dal-2","host":"dal-1.us.uncletopia.com","port":27025,"enabled":true,"region":"us-central","cc":"us","latitude":32.779167,"longitude":-96.80889,"reserved":0,"last_update":"0001-01-01T00:00:00Z","name_a2s":"Uncletopia | Dallas | 2 | All Maps","protocol":17,"map":"pl_upward","folder":"tf","game":"Team Fortress","app_id":440,"player_count":22,"max_players":24,"Bots":0,"server_type":"Dedicated","server_os":"Linux","password":true,"vac":true,"version":"7961495","steam_id":85568392924469988,"keywords":["nocrits","nodmgspread","payload","uncletopia"],"game_id":440,"stv_port":27026,"stv_name":"Uncletopia | Dallas | 2 | All Maps | STV","players":[{"user_id":17,"name":"BeyondEffect","steam_id":76561198061017324,"connected_time":2677000000000,"state":"active","ping":86},{"user_id":8,"name":"Sugarslice","steam_id":76561199080056592,"connected_time":4239000000000,"state":"active","ping":61},{"user_id":84,"name":"yomo","steam_id":76561198063175935,"connected_time":164000000000,"state":"active","ping":75},{"user_id":80,"name":"Eggman From sonic adventure 2","steam_id":76561199043933182,"connected_time":369000000000,"state":"active","ping":87},{"user_id":53,"name":"TF2C | fac","steam_id":76561198009818412,"connected_time":1931000000000,"state":"active","ping":55},{"user_id":13,"name":"Prof. Eggnog","steam_id":76561198193389166,"connected_time":3227000000000,"state":"active","ping":88},{"user_id":76,"name":"Eden","steam_id":76561198081284664,"connected_time":986000000000,"state":"active","ping":76},{"user_id":15,"name":"Dr. W0lv","steam_id":76561198129237487,"connected_time":3168000000000,"state":"active","ping":62},{"user_id":81,"name":"O'brien","steam_id":76561198289339403,"connected_time":256000000000,"state":"active","ping":89},{"user_id":63,"name":"High Tier Mortal","steam_id":76561198138347045,"connected_time":1749000000000,"state":"active","ping":77},{"user_id":79,"name":"dudeguypersonmanhombre","steam_id":76561198052016845,"connected_time":449000000000,"state":"active","ping":76},{"user_id":78,"name":"Boring","steam_id":76561198827219701,"connected_time":782000000000,"state":"active","ping":187},{"user_id":65,"name":"ultrapuffs","steam_id":76561198023463293,"connected_time":1625000000000,"state":"active","ping":69},{"user_id":85,"name":"listerine","steam_id":76561198041104084,"connected_time":141000000000,"state":"active","ping":77},{"user_id":29,"name":"finmin","steam_id":76561198127639913,"connected_time":2486000000000,"state":"active","ping":79},{"user_id":30,"name":"Mamas Texas Chicken","steam_id":76561199156409732,"connected_time":2485000000000,"state":"active","ping":46},{"user_id":86,"name":"Some random dude","steam_id":76561199477705792,"connected_time":135000000000,"state":"active","ping":127},{"user_id":32,"name":"Family Guy Funny Moments","steam_id":76561198847752839,"connected_time":2453000000000,"state":"active","ping":91},{"user_id":74,"name":"Dottie [She/They]","steam_id":76561198282046179,"connected_time":1017000000000,"state":"active","ping":63},{"user_id":75,"name":"Tax","steam_id":76561198335683534,"connected_time":1006000000000,"state":"active","ping":90},{"user_id":42,"name":"Hamlindigo Blue‚Ñ¢","steam_id":76561198116337540,"connected_time":2168000000000,"state":"active","ping":74},{"user_id":43,"name":"Username","steam_id":76561198198918781,"connected_time":2153000000000,"state":"active","ping":102}]},{"server_id":404,"name":"Uncletopia | Dallas | 3 | All Maps","name_short":"dal-3","host":"dal-1.us.uncletopia.com","port":27035,"enabled":true,"region":"us-central","cc":"us","latitude":32.779167,"longitude":-96.80889,"reserved":0,"last_update":"0001-01-01T00:00:00Z","name_a2s":"Uncletopia | Dallas | 3 | All Maps","protocol":17,"map":"cp_yukon_final","folder":"tf","game":"Team Fortress","app_id":440,"player_count":0,"max_players":24,"Bots":0,"server_type":"Dedicated","server_os":"Linux","password":true,"vac":true,"version":"7961495","steam_id":85568392924515219,"keywords":["cp","nocrits","nodmgspread","uncletopia"],"game_id":440,"stv_port":27036,"stv_name":"Uncletopia | Dallas | 3 | All Maps | STV","players":null},{"server_id":405,"name":"Uncletopia | Dallas | 4 | Community","name_short":"dal-4","host":"dal-1.us.uncletopia.com","port":27045,"enabled":true,"region":"us-central","cc":"us","latitude":32.779167,"longitude":-96.80889,"reserved":0,"last_update":"0001-01-01T00:00:00Z","name_a2s":"Uncletopia | Dallas | 4 | Community","protocol":17,"map":"workshop/cp_croissant_final.ugc458840209","folder":"tf","game":"Team Fortress","app_id":440,"player_count":0,"max_players":24,"Bots":0,"server_type":"Dedicated","server_os":"Linux","password":true,"vac":true,"version":"7961495","steam_id":85568392924515220,"keywords":["cp","nocrits","nodmgspread","uncletopia"],"game_id":440,"stv_port":27046,"stv_name":"Uncletopia | Dallas | 4 | Community | STV","players":null},{"server_id":5,"name":"Uncletopia | Frankfurt | 1 | All Maps","name_short":"frk-1","host":"frk-1.de.uncletopia.com","port":27015,"enabled":true,"region":"eu","cc":"de","latitude":50.110924,"longitude":8.682127,"reserved":0,"last_update":"0001-01-01T00:00:00Z","name_a2s":"Uncletopia | Frankfurt | 1 | All Maps","protocol":17,"map":"cp_mountainlab","folder":"tf","game":"Team Fortress","app_id":440,"player_count":19,"max_players":24,"Bots":0,"server_type":"Dedicated","server_os":"Linux","password":true,"vac":true,"version":"7961495","steam_id":85568392924469989,"keywords":["cp","nocrits","nodmgspread","uncletopia"],"game_id":440,"stv_port":27016,"stv_name":"Uncletopia | Frankfurt | 1 | All Maps | STV","players":[{"user_id":306,"name":"fish","steam_id":76561198205475839,"connected_time":302000000000,"state":"active","ping":76},{"user_id":296,"name":"Egor Pomidor","steam_id":76561199175688390,"connected_time":666000000000,"state":"active","ping":72},{"user_id":307,"name":"Aaron","steam_id":76561197990046953,"connected_time":265000000000,"state":"active","ping":74},{"user_id":294,"name":"sixhundredseventy","steam_id":76561199441772083,"connected_time":740000000000,"state":"active","ping":43},{"user_id":309,"name":"69 ME 2NITE","steam_id":76561199124261801,"connected_time":105000000000,"state":"active","ping":69},{"user_id":311,"name":"Gamer Potato","steam_id":76561199160156334,"connected_time":29000000000,"state":"active","ping":45},{"user_id":301,"name":"Siegmeyer","steam_id":76561198328543549,"connected_time":500000000000,"state":"active","ping":87},{"user_id":243,"name":"Ozzie","steam_id":76561197992915315,"connected_time":2553000000000,"state":"active","ping":60},{"user_id":303,"name":"Skyrider of Spaceways","steam_id":76561197991678236,"connected_time":453000000000,"state":"active","ping":135},{"user_id":310,"name":"Battersüå∏","steam_id":76561198927992205,"connected_time":50000000000,"state":"active","ping":63},{"user_id":290,"name":"Cum consumer","steam_id":76561199172356488,"connected_time":796000000000,"state":"active","ping":107},{"user_id":308,"name":"pip","steam_id":76561198074275684,"connected_time":247000000000,"state":"active","ping":56},{"user_id":299,"name":"MeBandae","steam_id":76561198910770432,"connected_time":594000000000,"state":"active","ping":69},{"user_id":270,"name":"Qdarks","steam_id":76561198013391340,"connected_time":1164000000000,"state":"active","ping":135},{"user_id":284,"name":"After8","steam_id":76561198090750865,"connected_time":878000000000,"state":"active","ping":70},{"user_id":255,"name":"joachym (vc muted)","steam_id":76561198428579761,"connected_time":2115000000000,"state":"active","ping":68},{"user_id":236,"name":"Carry Krypl","steam_id":76561198136938121,"connected_time":2703000000000,"state":"active","ping":42},{"user_id":273,"name":"Jeremy265","steam_id":76561199004316549,"connected_time":1112000000000,"state":"active","ping":117},{"user_id":230,"name":"Turek","steam_id":76561198280066503,"connected_time":3551000000000,"state":"active","ping":84}]},{"server_id":110,"name":"Uncletopia | Frankfurt | 2 | All Maps","name_short":"frk-2","host":"frk-1.de.uncletopia.com","port":27025,"enabled":true,"region":"eu","cc":"de","latitude":50.110924,"longitude":8.682127,"reserved":0,"last_update":"0001-01-01T00:00:00Z","name_a2s":"Uncletopia | Frankfurt | 2 | All Maps","protocol":17,"map":"pl_frontier_final","folder":"tf","game":"Team Fortress","app_id":440,"player_count":24,"max_players":24,"Bots":0,"server_type":"Dedicated","server_os":"Linux","password":true,"vac":true,"version":"7961495","steam_id":85568392924469990,"keywords":["nocrits","nodmgspread","payload","uncletopia"],"game_id":440,"stv_port":27026,"stv_name":"Uncletopia | Frankfurt | 2 | All Maps | STV","players":[{"user_id":729,"name":"Maxy Luck","steam_id":76561199009583144,"connected_time":3305000000000,"state":"active","ping":99},{"user_id":773,"name":"natinoot","steam_id":76561198212005117,"connected_time":1095000000000,"state":"active","ping":67},{"user_id":772,"name":"Akker","steam_id":76561199000630792,"connected_time":1161000000000,"state":"active","ping":52},{"user_id":724,"name":"Kyjara","steam_id":76561198048600523,"connected_time":3354000000000,"state":"active","ping":62},{"user_id":749,"name":"gagalak","steam_id":76561198089979108,"connected_time":1880000000000,"state":"active","ping":96},{"user_id":774,"name":"METhOphetamine","steam_id":76561198068216224,"connected_time":1086000000000,"state":"active","ping":46},{"user_id":754,"name":"rekatama","steam_id":76561199096691729,"connected_time":1759000000000,"state":"active","ping":105},{"user_id":755,"name":"tort","steam_id":76561198147246166,"connected_time":1758000000000,"state":"active","ping":77},{"user_id":768,"name":"German Prick","steam_id":76561198181410637,"connected_time":1439000000000,"state":"active","ping":62},{"user_id":706,"name":"Spajro","steam_id":76561198257383813,"connected_time":4787000000000,"state":"active","ping":44},{"user_id":686,"name":"Wardruna96","steam_id":76561199057083828,"connected_time":6355000000000,"state":"active","ping":75},{"user_id":778,"name":"Dave-it","steam_id":76561198286717874,"connected_time":1012000000000,"state":"active","ping":70},{"user_id":757,"name":"Not A Fake Uncletopia Server","steam_id":76561198152871288,"connected_time":1737000000000,"state":"active","ping":68},{"user_id":720,"name":"Lunara","steam_id":76561198123141355,"connected_time":3956000000000,"state":"active","ping":63},{"user_id":781,"name":"Deadlycow","steam_id":76561197980761347,"connected_time":30000000000,"state":"active","ping":66},{"user_id":451,"name":"0iO","steam_id":76561198093526408,"connected_time":15367000000000,"state":"active","ping":65},{"user_id":765,"name":"GogsCrunchyNuts","steam_id":76561198150599213,"connected_time":1526000000000,"state":"active","ping":98},{"user_id":780,"name":"—Ç—É–∫–∫—É –∏—Ä–º–∞","steam_id":76561197998715016,"connected_time":718000000000,"state":"active","ping":61},{"user_id":741,"name":"not a nihilist","steam_id":76561198004340466,"connected_time":2435000000000,"state":"active","ping":52},{"user_id":775,"name":"Pabs :D","steam_id":76561198000016962,"connected_time":1057000000000,"state":"active","ping":54},{"user_id":779,"name":"ben","steam_id":76561198857396812,"connected_time":809000000000,"state":"active","ping":46},{"user_id":746,"name":"Jedunahoru","steam_id":76561199508744635,"connected_time":1954000000000,"state":"active","ping":95},{"user_id":763,"name":"Itai","steam_id":76561198804555329,"connected_time":1678000000000,"state":"active","ping":97},{"user_id":711,"name":"Zulik92","steam_id":76561198152442373,"connected_time":4519000000000,"state":"active","ping":68}]},{"server_id":308,"name":"Uncletopia | Frankfurt | 3 | All Maps","name_short":"frk-3","host":"frk-1.de.uncletopia.com","port":27035,"enabled":true,"region":"eu","cc":"de","latitude":50.110924,"longitude":8.682127,"reserved":0,"last_update":"0001-01-01T00:00:00Z","name_a2s":"Uncletopia | Frankfurt | 3 | All Maps","protocol":17,"map":"pl_upward","folder":"tf","game":"Team Fortress","app_id":440,"player_count":24,"max_players":24,"Bots":0,"server_type":"Dedicated","server_os":"Linux","password":true,"vac":true,"version":"7961495","steam_id":85568392924504274,"keywords":["nocrits","nodmgspread","payload","uncletopia"],"game_id":440,"stv_port":27036,"stv_name":"Uncletopia | Frankfurt | 3 | All Maps | STV","players":[{"user_id":77,"name":"waluigi","steam_id":76561198215809251,"connected_time":2054000000000,"state":"active","ping":50},{"user_id":84,"name":"NALA","steam_id":76561198039806469,"connected_time":1383000000000,"state":"active","ping":70},{"user_id":24,"name":"Abudabec2007(pro gamer)","steam_id":76561199110975331,"connected_time":5546000000000,"state":"active","ping":116},{"user_id":99,"name":"tired","steam_id":76561198046838168,"connected_time":713000000000,"state":"active","ping":45},{"user_id":93,"name":"Aeinzalot","steam_id":76561198195288449,"connected_time":1185000000000,"state":"active","ping":56},{"user_id":30,"name":"Pepe the Frog","steam_id":76561199500477314,"connected_time":4729000000000,"state":"active","ping":114},{"user_id":91,"name":"Tupac alive in serbia","steam_id":76561198010978989,"connected_time":1225000000000,"state":"active","ping":61},{"user_id":79,"name":"kingdead4","steam_id":76561198079576655,"connected_time":1669000000000,"state":"active","ping":67},{"user_id":87,"name":"Fischer101","steam_id":76561198301481739,"connected_time":1320000000000,"state":"active","ping":55},{"user_id":83,"name":"=OKB= P4NTH3R","steam_id":76561197999204603,"connected_time":1416000000000,"state":"active","ping":65},{"user_id":100,"name":"Josh","steam_id":76561198274546904,"connected_time":677000000000,"state":"active","ping":138},{"user_id":37,"name":"alfus","steam_id":76561198071003109,"connected_time":4523000000000,"state":"active","ping":53},{"user_id":72,"name":"BurningJoke","steam_id":76561199014358707,"connected_time":2346000000000,"state":"active","ping":47},{"user_id":39,"name":"DevFish","steam_id":76561199010456751,"connected_time":4295000000000,"state":"active","ping":49},{"user_id":52,"name":"TicTic","steam_id":76561198035563318,"connected_time":4201000000000,"state":"active","ping":72},{"user_id":89,"name":"II.Wheatley","steam_id":76561198400657925,"connected_time":1318000000000,"state":"active","ping":101},{"user_id":102,"name":"Zoro (Hun)","steam_id":76561199367182571,"connected_time":409000000000,"state":"active","ping":61},{"user_id":101,"name":"‚ô° Cursed ‚ô°","steam_id":76561199161458959,"connected_time":665000000000,"state":"active","ping":170},{"user_id":80,"name":"lolimsogreat21","steam_id":76561199052033788,"connected_time":1621000000000,"state":"active","ping":72},{"user_id":90,"name":"im practicing airshots","steam_id":76561198388318978,"connected_time":1306000000000,"state":"active","ping":75},{"user_id":46,"name":"W","steam_id":76561198273623211,"connected_time":4244000000000,"state":"active","ping":83},{"user_id":69,"name":"MIKI","steam_id":76561197971415497,"connected_time":3024000000000,"state":"active","ping":60},{"user_id":48,"name":"de6s","steam_id":76561199223240505,"connected_time":4234000000000,"state":"active","ping":364},{"user_id":97,"name":"lugi","steam_id":76561198026903673,"connected_time":1051000000000,"state":"active","ping":56}]},{"server_id":309,"name":"Uncletopia | Frankfurt | 4 | All Maps","name_short":"frk-4","host":"frk-1.de.uncletopia.com","port":27045,"enabled":true,"region":"eu","cc":"de","latitude":50.110924,"longitude":8.682127,"reserved":0,"last_update":"0001-01-01T00:00:00Z","name_a2s":"Uncletopia | Frankfurt | 4 | All Maps","protocol":17,"map":"pl_pier","folder":"tf","game":"Team Fortress","app_id":440,"player_count":23,"max_players":24,"Bots":0,"server_type":"Dedicated","server_os":"Linux","password":true,"vac":true,"version":"7961495","steam_id":85568392924504275,"keywords":["nocrits","nodmgspread","payload","uncletopia"],"game_id":440,"stv_port":27046,"stv_name":"Uncletopia | Frankfurt | 4 | All Maps | STV","players":[{"user_id":164,"name":"Optimist 50","steam_id":76561198039631442,"connected_time":2840000000000,"state":"active","ping":79},{"user_id":153,"name":"Heavy Duty","steam_id":76561198219594541,"connected_time":3248000000000,"state":"active","ping":101},{"user_id":141,"name":"pKaskar","steam_id":76561198046248945,"connected_time":3572000000000,"state":"active","ping":109},{"user_id":186,"name":"Skeletros","steam_id":76561198130969152,"connected_time":842000000000,"state":"active","ping":131},{"user_id":165,"name":"Pico","steam_id":76561198063552545,"connected_time":2737000000000,"state":"active","ping":94},{"user_id":194,"name":"giclure :;","steam_id":76561197986362828,"connected_time":471000000000,"state":"active","ping":69},{"user_id":187,"name":"sheep","steam_id":76561199220109827,"connected_time":818000000000,"state":"active","ping":61},{"user_id":140,"name":"Kesska","steam_id":76561198106116035,"connected_time":3616000000000,"state":"active","ping":125},{"user_id":172,"name":"RamSoz","steam_id":76561198818421936,"connected_time":2022000000000,"state":"active","ping":61},{"user_id":179,"name":"She Dooby","steam_id":76561198334042273,"connected_time":1605000000000,"state":"active","ping":55},{"user_id":188,"name":"ToniGAM3S","steam_id":76561198128605351,"connected_time":815000000000,"state":"active","ping":55},{"user_id":181,"name":"Udinese Dion","steam_id":76561198067931573,"connected_time":1567000000000,"state":"active","ping":58},{"user_id":190,"name":"Abunchoftrash","steam_id":76561198984368148,"connected_time":755000000000,"state":"active","ping":50},{"user_id":185,"name":"TheCosmicLizard","steam_id":76561198861751742,"connected_time":979000000000,"state":"active","ping":70},{"user_id":191,"name":"PENGUN","steam_id":76561199015156956,"connected_time":747000000000,"state":"active","ping":99},{"user_id":192,"name":"Solymr ibn Wali Barad","steam_id":76561198044008976,"connected_time":745000000000,"state":"active","ping":62},{"user_id":174,"name":"Dr. Josef","steam_id":76561198171353373,"connected_time":1989000000000,"state":"active","ping":59},{"user_id":152,"name":"Dakeyras","steam_id":76561198057069564,"connected_time":3328000000000,"state":"active","ping":103},{"user_id":163,"name":"Kangaroo aids","steam_id":76561199142022395,"connected_time":2868000000000,"state":"active","ping":56},{"user_id":193,"name":"smiley","steam_id":76561198042245117,"connected_time":733000000000,"state":"active","ping":81},{"user_id":149,"name":"LuckyHappyGuy","steam_id":76561198353023996,"connected_time":3465000000000,"state":"active","ping":76},{"user_id":184,"name":"xejenos","steam_id":76561199510414542,"connected_time":1031000000000,"state":"active","ping":92},{"user_id":169,"name":"LivEssense","steam_id":76561198052476979,"connected_time":2405000000000,"state":"active","ping":74}]},{"server_id":310,"name":"Uncletopia | Frankfurt | 5 | All Maps","name_short":"frk-5","host":"frk-1.de.uncletopia.com","port":27055,"enabled":true,"region":"eu","cc":"de","latitude":50.110924,"longitude":8.682127,"reserved":0,"last_update":"0001-01-01T00:00:00Z","name_a2s":"Uncletopia | Frankfurt | 5 | All Maps","protocol":17,"map":"koth_harvest_final","folder":"tf","game":"Team Fortress","app_id":440,"player_count":19,"max_players":24,"Bots":0,"server_type":"Dedicated","server_os":"Linux","password":true,"vac":true,"version":"7961495","steam_id":85568392924504277,"keywords":["cp","nocrits","nodmgspread","uncletopia"],"game_id":440,"stv_port":27056,"stv_name":"Uncletopia | Frankfurt | 5 | All Maps | STV","players":[{"user_id":259,"name":"Devious","steam_id":76561198035576811,"connected_time":1663000000000,"state":"active","ping":53},{"user_id":289,"name":"Istor","steam_id":76561198016340468,"connected_time":57000000000,"state":"active","ping":56},{"user_id":282,"name":"r06u3","steam_id":76561198254099253,"connected_time":272000000000,"state":"active","ping":176},{"user_id":278,"name":"cicada_brood","steam_id":76561199012543444,"connected_time":485000000000,"state":"active","ping":46},{"user_id":286,"name":"GregerUlander","steam_id":76561198152375055,"connected_time":125000000000,"state":"active","ping":71},{"user_id":288,"name":"John Spooky","steam_id":76561198018595210,"connected_time":85000000000,"state":"active","ping":60},{"user_id":287,"name":"Old Beavis","steam_id":76561198065951617,"connected_time":107000000000,"state":"active","ping":63},{"user_id":290,"name":"CH1NASKEE","steam_id":76561198021531683,"connected_time":34000000000,"state":"active","ping":93},{"user_id":291,"name":"shapeshifter","steam_id":76561198052898368,"connected_time":25000000000,"state":"active","ping":63},{"user_id":253,"name":"S@wKa","steam_id":76561198200160028,"connected_time":2630000000000,"state":"active","ping":75},{"user_id":285,"name":"najed","steam_id":76561198107767664,"connected_time":204000000000,"state":"active","ping":65},{"user_id":292,"name":"literallyjasonx","steam_id":76561198835895387,"connected_time":18000000000,"state":"spawning","ping":77},{"user_id":293,"name":"VikingsEdit","steam_id":76561199090100417,"connected_time":17000000000,"state":"active","ping":171},{"user_id":237,"name":"xDis4ster","steam_id":76561198198577778,"connected_time":3306000000000,"state":"active","ping":113},{"user_id":263,"name":"dog?","steam_id":76561199232839385,"connected_time":1460000000000,"state":"active","ping":88},{"user_id":272,"name":"meratrof","steam_id":76561198181841702,"connected_time":764000000000,"state":"active","ping":72},{"user_id":273,"name":"Andr√°s","steam_id":76561198096947288,"connected_time":727000000000,"state":"active","ping":55},{"user_id":212,"name":"PlasticVoid","steam_id":76561197997870306,"connected_time":3823000000000,"state":"active","ping":45},{"user_id":271,"name":"Lubi Animal","steam_id":76561199041620433,"connected_time":1039000000000,"state":"active","ping":45}]},{"server_id":311,"name":"Uncletopia | Frankfurt | 6 | All Maps","name_short":"frk-6","host":"frk-1.de.uncletopia.com","port":27065,"enabled":true,"region":"eu","cc":"de","latitude":50.110924,"longitude":8.682127,"reserved":0,"last_update":"0001-01-01T00:00:00Z","name_a2s":"Uncletopia | Frankfurt | 6 | All Maps","protocol":17,"map":"pl_borneo","folder":"tf","game":"Team Fortress","app_id":440,"player_count":0,"max_players":24,"Bots":0,"server_type":"Dedicated","server_os":"Linux","password":true,"vac":true,"version":"7961495","steam_id":85568392924504278,"keywords":["nocrits","nodmgspread","payload","uncletopia"],"game_id":440,"stv_port":27066,"stv_name":"Uncletopia | Frankfurt | 6 | All Maps | STV","players":null},{"server_id":23,"name":"Uncletopia | Frankfurt | 7 | Stopwatch","name_short":"frk-7","host":"frk-1.de.uncletopia.com","port":27075,"enabled":true,"region":"eu","cc":"de","latitude":50.110924,"longitude":8.682127,"reserved":0,"last_update":"0001-01-01T00:00:00Z","name_a2s":"Uncletopia | Frankfurt | 7 | Stopwatch","protocol":17,"map":"workshop/pl_badwater_pro_v12.ugc2142942074","folder":"tf","game":"Team Fortress","app_id":440,"player_count":2,"max_players":24,"Bots":0,"server_type":"Dedicated","server_os":"Linux","password":true,"vac":true,"version":"7961495","steam_id":85568392924742827,"keywords":["nocrits","nodmgspread","payload","uncletopia"],"game_id":440,"stv_port":27076,"stv_name":"Uncletopia | Frankfurt | 7 | Stopwatch | STV","players":[{"user_id":19,"name":"ƒªƒÖ Œîant…ô","steam_id":76561198078344149,"connected_time":2309000000000,"state":"active","ping":91},{"user_id":20,"name":"Badkitty","steam_id":76561199245159804,"connected_time":2304000000000,"state":"active","ping":105}]},{"server_id":24,"name":"Uncletopia | Frankfurt | 8 | Community","name_short":"frk-8","host":"frk-1.de.uncletopia.com","port":27085,"enabled":true,"region":"eu","cc":"de","latitude":50.110924,"longitude":8.682127,"reserved":0,"last_update":"0001-01-01T00:00:00Z","name_a2s":"Uncletopia | Frankfurt | 8 | Community","protocol":17,"map":"workshop/cp_croissant_final.ugc458840209","folder":"tf","game":"Team Fortress","app_id":440,"player_count":0,"max_players":24,"Bots":0,"server_type":"Dedicated","server_os":"Linux","password":true,"vac":true,"version":"7961495","steam_id":85568392924742828,"keywords":["cp","nocrits","nodmgspread","uncletopia"],"game_id":440,"stv_port":27086,"stv_name":"Uncletopia | Frankfurt | 8 | Community | STV","players":null},{"server_id":202,"name":"Uncletopia | Hong Kong | 1 | All Maps","name_short":"hgk-1","host":"hgk-1.hk.uncletopia.com","port":27015,"enabled":true,"region":"asia","cc":"hk","latitude":22.302711,"longitude":114.177216,"reserved":0,"last_update":"0001-01-01T00:00:00Z","name_a2s":"Uncletopia | Hong Kong | 1 | All Maps","protocol":17,"map":"koth_lakeside_final","folder":"tf","game":"Team Fortress","app_id":440,"player_count":6,"max_players":24,"Bots":0,"server_type":"Dedicated","server_os":"Linux","password":true,"vac":true,"version":"7961495","steam_id":85568392924494504,"keywords":["cp","nocrits","nodmgspread","uncletopia"],"game_id":440,"stv_port":27016,"stv_name":"Uncletopia | Hong Kong | 1 | All Maps | STV","players":[{"user_id":454,"name":"lorey","steam_id":76561199137927625,"connected_time":1696000000000,"state":"active","ping":87},{"user_id":445,"name":"archimedes_the_crow","steam_id":76561199201085996,"connected_time":3792000000000,"state":"active","ping":256},{"user_id":367,"name":"Impetus","steam_id":76561198213031155,"connected_time":11672000000000,"state":"active","ping":90},{"user_id":391,"name":"StewB„ÉÑ","steam_id":76561198131423270,"connected_time":9010000000000,"state":"active","ping":57},{"user_id":423,"name":"sans the skeleton","steam_id":76561199262750178,"connected_time":6552000000000,"state":"active","ping":114},{"user_id":392,"name":"le goon","steam_id":76561198797699056,"connected_time":8914000000000,"state":"active","ping":99}]},{"server_id":1,"name":"Uncletopia | Los Angeles | 1 | All Maps","name_short":"lax-1","host":"lax-1.us.uncletopia.com","port":27015,"enabled":true,"region":"us-west","cc":"us","latitude":33.94279,"longitude":-118.41004,"reserved":0,"last_update":"0001-01-01T00:00:00Z","name_a2s":"Uncletopia | Los Angeles | 1 | All Maps","protocol":17,"map":"koth_lakeside_final","folder":"tf","game":"Team Fortress","app_id":440,"player_count":2,"max_players":24,"Bots":0,"server_type":"Dedicated","server_os":"Linux","password":true,"vac":true,"version":"7961495","steam_id":85568392924469991,"keywords":["cp","nocrits","nodmgspread","uncletopia"],"game_id":440,"stv_port":27016,"stv_name":"Uncletopia | Los Angeles | 1 | All Maps | STV","players":[{"user_id":6,"name":"Nibotshooter","steam_id":76561199284825579,"connected_time":956000000000,"state":"active","ping":63},{"user_id":7,"name":"Noxus","steam_id":76561199009820852,"connected_time":954000000000,"state":"active","ping":71}]},{"server_id":112,"name":"Uncletopia | Los Angeles | 2 | All Maps","name_short":"lax-2","host":"lax-1.us.uncletopia.com","port":27025,"enabled":true,"region":"us-west","cc":"us","latitude":33.94279,"longitude":-118.41004,"reserved":0,"last_update":"0001-01-01T00:00:00Z","name_a2s":"Uncletopia | Los Angeles | 2 | All Maps","protocol":17,"map":"koth_lazarus","folder":"tf","game":"Team Fortress","app_id":440,"player_count":0,"max_players":24,"Bots":0,"server_type":"Dedicated","server_os":"Linux","password":true,"vac":true,"version":"7961495","steam_id":85568392924469992,"keywords":["cp","nocrits","nodmgspread","uncletopia"],"game_id":440,"stv_port":27026,"stv_name":"Uncletopia | Los Angeles | 2 | All Maps | STV","players":null},{"server_id":324,"name":"Uncletopia | Los Angeles | 3 | All Maps","name_short":"lax-3","host":"lax-1.us.uncletopia.com","port":27035,"enabled":true,"region":"us-west","cc":"us","latitude":33.94279,"longitude":-118.41004,"reserved":0,"last_update":"0001-01-01T00:00:00Z","name_a2s":"Uncletopia | Los Angeles | 3 | All Maps","protocol":17,"map":"pl_frontier_final","folder":"tf","game":"Team Fortress","app_id":440,"player_count":0,"max_players":24,"Bots":0,"server_type":"Dedicated","server_os":"Linux","password":true,"vac":true,"version":"7961495","steam_id":85568392924510198,"keywords":["nocrits","nodmgspread","payload","uncletopia"],"game_id":440,"stv_port":27036,"stv_name":"Uncletopia | Los Angeles | 3 | All Maps | STV","players":null},{"server_id":25,"name":"Uncletopia | Los Angeles | 4 | Stopwatch","name_short":"lax-4","host":"lax-1.us.uncletopia.com","port":27045,"enabled":true,"region":"us-west","cc":"us","latitude":33.94279,"longitude":-118.41004,"reserved":0,"last_update":"0001-01-01T00:00:00Z","name_a2s":"Uncletopia | Los Angeles | 4 | Stopwatch","protocol":17,"map":"pl_upward","folder":"tf","game":"Team Fortress","app_id":440,"player_count":0,"max_players":24,"Bots":0,"server_type":"Dedicated","server_os":"Linux","password":true,"vac":true,"version":"7961495","steam_id":85568392924510199,"keywords":["nocrits","nodmgspread","payload","uncletopia"],"game_id":440,"stv_port":27046,"stv_name":"Uncletopia | Los Angeles | 4 | Stopwatch | STV","players":null},{"server_id":11,"name":"Uncletopia | London | 1 | All Maps","name_short":"lon-1","host":"lon-1.uk.uncletopia.com","port":27015,"enabled":true,"region":"eu","cc":"gb","latitude":51.509865,"longitude":-0.118092,"reserved":0,"last_update":"0001-01-01T00:00:00Z","name_a2s":"Uncletopia | London | 1 | All Maps","protocol":17,"map":"koth_harvest_final","folder":"tf","game":"Team Fortress","app_id":440,"player_count":23,"max_players":24,"Bots":0,"server_type":"Dedicated","server_os":"Linux","password":true,"vac":true,"version":"7961495","steam_id":85568392924367362,"keywords":["cp","nocrits","nodmgspread","uncletopia"],"game_id":440,"stv_port":27016,"stv_name":"Uncletopia | London | 1 | All Maps | STV","players":[{"user_id":383,"name":"gr3821","steam_id":76561198091531010,"connected_time":1693000000000,"state":"active","ping":44},{"user_id":391,"name":"Dan Dan the Furious","steam_id":76561198091032527,"connected_time":1362000000000,"state":"active","ping":46},{"user_id":413,"name":"No Status","steam_id":76561198119526557,"connected_time":707000000000,"state":"active","ping":31},{"user_id":385,"name":"fector","steam_id":76561199204249586,"connected_time":1634000000000,"state":"active","ping":133},{"user_id":374,"name":"Miku.Hatsune.2007","steam_id":76561198199687607,"connected_time":1966000000000,"state":"active","ping":60},{"user_id":415,"name":"Laru","steam_id":76561197998838438,"connected_time":641000000000,"state":"active","ping":84},{"user_id":417,"name":"naah you off the Google+ perc","steam_id":76561198190583242,"connected_time":560000000000,"state":"active","ping":74},{"user_id":419,"name":"Allochtoon","steam_id":76561198205021293,"connected_time":409000000000,"state":"active","ping":66},{"user_id":386,"name":"Lyra","steam_id":76561198043601838,"connected_time":1598000000000,"state":"active","ping":67},{"user_id":349,"name":"mertefe","steam_id":76561199237126613,"connected_time":4494000000000,"state":"active","ping":98},{"user_id":396,"name":"peyniz","steam_id":76561198044189114,"connected_time":1192000000000,"state":"active","ping":65},{"user_id":335,"name":"$H4D0W W1Z4RD M0N3Y G4NG","steam_id":76561199195985387,"connected_time":5429000000000,"state":"active","ping":469},{"user_id":387,"name":"Ryan Gosling (Literally me)","steam_id":76561198438150893,"connected_time":1591000000000,"state":"active","ping":89},{"user_id":379,"name":"Î©àÏ∂ú Ïàò ÏóÜÎäî","steam_id":76561198349648942,"connected_time":1797000000000,"state":"active","ping":75},{"user_id":414,"name":"unconditional love","steam_id":76561199026097466,"connected_time":704000000000,"state":"active","ping":73},{"user_id":425,"name":"Prince Flip","steam_id":76561198023462157,"connected_time":123000000000,"state":"active","ping":50},{"user_id":421,"name":"Adspy","steam_id":76561198855050261,"connected_time":278000000000,"state":"active","ping":61},{"user_id":418,"name":"tj","steam_id":76561198160466307,"connected_time":558000000000,"state":"active","ping":74},{"user_id":420,"name":"frbuz (ÿπ)","steam_id":76561198327135462,"connected_time":399000000000,"state":"active","ping":167},{"user_id":389,"name":"meirfa","steam_id":76561198157193506,"connected_time":1574000000000,"state":"active","ping":129},{"user_id":402,"name":"silicon based life form","steam_id":76561199127121346,"connected_time":1038000000000,"state":"active","ping":51},{"user_id":327,"name":"sareena","steam_id":76561198810194062,"connected_time":6081000000000,"state":"active","ping":74}]},{"server_id":114,"name":"Uncletopia | London | 2 | All Maps","name_short":"lon-2","host":"lon-1.uk.uncletopia.com","port":27025,"enabled":true,"region":"eu","cc":"gb","latitude":51.509865,"longitude":-0.118092,"reserved":0,"last_update":"0001-01-01T00:00:00Z","name_a2s":"Uncletopia | London | 2 | All Maps","protocol":17,"map":"pl_upward","folder":"tf","game":"Team Fortress","app_id":440,"player_count":24,"max_players":24,"Bots":0,"server_type":"Dedicated","server_os":"Linux","password":true,"vac":true,"version":"7961495","steam_id":85568392924470941,"keywords":["nocrits","nodmgspread","payload","uncletopia"],"game_id":440,"stv_port":27026,"stv_name":"Uncletopia | London | 2 | All Maps | STV","players":[{"user_id":324,"name":"Woman (Real)","steam_id":76561199151823932,"connected_time":1529000000000,"state":"active","ping":83},{"user_id":307,"name":"ShadowRaider","steam_id":76561198321110421,"connected_time":2986000000000,"state":"active","ping":66},{"user_id":341,"name":"General Petrov","steam_id":76561198027204104,"connected_time":454000000000,"state":"active","ping":83},{"user_id":346,"name":"Tebbet","steam_id":76561198194123065,"connected_time":393000000000,"state":"active","ping":57},{"user_id":340,"name":"goku „Éî„ÉÉ„Éó„Éª„Éö„Çø„É´","steam_id":76561198147668373,"connected_time":591000000000,"state":"active","ping":79},{"user_id":353,"name":"Sleeping at 4am help","steam_id":76561198173218318,"connected_time":138000000000,"state":"active","ping":47},{"user_id":354,"name":"stonebum","steam_id":76561198057004606,"connected_time":106000000000,"state":"active","ping":54},{"user_id":308,"name":"GMsU | Acoul","steam_id":76561198229222992,"connected_time":2734000000000,"state":"active","ping":55},{"user_id":323,"name":"oultimosuicida","steam_id":76561198051429942,"connected_time":1561000000000,"state":"active","ping":65},{"user_id":210,"name":"static","steam_id":76561198836825741,"connected_time":7966000000000,"state":"active","ping":44},{"user_id":314,"name":"generic alias","steam_id":76561198271607226,"connected_time":2311000000000,"state":"active","ping":85},{"user_id":338,"name":"Hey, I¬¥m Andy!","steam_id":76561198060337777,"connected_time":806000000000,"state":"active","ping":82},{"user_id":347,"name":"Thundercracker__","steam_id":76561199163505476,"connected_time":383000000000,"state":"active","ping":59},{"user_id":350,"name":"The Bamboozler","steam_id":76561199286764992,"connected_time":269000000000,"state":"active","ping":83},{"user_id":311,"name":"GMsU | AuxiliusM","steam_id":76561198071903356,"connected_time":2358000000000,"state":"active","ping":58},{"user_id":351,"name":"bigdirtybogman","steam_id":76561198364649987,"connected_time":267000000000,"state":"active","ping":66},{"user_id":325,"name":"herbal tea","steam_id":76561197980736364,"connected_time":1491000000000,"state":"active","ping":82},{"user_id":349,"name":"DocThenotable","steam_id":76561199389114520,"connected_time":286000000000,"state":"active","ping":142},{"user_id":352,"name":"Dictatorial Karelian","steam_id":76561198196736457,"connected_time":233000000000,"state":"active","ping":89},{"user_id":330,"name":"Acheo","steam_id":76561198068228498,"connected_time":1350000000000,"state":"active","ping":120},{"user_id":355,"name":"Goofy cat","steam_id":76561198066799770,"connected_time":67000000000,"state":"active","ping":63},{"user_id":317,"name":"GMsU | Smiley","steam_id":76561198121494414,"connected_time":2213000000000,"state":"active","ping":100},{"user_id":334,"name":"BOYMODE","steam_id":76561198155314925,"connected_time":1150000000000,"state":"active","ping":57},{"user_id":310,"name":"Pimpin' \u0026 Blimpin'","steam_id":76561198326776107,"connected_time":2585000000000,"state":"active","ping":93}]},{"server_id":320,"name":"Uncletopia | London | 3 | All Maps","name_short":"lon-3","host":"lon-1.uk.uncletopia.com","port":27035,"enabled":true,"region":"eu","cc":"gb","latitude":51.509865,"longitude":-0.118092,"reserved":0,"last_update":"0001-01-01T00:00:00Z","name_a2s":"Uncletopia | London | 3 | All Maps","protocol":17,"map":"pl_upward","folder":"tf","game":"Team Fortress","app_id":440,"player_count":24,"max_players":24,"Bots":0,"server_type":"Dedicated","server_os":"Linux","password":true,"vac":true,"version":"7961495","steam_id":85568392924510192,"keywords":["nocrits","nodmgspread","payload","uncletopia"],"game_id":440,"stv_port":27036,"stv_name":"Uncletopia | London | 3 | All Maps | STV","players":[{"user_id":30,"name":"I-I","steam_id":76561198267969436,"connected_time":3019000000000,"state":"active","ping":66},{"user_id":26,"name":"didi_gaga","steam_id":76561198797688627,"connected_time":3452000000000,"state":"active","ping":88},{"user_id":29,"name":"glue eating champion","steam_id":76561198100963738,"connected_time":3042000000000,"state":"active","ping":46},{"user_id":86,"name":"LOBZIK","steam_id":76561198114830120,"connected_time":625000000000,"state":"active","ping":78},{"user_id":85,"name":"Alexandre","steam_id":76561198121784446,"connected_time":630000000000,"state":"active","ping":37},{"user_id":65,"name":"jonh","steam_id":76561198261853441,"connected_time":1469000000000,"state":"active","ping":75},{"user_id":36,"name":"dools18","steam_id":76561198880768062,"connected_time":2721000000000,"state":"active","ping":56},{"user_id":92,"name":"swagmeester","steam_id":76561198045828392,"connected_time":194000000000,"state":"active","ping":65},{"user_id":67,"name":"Chonky dorito","steam_id":76561199076870571,"connected_time":1279000000000,"state":"active","ping":96},{"user_id":68,"name":"Wh√§t","steam_id":76561197999285844,"connected_time":1201000000000,"state":"active","ping":88},{"user_id":75,"name":"kilo","steam_id":76561198015641339,"connected_time":1098000000000,"state":"active","ping":77},{"user_id":70,"name":"‚ôø Erneesto ‚ôø","steam_id":76561198157703539,"connected_time":1168000000000,"state":"active","ping":64},{"user_id":42,"name":"Cg Studios","steam_id":76561198286908002,"connected_time":2549000000000,"state":"active","ping":46},{"user_id":72,"name":"HEY lets fight 1vs1 idiot hater","steam_id":76561198396428987,"connected_time":1151000000000,"state":"active","ping":91},{"user_id":48,"name":"gaggle","steam_id":76561197988226281,"connected_time":2265000000000,"state":"active","ping":49},{"user_id":73,"name":"alwayshornywhiteboy[BWC]","steam_id":76561199510082827,"connected_time":1144000000000,"state":"active","ping":108},{"user_id":93,"name":"J√∏rn","steam_id":76561199073257952,"connected_time":21000000000,"state":"active","ping":63},{"user_id":84,"name":"ender45","steam_id":76561198840955715,"connected_time":855000000000,"state":"active","ping":30},{"user_id":53,"name":"Dishhhh","steam_id":76561197992816831,"connected_time":2043000000000,"state":"active","ping":76},{"user_id":89,"name":"‚òÖ|TG| Sam [GL]‚òÖ","steam_id":76561198214457269,"connected_time":291000000000,"state":"active","ping":61},{"user_id":91,"name":"kavun","steam_id":76561198023461869,"connected_time":258000000000,"state":"active","ping":90},{"user_id":57,"name":"nug","steam_id":76561198055396568,"connected_time":1957000000000,"state":"active","ping":102},{"user_id":83,"name":"Charm Quark","steam_id":76561198017932409,"connected_time":885000000000,"state":"active","ping":55},{"user_id":81,"name":"Snd","steam_id":76561198010816408,"connected_time":993000000000,"state":"active","ping":118}]},{"server_id":321,"name":"Uncletopia | London | 4 | All Maps","name_short":"lon-4","host":"lon-1.uk.uncletopia.com","port":27045,"enabled":true,"region":"eu","cc":"gb","latitude":51.509865,"longitude":-0.118092,"reserved":0,"last_update":"0001-01-01T00:00:00Z","name_a2s":"Uncletopia | London | 4 | All Maps","protocol":17,"map":"pl_borneo","folder":"tf","game":"Team Fortress","app_id":440,"player_count":23,"max_players":24,"Bots":0,"server_type":"Dedicated","server_os":"Linux","password":true,"vac":true,"version":"7961495","steam_id":85568392924510193,"keywords":["nocrits","nodmgspread","payload","uncletopia"],"game_id":440,"stv_port":27046,"stv_name":"Uncletopia | London | 4 | All Maps | STV","players":[{"user_id":124,"name":"jovi_","steam_id":76561198449280552,"connected_time":455000000000,"state":"active","ping":48},{"user_id":125,"name":"AI | Davidoscki","steam_id":76561198129166046,"connected_time":440000000000,"state":"active","ping":99},{"user_id":120,"name":"Lao","steam_id":76561198004528684,"connected_time":641000000000,"state":"active","ping":75},{"user_id":122,"name":"NESS","steam_id":76561197995225318,"connected_time":574000000000,"state":"active","ping":44},{"user_id":90,"name":"Freshxy","steam_id":76561198250232194,"connected_time":3213000000000,"state":"active","ping":51},{"user_id":104,"name":"Mr Fruitypebbles","steam_id":76561198133823242,"connected_time":1549000000000,"state":"active","ping":57},{"user_id":105,"name":"Andreus","steam_id":76561199403926001,"connected_time":1522000000000,"state":"active","ping":70},{"user_id":118,"name":"fence_","steam_id":76561198150386379,"connected_time":744000000000,"state":"active","ping":46},{"user_id":134,"name":"asheton225","steam_id":76561199290497029,"connected_time":113000000000,"state":"active","ping":177},{"user_id":55,"name":"ottergauze","steam_id":76561198050523315,"connected_time":5100000000000,"state":"active","ping":57},{"user_id":111,"name":"Amazar","steam_id":76561198841664939,"connected_time":1306000000000,"state":"active","ping":114},{"user_id":52,"name":"African Animosity","steam_id":76561198094483253,"connected_time":5178000000000,"state":"active","ping":40},{"user_id":108,"name":".ogg","steam_id":76561198932426600,"connected_time":1421000000000,"state":"active","ping":83},{"user_id":96,"name":"BELADIT","steam_id":76561198011911501,"connected_time":2745000000000,"state":"active","ping":76},{"user_id":56,"name":"Xavi","steam_id":76561198337783795,"connected_time":5092000000000,"state":"active","ping":118},{"user_id":114,"name":"HHAHAHAHAHAHHAHAHHHA","steam_id":76561198405980575,"connected_time":1203000000000,"state":"active","ping":73},{"user_id":99,"name":"S.Scary","steam_id":76561198248602386,"connected_time":2625000000000,"state":"active","ping":75},{"user_id":133,"name":"Random","steam_id":76561199116602799,"connected_time":180000000000,"state":"active","ping":41},{"user_id":127,"name":"Denialman (Muted)","steam_id":76561198309182092,"connected_time":408000000000,"state":"active","ping":63},{"user_id":88,"name":"Juno","steam_id":76561198073839911,"connected_time":3250000000000,"state":"active","ping":68},{"user_id":135,"name":"XxBenShapiro420xX","steam_id":76561199229373972,"connected_time":40000000000,"state":"active","ping":57},{"user_id":130,"name":"brtaba","steam_id":76561198796334790,"connected_time":352000000000,"state":"active","ping":65},{"user_id":131,"name":"ToyBox","steam_id":76561199074735423,"connected_time":324000000000,"state":"active","ping":131}]},{"server_id":21,"name":"Uncletopia | London | 5 | All Maps","name_short":"lon-5","host":"lon-1.uk.uncletopia.com","port":27055,"enabled":true,"region":"eu","cc":"gb","latitude":51.509865,"longitude":-0.118092,"reserved":0,"last_update":"0001-01-01T00:00:00Z","name_a2s":"Uncletopia | London | 5 | All Maps","protocol":17,"map":"koth_suijin","folder":"tf","game":"Team Fortress","app_id":440,"player_count":0,"max_players":24,"Bots":0,"server_type":"Dedicated","server_os":"Linux","password":true,"vac":true,"version":"7961495","steam_id":85568392924742829,"keywords":["cp","nocrits","nodmgspread","uncletopia"],"game_id":440,"stv_port":27056,"stv_name":"Uncletopia | London | 5 | All Maps | STV","players":null},{"server_id":22,"name":"Uncletopia | London | 6 | All Maps","name_short":"lon-6","host":"lon-1.uk.uncletopia.com","port":27065,"enabled":true,"region":"eu","cc":"gb","latitude":51.509865,"longitude":-0.118092,"reserved":0,"last_update":"0001-01-01T00:00:00Z","name_a2s":"Uncletopia | London | 6 | All Maps","protocol":17,"map":"koth_viaduct","folder":"tf","game":"Team Fortress","app_id":440,"player_count":3,"max_players":24,"Bots":0,"server_type":"Dedicated","server_os":"Linux","password":true,"vac":true,"version":"7961495","steam_id":85568392924742830,"keywords":["cp","nocrits","nodmgspread","uncletopia"],"game_id":440,"stv_port":27066,"stv_name":"Uncletopia | London | 6 | All Maps | STV","players":[{"user_id":8,"name":"blue robot with a shotgun","steam_id":76561198038597831,"connected_time":1716000000000,"state":"active","ping":122},{"user_id":9,"name":"stsst09","steam_id":76561199012451512,"connected_time":1679000000000,"state":"active","ping":88},{"user_id":10,"name":"wqmuus","steam_id":76561199141369391,"connected_time":1653000000000,"state":"active","ping":88}]},{"server_id":40,"name":"Uncletopia | London | 7 | Stopwatch","name_short":"lon-7","host":"lon-1.uk.uncletopia.com","port":27075,"enabled":true,"region":"eu","cc":"gb","latitude":51.509865,"longitude":-0.118092,"reserved":0,"last_update":"0001-01-01T00:00:00Z","name_a2s":"Uncletopia | London | 7 | Stopwatch","protocol":17,"map":"pl_swiftwater_final1","folder":"tf","game":"Team Fortress","app_id":440,"player_count":0,"max_players":24,"Bots":0,"server_type":"Dedicated","server_os":"Linux","password":true,"vac":true,"version":"7961495","steam_id":85568392924964314,"keywords":["nocrits","nodmgspread","payload","uncletopia"],"game_id":440,"stv_port":27076,"stv_name":"Uncletopia | London | 7 | Stopwatch | STV","players":null},{"server_id":41,"name":"Uncletopia | London | 8 | Community","name_short":"lon-8","host":"lon-1.uk.uncletopia.com","port":27085,"enabled":true,"region":"eu","cc":"gb","latitude":51.509865,"longitude":-0.118092,"reserved":0,"last_update":"0001-01-01T00:00:00Z","name_a2s":"Uncletopia | London | 8 | Community","protocol":17,"map":"workshop/cp_propaganda_b18.ugc1603743849","folder":"tf","game":"Team Fortress","app_id":440,"player_count":0,"max_players":24,"Bots":0,"server_type":"Dedicated","server_os":"Linux","password":true,"vac":true,"version":"7961495","steam_id":85568392924964315,"keywords":["cp","nocrits","nodmgspread","uncletopia"],"game_id":440,"stv_port":27086,"stv_name":"Uncletopia | London | 8 | Community | STV","players":null},{"server_id":300,"name":"Uncletopia | Montr√©al | 1 | One Thousand Uncles","name_short":"mtl-1","host":"mtl-1.ca.uncletopia.com","port":27015,"enabled":true,"region":"us-east","cc":"ca","latitude":45.50889,"longitude":-73.56167,"reserved":0,"last_update":"0001-01-01T00:00:00Z","name_a2s":"Uncletopia | Montr√©al | 1 | One Thousand Uncles","protocol":17,"map":"pl_barnblitz","folder":"tf","game":"Team Fortress","app_id":440,"player_count":0,"max_players":32,"Bots":0,"server_type":"Dedicated","server_os":"Linux","password":true,"vac":true,"version":"7961495","steam_id":85568392924500087,"keywords":["alltalk","danepve","increased_maxplayers","norespawntime","payload","uncletopia"],"game_id":440,"stv_port":0,"stv_name":"","players":null},{"server_id":301,"name":"Uncletopia | Montr√©al | 2 | One Thousand Uncles","name_short":"mtl-2","host":"mtl-1.ca.uncletopia.com","port":27025,"enabled":true,"region":"us-east","cc":"ca","latitude":45.50889,"longitude":-73.56167,"reserved":0,"last_update":"0001-01-01T00:00:00Z","name_a2s":"Uncletopia | Montr√©al | 2 | One Thousand Uncles","protocol":17,"map":"pl_pier","folder":"tf","game":"Team Fortress","app_id":440,"player_count":0,"max_players":32,"Bots":0,"server_type":"Dedicated","server_os":"Linux","password":true,"vac":true,"version":"7961495","steam_id":85568392924500088,"keywords":["alltalk","danepve","increased_maxplayers","norespawntime","payload","uncletopia"],"game_id":440,"stv_port":0,"stv_name":"","players":null},{"server_id":302,"name":"Uncletopia | Montr√©al | 3 | One Thousand Uncles","name_short":"mtl-3","host":"mtl-1.ca.uncletopia.com","port":27035,"enabled":true,"region":"us-east","cc":"ca","latitude":45.50889,"longitude":-73.56167,"reserved":0,"last_update":"0001-01-01T00:00:00Z","name_a2s":"Uncletopia | Montr√©al | 3 | One Thousand Uncles","protocol":17,"map":"pl_upward","folder":"tf","game":"Team Fortress","app_id":440,"player_count":0,"max_players":32,"Bots":0,"server_type":"Dedicated","server_os":"Linux","password":true,"vac":true,"version":"7961495","steam_id":85568392924500089,"keywords":["alltalk","danepve","increased_maxplayers","norespawntime","payload","uncletopia"],"game_id":440,"stv_port":0,"stv_name":"","players":null},{"server_id":13,"name":"Uncletopia | New York City | 1 | All Maps","name_short":"nyc-1","host":"nyc-1.us.uncletopia.com","port":27015,"enabled":true,"region":"us-east","cc":"us","latitude":40.73061,"longitude":-73.93524,"reserved":0,"last_update":"0001-01-01T00:00:00Z","name_a2s":"Uncletopia | New York City | 1 | All Maps","protocol":17,"map":"pl_frontier_final","folder":"tf","game":"Team Fortress","app_id":440,"player_count":1,"max_players":24,"Bots":0,"server_type":"Dedicated","server_os":"Linux","password":true,"vac":true,"version":"7961495","steam_id":85568392924469993,"keywords":["nocrits","nodmgspread","payload","uncletopia"],"game_id":440,"stv_port":27016,"stv_name":"Uncletopia | New York City | 1 | All Maps | STV","players":[{"user_id":14,"name":"cavae","steam_id":76561199092677510,"connected_time":104000000000,"state":"active","ping":36}]},{"server_id":14,"name":"Uncletopia | New York City | 2 | All Maps","name_short":"nyc-2","host":"nyc-1.us.uncletopia.com","port":27025,"enabled":true,"region":"us-east","cc":"us","latitude":40.73061,"longitude":-73.93524,"reserved":0,"last_update":"0001-01-01T00:00:00Z","name_a2s":"Uncletopia | New York City | 2 | All Maps","protocol":17,"map":"koth_suijin","folder":"tf","game":"Team Fortress","app_id":440,"player_count":0,"max_players":24,"Bots":0,"server_type":"Dedicated","server_os":"Linux","password":true,"vac":true,"version":"7961495","steam_id":85568392924469994,"keywords":["cp","nocrits","nodmgspread","uncletopia"],"game_id":440,"stv_port":27026,"stv_name":"Uncletopia | New York City | 2 | All Maps | STV","players":null},{"server_id":15,"name":"Uncletopia | New York City | 3 | Stopwatch","name_short":"nyc-3","host":"nyc-1.us.uncletopia.com","port":27035,"enabled":true,"region":"us-east","cc":"us","latitude":40.73061,"longitude":-73.93524,"reserved":0,"last_update":"0001-01-01T00:00:00Z","name_a2s":"Uncletopia | New York City | 3 | Stopwatch","protocol":17,"map":"workshop/cp_reckoner_rc6.ugc674719999","folder":"tf","game":"Team Fortress","app_id":440,"player_count":0,"max_players":24,"Bots":0,"server_type":"Dedicated","server_os":"Linux","password":true,"vac":true,"version":"7961495","steam_id":85568392924742820,"keywords":["cp","nocrits","nodmgspread","uncletopia"],"game_id":440,"stv_port":27036,"stv_name":"Uncletopia | New York City | 3 | Stopwatch | STV","players":null},{"server_id":16,"name":"Uncletopia | New York City | 4 | Community","name_short":"nyc-4","host":"nyc-1.us.uncletopia.com","port":27045,"enabled":true,"region":"us-east","cc":"us","latitude":40.73061,"longitude":-73.93524,"reserved":0,"last_update":"0001-01-01T00:00:00Z","name_a2s":"Uncletopia | New York City | 4 | Community","protocol":17,"map":"workshop/pl_shoreleave_rc2.ugc1238849347","folder":"tf","game":"Team Fortress","app_id":440,"player_count":23,"max_players":24,"Bots":0,"server_type":"Dedicated","server_os":"Linux","password":true,"vac":true,"version":"7961495","steam_id":85568392924742821,"keywords":["nocrits","nodmgspread","payload","uncletopia"],"game_id":440,"stv_port":27046,"stv_name":"Uncletopia | New York City | 4 | Community | STV","players":[{"user_id":107,"name":"Zeek","steam_id":76561197987204351,"connected_time":879000000000,"state":"active","ping":45},{"user_id":134,"name":"itsPanzerPanda","steam_id":76561199441946346,"connected_time":88000000000,"state":"active","ping":73},{"user_id":83,"name":"Drewgs","steam_id":76561198012531221,"connected_time":3351000000000,"state":"active","ping":47},{"user_id":91,"name":"Lord Scrubling","steam_id":76561198263744445,"connected_time":2820000000000,"state":"active","ping":80},{"user_id":114,"name":"S5lty","steam_id":76561199077992604,"connected_time":622000000000,"state":"active","ping":106},{"user_id":96,"name":"the superhero","steam_id":76561198301021031,"connected_time":2273000000000,"state":"active","ping":78},{"user_id":100,"name":"Lifial","steam_id":76561198271885819,"connected_time":1420000000000,"state":"active","ping":59},{"user_id":115,"name":"Harry S. Truman","steam_id":76561197993339757,"connected_time":611000000000,"state":"active","ping":58},{"user_id":118,"name":"TacticalGlizzy","steam_id":76561198144786171,"connected_time":522000000000,"state":"active","ping":52},{"user_id":55,"name":"hooley","steam_id":76561198041923067,"connected_time":5887000000000,"state":"active","ping":54},{"user_id":87,"name":"chikin.sauce","steam_id":76561198042464635,"connected_time":3033000000000,"state":"active","ping":88},{"user_id":128,"name":"TickTock|Mink","steam_id":76561198069809794,"connected_time":306000000000,"state":"active","ping":92},{"user_id":51,"name":"Foolie","steam_id":76561198291741747,"connected_time":6113000000000,"state":"active","ping":84},{"user_id":131,"name":"duke of penis","steam_id":76561198313148513,"connected_time":260000000000,"state":"active","ping":45},{"user_id":135,"name":"Egg","steam_id":76561199089647090,"connected_time":1000000000,"state":"spawning","ping":55},{"user_id":125,"name":"SOLEMN VOW GAMER","steam_id":76561198301585642,"connected_time":376000000000,"state":"active","ping":46},{"user_id":88,"name":"sfm soldier if he was grotesque","steam_id":76561198353962640,"connected_time":2935000000000,"state":"active","ping":58},{"user_id":95,"name":"John Fortnite","steam_id":76561198076608253,"connected_time":2403000000000,"state":"active","ping":57},{"user_id":103,"name":"Dick to ball ratio","steam_id":76561198072205512,"connected_time":1358000000000,"state":"active","ping":69},{"user_id":92,"name":"boysmell curator","steam_id":76561198128319767,"connected_time":2724000000000,"state":"active","ping":113},{"user_id":104,"name":"ToTenLis","steam_id":76561198168581334,"connected_time":1219000000000,"state":"active","ping":166},{"user_id":97,"name":"Shuko","steam_id":76561197995563378,"connected_time":2250000000000,"state":"active","ping":55},{"user_id":130,"name":"Hawkborne","steam_id":76561198107249245,"connected_time":298000000000,"state":"active","ping":98}]},{"server_id":142,"name":"Uncletopia | S√£o Paulo | 1 | All Maps","name_short":"sao-1","host":"sao-1.br.uncletopia.com","port":27015,"enabled":true,"region":"sa","cc":"br","latitude":-23.533773,"longitude":-46.62529,"reserved":0,"last_update":"0001-01-01T00:00:00Z","name_a2s":"Uncletopia | S√£o Paulo | 1 | All Maps","protocol":17,"map":"cp_mountainlab","folder":"tf","game":"Team Fortress","app_id":440,"player_count":0,"max_players":24,"Bots":0,"server_type":"Dedicated","server_os":"Linux","password":true,"vac":true,"version":"7961495","steam_id":85568392924469996,"keywords":["cp","nocrits","nodmgspread","uncletopia"],"game_id":440,"stv_port":27016,"stv_name":"Uncletopia | S√£o Paulo | 1 | All Maps | STV","players":null},{"server_id":143,"name":"Uncletopia | S√£o Paulo | 2 | Community","name_short":"sao-2","host":"sao-2.br.uncletopia.com","port":27015,"enabled":true,"region":"sa","cc":"br","latitude":-23.533773,"longitude":-46.62529,"reserved":0,"last_update":"0001-01-01T00:00:00Z","name_a2s":"Uncletopia | S√£o Paulo | 2 | Community","protocol":17,"map":"workshop/koth_slaughter_rc1.ugc1712845210","folder":"tf","game":"Team Fortress","app_id":440,"player_count":0,"max_players":24,"Bots":0,"server_type":"Dedicated","server_os":"Linux","password":true,"vac":true,"version":"7961495","steam_id":85568392924485349,"keywords":["cp","nocrits","nodmgspread","uncletopia"],"game_id":440,"stv_port":27016,"stv_name":"Uncletopia | S√£o Paulo | 2 | Community | STV","players":null},{"server_id":7,"name":"Uncletopia | Seattle | 1 | All Maps","name_short":"sea-1","host":"sea-1.us.uncletopia.com","port":27015,"enabled":true,"region":"us-west","cc":"us","latitude":47.608013,"longitude":-122.33517,"reserved":0,"last_update":"0001-01-01T00:00:00Z","name_a2s":"Uncletopia | Seattle | 1 | All Maps","protocol":17,"map":"cp_gorge","folder":"tf","game":"Team Fortress","app_id":440,"player_count":23,"max_players":24,"Bots":0,"server_type":"Dedicated","server_os":"Linux","password":true,"vac":true,"version":"7961495","steam_id":85568392924469997,"keywords":["cp","nocrits","nodmgspread","uncletopia"],"game_id":440,"stv_port":27016,"stv_name":"Uncletopia | Seattle | 1 | All Maps | STV","players":[{"user_id":50,"name":"Professional Gwen Simp","steam_id":76561198118931392,"connected_time":3172000000000,"state":"active","ping":65},{"user_id":90,"name":"Antikythera","steam_id":76561198045923020,"connected_time":723000000000,"state":"active","ping":90},{"user_id":87,"name":"no vc no c","steam_id":76561197989503095,"connected_time":1290000000000,"state":"active","ping":151},{"user_id":95,"name":"countstinkdevil666","steam_id":76561198073914311,"connected_time":322000000000,"state":"active","ping":73},{"user_id":72,"name":"xXMidgetKicker6942069Xx","steam_id":76561198275339170,"connected_time":2515000000000,"state":"active","ping":87},{"user_id":47,"name":"‚òÖCaseyGlows‚òÖ","steam_id":76561198113616168,"connected_time":3587000000000,"state":"active","ping":74},{"user_id":51,"name":"Manna","steam_id":76561198172298563,"connected_time":3171000000000,"state":"active","ping":118},{"user_id":91,"name":"lorient","steam_id":76561198150831438,"connected_time":660000000000,"state":"active","ping":78},{"user_id":81,"name":"o o o o o o o o o","steam_id":76561197993757506,"connected_time":2183000000000,"state":"active","ping":66},{"user_id":92,"name":"99dentay","steam_id":76561198135771720,"connected_time":656000000000,"state":"active","ping":58},{"user_id":58,"name":"AWGER","steam_id":76561198284683624,"connected_time":2956000000000,"state":"active","ping":75},{"user_id":101,"name":"God's Goofiest Goober","steam_id":76561198418288939,"connected_time":50000000000,"state":"active","ping":60},{"user_id":89,"name":"King Keifer","steam_id":76561198141070466,"connected_time":811000000000,"state":"active","ping":66},{"user_id":98,"name":"Imitation Caucasian","steam_id":76561198320536166,"connected_time":261000000000,"state":"active","ping":94},{"user_id":94,"name":"Ghost","steam_id":76561198426370628,"connected_time":437000000000,"state":"active","ping":113},{"user_id":65,"name":"Grimprr","steam_id":76561198275816797,"connected_time":2624000000000,"state":"active","ping":135},{"user_id":96,"name":"veen","steam_id":76561198084334538,"connected_time":315000000000,"state":"active","ping":119},{"user_id":97,"name":"cat","steam_id":76561198366828434,"connected_time":312000000000,"state":"active","ping":100},{"user_id":79,"name":"Penis Man","steam_id":76561198947885613,"connected_time":2409000000000,"state":"active","ping":82},{"user_id":69,"name":"KlassicLoL","steam_id":76561198081815303,"connected_time":2563000000000,"state":"active","ping":73},{"user_id":100,"name":"Preston","steam_id":76561198255721392,"connected_time":92000000000,"state":"active","ping":119},{"user_id":75,"name":"NE–ØO","steam_id":76561197965450216,"connected_time":2492000000000,"state":"active","ping":46},{"user_id":82,"name":"da pwo","steam_id":76561198963115673,"connected_time":2129000000000,"state":"active","ping":104}]},{"server_id":119,"name":"Uncletopia | Seattle | 2 | All Maps","name_short":"sea-2","host":"sea-1.us.uncletopia.com","port":27025,"enabled":true,"region":"us-west","cc":"us","latitude":47.608013,"longitude":-122.33517,"reserved":0,"last_update":"0001-01-01T00:00:00Z","name_a2s":"Uncletopia | Seattle | 2 | All Maps","protocol":17,"map":"cp_mountainlab","folder":"tf","game":"Team Fortress","app_id":440,"player_count":0,"max_players":24,"Bots":0,"server_type":"Dedicated","server_os":"Linux","password":true,"vac":true,"version":"7961495","steam_id":85568392924469998,"keywords":["cp","nocrits","nodmgspread","uncletopia"],"game_id":440,"stv_port":27026,"stv_name":"Uncletopia | Seattle | 2 | All Maps | STV","players":null},{"server_id":406,"name":"Uncletopia | Seattle | 3 | Stopwatch","name_short":"sea-3","host":"sea-1.us.uncletopia.com","port":27035,"enabled":true,"region":"us-west","cc":"us","latitude":47.608013,"longitude":-122.33517,"reserved":0,"last_update":"0001-01-01T00:00:00Z","name_a2s":"Uncletopia | Seattle | 3 | Stopwatch","protocol":17,"map":"cp_gullywash_final1","folder":"tf","game":"Team Fortress","app_id":440,"player_count":0,"max_players":24,"Bots":0,"server_type":"Dedicated","server_os":"Linux","password":true,"vac":true,"version":"7961495","steam_id":85568392924515217,"keywords":["cp","nocrits","nodmgspread","uncletopia"],"game_id":440,"stv_port":27036,"stv_name":"Uncletopia | Seattle | 3 | Stopwatch | STV","players":null},{"server_id":17,"name":"Uncletopia | San Francisco | 1 | All Maps","name_short":"sfo-1","host":"sfo-1.us.uncletopia.com","port":27015,"enabled":true,"region":"us-west","cc":"us","latitude":37.77397,"longitude":-122.4313,"reserved":0,"last_update":"0001-01-01T00:00:00Z","name_a2s":"Uncletopia | San Francisco | 1 | All Maps","protocol":17,"map":"cp_gullywash_final1","folder":"tf","game":"Team Fortress","app_id":440,"player_count":0,"max_players":24,"Bots":0,"server_type":"Dedicated","server_os":"Linux","password":true,"vac":true,"version":"7961495","steam_id":85568392924469999,"keywords":["cp","nocrits","nodmgspread","uncletopia"],"game_id":440,"stv_port":27016,"stv_name":"Uncletopia | San Francisco | 1 | All Maps | STV","players":null},{"server_id":18,"name":"Uncletopia | San Francisco | 2 | All Maps","name_short":"sfo-2","host":"sfo-1.us.uncletopia.com","port":27025,"enabled":true,"region":"us-west","cc":"us","latitude":37.77397,"longitude":-122.4313,"reserved":0,"last_update":"0001-01-01T00:00:00Z","name_a2s":"Uncletopia | San Francisco | 2 | All Maps","protocol":17,"map":"pl_hoodoo_final","folder":"tf","game":"Team Fortress","app_id":440,"player_count":0,"max_players":24,"Bots":0,"server_type":"Dedicated","server_os":"Linux","password":true,"vac":true,"version":"7961495","steam_id":85568392924470000,"keywords":["nocrits","nodmgspread","payload","uncletopia"],"game_id":440,"stv_port":27026,"stv_name":"Uncletopia | San Francisco | 2 | All Maps | STV","players":null},{"server_id":19,"name":"Uncletopia | San Francisco | 3 | Stopwatch","name_short":"sfo-3","host":"sfo-1.us.uncletopia.com","port":27035,"enabled":true,"region":"us-west","cc":"us","latitude":37.77397,"longitude":-122.4313,"reserved":0,"last_update":"0001-01-01T00:00:00Z","name_a2s":"Uncletopia | San Francisco | 3 | Stopwatch","protocol":17,"map":"workshop/koth_clearcut_b15.ugc2107050255","folder":"tf","game":"Team Fortress","app_id":440,"player_count":0,"max_players":24,"Bots":0,"server_type":"Dedicated","server_os":"Linux","password":true,"vac":true,"version":"7961495","steam_id":85568392924742824,"keywords":["cp","nocrits","nodmgspread","uncletopia"],"game_id":440,"stv_port":27036,"stv_name":"Uncletopia | San Francisco | 3 | Stopwatch | STV","players":null},{"server_id":20,"name":"Uncletopia | San Francisco | 4 | Community","name_short":"sfo-4","host":"sfo-1.us.uncletopia.com","port":27045,"enabled":true,"region":"us-west","cc":"us","latitude":37.77397,"longitude":-122.4313,"reserved":0,"last_update":"0001-01-01T00:00:00Z","name_a2s":"Uncletopia | San Francisco | 4 | Community","protocol":17,"map":"workshop/cp_reckoner_rc6.ugc674719999","folder":"tf","game":"Team Fortress","app_id":440,"player_count":0,"max_players":24,"Bots":0,"server_type":"Dedicated","server_os":"Linux","password":true,"vac":true,"version":"7961495","steam_id":85568392924742826,"keywords":["cp","nocrits","nodmgspread","uncletopia"],"game_id":440,"stv_port":27046,"stv_name":"Uncletopia | San Francisco | 4 | Community | STV","players":null},{"server_id":141,"name":"Uncletopia | Sydney | 1 | All Maps","name_short":"syd-1","host":"syd-1.au.uncletopia.com","port":27015,"enabled":true,"region":"au","cc":"au","latitude":-33.865143,"longitude":151.2099,"reserved":0,"last_update":"0001-01-01T00:00:00Z","name_a2s":"Uncletopia | Sydney | 1 | All Maps","protocol":17,"map":"koth_highpass","folder":"tf","game":"Team Fortress","app_id":440,"player_count":0,"max_players":24,"Bots":0,"server_type":"Dedicated","server_os":"Linux","password":true,"vac":true,"version":"7961495","steam_id":85568392924470001,"keywords":["cp","nocrits","nodmgspread","uncletopia"],"game_id":440,"stv_port":27016,"stv_name":"Uncletopia | Sydney | 1 | All Maps | STV","players":null},{"server_id":123,"name":"Uncletopia | Sydney | 2 | All Maps","name_short":"syd-2","host":"syd-1.au.uncletopia.com","port":27025,"enabled":true,"region":"au","cc":"au","latitude":-33.865143,"longitude":151.2099,"reserved":0,"last_update":"0001-01-01T00:00:00Z","name_a2s":"Uncletopia | Sydney | 2 | All Maps","protocol":17,"map":"pl_barnblitz","folder":"tf","game":"Team Fortress","app_id":440,"player_count":0,"max_players":24,"Bots":0,"server_type":"Dedicated","server_os":"Linux","password":true,"vac":true,"version":"7961495","steam_id":85568392924470002,"keywords":["nocrits","nodmgspread","payload","uncletopia"],"game_id":440,"stv_port":27026,"stv_name":"Uncletopia | Sydney | 2 | All Maps | STV","players":null},{"server_id":395,"name":"Uncletopia | Sydney | 3 | All Maps","name_short":"syd-3","host":"syd-1.au.uncletopia.com","port":27035,"enabled":true,"region":"au","cc":"au","latitude":-33.865143,"longitude":151.2099,"reserved":0,"last_update":"0001-01-01T00:00:00Z","name_a2s":"Uncletopia | Sydney | 3 | All Maps","protocol":17,"map":"cp_snakewater_final1","folder":"tf","game":"Team Fortress","app_id":440,"player_count":0,"max_players":24,"Bots":0,"server_type":"Dedicated","server_os":"Linux","password":true,"vac":true,"version":"7961495","steam_id":85568392925194467,"keywords":["cp","nocrits","nodmgspread","uncletopia"],"game_id":440,"stv_port":27036,"stv_name":"Uncletopia | Sydney | 3 | All Maps | STV","players":null},{"server_id":396,"name":"Uncletopia | Sydney | 4 | All Maps","name_short":"syd-4","host":"syd-1.au.uncletopia.com","port":27045,"enabled":true,"region":"au","cc":"au","latitude":-33.865143,"longitude":151.2099,"reserved":0,"last_update":"0001-01-01T00:00:00Z","name_a2s":"Uncletopia | Sydney | 4 | All Maps","protocol":17,"map":"koth_highpass","folder":"tf","game":"Team Fortress","app_id":440,"player_count":0,"max_players":24,"Bots":0,"server_type":"Dedicated","server_os":"Linux","password":true,"vac":true,"version":"7961495","steam_id":85568392925397958,"keywords":["cp","nocrits","nodmgspread","uncletopia"],"game_id":440,"stv_port":27046,"stv_name":"Uncletopia | Sydney | 4 | All Maps | STV","players":null},{"server_id":58,"name":"Uncletopia | Sydney | 5 | Stopwatch","name_short":"syd-5","host":"syd-1.au.uncletopia.com","port":27055,"enabled":true,"region":"au","cc":"au","latitude":-33.865143,"longitude":151.2099,"reserved":0,"last_update":"0001-01-01T00:00:00Z","name_a2s":"Uncletopia | Sydney | 5 | Stopwatch","protocol":17,"map":"koth_lakeside_final","folder":"tf","game":"Team Fortress","app_id":440,"player_count":0,"max_players":24,"Bots":0,"server_type":"Dedicated","server_os":"Linux","password":true,"vac":true,"version":"7961495","steam_id":85568392925397959,"keywords":["cp","nocrits","nodmgspread","uncletopia"],"game_id":440,"stv_port":27056,"stv_name":"Uncletopia | Sydney | 5 | Stopwatch | STV","players":null},{"server_id":59,"name":"Uncletopia | Sydney | 6 | Community","name_short":"syd-6","host":"syd-1.au.uncletopia.com","port":27065,"enabled":true,"region":"au","cc":"au","latitude":-33.865143,"longitude":151.2099,"reserved":0,"last_update":"0001-01-01T00:00:00Z","name_a2s":"Uncletopia | Sydney | 6 | Community","protocol":17,"map":"workshop/koth_soot_final1.ugc2969540689","folder":"tf","game":"Team Fortress","app_id":440,"player_count":0,"max_players":24,"Bots":0,"server_type":"Dedicated","server_os":"Linux","password":true,"vac":true,"version":"7961495","steam_id":85568392925397960,"keywords":["cp","nocrits","nodmgspread","uncletopia"],"game_id":440,"stv_port":27066,"stv_name":"Uncletopia | Sydney | 6 | Community | STV","players":null},{"server_id":49,"name":"Uncletopia | Warsaw | 1 | One Thousand Uncles","name_short":"waw-1","host":"waw-1.pl.uncletopia.com","port":27015,"enabled":true,"region":"eu","cc":"pl","latitude":52.2297,"longitude":21.017532,"reserved":0,"last_update":"0001-01-01T00:00:00Z","name_a2s":"Uncletopia | Warsaw | 1 | One Thousand Uncles","protocol":17,"map":"pl_thundermountain","folder":"tf","game":"Team Fortress","app_id":440,"player_count":32,"max_players":32,"Bots":20,"server_type":"Dedicated","server_os":"Linux","password":true,"vac":true,"version":"7961495","steam_id":85568392925397850,"keywords":["alltalk","bots","danepve","increased_maxplayers","norespawntime","payload","uncletopia"],"game_id":440,"stv_port":0,"stv_name":"","players":[{"user_id":352,"name":"KipxSateee","steam_id":76561198149158137,"connected_time":1901000000000,"state":"active","ping":78},{"user_id":349,"name":"Doods","steam_id":76561199172809660,"connected_time":2361000000000,"state":"active","ping":110},{"user_id":346,"name":"Kotlet schabowy","steam_id":76561198048983509,"connected_time":3318000000000,"state":"active","ping":52},{"user_id":350,"name":"Hungeryan","steam_id":76561198887299930,"connected_time":2055000000000,"state":"active","ping":81},{"user_id":359,"name":"facetious dog","steam_id":76561198095289436,"connected_time":474000000000,"state":"active","ping":63},{"user_id":360,"name":"Xi Bingchilling","steam_id":76561198154310301,"connected_time":418000000000,"state":"active","ping":71},{"user_id":355,"name":"Alanyalƒ±07","steam_id":76561199227021047,"connected_time":1120000000000,"state":"active","ping":105},{"user_id":356,"name":"puffy","steam_id":76561198411347037,"connected_time":1110000000000,"state":"active","ping":162},{"user_id":358,"name":"The Fire Pyro","steam_id":76561198300296457,"connected_time":544000000000,"state":"active","ping":76},{"user_id":361,"name":"sokoltd31","steam_id":76561199481892547,"connected_time":341000000000,"state":"active","ping":108},{"user_id":362,"name":"keybored13","steam_id":76561199124583416,"connected_time":237000000000,"state":"active","ping":180},{"user_id":363,"name":"chomik17","steam_id":76561199476685290,"connected_time":33000000000,"state":"active","ping":85}]},{"server_id":50,"name":"Uncletopia | Warsaw | 2 | One Thousand Uncles","name_short":"waw-2","host":"waw-1.pl.uncletopia.com","port":27025,"enabled":true,"region":"eu","cc":"pl","latitude":52.2297,"longitude":21.017532,"reserved":0,"last_update":"0001-01-01T00:00:00Z","name_a2s":"Uncletopia | Warsaw | 2 | One Thousand Uncles","protocol":17,"map":"pl_thundermountain","folder":"tf","game":"Team Fortress","app_id":440,"player_count":21,"max_players":32,"Bots":20,"server_type":"Dedicated","server_os":"Linux","password":true,"vac":true,"version":"7961495","steam_id":85568392925397851,"keywords":["alltalk","bots","danepve","increased_maxplayers","norespawntime","payload","uncletopia"],"game_id":440,"stv_port":0,"stv_name":"","players":[{"user_id":249,"name":"Dapper Pan Man","steam_id":76561197981874399,"connected_time":543000000000,"state":"active","ping":55}]},{"server_id":51,"name":"Uncletopia | Warsaw | 3 | All Maps","name_short":"waw-3","host":"waw-1.pl.uncletopia.com","port":27035,"enabled":true,"region":"eu","cc":"pl","latitude":52.2297,"longitude":21.017532,"reserved":0,"last_update":"0001-01-01T00:00:00Z","name_a2s":"Uncletopia | Warsaw | 3 | All Maps","protocol":17,"map":"koth_highpass","folder":"tf","game":"Team Fortress","app_id":440,"player_count":5,"max_players":24,"Bots":0,"server_type":"Dedicated","server_os":"Linux","password":true,"vac":true,"version":"7961495","steam_id":85568392925397852,"keywords":["cp","nocrits","nodmgspread","uncletopia"],"game_id":440,"stv_port":27036,"stv_name":"Uncletopia | Warsaw | 3 | All Maps | STV","players":[{"user_id":17,"name":"KBG","steam_id":76561198002214466,"connected_time":971000000000,"state":"active","ping":83},{"user_id":18,"name":"chefens-penis","steam_id":76561198002168289,"connected_time":966000000000,"state":"active","ping":82},{"user_id":19,"name":"Zabuza","steam_id":76561198002168225,"connected_time":951000000000,"state":"active","ping":93},{"user_id":20,"name":"Mr Magoo","steam_id":76561198002168293,"connected_time":915000000000,"state":"active","ping":100},{"user_id":21,"name":"notsobadgeneral","steam_id":76561199498184364,"connected_time":287000000000,"state":"active","ping":248}]},{"server_id":52,"name":"Uncletopia | Warsaw | 4 | All Maps","name_short":"waw-4","host":"waw-1.pl.uncletopia.com","port":27045,"enabled":true,"region":"eu","cc":"pl","latitude":52.2297,"longitude":21.017532,"reserved":0,"last_update":"0001-01-01T00:00:00Z","name_a2s":"Uncletopia | Warsaw | 4 | All Maps","protocol":17,"map":"ctf_turbine","folder":"tf","game":"Team Fortress","app_id":440,"player_count":0,"max_players":24,"Bots":0,"server_type":"Dedicated","server_os":"Linux","password":true,"vac":true,"version":"7961495","steam_id":85568392925397853,"keywords":["ctf","nocrits","nodmgspread","uncletopia"],"game_id":440,"stv_port":27046,"stv_name":"Uncletopia | Warsaw | 4 | All Maps | STV","players":null},{"server_id":53,"name":"Uncletopia | Warsaw | 5 | Stopwatch","name_short":"waw-5","host":"waw-1.pl.uncletopia.com","port":27055,"enabled":true,"region":"eu","cc":"pl","latitude":52.2297,"longitude":21.017532,"reserved":0,"last_update":"0001-01-01T00:00:00Z","name_a2s":"Uncletopia | Warsaw | 5 | Stopwatch","protocol":17,"map":"cp_metalworks","folder":"tf","game":"Team Fortress","app_id":440,"player_count":0,"max_players":24,"Bots":0,"server_type":"Dedicated","server_os":"Linux","password":true,"vac":true,"version":"7961495","steam_id":85568392925397854,"keywords":["cp","nocrits","nodmgspread","uncletopia"],"game_id":440,"stv_port":27056,"stv_name":"Uncletopia | Warsaw | 5 | Stopwatch | STV","players":null},{"server_id":54,"name":"Uncletopia | Warsaw | 6 | Community","name_short":"waw-6","host":"waw-1.pl.uncletopia.com","port":27065,"enabled":true,"region":"eu","cc":"pl","latitude":52.2297,"longitude":21.017532,"reserved":0,"last_update":"0001-01-01T00:00:00Z","name_a2s":"Uncletopia | Warsaw | 6 | Community","protocol":17,"map":"workshop/pl_highwood_b19.ugc1769496557","folder":"tf","game":"Team Fortress","app_id":440,"player_count":0,"max_players":24,"Bots":0,"server_type":"Dedicated","server_os":"Linux","password":true,"vac":true,"version":"7961495","steam_id":85568392925397856,"keywords":["nocrits","nodmgspread","payload","uncletopia"],"game_id":440,"stv_port":27066,"stv_name":"Uncletopia | Warsaw | 6 | Community | STV","players":null}]}