{"status":true,"message":"","result":[{"server_id":9,"name":"Uncletopia | Atlanta | 1 | All Maps","name_short":"atl-1","host":"atl-1.us.uncletopia.com","port":27015,"enabled":true,"region":"us-east","cc":"us","latitude":33.753746,"longitude":-84.38633,"reserved":0,"last_update":"0001-01-01T00:00:00Z","name_a2s":"Uncletopia | Atlanta | 1 | All Maps","protocol":17,"map":"pl_frontier_final","folder":"tf","game":"Team Fortress","app_id":440,"player_count":22,"max_players":24,"Bots":0,"server_type":"Dedicated","server_os":"Linux","password":true,"vac":true,"version":"7757534","steam_id":85568392924469982,"keywords":["nocrits","nodmgspread","payload","uncletopia"],"game_id":440,"stv_port":27016,"stv_name":"Uncletopia | Atlanta | 1 | All Maps | STV","players":[{"user_id":277,"name":"Jackleg Joel","steam_id":76561198271636476,"connected_time":2573000000000,"state":"spawning","ping":121},{"user_id":272,"name":"Wingm4n","steam_id":76561198064127012,"connected_time":2594000000000,"state":"active","ping":45},{"user_id":229,"name":"Karma","steam_id":76561198030565234,"connected_time":6896000000000,"state":"active","ping":67},{"user_id":311,"name":"MyamE","steam_id":76561198133278462,"connected_time":239000000000,"state":"active","ping":71},{"user_id":290,"name":"thomasdee725","steam_id":76561199189526173,"connected_time":1491000000000,"state":"spawning","ping":57},{"user_id":317,"name":"NameNotFound","steam_id":76561199161985805,"connected_time":21000000000,"state":"spawning","ping":93},{"user_id":313,"name":"Random User","steam_id":76561199081044980,"connected_time":139000000000,"state":"active","ping":94},{"user_id":279,"name":"Master Of Whales","steam_id":76561198349104889,"connected_time":2560000000000,"state":"active","ping":119},{"user_id":296,"name":"WamBamSlamSam","steam_id":76561199099512106,"connected_time":712000000000,"state":"active","ping":100},{"user_id":291,"name":"G_Bob","steam_id":76561198098133233,"connected_time":937000000000,"state":"active","ping":54},{"user_id":304,"name":"Kaluka","steam_id":76561198036861445,"connected_time":455000000000,"state":"active","ping":54},{"user_id":297,"name":"rustyorion","steam_id":76561198439186347,"connected_time":702000000000,"state":"active","ping":112},{"user_id":300,"name":"ferretgamer","steam_id":76561198880523320,"connected_time":507000000000,"state":"active","ping":79},{"user_id":305,"name":"GoldtoothFour","steam_id":76561198055529332,"connected_time":443000000000,"state":"active","ping":73},{"user_id":312,"name":"JoekCM","steam_id":76561198115069320,"connected_time":152000000000,"state":"active","ping":93},{"user_id":303,"name":"BUNGACOWA","steam_id":76561198979176018,"connected_time":482000000000,"state":"active","ping":64},{"user_id":307,"name":"TheTruthOfTheCessationOfDukkha","steam_id":76561198214370515,"connected_time":424000000000,"state":"active","ping":61},{"user_id":267,"name":"lil hog","steam_id":76561199230929836,"connected_time":3366000000000,"state":"active","ping":87},{"user_id":309,"name":"Dr. Strangelove","steam_id":76561198014593467,"connected_time":404000000000,"state":"active","ping":37},{"user_id":266,"name":"BIG HOG","steam_id":76561198079923652,"connected_time":3882000000000,"state":"active","ping":64},{"user_id":310,"name":"batheman63","steam_id":76561198881818552,"connected_time":352000000000,"state":"active","ping":89},{"user_id":315,"name":"Klip","steam_id":76561198316254429,"connected_time":97000000000,"state":"active","ping":75}]},{"server_id":400,"name":"Uncletopia | Atlanta | 3 | Community","name_short":"atl-3","host":"atl-1.us.uncletopia.com","port":27035,"enabled":true,"region":"us-east","cc":"us","latitude":33.753746,"longitude":-84.38633,"reserved":0,"last_update":"0001-01-01T00:00:00Z","name_a2s":"Uncletopia | Atlanta | 3 | Community","protocol":17,"map":"workshop/pl_cactuscanyon_redux_rc4b.ugc2579644293","folder":"tf","game":"Team Fortress","app_id":440,"player_count":1,"max_players":32,"Bots":0,"server_type":"Dedicated","server_os":"Linux","password":true,"vac":true,"version":"7757534","steam_id":85568392924515187,"keywords":["increased_maxplayers","nocrits","nodmgspread","payload","uncletopia"],"game_id":440,"stv_port":27036,"stv_name":"Uncletopia | Atlanta | 3 | Community | STV","players":[{"user_id":15,"name":"latte","steam_id":76561198258062078,"connected_time":87000000000,"state":"active","ping":54}]},{"server_id":401,"name":"Uncletopia | Atlanta | 4 | No Payload","name_short":"atl-4","host":"atl-1.us.uncletopia.com","port":27045,"enabled":true,"region":"us-east","cc":"us","latitude":33.753746,"longitude":-84.38633,"reserved":0,"last_update":"0001-01-01T00:00:00Z","name_a2s":"","protocol":0,"map":"","folder":"","game":"","app_id":0,"player_count":0,"max_players":0,"Bots":0,"server_type":"","server_os":"","password":false,"vac":false,"version":"","steam_id":0,"keywords":null,"game_id":0,"stv_port":0,"stv_name":"","players":null},{"server_id":2,"name":"Uncletopia | Chicago | 1 | All Maps","name_short":"chi-1","host":"chi-1.us.uncletopia.com","port":27015,"enabled":true,"region":"us-central","cc":"us","latitude":41.881832,"longitude":-87.62318,"reserved":0,"last_update":"0001-01-01T00:00:00Z","name_a2s":"Uncletopia | Chicago | 1 | All Maps","protocol":17,"map":"pl_frontier_final","folder":"tf","game":"Team Fortress","app_id":440,"player_count":24,"max_players":24,"Bots":0,"server_type":"Dedicated","server_os":"Linux","password":true,"vac":true,"version":"7757534","steam_id":85568392924469984,"keywords":["nocrits","nodmgspread","payload","uncletopia"],"game_id":440,"stv_port":27016,"stv_name":"Uncletopia | Chicago | 1 | All Maps | STV","players":[{"user_id":571,"name":"ShitsandGiggles™","steam_id":76561198058708019,"connected_time":5683000000000,"state":"active","ping":55},{"user_id":621,"name":"Kars","steam_id":76561198845612670,"connected_time":1401000000000,"state":"active","ping":78},{"user_id":639,"name":"richard clock","steam_id":76561198048455671,"connected_time":274000000000,"state":"active","ping":55},{"user_id":638,"name":"SlippyPunk","steam_id":76561198048551455,"connected_time":332000000000,"state":"active","ping":83},{"user_id":613,"name":"Friendly Scientist","steam_id":76561198158938889,"connected_time":1965000000000,"state":"active","ping":105},{"user_id":640,"name":"ly","steam_id":76561198062922146,"connected_time":264000000000,"state":"active","ping":73},{"user_id":641,"name":"Regal","steam_id":76561198092422621,"connected_time":257000000000,"state":"active","ping":62},{"user_id":633,"name":"Hank the Tank","steam_id":76561198424853684,"connected_time":895000000000,"state":"active","ping":90},{"user_id":634,"name":"samantha","steam_id":76561198299290069,"connected_time":871000000000,"state":"active","ping":77},{"user_id":642,"name":"Jailbreak","steam_id":76561198802085218,"connected_time":253000000000,"state":"active","ping":86},{"user_id":643,"name":"MasterAmongRust","steam_id":76561198010160233,"connected_time":247000000000,"state":"active","ping":76},{"user_id":644,"name":"Funny Skeleton Man","steam_id":76561198264262564,"connected_time":245000000000,"state":"active","ping":73},{"user_id":618,"name":"N8","steam_id":76561198077788860,"connected_time":1923000000000,"state":"active","ping":66},{"user_id":572,"name":"chloe","steam_id":76561198369849908,"connected_time":5664000000000,"state":"active","ping":77},{"user_id":600,"name":"jstn","steam_id":76561198845283665,"connected_time":3086000000000,"state":"active","ping":70},{"user_id":648,"name":"rontu","steam_id":76561199072955534,"connected_time":131000000000,"state":"active","ping":50},{"user_id":595,"name":"Brown_Dream","steam_id":76561198975766145,"connected_time":3145000000000,"state":"active","ping":80},{"user_id":609,"name":"Eden","steam_id":76561198075587475,"connected_time":2996000000000,"state":"active","ping":42},{"user_id":645,"name":"6t26j","steam_id":76561198278282836,"connected_time":207000000000,"state":"active","ping":55},{"user_id":583,"name":"Killerkarate","steam_id":76561198067533929,"connected_time":4598000000000,"state":"active","ping":55},{"user_id":625,"name":"Stock Medic","steam_id":76561198065479730,"connected_time":1336000000000,"state":"active","ping":45},{"user_id":646,"name":"PrinceGrotle","steam_id":76561198206131603,"connected_time":202000000000,"state":"active","ping":76},{"user_id":647,"name":"▲▼▲ Paul Atreideeznuts","steam_id":76561198015714075,"connected_time":190000000000,"state":"active","ping":86},{"user_id":631,"name":"Kally™","steam_id":76561198112369159,"connected_time":1077000000000,"state":"active","ping":68}]},{"server_id":106,"name":"Uncletopia | Chicago | 2 | All Maps","name_short":"chi-2","host":"chi-1.us.uncletopia.com","port":27025,"enabled":true,"region":"us-central","cc":"us","latitude":41.881832,"longitude":-87.62318,"reserved":0,"last_update":"0001-01-01T00:00:00Z","name_a2s":"Uncletopia | Chicago | 2 | All Maps","protocol":17,"map":"pl_borneo","folder":"tf","game":"Team Fortress","app_id":440,"player_count":24,"max_players":24,"Bots":0,"server_type":"Dedicated","server_os":"Linux","password":true,"vac":true,"version":"7757534","steam_id":85568392924469985,"keywords":["nocrits","nodmgspread","payload","uncletopia"],"game_id":440,"stv_port":27026,"stv_name":"Uncletopia | Chicago | 2 | All Maps | STV","players":[{"user_id":105,"name":"Sir Iasis","steam_id":76561198035666760,"connected_time":723000000000,"state":"active","ping":64},{"user_id":96,"name":"golem","steam_id":76561198355040593,"connected_time":998000000000,"state":"active","ping":71},{"user_id":94,"name":"NOLSEY","steam_id":76561198108959504,"connected_time":1025000000000,"state":"active","ping":54},{"user_id":103,"name":"Crunchy","steam_id":76561198060342804,"connected_time":865000000000,"state":"active","ping":71},{"user_id":98,"name":"avantime","steam_id":76561199203175541,"connected_time":977000000000,"state":"active","ping":84},{"user_id":108,"name":"yomommasabitch","steam_id":76561198323217150,"connected_time":362000000000,"state":"active","ping":60},{"user_id":83,"name":"yeyoi","steam_id":76561198069821885,"connected_time":1815000000000,"state":"active","ping":66},{"user_id":36,"name":"Medic GF","steam_id":76561198400531556,"connected_time":4523000000000,"state":"active","ping":61},{"user_id":84,"name":"⊰Aero⊱","steam_id":76561198084648457,"connected_time":1763000000000,"state":"active","ping":61},{"user_id":38,"name":"RowdyCJ11","steam_id":76561198088929792,"connected_time":4521000000000,"state":"active","ping":49},{"user_id":45,"name":"fallacy","steam_id":76561198057374871,"connected_time":4372000000000,"state":"active","ping":60},{"user_id":99,"name":"K4le","steam_id":76561198747668363,"connected_time":973000000000,"state":"active","ping":110},{"user_id":89,"name":"Josh","steam_id":76561198055691099,"connected_time":1608000000000,"state":"active","ping":74},{"user_id":106,"name":"【 caden / karma 】","steam_id":76561198072276429,"connected_time":719000000000,"state":"active","ping":86},{"user_id":104,"name":"xiphoidar","steam_id":76561198146044049,"connected_time":814000000000,"state":"active","ping":76},{"user_id":109,"name":"Y","steam_id":76561198251665862,"connected_time":311000000000,"state":"active","ping":101},{"user_id":48,"name":"Biosock Infiknit","steam_id":76561198072693794,"connected_time":4354000000000,"state":"active","ping":52},{"user_id":49,"name":"hack fraud","steam_id":76561198015036066,"connected_time":4337000000000,"state":"active","ping":95},{"user_id":67,"name":"StarCopper","steam_id":76561198024890295,"connected_time":3132000000000,"state":"active","ping":84},{"user_id":72,"name":"[El Fail] MR.BadassMCLee","steam_id":76561198043787818,"connected_time":2721000000000,"state":"active","ping":128},{"user_id":101,"name":"Bandit","steam_id":76561198328421159,"connected_time":962000000000,"state":"active","ping":62},{"user_id":78,"name":"Pohnut","steam_id":76561198087831690,"connected_time":2391000000000,"state":"active","ping":149},{"user_id":110,"name":"Hoonter","steam_id":76561199180153537,"connected_time":31000000000,"state":"active","ping":200},{"user_id":79,"name":"h20verdrive","steam_id":76561198115957085,"connected_time":2357000000000,"state":"active","ping":90}]},{"server_id":402,"name":"Uncletopia | Chicago | 3 | All Maps","name_short":"chi-3","host":"chi-1.us.uncletopia.com","port":27035,"enabled":true,"region":"us-central","cc":"us","latitude":41.881832,"longitude":-87.62318,"reserved":0,"last_update":"0001-01-01T00:00:00Z","name_a2s":"Uncletopia | Chicago | 3 | All Maps","protocol":17,"map":"pl_swiftwater_final1","folder":"tf","game":"Team Fortress","app_id":440,"player_count":24,"max_players":24,"Bots":0,"server_type":"Dedicated","server_os":"Linux","password":true,"vac":true,"version":"7757534","steam_id":85568392924515191,"keywords":["nocrits","nodmgspread","payload","uncletopia"],"game_id":440,"stv_port":27036,"stv_name":"Uncletopia | Chicago | 3 | All Maps | STV","players":[{"user_id":14,"name":"BeckBeck","steam_id":76561198316018749,"connected_time":7996000000000,"state":"active","ping":108},{"user_id":109,"name":"Owl Pacino","steam_id":76561197979970666,"connected_time":1901000000000,"state":"active","ping":53},{"user_id":135,"name":"Dispenser (Twan)","steam_id":76561197991064908,"connected_time":612000000000,"state":"active","ping":68},{"user_id":120,"name":"Boogie","steam_id":76561198043626626,"connected_time":1547000000000,"state":"active","ping":59},{"user_id":125,"name":"Universal Knowledge Allah","steam_id":76561198855935442,"connected_time":1213000000000,"state":"active","ping":73},{"user_id":138,"name":"Huntpk","steam_id":76561198340591674,"connected_time":321000000000,"state":"active","ping":33},{"user_id":102,"name":"THESHITRIPPER","steam_id":76561198063099828,"connected_time":2558000000000,"state":"active","ping":52},{"user_id":85,"name":"Prison Sal","steam_id":76561198355553673,"connected_time":3978000000000,"state":"active","ping":57},{"user_id":30,"name":"Mr_Frosty","steam_id":76561199380389079,"connected_time":7144000000000,"state":"active","ping":114},{"user_id":127,"name":"lukamine","steam_id":76561198166827208,"connected_time":1112000000000,"state":"active","ping":96},{"user_id":130,"name":"bb.rrr","steam_id":76561198339644583,"connected_time":920000000000,"state":"active","ping":54},{"user_id":128,"name":"Sokky","steam_id":76561198001798544,"connected_time":1081000000000,"state":"active","ping":69},{"user_id":110,"name":"sibling bane","steam_id":76561198196769297,"connected_time":1880000000000,"state":"active","ping":60},{"user_id":133,"name":"marilyn","steam_id":76561198096738991,"connected_time":771000000000,"state":"active","ping":92},{"user_id":57,"name":"Fresh Lychee","steam_id":76561198045399559,"connected_time":6268000000000,"state":"active","ping":59},{"user_id":139,"name":"Zero","steam_id":76561199383267408,"connected_time":294000000000,"state":"active","ping":81},{"user_id":106,"name":"Wild_Rumpus","steam_id":76561198066393719,"connected_time":2131000000000,"state":"active","ping":75},{"user_id":113,"name":"sbtfb80","steam_id":76561198993272796,"connected_time":1691000000000,"state":"active","ping":65},{"user_id":99,"name":"captainskullet","steam_id":76561198314597170,"connected_time":2652000000000,"state":"active","ping":67},{"user_id":136,"name":"BobSoup89","steam_id":76561198908566221,"connected_time":457000000000,"state":"active","ping":72},{"user_id":46,"name":"The World's Softest Sandwich","steam_id":76561198015577707,"connected_time":6798000000000,"state":"active","ping":79},{"user_id":131,"name":"the_snoo_muffin","steam_id":76561198806184462,"connected_time":909000000000,"state":"active","ping":83},{"user_id":132,"name":"WHOPPER WHOPPER WHOPPER","steam_id":76561198035776269,"connected_time":818000000000,"state":"active","ping":58},{"user_id":67,"name":"Training Arc","steam_id":76561198038832034,"connected_time":5457000000000,"state":"active","ping":105}]},{"server_id":403,"name":"Uncletopia | Chicago | 4 | All Maps","name_short":"chi-4","host":"chi-1.us.uncletopia.com","port":27045,"enabled":true,"region":"us-central","cc":"us","latitude":41.881832,"longitude":-87.62318,"reserved":0,"last_update":"0001-01-01T00:00:00Z","name_a2s":"Uncletopia | Chicago | 4 | All Maps","protocol":17,"map":"pl_frontier_final","folder":"tf","game":"Team Fortress","app_id":440,"player_count":23,"max_players":24,"Bots":0,"server_type":"Dedicated","server_os":"Linux","password":true,"vac":true,"version":"7757534","steam_id":85568392924515193,"keywords":["nocrits","nodmgspread","payload","uncletopia"],"game_id":440,"stv_port":27046,"stv_name":"Uncletopia | Chicago | 4 | All Maps | STV","players":[{"user_id":8,"name":"theduckgoesmoo","steam_id":76561198232695752,"connected_time":2522000000000,"state":"active","ping":68},{"user_id":9,"name":"Hatless Atlas","steam_id":76561198116607159,"connected_time":2520000000000,"state":"active","ping":84},{"user_id":10,"name":"ZeR01206","steam_id":76561198980510227,"connected_time":2520000000000,"state":"active","ping":64},{"user_id":11,"name":"eX0-kriller","steam_id":76561198141350706,"connected_time":2515000000000,"state":"active","ping":136},{"user_id":12,"name":"Umbrex","steam_id":76561198804359810,"connected_time":2513000000000,"state":"active","ping":88},{"user_id":36,"name":"ARE WE HAVING FUN YET","steam_id":76561198028572994,"connected_time":1412000000000,"state":"active","ping":56},{"user_id":14,"name":"Crimson","steam_id":76561198129326627,"connected_time":2497000000000,"state":"active","ping":75},{"user_id":15,"name":"Armoured Bear","steam_id":76561198081552558,"connected_time":2487000000000,"state":"active","ping":174},{"user_id":16,"name":"Disco Monke","steam_id":76561198023012230,"connected_time":2483000000000,"state":"active","ping":182},{"user_id":18,"name":"Fill Up","steam_id":76561198113687330,"connected_time":2440000000000,"state":"active","ping":93},{"user_id":19,"name":"Fun Police","steam_id":76561198267520577,"connected_time":2426000000000,"state":"active","ping":92},{"user_id":20,"name":"Spy TF2","steam_id":76561198824209727,"connected_time":2388000000000,"state":"active","ping":185},{"user_id":21,"name":"for_the_cat","steam_id":76561199258813149,"connected_time":2354000000000,"state":"active","ping":57},{"user_id":42,"name":"rocker234","steam_id":76561198075815619,"connected_time":853000000000,"state":"active","ping":105},{"user_id":23,"name":"landon","steam_id":76561198854364921,"connected_time":2194000000000,"state":"active","ping":115},{"user_id":47,"name":"Our Blick","steam_id":76561197993845142,"connected_time":88000000000,"state":"active","ping":61},{"user_id":44,"name":"the heavy","steam_id":76561198101203842,"connected_time":781000000000,"state":"active","ping":86},{"user_id":39,"name":"Shichinitzi","steam_id":76561198003833732,"connected_time":1224000000000,"state":"active","ping":56},{"user_id":45,"name":"wheres my drink?","steam_id":76561198031675881,"connected_time":638000000000,"state":"active","ping":75},{"user_id":40,"name":"RyInc","steam_id":76561198874261643,"connected_time":1175000000000,"state":"active","ping":45},{"user_id":30,"name":"vistus","steam_id":76561199275275563,"connected_time":2072000000000,"state":"active","ping":74},{"user_id":43,"name":"Orange Juice","steam_id":76561198287860804,"connected_time":791000000000,"state":"active","ping":74},{"user_id":35,"name":"Cherry Juice","steam_id":76561198366570108,"connected_time":1458000000000,"state":"active","ping":63}]},{"server_id":36,"name":"Uncletopia | Chicago | 5 | All Maps","name_short":"chi-5","host":"chi-2.us.uncletopia.com","port":27015,"enabled":true,"region":"us-central","cc":"us","latitude":41.881832,"longitude":-87.62318,"reserved":0,"last_update":"0001-01-01T00:00:00Z","name_a2s":"Uncletopia | Chicago | 5 | All Maps","protocol":17,"map":"cp_dustbowl","folder":"tf","game":"Team Fortress","app_id":440,"player_count":24,"max_players":24,"Bots":0,"server_type":"Dedicated","server_os":"Linux","password":true,"vac":true,"version":"7757534","steam_id":85568392924866362,"keywords":["cp","nocrits","nodmgspread","uncletopia"],"game_id":440,"stv_port":27016,"stv_name":"Uncletopia | Chicago | 5 | All Maps | STV","players":[{"user_id":168,"name":"Trolldier 76","steam_id":76561198036504161,"connected_time":324000000000,"state":"active","ping":135},{"user_id":109,"name":"Fresh0c0","steam_id":76561198271933283,"connected_time":4202000000000,"state":"active","ping":60},{"user_id":165,"name":"Mythical Lag","steam_id":76561198347031281,"connected_time":548000000000,"state":"active","ping":72},{"user_id":141,"name":"Macko","steam_id":76561198452005461,"connected_time":1944000000000,"state":"active","ping":75},{"user_id":166,"name":"Complex_Divine","steam_id":76561198812369488,"connected_time":548000000000,"state":"active","ping":89},{"user_id":137,"name":"Poison Ivy","steam_id":76561198072384574,"connected_time":2627000000000,"state":"active","ping":54},{"user_id":111,"name":"ihavetapeworms","steam_id":76561198357040313,"connected_time":4141000000000,"state":"active","ping":98},{"user_id":161,"name":"Super","steam_id":76561199179611350,"connected_time":911000000000,"state":"active","ping":63},{"user_id":139,"name":"koompa_stomp","steam_id":76561198073081735,"connected_time":2282000000000,"state":"active","ping":98},{"user_id":148,"name":"a cow","steam_id":76561198342340057,"connected_time":1837000000000,"state":"active","ping":82},{"user_id":143,"name":"Wyodu","steam_id":76561198406237593,"connected_time":1906000000000,"state":"active","ping":171},{"user_id":135,"name":"Michaelpc1","steam_id":76561198088365519,"connected_time":2910000000000,"state":"active","ping":84},{"user_id":155,"name":"Nickolai9","steam_id":76561198035759401,"connected_time":1365000000000,"state":"active","ping":62},{"user_id":173,"name":"s___ on the grass","steam_id":76561198008453104,"connected_time":4000000000,"state":"spawning","ping":53},{"user_id":151,"name":"Alfonso Molestro","steam_id":76561197998677099,"connected_time":1656000000000,"state":"active","ping":75},{"user_id":156,"name":"worlds richest man","steam_id":76561198028272797,"connected_time":1331000000000,"state":"active","ping":74},{"user_id":110,"name":"Weak","steam_id":76561198857135096,"connected_time":4193000000000,"state":"active","ping":76},{"user_id":136,"name":"Detonator Dave","steam_id":76561198138221795,"connected_time":2850000000000,"state":"active","ping":75},{"user_id":162,"name":"Draconic Ballad","steam_id":76561198027191515,"connected_time":910000000000,"state":"active","ping":52},{"user_id":171,"name":"lfty","steam_id":76561198283841707,"connected_time":259000000000,"state":"active","ping":64},{"user_id":163,"name":"Adalwolfa","steam_id":76561198194671218,"connected_time":806000000000,"state":"active","ping":53},{"user_id":167,"name":"HomyachiK","steam_id":76561198272480377,"connected_time":547000000000,"state":"active","ping":166},{"user_id":152,"name":"Pab","steam_id":76561199006759137,"connected_time":1646000000000,"state":"active","ping":161},{"user_id":129,"name":"Doppelpunkt","steam_id":76561198102137730,"connected_time":3216000000000,"state":"active","ping":49}]},{"server_id":37,"name":"Uncletopia | Chicago | 6 | All Maps","name_short":"chi-6","host":"chi-2.us.uncletopia.com","port":27025,"enabled":true,"region":"us-central","cc":"us","latitude":41.881832,"longitude":-87.62318,"reserved":0,"last_update":"0001-01-01T00:00:00Z","name_a2s":"Uncletopia | Chicago | 6 | All Maps","protocol":17,"map":"koth_cascade","folder":"tf","game":"Team Fortress","app_id":440,"player_count":3,"max_players":24,"Bots":0,"server_type":"Dedicated","server_os":"Linux","password":true,"vac":true,"version":"7757534","steam_id":85568392924866363,"keywords":["cp","nocrits","nodmgspread","uncletopia"],"game_id":440,"stv_port":27026,"stv_name":"Uncletopia | Chicago | 6 | All Maps | STV","players":[{"user_id":6,"name":"puppyonline_","steam_id":76561198253574099,"connected_time":2100000000000,"state":"active","ping":54},{"user_id":7,"name":"glacier!!","steam_id":76561198980301310,"connected_time":2094000000000,"state":"active","ping":74},{"user_id":9,"name":"Mxple.","steam_id":76561199165140868,"connected_time":1512000000000,"state":"active","ping":167}]},{"server_id":38,"name":"Uncletopia | Chicago | 7 | Stopwatch Beta","name_short":"chi-7","host":"chi-2.us.uncletopia.com","port":27035,"enabled":true,"region":"us-central","cc":"us","latitude":41.881832,"longitude":-87.62318,"reserved":0,"last_update":"0001-01-01T00:00:00Z","name_a2s":"Uncletopia | Chicago | 7 | Stopwatch Beta","protocol":17,"map":"pl_upward","folder":"tf","game":"Team Fortress","app_id":440,"player_count":0,"max_players":24,"Bots":0,"server_type":"Dedicated","server_os":"Linux","password":true,"vac":true,"version":"7757534","steam_id":85568392924866364,"keywords":["nocrits","nodmgspread","payload","uncletopia"],"game_id":440,"stv_port":27036,"stv_name":"Uncletopia | Chicago | 7 | Stopwatch Beta | STV","players":null},{"server_id":39,"name":"Uncletopia | Chicago | 8 | Community","name_short":"chi-8","host":"chi-2.us.uncletopia.com","port":27045,"enabled":true,"region":"us-central","cc":"us","latitude":41.881832,"longitude":-87.62318,"reserved":0,"last_update":"0001-01-01T00:00:00Z","name_a2s":"Uncletopia | Chicago | 8 | Community","protocol":17,"map":"pl_barnblitz","folder":"tf","game":"Team Fortress","app_id":440,"player_count":0,"max_players":24,"Bots":0,"server_type":"Dedicated","server_os":"Linux","password":true,"vac":true,"version":"7757534","steam_id":85568392924866365,"keywords":["nocrits","nodmgspread","payload","uncletopia"],"game_id":440,"stv_port":27046,"stv_name":"Uncletopia | Chicago | 8 | Community | STV","players":null},{"server_id":8,"name":"Uncletopia | Dallas | 1 | All Maps","name_short":"dal-1","host":"dal-1.us.uncletopia.com","port":27015,"enabled":true,"region":"us-central","cc":"us","latitude":32.779167,"longitude":-96.80889,"reserved":0,"last_update":"0001-01-01T00:00:00Z","name_a2s":"Uncletopia | Dallas | 1 | All Maps","protocol":17,"map":"cp_sunshine","folder":"tf","game":"Team Fortress","app_id":440,"player_count":22,"max_players":24,"Bots":0,"server_type":"Dedicated","server_os":"Linux","password":true,"vac":true,"version":"7757534","steam_id":85568392924469986,"keywords":["cp","nocrits","nodmgspread","uncletopia"],"game_id":440,"stv_port":27016,"stv_name":"Uncletopia | Dallas | 1 | All Maps | STV","players":[{"user_id":267,"name":"canakblasteran","steam_id":76561199472518822,"connected_time":123000000000,"state":"active","ping":87},{"user_id":169,"name":"Huell Howser","steam_id":76561198006387337,"connected_time":5200000000000,"state":"active","ping":78},{"user_id":236,"name":"MeMyBongusAndTheGreatOutdoors","steam_id":76561198097708978,"connected_time":1552000000000,"state":"active","ping":67},{"user_id":235,"name":"Imrgrim","steam_id":76561198135866481,"connected_time":1560000000000,"state":"active","ping":61},{"user_id":265,"name":"pOTATO","steam_id":76561198834489470,"connected_time":143000000000,"state":"active","ping":64},{"user_id":84,"name":"ShinGojirabrYT","steam_id":76561199199037141,"connected_time":9734000000000,"state":"active","ping":158},{"user_id":270,"name":"LeFunnyMan","steam_id":76561199081645289,"connected_time":43000000000,"state":"spawning","ping":56},{"user_id":259,"name":"allenr200415","steam_id":76561198950845093,"connected_time":602000000000,"state":"active","ping":92},{"user_id":254,"name":"pigswill","steam_id":76561197999081865,"connected_time":981000000000,"state":"active","ping":95},{"user_id":268,"name":"damiankiller1243","steam_id":76561198868885090,"connected_time":98000000000,"state":"active","ping":60},{"user_id":243,"name":"Sigiferd","steam_id":76561198148788110,"connected_time":1514000000000,"state":"active","ping":123},{"user_id":247,"name":"Brigadier Brownie","steam_id":76561198040852898,"connected_time":1425000000000,"state":"active","ping":85},{"user_id":274,"name":"Zoot","steam_id":76561198004398296,"connected_time":5000000000,"state":"spawning","ping":59},{"user_id":271,"name":"Takumi Fujiwara","steam_id":76561198146281101,"connected_time":37000000000,"state":"active","ping":91},{"user_id":249,"name":"bottom pride burger","steam_id":76561198322247602,"connected_time":1335000000000,"state":"active","ping":88},{"user_id":253,"name":"Sup m8","steam_id":76561198081659121,"connected_time":1276000000000,"state":"active","ping":35},{"user_id":257,"name":"Broadsword","steam_id":76561198011160411,"connected_time":905000000000,"state":"active","ping":84},{"user_id":239,"name":"boppetson","steam_id":76561198073529045,"connected_time":1547000000000,"state":"active","ping":85},{"user_id":263,"name":"ForeignLander","steam_id":76561199195205705,"connected_time":315000000000,"state":"active","ping":62},{"user_id":233,"name":"kermitcreeper(ZAZA)","steam_id":76561199222829972,"connected_time":1825000000000,"state":"active","ping":62},{"user_id":234,"name":"Treb","steam_id":76561197972961422,"connected_time":1813000000000,"state":"active","ping":84},{"user_id":244,"name":"sketchek wannabe","steam_id":76561198323491654,"connected_time":1514000000000,"state":"active","ping":40}]},{"server_id":108,"name":"Uncletopia | Dallas | 2 | All Maps","name_short":"dal-2","host":"dal-1.us.uncletopia.com","port":27025,"enabled":true,"region":"us-central","cc":"us","latitude":32.779167,"longitude":-96.80889,"reserved":0,"last_update":"0001-01-01T00:00:00Z","name_a2s":"Uncletopia | Dallas | 2 | All Maps","protocol":17,"map":"koth_lakeside_final","folder":"tf","game":"Team Fortress","app_id":440,"player_count":0,"max_players":24,"Bots":0,"server_type":"Dedicated","server_os":"Linux","password":true,"vac":true,"version":"7757534","steam_id":85568392924469988,"keywords":["cp","nocrits","nodmgspread","uncletopia"],"game_id":440,"stv_port":27026,"stv_name":"Uncletopia | Dallas | 2 | All Maps | STV","players":null},{"server_id":5,"name":"Uncletopia | Frankfurt | 1 | All Maps","name_short":"frk-1","host":"frk-1.de.uncletopia.com","port":27015,"enabled":true,"region":"eu","cc":"de","latitude":50.110924,"longitude":8.682127,"reserved":0,"last_update":"0001-01-01T00:00:00Z","name_a2s":"Uncletopia | Frankfurt | 1 | All Maps","protocol":17,"map":"cp_dustbowl","folder":"tf","game":"Team Fortress","app_id":440,"player_count":23,"max_players":24,"Bots":0,"server_type":"Dedicated","server_os":"Linux","password":true,"vac":true,"version":"7757534","steam_id":85568392924469989,"keywords":["cp","nocrits","nodmgspread","uncletopia"],"game_id":440,"stv_port":27016,"stv_name":"Uncletopia | Frankfurt | 1 | All Maps | STV","players":[{"user_id":501,"name":"randompixel","steam_id":76561198003941207,"connected_time":3579000000000,"state":"active","ping":67},{"user_id":531,"name":"Fräulein Flauschig","steam_id":76561197991269023,"connected_time":477000000000,"state":"active","ping":48},{"user_id":521,"name":"Vitamin Weee","steam_id":76561199183937747,"connected_time":1943000000000,"state":"active","ping":86},{"user_id":495,"name":"pizzaboob","steam_id":76561198097507847,"connected_time":4466000000000,"state":"active","ping":75},{"user_id":532,"name":"Anri Okita's Massive Milkers","steam_id":76561199186352720,"connected_time":457000000000,"state":"active","ping":69},{"user_id":533,"name":"Zogg","steam_id":76561198352683491,"connected_time":421000000000,"state":"active","ping":51},{"user_id":536,"name":"Пес Патрон","steam_id":76561198273199378,"connected_time":163000000000,"state":"active","ping":62},{"user_id":520,"name":"MrMedic","steam_id":76561199239610052,"connected_time":2047000000000,"state":"active","ping":107},{"user_id":535,"name":"peter dangling","steam_id":76561198864327475,"connected_time":290000000000,"state":"active","ping":52},{"user_id":430,"name":"Pestdoktor","steam_id":76561198058159271,"connected_time":7989000000000,"state":"active","ping":67},{"user_id":472,"name":"darktheif54","steam_id":76561198043650119,"connected_time":5738000000000,"state":"active","ping":53},{"user_id":527,"name":"paguro","steam_id":76561198119560871,"connected_time":1204000000000,"state":"active","ping":69},{"user_id":506,"name":"BlinkedUp","steam_id":76561198249985618,"connected_time":3364000000000,"state":"active","ping":63},{"user_id":439,"name":"EdSuedi","steam_id":76561199387956486,"connected_time":7050000000000,"state":"active","ping":53},{"user_id":431,"name":"Miss Bari","steam_id":76561198365286092,"connected_time":7958000000000,"state":"active","ping":48},{"user_id":505,"name":"Mach |=|20BB|)","steam_id":76561198952487564,"connected_time":3365000000000,"state":"active","ping":78},{"user_id":515,"name":"rat performance","steam_id":76561198065854668,"connected_time":2274000000000,"state":"active","ping":53},{"user_id":537,"name":"akela","steam_id":76561198122010232,"connected_time":114000000000,"state":"active","ping":67},{"user_id":523,"name":"ghost","steam_id":76561198189940229,"connected_time":1778000000000,"state":"active","ping":51},{"user_id":538,"name":"Bobo","steam_id":76561198052308399,"connected_time":95000000000,"state":"active","ping":62},{"user_id":539,"name":"let me cook","steam_id":76561198010380786,"connected_time":64000000000,"state":"active","ping":60},{"user_id":432,"name":"LarsInABox","steam_id":76561198028329262,"connected_time":7702000000000,"state":"active","ping":71},{"user_id":492,"name":"Ches subtly into Pizzaboo","steam_id":76561198067204908,"connected_time":4926000000000,"state":"active","ping":68}]},{"server_id":110,"name":"Uncletopia | Frankfurt | 2 | All Maps","name_short":"frk-2","host":"frk-1.de.uncletopia.com","port":27025,"enabled":true,"region":"eu","cc":"de","latitude":50.110924,"longitude":8.682127,"reserved":0,"last_update":"0001-01-01T00:00:00Z","name_a2s":"Uncletopia | Frankfurt | 2 | All Maps","protocol":17,"map":"koth_lazarus","folder":"tf","game":"Team Fortress","app_id":440,"player_count":24,"max_players":24,"Bots":0,"server_type":"Dedicated","server_os":"Linux","password":true,"vac":true,"version":"7757534","steam_id":85568392924469990,"keywords":["cp","nocrits","nodmgspread","uncletopia"],"game_id":440,"stv_port":27026,"stv_name":"Uncletopia | Frankfurt | 2 | All Maps | STV","players":[{"user_id":589,"name":"s a i","steam_id":76561197970379754,"connected_time":4828000000000,"state":"active","ping":57},{"user_id":614,"name":"Mati [EST]","steam_id":76561197994743813,"connected_time":2176000000000,"state":"active","ping":123},{"user_id":632,"name":"Shit sandwich","steam_id":76561198196193317,"connected_time":1125000000000,"state":"active","ping":81},{"user_id":588,"name":"i hate the lil bro meme","steam_id":76561198047359132,"connected_time":5327000000000,"state":"active","ping":74},{"user_id":616,"name":"Klutz","steam_id":76561199466998211,"connected_time":2122000000000,"state":"active","ping":155},{"user_id":609,"name":"Dooble donk man look at me donk","steam_id":76561198225523596,"connected_time":2246000000000,"state":"active","ping":70},{"user_id":639,"name":"Mrbluuub","steam_id":76561199273847084,"connected_time":740000000000,"state":"active","ping":74},{"user_id":628,"name":"TheEventGuy","steam_id":76561197972797744,"connected_time":1488000000000,"state":"active","ping":65},{"user_id":641,"name":"Guts with Grasses","steam_id":76561198335647654,"connected_time":672000000000,"state":"active","ping":43},{"user_id":634,"name":"duck","steam_id":76561198030677425,"connected_time":919000000000,"state":"active","ping":47},{"user_id":635,"name":"fuze","steam_id":76561198018757672,"connected_time":843000000000,"state":"active","ping":75},{"user_id":603,"name":"Chicker","steam_id":76561198809697283,"connected_time":3387000000000,"state":"active","ping":55},{"user_id":650,"name":"purple turtle","steam_id":76561198165833234,"connected_time":28000000000,"state":"active","ping":80},{"user_id":606,"name":"zak","steam_id":76561197998895428,"connected_time":3069000000000,"state":"active","ping":57},{"user_id":649,"name":"Diktoulong","steam_id":76561198170613135,"connected_time":447000000000,"state":"active","ping":157},{"user_id":645,"name":"Aesthetic Alcoholism","steam_id":76561198044418968,"connected_time":573000000000,"state":"active","ping":50},{"user_id":630,"name":"sHIFTINGvORTEX","steam_id":76561198231648332,"connected_time":1321000000000,"state":"active","ping":75},{"user_id":543,"name":"The Bread Bringer","steam_id":76561198264079743,"connected_time":7360000000000,"state":"active","ping":49},{"user_id":590,"name":"Crafting book","steam_id":76561199103410870,"connected_time":4799000000000,"state":"active","ping":47},{"user_id":608,"name":"darthlucas716","steam_id":76561199061519126,"connected_time":2255000000000,"state":"active","ping":169},{"user_id":585,"name":"Joel!","steam_id":76561198155422742,"connected_time":5777000000000,"state":"active","ping":60},{"user_id":646,"name":"Dr. Jabbinton","steam_id":76561198180007387,"connected_time":556000000000,"state":"active","ping":51},{"user_id":548,"name":"¬°Nice","steam_id":76561198387871867,"connected_time":7318000000000,"state":"active","ping":80},{"user_id":648,"name":"Wizops #SaveTf2","steam_id":76561198907030448,"connected_time":491000000000,"state":"active","ping":169}]},{"server_id":308,"name":"Uncletopia | Frankfurt | 3 | All Maps","name_short":"frk-3","host":"frk-1.de.uncletopia.com","port":27035,"enabled":true,"region":"eu","cc":"de","latitude":50.110924,"longitude":8.682127,"reserved":0,"last_update":"0001-01-01T00:00:00Z","name_a2s":"Uncletopia | Frankfurt | 3 | All Maps","protocol":17,"map":"pl_goldrush","folder":"tf","game":"Team Fortress","app_id":440,"player_count":20,"max_players":24,"Bots":0,"server_type":"Dedicated","server_os":"Linux","password":true,"vac":true,"version":"7757534","steam_id":85568392924504274,"keywords":["nocrits","nodmgspread","payload","uncletopia"],"game_id":440,"stv_port":27036,"stv_name":"Uncletopia | Frankfurt | 3 | All Maps | STV","players":[{"user_id":666,"name":"Random Cap","steam_id":76561198129271321,"connected_time":5579000000000,"state":"active","ping":59},{"user_id":731,"name":"Mr. Potato the 11th","steam_id":76561198163246758,"connected_time":336000000000,"state":"active","ping":62},{"user_id":723,"name":"Big Mac Gaming","steam_id":76561198158209651,"connected_time":1257000000000,"state":"active","ping":72},{"user_id":712,"name":"Juiceydough","steam_id":76561197997323419,"connected_time":2597000000000,"state":"active","ping":86},{"user_id":736,"name":"icebro","steam_id":76561199123450840,"connected_time":26000000000,"state":"active","ping":119},{"user_id":737,"name":"dylanm0909","steam_id":76561198042433442,"connected_time":3000000000,"state":"spawning","ping":125},{"user_id":706,"name":"Artur ☻","steam_id":76561198264297604,"connected_time":2701000000000,"state":"active","ping":75},{"user_id":716,"name":"Jedi doggo","steam_id":76561198360026202,"connected_time":2362000000000,"state":"active","ping":82},{"user_id":690,"name":"69Ruby","steam_id":76561198076230407,"connected_time":4586000000000,"state":"active","ping":88},{"user_id":729,"name":"Raivop","steam_id":76561197980854307,"connected_time":382000000000,"state":"active","ping":97},{"user_id":697,"name":"White_spyro","steam_id":76561198155791335,"connected_time":3607000000000,"state":"active","ping":64},{"user_id":727,"name":"demon","steam_id":76561198192080711,"connected_time":561000000000,"state":"active","ping":71},{"user_id":720,"name":"Alienketchup","steam_id":76561197970585162,"connected_time":1613000000000,"state":"active","ping":74},{"user_id":719,"name":"New","steam_id":76561198402195911,"connected_time":2027000000000,"state":"active","ping":110},{"user_id":732,"name":"cal1254","steam_id":76561198444669794,"connected_time":319000000000,"state":"active","ping":56},{"user_id":733,"name":"Delcup","steam_id":76561199006338376,"connected_time":278000000000,"state":"active","ping":117},{"user_id":636,"name":"♥ Cirno ♥","steam_id":76561198834982738,"connected_time":7244000000000,"state":"active","ping":71},{"user_id":735,"name":"THVG","steam_id":76561199156685368,"connected_time":257000000000,"state":"active","ping":60},{"user_id":711,"name":"Farmercy","steam_id":76561198000038039,"connected_time":2621000000000,"state":"active","ping":60},{"user_id":661,"name":"eduardo","steam_id":76561198014491925,"connected_time":5713000000000,"state":"active","ping":79}]},{"server_id":309,"name":"Uncletopia | Frankfurt | 4 | All Maps","name_short":"frk-4","host":"frk-1.de.uncletopia.com","port":27045,"enabled":true,"region":"eu","cc":"de","latitude":50.110924,"longitude":8.682127,"reserved":0,"last_update":"0001-01-01T00:00:00Z","name_a2s":"Uncletopia | Frankfurt | 4 | All Maps","protocol":17,"map":"pl_upward","folder":"tf","game":"Team Fortress","app_id":440,"player_count":24,"max_players":24,"Bots":0,"server_type":"Dedicated","server_os":"Linux","password":true,"vac":true,"version":"7757534","steam_id":85568392924504275,"keywords":["nocrits","nodmgspread","payload","uncletopia"],"game_id":440,"stv_port":27046,"stv_name":"Uncletopia | Frankfurt | 4 | All Maps | STV","players":[{"user_id":519,"name":"i always miss","steam_id":76561199379233899,"connected_time":289000000000,"state":"active","ping":87},{"user_id":520,"name":"lun4tic","steam_id":76561198850496647,"connected_time":288000000000,"state":"active","ping":50},{"user_id":515,"name":"Fran","steam_id":76561199070516960,"connected_time":620000000000,"state":"active","ping":68},{"user_id":517,"name":"doctor amongus","steam_id":76561199096919345,"connected_time":347000000000,"state":"active","ping":94},{"user_id":495,"name":"HUGO","steam_id":76561198317134996,"connected_time":2328000000000,"state":"active","ping":75},{"user_id":521,"name":"Almaynax","steam_id":76561198039757994,"connected_time":272000000000,"state":"active","ping":90},{"user_id":522,"name":"Nice!","steam_id":76561199230709660,"connected_time":195000000000,"state":"active","ping":46},{"user_id":518,"name":"Shynii","steam_id":76561198194682105,"connected_time":314000000000,"state":"active","ping":74},{"user_id":511,"name":"The Lone Wanderer","steam_id":76561199041127565,"connected_time":1058000000000,"state":"active","ping":50},{"user_id":502,"name":"Rolloden","steam_id":76561198069414404,"connected_time":1808000000000,"state":"active","ping":76},{"user_id":484,"name":"Welder","steam_id":76561198355300561,"connected_time":2995000000000,"state":"active","ping":69},{"user_id":503,"name":"Homelander","steam_id":76561198162074008,"connected_time":1787000000000,"state":"active","ping":60},{"user_id":523,"name":"another shit day","steam_id":76561199042470246,"connected_time":191000000000,"state":"active","ping":48},{"user_id":504,"name":"Cobalt","steam_id":76561198326024250,"connected_time":1759000000000,"state":"active","ping":51},{"user_id":524,"name":"ObamaRunEsports","steam_id":76561199102715720,"connected_time":144000000000,"state":"active","ping":90},{"user_id":477,"name":"jawbreaker","steam_id":76561198134746536,"connected_time":3501000000000,"state":"active","ping":75},{"user_id":381,"name":"Aaye","steam_id":76561198032322151,"connected_time":8847000000000,"state":"active","ping":144},{"user_id":498,"name":"Sentry Man","steam_id":76561198088417596,"connected_time":2282000000000,"state":"active","ping":62},{"user_id":510,"name":"Rule Britannia","steam_id":76561198240487186,"connected_time":1221000000000,"state":"active","ping":58},{"user_id":525,"name":"SynthBox3","steam_id":76561199094075745,"connected_time":110000000000,"state":"active","ping":106},{"user_id":508,"name":"p!ke","steam_id":76561198416081952,"connected_time":1551000000000,"state":"active","ping":61},{"user_id":526,"name":"\u003eSix in swedish + y","steam_id":76561198372971096,"connected_time":106000000000,"state":"active","ping":83},{"user_id":480,"name":"Luna","steam_id":76561199140738350,"connected_time":3328000000000,"state":"active","ping":64},{"user_id":473,"name":"Mr. Faptiful","steam_id":76561198085833195,"connected_time":3896000000000,"state":"active","ping":70}]},{"server_id":310,"name":"Uncletopia | Frankfurt | 5 | All Maps","name_short":"frk-5","host":"frk-1.de.uncletopia.com","port":27055,"enabled":true,"region":"eu","cc":"de","latitude":50.110924,"longitude":8.682127,"reserved":0,"last_update":"0001-01-01T00:00:00Z","name_a2s":"Uncletopia | Frankfurt | 5 | All Maps","protocol":17,"map":"koth_viaduct","folder":"tf","game":"Team Fortress","app_id":440,"player_count":2,"max_players":24,"Bots":0,"server_type":"Dedicated","server_os":"Linux","password":true,"vac":true,"version":"7757534","steam_id":85568392924504277,"keywords":["cp","nocrits","nodmgspread","uncletopia"],"game_id":440,"stv_port":27056,"stv_name":"Uncletopia | Frankfurt | 5 | All Maps | STV","players":[{"user_id":26,"name":"titicost2200","steam_id":76561198826858059,"connected_time":3036000000000,"state":"active","ping":102},{"user_id":27,"name":"Jotapê","steam_id":76561198325543532,"connected_time":3023000000000,"state":"active","ping":104}]},{"server_id":311,"name":"Uncletopia | Frankfurt | 6 | All Maps","name_short":"frk-6","host":"frk-1.de.uncletopia.com","port":27065,"enabled":true,"region":"eu","cc":"de","latitude":50.110924,"longitude":8.682127,"reserved":0,"last_update":"0001-01-01T00:00:00Z","name_a2s":"Uncletopia | Frankfurt | 6 | All Maps","protocol":17,"map":"pl_pier","folder":"tf","game":"Team Fortress","app_id":440,"player_count":0,"max_players":24,"Bots":0,"server_type":"Dedicated","server_os":"Linux","password":true,"vac":true,"version":"7757534","steam_id":85568392924504278,"keywords":["nocrits","nodmgspread","payload","uncletopia"],"game_id":440,"stv_port":27066,"stv_name":"Uncletopia | Frankfurt | 6 | All Maps | STV","players":null},{"server_id":23,"name":"Uncletopia | Frankfurt | 7 | Stopwatch Beta","name_short":"frk-7","host":"frk-1.de.uncletopia.com","port":27075,"enabled":true,"region":"eu","cc":"de","latitude":50.110924,"longitude":8.682127,"reserved":0,"last_update":"0001-01-01T00:00:00Z","name_a2s":"Uncletopia | Frankfurt | 7 | Stopwatch Beta","protocol":17,"map":"pl_frontier_final","folder":"tf","game":"Team Fortress","app_id":440,"player_count":0,"max_players":24,"Bots":0,"server_type":"Dedicated","server_os":"Linux","password":true,"vac":true,"version":"7757534","steam_id":85568392924742827,"keywords":["nocrits","nodmgspread","payload","uncletopia"],"game_id":440,"stv_port":27076,"stv_name":"Uncletopia | Frankfurt | 7 | Stopwatch Beta | STV","players":null},{"server_id":24,"name":"Uncletopia | Frankfurt | 8 | Community","name_short":"frk-8","host":"frk-1.de.uncletopia.com","port":27085,"enabled":true,"region":"eu","cc":"de","latitude":50.110924,"longitude":8.682127,"reserved":0,"last_update":"0001-01-01T00:00:00Z","name_a2s":"Uncletopia | Frankfurt | 8 | Community","protocol":17,"map":"workshop/koth_product_final.ugc454272353","folder":"tf","game":"Team Fortress","app_id":440,"player_count":0,"max_players":24,"Bots":0,"server_type":"Dedicated","server_os":"Linux","password":true,"vac":true,"version":"7757534","steam_id":85568392924742828,"keywords":["cp","nocrits","nodmgspread","uncletopia"],"game_id":440,"stv_port":27086,"stv_name":"Uncletopia | Frankfurt | 8 | Community | STV","players":null},{"server_id":202,"name":"Uncletopia | Hong Kong | 1 | All Maps","name_short":"hgk-1","host":"hgk-1.hk.uncletopia.com","port":27015,"enabled":true,"region":"asia","cc":"hk","latitude":22.302711,"longitude":114.177216,"reserved":0,"last_update":"0001-01-01T00:00:00Z","name_a2s":"Uncletopia | Hong Kong | 1 | All Maps","protocol":17,"map":"cp_dustbowl","folder":"tf","game":"Team Fortress","app_id":440,"player_count":0,"max_players":24,"Bots":0,"server_type":"Dedicated","server_os":"Linux","password":true,"vac":true,"version":"7757534","steam_id":85568392924494504,"keywords":["cp","nocrits","nodmgspread","uncletopia"],"game_id":440,"stv_port":27016,"stv_name":"Uncletopia | Hong Kong | 1 | All Maps | STV","players":null},{"server_id":1,"name":"Uncletopia | Los Angeles | 1 | All Maps","name_short":"lax-1","host":"lax-1.us.uncletopia.com","port":27015,"enabled":true,"region":"us-west","cc":"us","latitude":33.94279,"longitude":-118.41004,"reserved":0,"last_update":"0001-01-01T00:00:00Z","name_a2s":"Uncletopia | Los Angeles | 1 | All Maps","protocol":17,"map":"pl_badwater","folder":"tf","game":"Team Fortress","app_id":440,"player_count":24,"max_players":24,"Bots":0,"server_type":"Dedicated","server_os":"Linux","password":true,"vac":true,"version":"7757534","steam_id":85568392924469991,"keywords":["nocrits","nodmgspread","payload","uncletopia"],"game_id":440,"stv_port":27016,"stv_name":"Uncletopia | Los Angeles | 1 | All Maps | STV","players":[{"user_id":136,"name":"Schnitz","steam_id":76561198265484253,"connected_time":2098000000000,"state":"active","ping":52},{"user_id":142,"name":"box","steam_id":76561198985635309,"connected_time":1222000000000,"state":"active","ping":123},{"user_id":143,"name":"YASAI JUICE","steam_id":76561198131971992,"connected_time":1208000000000,"state":"active","ping":89},{"user_id":140,"name":"Hernandez$","steam_id":76561198019324588,"connected_time":1370000000000,"state":"active","ping":52},{"user_id":101,"name":"the","steam_id":76561198202246951,"connected_time":3463000000000,"state":"active","ping":49},{"user_id":159,"name":"gouply","steam_id":76561199015788142,"connected_time":888000000000,"state":"active","ping":55},{"user_id":161,"name":"Decepticon","steam_id":76561198047168548,"connected_time":756000000000,"state":"active","ping":50},{"user_id":138,"name":"Type Three Dabeetus","steam_id":76561198062710038,"connected_time":1709000000000,"state":"active","ping":51},{"user_id":107,"name":"DoctorHa","steam_id":76561198044026008,"connected_time":3299000000000,"state":"active","ping":67},{"user_id":160,"name":"Greskrendtregk","steam_id":76561197969553142,"connected_time":867000000000,"state":"active","ping":78},{"user_id":162,"name":"Truckojr","steam_id":76561198329292452,"connected_time":733000000000,"state":"active","ping":96},{"user_id":169,"name":"NagitoTheLucky","steam_id":76561198065096327,"connected_time":401000000000,"state":"active","ping":67},{"user_id":165,"name":"Titanopsis","steam_id":76561198041838392,"connected_time":540000000000,"state":"active","ping":80},{"user_id":139,"name":"matto1120","steam_id":76561198201321499,"connected_time":1452000000000,"state":"active","ping":57},{"user_id":134,"name":"PrimalExplosion","steam_id":76561199230044159,"connected_time":2304000000000,"state":"active","ping":93},{"user_id":158,"name":"Chalupa Jones","steam_id":76561198335855588,"connected_time":900000000000,"state":"active","ping":49},{"user_id":166,"name":"Salium","steam_id":76561197961546093,"connected_time":534000000000,"state":"active","ping":45},{"user_id":167,"name":"Nibotshooter","steam_id":76561199284825579,"connected_time":509000000000,"state":"active","ping":77},{"user_id":168,"name":"imbadatvideogames","steam_id":76561198856246322,"connected_time":439000000000,"state":"active","ping":118},{"user_id":170,"name":"Chad the Sex Haver","steam_id":76561198058236528,"connected_time":384000000000,"state":"active","ping":48},{"user_id":171,"name":"doorlarkeded","steam_id":76561199439227968,"connected_time":375000000000,"state":"active","ping":134},{"user_id":172,"name":"Lock'd","steam_id":76561198170108230,"connected_time":353000000000,"state":"active","ping":45},{"user_id":173,"name":"creeeeeee","steam_id":76561198392539722,"connected_time":350000000000,"state":"active","ping":118},{"user_id":151,"name":"a team of ants doing their best","steam_id":76561198440145948,"connected_time":1085000000000,"state":"active","ping":104}]},{"server_id":112,"name":"Uncletopia | Los Angeles | 2 | All Maps","name_short":"lax-2","host":"lax-1.us.uncletopia.com","port":27025,"enabled":true,"region":"us-west","cc":"us","latitude":33.94279,"longitude":-118.41004,"reserved":0,"last_update":"0001-01-01T00:00:00Z","name_a2s":"Uncletopia | Los Angeles | 2 | All Maps","protocol":17,"map":"koth_highpass","folder":"tf","game":"Team Fortress","app_id":440,"player_count":2,"max_players":24,"Bots":0,"server_type":"Dedicated","server_os":"Linux","password":true,"vac":true,"version":"7757534","steam_id":85568392924469992,"keywords":["cp","nocrits","nodmgspread","uncletopia"],"game_id":440,"stv_port":27026,"stv_name":"Uncletopia | Los Angeles | 2 | All Maps | STV","players":[{"user_id":18,"name":"Judith The Adversary","steam_id":76561198932113568,"connected_time":2066000000000,"state":"active","ping":114},{"user_id":11,"name":"hypotenuse","steam_id":76561198062479158,"connected_time":3836000000000,"state":"active","ping":85}]},{"server_id":324,"name":"Uncletopia | Los Angeles | 3 | All Maps","name_short":"lax-3","host":"lax-1.us.uncletopia.com","port":27035,"enabled":true,"region":"us-west","cc":"us","latitude":33.94279,"longitude":-118.41004,"reserved":0,"last_update":"0001-01-01T00:00:00Z","name_a2s":"Uncletopia | Los Angeles | 3 | All Maps","protocol":17,"map":"koth_highpass","folder":"tf","game":"Team Fortress","app_id":440,"player_count":0,"max_players":24,"Bots":0,"server_type":"Dedicated","server_os":"Linux","password":true,"vac":true,"version":"7757534","steam_id":85568392924510198,"keywords":["cp","nocrits","nodmgspread","uncletopia"],"game_id":440,"stv_port":27036,"stv_name":"Uncletopia | Los Angeles | 3 | All Maps | STV","players":null},{"server_id":25,"name":"Uncletopia | Los Angeles | 4 | Stopwatch Beta","name_short":"lax-4","host":"lax-1.us.uncletopia.com","port":27045,"enabled":true,"region":"us-west","cc":"us","latitude":33.94279,"longitude":-118.41004,"reserved":0,"last_update":"0001-01-01T00:00:00Z","name_a2s":"Uncletopia | Los Angeles | 4 | Stopwatch Beta","protocol":17,"map":"pl_frontier_final","folder":"tf","game":"Team Fortress","app_id":440,"player_count":0,"max_players":24,"Bots":0,"server_type":"Dedicated","server_os":"Linux","password":true,"vac":true,"version":"7757534","steam_id":85568392924510199,"keywords":["nocrits","nodmgspread","payload","uncletopia"],"game_id":440,"stv_port":27046,"stv_name":"Uncletopia | Los Angeles | 4 | Stopwatch Beta | STV","players":null},{"server_id":11,"name":"Uncletopia | London | 1 | All Maps","name_short":"lon-1","host":"lon-1.uk.uncletopia.com","port":27015,"enabled":true,"region":"eu","cc":"gb","latitude":51.509865,"longitude":-0.118092,"reserved":0,"last_update":"0001-01-01T00:00:00Z","name_a2s":"Uncletopia | London | 1 | All Maps","protocol":17,"map":"pl_swiftwater_final1","folder":"tf","game":"Team Fortress","app_id":440,"player_count":24,"max_players":24,"Bots":0,"server_type":"Dedicated","server_os":"Linux","password":true,"vac":true,"version":"7757534","steam_id":85568392924367362,"keywords":["nocrits","nodmgspread","payload","uncletopia"],"game_id":440,"stv_port":27016,"stv_name":"Uncletopia | London | 1 | All Maps | STV","players":[{"user_id":397,"name":"beebo","steam_id":76561199120277007,"connected_time":2079000000000,"state":"active","ping":57},{"user_id":402,"name":"The Ginger","steam_id":76561198306862332,"connected_time":641000000000,"state":"active","ping":64},{"user_id":309,"name":"nudjura","steam_id":76561198281986139,"connected_time":9347000000000,"state":"active","ping":44},{"user_id":403,"name":"madacid","steam_id":76561198212315885,"connected_time":613000000000,"state":"active","ping":36},{"user_id":393,"name":"maxine","steam_id":76561199474081953,"connected_time":2312000000000,"state":"active","ping":119},{"user_id":364,"name":"Teleporter (jessie)","steam_id":76561198063093802,"connected_time":5917000000000,"state":"active","ping":51},{"user_id":381,"name":"Wedgeridoo","steam_id":76561198082813907,"connected_time":3391000000000,"state":"active","ping":103},{"user_id":400,"name":"sora","steam_id":76561198096547662,"connected_time":753000000000,"state":"active","ping":119},{"user_id":392,"name":"mid goth girl","steam_id":76561198118989010,"connected_time":2804000000000,"state":"active","ping":56},{"user_id":395,"name":"Does he know?","steam_id":76561198048453764,"connected_time":2308000000000,"state":"active","ping":46},{"user_id":343,"name":"SOPHIIEE","steam_id":76561198443798981,"connected_time":7380000000000,"state":"active","ping":55},{"user_id":404,"name":"Chip","steam_id":76561198871723933,"connected_time":602000000000,"state":"active","ping":48},{"user_id":383,"name":"SuperBob103","steam_id":76561199175360012,"connected_time":3388000000000,"state":"active","ping":51},{"user_id":376,"name":"Fat Pigeon","steam_id":76561198817940142,"connected_time":4056000000000,"state":"active","ping":57},{"user_id":374,"name":"♥ඞlilyඞ♥","steam_id":76561198049840460,"connected_time":4997000000000,"state":"active","ping":58},{"user_id":398,"name":"Maske","steam_id":76561198078100812,"connected_time":1896000000000,"state":"active","ping":65},{"user_id":366,"name":"lettuce at 58p","steam_id":76561199401283123,"connected_time":5701000000000,"state":"active","ping":47},{"user_id":370,"name":"dominus.","steam_id":76561199065917088,"connected_time":5493000000000,"state":"active","ping":60},{"user_id":353,"name":"Great recession of 2008","steam_id":76561198881151562,"connected_time":6609000000000,"state":"active","ping":79},{"user_id":406,"name":"Explosive Poptart","steam_id":76561198023918830,"connected_time":76000000000,"state":"active","ping":44},{"user_id":401,"name":"Aaron","steam_id":76561197990046953,"connected_time":661000000000,"state":"active","ping":67},{"user_id":375,"name":"cinny","steam_id":76561198832112629,"connected_time":4891000000000,"state":"active","ping":88},{"user_id":342,"name":"KPhii","steam_id":76561198970587061,"connected_time":7394000000000,"state":"active","ping":69},{"user_id":378,"name":"Calcestruzzo98","steam_id":76561198859799048,"connected_time":3483000000000,"state":"active","ping":102}]},{"server_id":114,"name":"Uncletopia | London | 2 | All Maps","name_short":"lon-2","host":"lon-1.uk.uncletopia.com","port":27025,"enabled":true,"region":"eu","cc":"gb","latitude":51.509865,"longitude":-0.118092,"reserved":0,"last_update":"0001-01-01T00:00:00Z","name_a2s":"Uncletopia | London | 2 | All Maps","protocol":17,"map":"koth_viaduct","folder":"tf","game":"Team Fortress","app_id":440,"player_count":1,"max_players":24,"Bots":0,"server_type":"Dedicated","server_os":"Linux","password":true,"vac":true,"version":"7757534","steam_id":85568392924470941,"keywords":["cp","nocrits","nodmgspread","uncletopia"],"game_id":440,"stv_port":27026,"stv_name":"Uncletopia | London | 2 | All Maps | STV","players":[{"user_id":240,"name":"alf","steam_id":76561198060249715,"connected_time":3278000000000,"state":"active","ping":57}]},{"server_id":320,"name":"Uncletopia | London | 3 | All Maps","name_short":"lon-3","host":"lon-1.uk.uncletopia.com","port":27035,"enabled":true,"region":"eu","cc":"gb","latitude":51.509865,"longitude":-0.118092,"reserved":0,"last_update":"0001-01-01T00:00:00Z","name_a2s":"Uncletopia | London | 3 | All Maps","protocol":17,"map":"cp_dustbowl","folder":"tf","game":"Team Fortress","app_id":440,"player_count":23,"max_players":24,"Bots":0,"server_type":"Dedicated","server_os":"Linux","password":true,"vac":true,"version":"7757534","steam_id":85568392924510192,"keywords":["cp","nocrits","nodmgspread","uncletopia"],"game_id":440,"stv_port":27036,"stv_name":"Uncletopia | London | 3 | All Maps | STV","players":[{"user_id":886,"name":"pezza","steam_id":76561197995173247,"connected_time":706000000000,"state":"active","ping":59},{"user_id":878,"name":"Titar Industries","steam_id":76561198143078476,"connected_time":1246000000000,"state":"active","ping":138},{"user_id":867,"name":"LizaЯdlЧ","steam_id":76561198176750238,"connected_time":1522000000000,"state":"active","ping":68},{"user_id":881,"name":"Green tea","steam_id":76561198144761383,"connected_time":1150000000000,"state":"active","ping":62},{"user_id":887,"name":"Floppa-z","steam_id":76561199385382550,"connected_time":656000000000,"state":"active","ping":123},{"user_id":896,"name":"Thibob","steam_id":76561198000541852,"connected_time":125000000000,"state":"active","ping":59},{"user_id":883,"name":"Sharp22#SaveTF2","steam_id":76561198861956212,"connected_time":894000000000,"state":"active","ping":66},{"user_id":870,"name":"meat.png","steam_id":76561197966572171,"connected_time":1371000000000,"state":"active","ping":70},{"user_id":884,"name":"Silverdarlin","steam_id":76561198118540970,"connected_time":852000000000,"state":"active","ping":52},{"user_id":888,"name":"bANji","steam_id":76561198108898161,"connected_time":598000000000,"state":"active","ping":53},{"user_id":889,"name":"GuSkand","steam_id":76561198043775605,"connected_time":574000000000,"state":"active","ping":83},{"user_id":890,"name":"83TB of Genshin Impact hentai","steam_id":76561198329640236,"connected_time":555000000000,"state":"active","ping":46},{"user_id":875,"name":"chr","steam_id":76561198073016365,"connected_time":1320000000000,"state":"active","ping":93},{"user_id":894,"name":"Grillem Dafoe","steam_id":76561198306874574,"connected_time":211000000000,"state":"active","ping":62},{"user_id":891,"name":"AsuX","steam_id":76561197990333289,"connected_time":521000000000,"state":"active","ping":60},{"user_id":622,"name":"It's a me Malario","steam_id":76561198176546013,"connected_time":17716000000000,"state":"active","ping":50},{"user_id":892,"name":"Mr_Spappy","steam_id":76561199106707541,"connected_time":459000000000,"state":"active","ping":74},{"user_id":863,"name":"Tom","steam_id":76561198008519979,"connected_time":1796000000000,"state":"active","ping":66},{"user_id":893,"name":"boo_thefeared","steam_id":76561198127967685,"connected_time":288000000000,"state":"active","ping":54},{"user_id":832,"name":"Aregularhuman","steam_id":76561198343319848,"connected_time":4216000000000,"state":"active","ping":47},{"user_id":864,"name":"Temp","steam_id":76561198129361450,"connected_time":1712000000000,"state":"active","ping":63},{"user_id":895,"name":"Agnaktor42","steam_id":76561198042977011,"connected_time":190000000000,"state":"active","ping":46},{"user_id":868,"name":"nicco","steam_id":76561198046217866,"connected_time":1521000000000,"state":"active","ping":57}]},{"server_id":321,"name":"Uncletopia | London | 4 | All Maps","name_short":"lon-4","host":"lon-1.uk.uncletopia.com","port":27045,"enabled":true,"region":"eu","cc":"gb","latitude":51.509865,"longitude":-0.118092,"reserved":0,"last_update":"0001-01-01T00:00:00Z","name_a2s":"Uncletopia | London | 4 | All Maps","protocol":17,"map":"pl_pier","folder":"tf","game":"Team Fortress","app_id":440,"player_count":24,"max_players":24,"Bots":0,"server_type":"Dedicated","server_os":"Linux","password":true,"vac":true,"version":"7757534","steam_id":85568392924510193,"keywords":["nocrits","nodmgspread","payload","uncletopia"],"game_id":440,"stv_port":27046,"stv_name":"Uncletopia | London | 4 | All Maps | STV","players":[{"user_id":402,"name":"Spootnak","steam_id":76561198049052518,"connected_time":5806000000000,"state":"active","ping":51},{"user_id":478,"name":"Grandpa Baozhai","steam_id":76561198086667725,"connected_time":70000000000,"state":"active","ping":206},{"user_id":463,"name":"Sgreff","steam_id":76561198036304365,"connected_time":1235000000000,"state":"active","ping":45},{"user_id":392,"name":"Xiqui","steam_id":76561198818386611,"connected_time":6118000000000,"state":"active","ping":74},{"user_id":412,"name":"gibb (official)","steam_id":76561198074097655,"connected_time":5548000000000,"state":"active","ping":45},{"user_id":454,"name":"Penis Contortionist","steam_id":76561198073663784,"connected_time":2350000000000,"state":"active","ping":43},{"user_id":472,"name":"astigmatic","steam_id":76561199103959197,"connected_time":712000000000,"state":"active","ping":97},{"user_id":464,"name":"Miedzan","steam_id":76561198405250516,"connected_time":1208000000000,"state":"active","ping":78},{"user_id":461,"name":"woople","steam_id":76561198076625889,"connected_time":1396000000000,"state":"active","ping":76},{"user_id":448,"name":"Piteras","steam_id":76561198858532207,"connected_time":2920000000000,"state":"active","ping":85},{"user_id":398,"name":"teddyswk","steam_id":76561198404939571,"connected_time":5879000000000,"state":"active","ping":86},{"user_id":474,"name":"Flex","steam_id":76561197970482191,"connected_time":152000000000,"state":"active","ping":56},{"user_id":475,"name":"Team Dim Sun Grunt","steam_id":76561198393596975,"connected_time":138000000000,"state":"active","ping":55},{"user_id":465,"name":"Acanda","steam_id":76561198123246537,"connected_time":1154000000000,"state":"active","ping":67},{"user_id":466,"name":"rmz.ssj","steam_id":76561198329613930,"connected_time":1138000000000,"state":"active","ping":54},{"user_id":476,"name":"Spotmonkey","steam_id":76561198003994092,"connected_time":115000000000,"state":"active","ping":55},{"user_id":449,"name":"Mayor Wank from Wanker Town","steam_id":76561197998253588,"connected_time":2752000000000,"state":"active","ping":57},{"user_id":467,"name":"powej","steam_id":76561198056381418,"connected_time":1129000000000,"state":"active","ping":38},{"user_id":469,"name":"tralalaOuiOui","steam_id":76561197963471507,"connected_time":1025000000000,"state":"active","ping":44},{"user_id":453,"name":"AWP Bodyshot :) ❤","steam_id":76561198029928533,"connected_time":2592000000000,"state":"active","ping":60},{"user_id":442,"name":"Daniel Day-Lewis","steam_id":76561198147249160,"connected_time":3472000000000,"state":"active","ping":106},{"user_id":470,"name":"Noob_with_source","steam_id":76561198870362103,"connected_time":998000000000,"state":"active","ping":56},{"user_id":458,"name":"Frazzle","steam_id":76561198262577951,"connected_time":1790000000000,"state":"active","ping":71},{"user_id":477,"name":"Wasserkopf","steam_id":76561198219227785,"connected_time":98000000000,"state":"active","ping":68}]},{"server_id":21,"name":"Uncletopia | London | 5 | All Maps","name_short":"lon-5","host":"lon-1.uk.uncletopia.com","port":27055,"enabled":true,"region":"eu","cc":"gb","latitude":51.509865,"longitude":-0.118092,"reserved":0,"last_update":"0001-01-01T00:00:00Z","name_a2s":"Uncletopia | London | 5 | All Maps","protocol":17,"map":"cp_mountainlab","folder":"tf","game":"Team Fortress","app_id":440,"player_count":0,"max_players":24,"Bots":0,"server_type":"Dedicated","server_os":"Linux","password":true,"vac":true,"version":"7757534","steam_id":85568392924742829,"keywords":["cp","nocrits","nodmgspread","uncletopia"],"game_id":440,"stv_port":27056,"stv_name":"Uncletopia | London | 5 | All Maps | STV","players":null},{"server_id":22,"name":"Uncletopia | London | 6 | All Maps","name_short":"lon-6","host":"lon-1.uk.uncletopia.com","port":27065,"enabled":true,"region":"eu","cc":"gb","latitude":51.509865,"longitude":-0.118092,"reserved":0,"last_update":"0001-01-01T00:00:00Z","name_a2s":"Uncletopia | London | 6 | All Maps","protocol":17,"map":"pl_swiftwater_final1","folder":"tf","game":"Team Fortress","app_id":440,"player_count":22,"max_players":24,"Bots":0,"server_type":"Dedicated","server_os":"Linux","password":true,"vac":true,"version":"7757534","steam_id":85568392924742830,"keywords":["nocrits","nodmgspread","payload","uncletopia"],"game_id":440,"stv_port":27066,"stv_name":"Uncletopia | London | 6 | All Maps | STV","players":[{"user_id":412,"name":"Cheyaoshi","steam_id":76561198141121996,"connected_time":1628000000000,"state":"active","ping":61},{"user_id":413,"name":"Owl","steam_id":76561198248266580,"connected_time":1476000000000,"state":"active","ping":62},{"user_id":427,"name":"Eyy_Cucasi","steam_id":76561198271767632,"connected_time":824000000000,"state":"active","ping":92},{"user_id":423,"name":"andiduudeyy","steam_id":76561198991651632,"connected_time":1116000000000,"state":"active","ping":65},{"user_id":386,"name":"punchmypotatoes","steam_id":76561198091255731,"connected_time":2670000000000,"state":"active","ping":53},{"user_id":414,"name":"isha","steam_id":76561199041566425,"connected_time":1471000000000,"state":"active","ping":74},{"user_id":397,"name":"Cocoa","steam_id":76561198078438879,"connected_time":2424000000000,"state":"active","ping":74},{"user_id":434,"name":"panakid","steam_id":76561198364121077,"connected_time":424000000000,"state":"active","ping":115},{"user_id":331,"name":"Baki ඞ","steam_id":76561198193615529,"connected_time":7723000000000,"state":"active","ping":61},{"user_id":431,"name":"the meta","steam_id":76561199071495058,"connected_time":586000000000,"state":"active","ping":124},{"user_id":366,"name":"Mancomb Seepgood","steam_id":76561197974116369,"connected_time":3891000000000,"state":"active","ping":38},{"user_id":439,"name":"Bostrash641","steam_id":76561199447225685,"connected_time":122000000000,"state":"active","ping":76},{"user_id":441,"name":"plungers","steam_id":76561199187680224,"connected_time":50000000000,"state":"active","ping":106},{"user_id":432,"name":"ricky pee pee","steam_id":76561198152620745,"connected_time":575000000000,"state":"active","ping":56},{"user_id":435,"name":"Duke Fishlord","steam_id":76561198079928327,"connected_time":361000000000,"state":"active","ping":74},{"user_id":399,"name":"Lignis","steam_id":76561198363052240,"connected_time":2405000000000,"state":"active","ping":80},{"user_id":424,"name":"The one who knocks","steam_id":76561198089341471,"connected_time":1115000000000,"state":"active","ping":70},{"user_id":436,"name":"Skagzilla| trade.tf","steam_id":76561198260114743,"connected_time":266000000000,"state":"active","ping":51},{"user_id":438,"name":"Bat in a thousand","steam_id":76561198320506848,"connected_time":145000000000,"state":"active","ping":44},{"user_id":418,"name":"Kamanie","steam_id":76561198135448255,"connected_time":1362000000000,"state":"active","ping":61},{"user_id":440,"name":"LErik9858","steam_id":76561198808654852,"connected_time":117000000000,"state":"active","ping":86},{"user_id":411,"name":"Qwerty","steam_id":76561198023525894,"connected_time":1910000000000,"state":"active","ping":86}]},{"server_id":40,"name":"Uncletopia | London | 7 | No Payload","name_short":"lon-7","host":"lon-1.uk.uncletopia.com","port":27075,"enabled":true,"region":"eu","cc":"gb","latitude":51.509865,"longitude":-0.118092,"reserved":0,"last_update":"0001-01-01T00:00:00Z","name_a2s":"Uncletopia | London | 7 | No Payload","protocol":17,"map":"koth_harvest_final","folder":"tf","game":"Team Fortress","app_id":440,"player_count":0,"max_players":24,"Bots":0,"server_type":"Dedicated","server_os":"Linux","password":true,"vac":true,"version":"7757534","steam_id":85568392924964314,"keywords":["cp","nocrits","nodmgspread","uncletopia"],"game_id":440,"stv_port":27076,"stv_name":"Uncletopia | London | 7 | No Payload | STV","players":null},{"server_id":41,"name":"Uncletopia | London | 8 | Community","name_short":"lon-8","host":"lon-1.uk.uncletopia.com","port":27085,"enabled":true,"region":"eu","cc":"gb","latitude":51.509865,"longitude":-0.118092,"reserved":0,"last_update":"0001-01-01T00:00:00Z","name_a2s":"Uncletopia | London | 8 | Community","protocol":17,"map":"workshop/cp_alloy_rc3.ugc592805587","folder":"tf","game":"Team Fortress","app_id":440,"player_count":0,"max_players":24,"Bots":0,"server_type":"Dedicated","server_os":"Linux","password":true,"vac":true,"version":"7757534","steam_id":85568392924964315,"keywords":["cp","nocrits","nodmgspread","uncletopia"],"game_id":440,"stv_port":27086,"stv_name":"Uncletopia | London | 8 | Community | STV","players":null},{"server_id":300,"name":"Uncletopia | Montréal | 1 | All Maps","name_short":"mtl-1","host":"mtl-1.ca.uncletopia.com","port":27015,"enabled":true,"region":"us-east","cc":"ca","latitude":45.50889,"longitude":-73.56167,"reserved":0,"last_update":"0001-01-01T00:00:00Z","name_a2s":"Uncletopia | Montréal | 1 | All Maps","protocol":17,"map":"pl_snowycoast","folder":"tf","game":"Team Fortress","app_id":440,"player_count":0,"max_players":24,"Bots":0,"server_type":"Dedicated","server_os":"Linux","password":true,"vac":true,"version":"7757534","steam_id":85568392924500087,"keywords":["nocrits","nodmgspread","payload","uncletopia"],"game_id":440,"stv_port":27016,"stv_name":"Uncletopia | Montréal | 1 | All Maps | STV","players":null},{"server_id":301,"name":"Uncletopia | Montréal | 2 | All Maps","name_short":"mtl-2","host":"mtl-1.ca.uncletopia.com","port":27025,"enabled":true,"region":"us-east","cc":"ca","latitude":45.50889,"longitude":-73.56167,"reserved":0,"last_update":"0001-01-01T00:00:00Z","name_a2s":"Uncletopia | Montréal | 2 | All Maps","protocol":17,"map":"pl_upward","folder":"tf","game":"Team Fortress","app_id":440,"player_count":0,"max_players":24,"Bots":0,"server_type":"Dedicated","server_os":"Linux","password":true,"vac":true,"version":"7757534","steam_id":85568392924500088,"keywords":["nocrits","nodmgspread","payload","uncletopia"],"game_id":440,"stv_port":27026,"stv_name":"Uncletopia | Montréal | 2 | All Maps | STV","players":null},{"server_id":302,"name":"Uncletopia | Montréal | 3 | All Maps","name_short":"mtl-3","host":"mtl-1.ca.uncletopia.com","port":27035,"enabled":true,"region":"us-east","cc":"ca","latitude":45.50889,"longitude":-73.56167,"reserved":0,"last_update":"0001-01-01T00:00:00Z","name_a2s":"Uncletopia | Montréal | 3 | All Maps","protocol":17,"map":"pl_borneo","folder":"tf","game":"Team Fortress","app_id":440,"player_count":2,"max_players":24,"Bots":0,"server_type":"Dedicated","server_os":"Linux","password":true,"vac":true,"version":"7757534","steam_id":85568392924500089,"keywords":["nocrits","nodmgspread","payload","uncletopia"],"game_id":440,"stv_port":27036,"stv_name":"Uncletopia | Montréal | 3 | All Maps | STV","players":[{"user_id":112,"name":"Weapons Grade Belkan Magic","steam_id":76561198350492845,"connected_time":964000000000,"state":"active","ping":66},{"user_id":8,"name":"WhyAmIHere","steam_id":76561198271076276,"connected_time":7204000000000,"state":"active","ping":55}]},{"server_id":303,"name":"Uncletopia | Montréal | 4 | No Payload","name_short":"mtl-4","host":"mtl-1.ca.uncletopia.com","port":27045,"enabled":true,"region":"us-east","cc":"ca","latitude":45.50889,"longitude":-73.56167,"reserved":0,"last_update":"0001-01-01T00:00:00Z","name_a2s":"Uncletopia | Montréal | 4 | No Payload","protocol":17,"map":"pl_borneo","folder":"tf","game":"Team Fortress","app_id":440,"player_count":0,"max_players":24,"Bots":0,"server_type":"Dedicated","server_os":"Linux","password":true,"vac":true,"version":"7757534","steam_id":85568392924500090,"keywords":["nocrits","nodmgspread","payload","uncletopia"],"game_id":440,"stv_port":27046,"stv_name":"Uncletopia | Montréal | 4 | No Payload | STV","players":null},{"server_id":13,"name":"Uncletopia | New York City | 1 | All Maps","name_short":"nyc-1","host":"nyc-1.us.uncletopia.com","port":27015,"enabled":true,"region":"us-east","cc":"us","latitude":40.73061,"longitude":-73.93524,"reserved":0,"last_update":"0001-01-01T00:00:00Z","name_a2s":"Uncletopia | New York City | 1 | All Maps","protocol":17,"map":"pl_upward","folder":"tf","game":"Team Fortress","app_id":440,"player_count":24,"max_players":24,"Bots":0,"server_type":"Dedicated","server_os":"Linux","password":true,"vac":true,"version":"7757534","steam_id":85568392924469993,"keywords":["nocrits","nodmgspread","payload","uncletopia"],"game_id":440,"stv_port":27016,"stv_name":"Uncletopia | New York City | 1 | All Maps | STV","players":[{"user_id":124,"name":"tyg","steam_id":76561198056246867,"connected_time":5778000000000,"state":"active","ping":50},{"user_id":190,"name":"PunishedJoe","steam_id":76561199105539011,"connected_time":715000000000,"state":"active","ping":53},{"user_id":150,"name":"Maxxycat","steam_id":76561198194062681,"connected_time":4015000000000,"state":"active","ping":66},{"user_id":192,"name":"[chef] iron","steam_id":76561197970888616,"connected_time":23000000000,"state":"active","ping":69},{"user_id":186,"name":"Pickle Chips","steam_id":76561198271951504,"connected_time":877000000000,"state":"active","ping":46},{"user_id":149,"name":"LordOfTheNoobs","steam_id":76561197962697523,"connected_time":4033000000000,"state":"active","ping":72},{"user_id":184,"name":"Ninjasupahman","steam_id":76561198083284498,"connected_time":987000000000,"state":"active","ping":45},{"user_id":185,"name":"a table","steam_id":76561198158461279,"connected_time":888000000000,"state":"active","ping":64},{"user_id":176,"name":"Seven","steam_id":76561198259947055,"connected_time":2013000000000,"state":"active","ping":79},{"user_id":168,"name":"Kattnesta","steam_id":76561198210927551,"connected_time":2391000000000,"state":"active","ping":53},{"user_id":171,"name":"LuBzEur0b3ats","steam_id":76561199041041574,"connected_time":2193000000000,"state":"active","ping":60},{"user_id":180,"name":"JacripspyVulcano","steam_id":76561198966980576,"connected_time":1537000000000,"state":"active","ping":45},{"user_id":173,"name":"KitKat","steam_id":76561198191536489,"connected_time":2175000000000,"state":"active","ping":130},{"user_id":157,"name":"Lorelius Hogglefart","steam_id":76561198449527009,"connected_time":3141000000000,"state":"active","ping":62},{"user_id":191,"name":"Shock Trooper","steam_id":76561199086731683,"connected_time":198000000000,"state":"active","ping":55},{"user_id":183,"name":"Chiro","steam_id":76561198987683471,"connected_time":1353000000000,"state":"active","ping":75},{"user_id":187,"name":"barbara","steam_id":76561198072417792,"connected_time":858000000000,"state":"active","ping":104},{"user_id":160,"name":"[TF2Apples] Intense Green Apple","steam_id":76561198803561622,"connected_time":2935000000000,"state":"active","ping":76},{"user_id":80,"name":"CrustyCapybara","steam_id":76561199450398030,"connected_time":8474000000000,"state":"active","ping":65},{"user_id":165,"name":"Obelix","steam_id":76561198274715109,"connected_time":2439000000000,"state":"active","ping":58},{"user_id":177,"name":"Baron von Whoopsie","steam_id":76561197996691013,"connected_time":1900000000000,"state":"active","ping":62},{"user_id":129,"name":"king who's on a budget","steam_id":76561199134895220,"connected_time":5604000000000,"state":"active","ping":60},{"user_id":159,"name":"Zaider","steam_id":76561198049839645,"connected_time":3128000000000,"state":"active","ping":56},{"user_id":188,"name":"John Lemon Gaming","steam_id":76561198014574925,"connected_time":856000000000,"state":"active","ping":53}]},{"server_id":14,"name":"Uncletopia | New York City | 2 | All Maps","name_short":"nyc-2","host":"nyc-1.us.uncletopia.com","port":27025,"enabled":true,"region":"us-east","cc":"us","latitude":40.73061,"longitude":-73.93524,"reserved":0,"last_update":"0001-01-01T00:00:00Z","name_a2s":"Uncletopia | New York City | 2 | All Maps","protocol":17,"map":"pl_pier","folder":"tf","game":"Team Fortress","app_id":440,"player_count":24,"max_players":24,"Bots":0,"server_type":"Dedicated","server_os":"Linux","password":true,"vac":true,"version":"7757534","steam_id":85568392924469994,"keywords":["nocrits","nodmgspread","payload","uncletopia"],"game_id":440,"stv_port":27026,"stv_name":"Uncletopia | New York City | 2 | All Maps | STV","players":[{"user_id":310,"name":"Acro Banwagon","steam_id":76561198092451804,"connected_time":765000000000,"state":"active","ping":75},{"user_id":311,"name":"Lost CS player","steam_id":76561198892387723,"connected_time":763000000000,"state":"active","ping":67},{"user_id":301,"name":"A Puppy","steam_id":76561198828184456,"connected_time":2232000000000,"state":"active","ping":47},{"user_id":260,"name":"What day is it?","steam_id":76561199056736682,"connected_time":4721000000000,"state":"active","ping":72},{"user_id":298,"name":"phone","steam_id":76561198029268743,"connected_time":2432000000000,"state":"active","ping":72},{"user_id":273,"name":"MEATBALL","steam_id":76561198028499312,"connected_time":3992000000000,"state":"active","ping":48},{"user_id":257,"name":"Dawnveu","steam_id":76561198041999612,"connected_time":4958000000000,"state":"active","ping":79},{"user_id":312,"name":"Timothy Bitchboy","steam_id":76561198452944731,"connected_time":756000000000,"state":"active","ping":71},{"user_id":306,"name":"THRILLHO","steam_id":76561198371663047,"connected_time":1360000000000,"state":"active","ping":46},{"user_id":228,"name":"Dorothy","steam_id":76561198152455316,"connected_time":7241000000000,"state":"active","ping":147},{"user_id":268,"name":"market","steam_id":76561198056871257,"connected_time":4612000000000,"state":"active","ping":47},{"user_id":313,"name":"Warkeidan","steam_id":76561198118805546,"connected_time":725000000000,"state":"active","ping":61},{"user_id":303,"name":"Triforce141","steam_id":76561198063896776,"connected_time":2158000000000,"state":"active","ping":89},{"user_id":314,"name":"Redkiller","steam_id":76561199453655288,"connected_time":712000000000,"state":"active","ping":65},{"user_id":316,"name":"uberslak","steam_id":76561198064715241,"connected_time":701000000000,"state":"active","ping":111},{"user_id":315,"name":"Violet42","steam_id":76561198072927887,"connected_time":704000000000,"state":"active","ping":53},{"user_id":307,"name":"SaltyFaulty","steam_id":76561199017898392,"connected_time":1197000000000,"state":"active","ping":68},{"user_id":300,"name":"The Juicer","steam_id":76561198027247542,"connected_time":2311000000000,"state":"active","ping":69},{"user_id":317,"name":"Johnny Lawrence #JohnnyMaxxing","steam_id":76561199367141671,"connected_time":699000000000,"state":"active","ping":45},{"user_id":291,"name":"HumFreY","steam_id":76561198076639682,"connected_time":3475000000000,"state":"active","ping":54},{"user_id":318,"name":"jujube","steam_id":76561198069415057,"connected_time":530000000000,"state":"active","ping":45},{"user_id":309,"name":"Hecarim","steam_id":76561198115269587,"connected_time":934000000000,"state":"active","ping":74},{"user_id":305,"name":"caberknight tf2","steam_id":76561199273882768,"connected_time":1522000000000,"state":"active","ping":61},{"user_id":319,"name":"dakota__","steam_id":76561198076596506,"connected_time":449000000000,"state":"active","ping":87}]},{"server_id":15,"name":"Uncletopia | New York City | 3 | Stopwatch Beta","name_short":"nyc-3","host":"nyc-1.us.uncletopia.com","port":27035,"enabled":true,"region":"us-east","cc":"us","latitude":40.73061,"longitude":-73.93524,"reserved":0,"last_update":"0001-01-01T00:00:00Z","name_a2s":"Uncletopia | New York City | 3 | Stopwatch Beta","protocol":17,"map":"koth_lakeside_final","folder":"tf","game":"Team Fortress","app_id":440,"player_count":0,"max_players":24,"Bots":0,"server_type":"Dedicated","server_os":"Linux","password":true,"vac":true,"version":"7757534","steam_id":85568392924742820,"keywords":["cp","nocrits","nodmgspread","uncletopia"],"game_id":440,"stv_port":27036,"stv_name":"Uncletopia | New York City | 3 | Stopwatch Beta | STV","players":null},{"server_id":16,"name":"Uncletopia | New York City | 4 | Community","name_short":"nyc-4","host":"nyc-1.us.uncletopia.com","port":27045,"enabled":true,"region":"us-east","cc":"us","latitude":40.73061,"longitude":-73.93524,"reserved":0,"last_update":"0001-01-01T00:00:00Z","name_a2s":"Uncletopia | New York City | 4 | Community","protocol":17,"map":"workshop/cp_indulge.ugc528106646","folder":"tf","game":"Team Fortress","app_id":440,"player_count":0,"max_players":24,"Bots":0,"server_type":"Dedicated","server_os":"Linux","password":true,"vac":true,"version":"7757534","steam_id":85568392924742821,"keywords":["cp","nocrits","nodmgspread","uncletopia"],"game_id":440,"stv_port":27046,"stv_name":"Uncletopia | New York City | 4 | Community | STV","players":null},{"server_id":142,"name":"Uncletopia | São Paulo | 1 | All Maps","name_short":"sao-1","host":"sao-1.br.uncletopia.com","port":27015,"enabled":true,"region":"sa","cc":"br","latitude":-23.533773,"longitude":-46.62529,"reserved":0,"last_update":"0001-01-01T00:00:00Z","name_a2s":"Uncletopia | São Paulo | 1 | All Maps","protocol":17,"map":"pl_frontier_final","folder":"tf","game":"Team Fortress","app_id":440,"player_count":4,"max_players":24,"Bots":0,"server_type":"Dedicated","server_os":"Linux","password":true,"vac":true,"version":"7757534","steam_id":85568392924469996,"keywords":["nocrits","nodmgspread","payload","uncletopia"],"game_id":440,"stv_port":27016,"stv_name":"Uncletopia | São Paulo | 1 | All Maps | STV","players":[{"user_id":38,"name":"Chá","steam_id":76561198449309628,"connected_time":176000000000,"state":"spawning","ping":46},{"user_id":37,"name":"JuanLKPO14","steam_id":76561198168966958,"connected_time":262000000000,"state":"spawning","ping":67},{"user_id":22,"name":"Caz","steam_id":76561198255443501,"connected_time":2701000000000,"state":"active","ping":72},{"user_id":28,"name":"archi","steam_id":76561198895061602,"connected_time":1878000000000,"state":"spawning","ping":95}]},{"server_id":143,"name":"Uncletopia | São Paulo | 2 | All Maps","name_short":"sao-2","host":"sao-2.br.uncletopia.com","port":27015,"enabled":true,"region":"sa","cc":"br","latitude":-23.533773,"longitude":-46.62529,"reserved":0,"last_update":"0001-01-01T00:00:00Z","name_a2s":"Uncletopia | São Paulo | 2 | All Maps","protocol":17,"map":"cp_mountainlab","folder":"tf","game":"Team Fortress","app_id":440,"player_count":0,"max_players":24,"Bots":0,"server_type":"Dedicated","server_os":"Linux","password":true,"vac":true,"version":"7757534","steam_id":85568392924485349,"keywords":["cp","nocrits","nodmgspread","uncletopia"],"game_id":440,"stv_port":27016,"stv_name":"Uncletopia | São Paulo | 2 | All Maps | STV","players":null},{"server_id":7,"name":"Uncletopia | Seattle | 1 | All Maps","name_short":"sea-1","host":"sea-1.us.uncletopia.com","port":27015,"enabled":true,"region":"us-west","cc":"us","latitude":47.608013,"longitude":-122.33517,"reserved":0,"last_update":"0001-01-01T00:00:00Z","name_a2s":"Uncletopia | Seattle | 1 | All Maps","protocol":17,"map":"pl_barnblitz","folder":"tf","game":"Team Fortress","app_id":440,"player_count":24,"max_players":24,"Bots":0,"server_type":"Dedicated","server_os":"Linux","password":true,"vac":true,"version":"7757534","steam_id":85568392924469997,"keywords":["nocrits","nodmgspread","payload","uncletopia"],"game_id":440,"stv_port":27016,"stv_name":"Uncletopia | Seattle | 1 | All Maps | STV","players":[{"user_id":365,"name":"resting neutral face","steam_id":76561197999259502,"connected_time":840000000000,"state":"active","ping":60},{"user_id":362,"name":"Venstiko","steam_id":76561199130318818,"connected_time":987000000000,"state":"active","ping":133},{"user_id":357,"name":"bullet man","steam_id":76561198080058079,"connected_time":1185000000000,"state":"active","ping":57},{"user_id":334,"name":"Drusalem","steam_id":76561199078547218,"connected_time":3006000000000,"state":"active","ping":147},{"user_id":363,"name":"Jacck916","steam_id":76561198176874157,"connected_time":939000000000,"state":"active","ping":124},{"user_id":361,"name":"demomanfan2008","steam_id":76561198077030486,"connected_time":1015000000000,"state":"active","ping":70},{"user_id":358,"name":"Mico (Goblin Mode)","steam_id":76561198125462953,"connected_time":1052000000000,"state":"active","ping":46},{"user_id":350,"name":"drink my *** u nasty ****","steam_id":76561199100813140,"connected_time":1980000000000,"state":"active","ping":90},{"user_id":339,"name":"[TrC] Nosy","steam_id":76561197978859310,"connected_time":2778000000000,"state":"active","ping":50},{"user_id":249,"name":"StarWither","steam_id":76561198383264295,"connected_time":9049000000000,"state":"active","ping":58},{"user_id":364,"name":"doomshroom","steam_id":76561198092827250,"connected_time":885000000000,"state":"active","ping":63},{"user_id":353,"name":"The Secily™ Remastered (PC)","steam_id":76561198042406998,"connected_time":1600000000000,"state":"active","ping":71},{"user_id":335,"name":"[TrC] Dackstrus","steam_id":76561197973518509,"connected_time":2867000000000,"state":"active","ping":61},{"user_id":347,"name":"texticks","steam_id":76561198045184255,"connected_time":2160000000000,"state":"active","ping":56},{"user_id":369,"name":"Eris","steam_id":76561199471434875,"connected_time":799000000000,"state":"active","ping":41},{"user_id":367,"name":"Evanb","steam_id":76561198042057792,"connected_time":830000000000,"state":"active","ping":45},{"user_id":355,"name":"gun spy gaming","steam_id":76561198880739963,"connected_time":1524000000000,"state":"active","ping":65},{"user_id":368,"name":"SomeGuyWhoLikesPotatoes","steam_id":76561198110276797,"connected_time":811000000000,"state":"active","ping":68},{"user_id":330,"name":"Len","steam_id":76561199141913673,"connected_time":3270000000000,"state":"active","ping":79},{"user_id":370,"name":"Trans Femtress 2","steam_id":76561198272676760,"connected_time":790000000000,"state":"active","ping":70},{"user_id":371,"name":"louie, is patient","steam_id":76561198168084763,"connected_time":759000000000,"state":"active","ping":44},{"user_id":372,"name":"TheOreo","steam_id":76561198289219099,"connected_time":744000000000,"state":"active","ping":52},{"user_id":374,"name":"Parakeet","steam_id":76561198271939793,"connected_time":236000000000,"state":"active","ping":46},{"user_id":376,"name":"Cam(era)","steam_id":76561198285054047,"connected_time":81000000000,"state":"active","ping":82}]},{"server_id":119,"name":"Uncletopia | Seattle | 2 | All Maps","name_short":"sea-2","host":"sea-1.us.uncletopia.com","port":27025,"enabled":true,"region":"us-west","cc":"us","latitude":47.608013,"longitude":-122.33517,"reserved":0,"last_update":"0001-01-01T00:00:00Z","name_a2s":"Uncletopia | Seattle | 2 | All Maps","protocol":17,"map":"cp_process_final","folder":"tf","game":"Team Fortress","app_id":440,"player_count":24,"max_players":24,"Bots":0,"server_type":"Dedicated","server_os":"Linux","password":true,"vac":true,"version":"7757534","steam_id":85568392924469998,"keywords":["cp","nocrits","nodmgspread","uncletopia"],"game_id":440,"stv_port":27026,"stv_name":"Uncletopia | Seattle | 2 | All Maps | STV","players":[{"user_id":409,"name":"Watatsuki no Yorihime","steam_id":76561198063315650,"connected_time":3754000000000,"state":"active","ping":82},{"user_id":432,"name":"Party Monster","steam_id":76561198119777371,"connected_time":743000000000,"state":"active","ping":74},{"user_id":429,"name":"Cloud","steam_id":76561198272454184,"connected_time":918000000000,"state":"active","ping":175},{"user_id":433,"name":"Mrtakeyotaco","steam_id":76561199429653513,"connected_time":713000000000,"state":"active","ping":65},{"user_id":418,"name":"chiswola","steam_id":76561198046920142,"connected_time":2523000000000,"state":"active","ping":241},{"user_id":434,"name":"no vc no c","steam_id":76561197989503095,"connected_time":696000000000,"state":"active","ping":152},{"user_id":408,"name":"Algibruh","steam_id":76561199221599415,"connected_time":4108000000000,"state":"active","ping":45},{"user_id":352,"name":"basil nendoroid ￥5800","steam_id":76561198798667624,"connected_time":7478000000000,"state":"active","ping":40},{"user_id":431,"name":"Gull","steam_id":76561198161560332,"connected_time":911000000000,"state":"active","ping":96},{"user_id":435,"name":"squash","steam_id":76561198150281353,"connected_time":575000000000,"state":"active","ping":55},{"user_id":436,"name":"Ⓩre","steam_id":76561198044941294,"connected_time":569000000000,"state":"active","ping":65},{"user_id":430,"name":"A Duck With Socks","steam_id":76561198018844227,"connected_time":912000000000,"state":"active","ping":57},{"user_id":407,"name":"Lil Urge","steam_id":76561198162207470,"connected_time":4113000000000,"state":"active","ping":68},{"user_id":437,"name":"Bingus","steam_id":76561199225054690,"connected_time":550000000000,"state":"active","ping":146},{"user_id":438,"name":"Mr. Tickle","steam_id":76561198126684647,"connected_time":497000000000,"state":"active","ping":120},{"user_id":440,"name":"worker","steam_id":76561198039608940,"connected_time":360000000000,"state":"active","ping":56},{"user_id":428,"name":"EEBIGAA","steam_id":76561198056535988,"connected_time":923000000000,"state":"active","ping":71},{"user_id":441,"name":"helpless slave to biology","steam_id":76561198110046630,"connected_time":295000000000,"state":"active","ping":105},{"user_id":442,"name":"reiidaya","steam_id":76561198325306660,"connected_time":281000000000,"state":"active","ping":57},{"user_id":443,"name":"how do i control my guy?","steam_id":76561198158855211,"connected_time":241000000000,"state":"active","ping":46},{"user_id":444,"name":"oil","steam_id":76561198099980149,"connected_time":206000000000,"state":"active","ping":79},{"user_id":377,"name":"sadlaxx","steam_id":76561198061354919,"connected_time":5873000000000,"state":"active","ping":94},{"user_id":445,"name":"Tour of Duty Ticket","steam_id":76561199203717878,"connected_time":75000000000,"state":"active","ping":158},{"user_id":419,"name":"Vladimir Chirgin","steam_id":76561198170035235,"connected_time":2512000000000,"state":"active","ping":100}]},{"server_id":406,"name":"Uncletopia | Seattle | 3 | Stopwatch Beta","name_short":"sea-3","host":"sea-1.us.uncletopia.com","port":27035,"enabled":true,"region":"us-west","cc":"us","latitude":47.608013,"longitude":-122.33517,"reserved":0,"last_update":"0001-01-01T00:00:00Z","name_a2s":"Uncletopia | Seattle | 3 | Stopwatch Beta","protocol":17,"map":"cp_metalworks","folder":"tf","game":"Team Fortress","app_id":440,"player_count":0,"max_players":24,"Bots":0,"server_type":"Dedicated","server_os":"Linux","password":true,"vac":true,"version":"7757534","steam_id":85568392924515217,"keywords":["cp","nocrits","nodmgspread","uncletopia"],"game_id":440,"stv_port":27036,"stv_name":"Uncletopia | Seattle | 3 | Stopwatch Beta | STV","players":null},{"server_id":17,"name":"Uncletopia | San Francisco | 1 | All Maps","name_short":"sfo-1","host":"sfo-1.us.uncletopia.com","port":27015,"enabled":true,"region":"us-west","cc":"us","latitude":37.77397,"longitude":-122.4313,"reserved":0,"last_update":"0001-01-01T00:00:00Z","name_a2s":"Uncletopia | San Francisco | 1 | All Maps","protocol":17,"map":"pl_frontier_final","folder":"tf","game":"Team Fortress","app_id":440,"player_count":5,"max_players":24,"Bots":0,"server_type":"Dedicated","server_os":"Linux","password":true,"vac":true,"version":"7757534","steam_id":85568392924469999,"keywords":["nocrits","nodmgspread","payload","uncletopia"],"game_id":440,"stv_port":27016,"stv_name":"Uncletopia | San Francisco | 1 | All Maps | STV","players":[{"user_id":9,"name":"Elora","steam_id":76561198040510572,"connected_time":2015000000000,"state":"active","ping":191},{"user_id":10,"name":"assassincrazy18","steam_id":76561199465661561,"connected_time":1972000000000,"state":"active","ping":70},{"user_id":11,"name":"lcqjp","steam_id":76561198062028720,"connected_time":1968000000000,"state":"active","ping":124},{"user_id":14,"name":"bonus ducks","steam_id":76561199133093829,"connected_time":11000000000,"state":"active","ping":147},{"user_id":13,"name":"OneManEnsemble","steam_id":76561198200890163,"connected_time":1846000000000,"state":"active","ping":117}]},{"server_id":18,"name":"Uncletopia | San Francisco | 2 | All Maps","name_short":"sfo-2","host":"sfo-1.us.uncletopia.com","port":27025,"enabled":true,"region":"us-west","cc":"us","latitude":37.77397,"longitude":-122.4313,"reserved":0,"last_update":"0001-01-01T00:00:00Z","name_a2s":"Uncletopia | San Francisco | 2 | All Maps","protocol":17,"map":"pl_swiftwater_final1","folder":"tf","game":"Team Fortress","app_id":440,"player_count":1,"max_players":24,"Bots":0,"server_type":"Dedicated","server_os":"Linux","password":true,"vac":true,"version":"7757534","steam_id":85568392924470000,"keywords":["nocrits","nodmgspread","payload","uncletopia"],"game_id":440,"stv_port":27026,"stv_name":"Uncletopia | San Francisco | 2 | All Maps | STV","players":[{"user_id":5,"name":"chill frog","steam_id":76561199471943472,"connected_time":440000000000,"state":"active","ping":85}]},{"server_id":19,"name":"Uncletopia | San Francisco | 3 | Stopwatch Beta","name_short":"sfo-3","host":"sfo-1.us.uncletopia.com","port":27035,"enabled":true,"region":"us-west","cc":"us","latitude":37.77397,"longitude":-122.4313,"reserved":0,"last_update":"0001-01-01T00:00:00Z","name_a2s":"Uncletopia | San Francisco | 3 | Stopwatch Beta","protocol":17,"map":"pl_borneo","folder":"tf","game":"Team Fortress","app_id":440,"player_count":0,"max_players":24,"Bots":0,"server_type":"Dedicated","server_os":"Linux","password":true,"vac":true,"version":"7757534","steam_id":85568392924742824,"keywords":["nocrits","nodmgspread","payload","uncletopia"],"game_id":440,"stv_port":27036,"stv_name":"Uncletopia | San Francisco | 3 | Stopwatch Beta | STV","players":null},{"server_id":20,"name":"Uncletopia | San Francisco | 4 | Community","name_short":"sfo-4","host":"sfo-1.us.uncletopia.com","port":27045,"enabled":true,"region":"us-west","cc":"us","latitude":37.77397,"longitude":-122.4313,"reserved":0,"last_update":"0001-01-01T00:00:00Z","name_a2s":"Uncletopia | San Francisco | 4 | Community","protocol":17,"map":"koth_highpass","folder":"tf","game":"Team Fortress","app_id":440,"player_count":0,"max_players":24,"Bots":0,"server_type":"Dedicated","server_os":"Linux","password":true,"vac":true,"version":"7757534","steam_id":85568392924742826,"keywords":["cp","nocrits","nodmgspread","uncletopia"],"game_id":440,"stv_port":27046,"stv_name":"Uncletopia | San Francisco | 4 | Community | STV","players":null},{"server_id":141,"name":"Uncletopia | Sydney | 1 | All Maps","name_short":"syd-1","host":"syd-1.au.uncletopia.com","port":27015,"enabled":true,"region":"au","cc":"au","latitude":-33.865143,"longitude":151.2099,"reserved":0,"last_update":"0001-01-01T00:00:00Z","name_a2s":"Uncletopia | Sydney | 1 | All Maps","protocol":17,"map":"koth_highpass","folder":"tf","game":"Team Fortress","app_id":440,"player_count":0,"max_players":24,"Bots":0,"server_type":"Dedicated","server_os":"Linux","password":true,"vac":true,"version":"7757534","steam_id":85568392924470001,"keywords":["cp","nocrits","nodmgspread","uncletopia"],"game_id":440,"stv_port":27016,"stv_name":"Uncletopia | Sydney | 1 | All Maps | STV","players":null},{"server_id":123,"name":"Uncletopia | Sydney | 2 | All Maps","name_short":"syd-2","host":"syd-1.au.uncletopia.com","port":27025,"enabled":true,"region":"au","cc":"au","latitude":-33.865143,"longitude":151.2099,"reserved":0,"last_update":"0001-01-01T00:00:00Z","name_a2s":"Uncletopia | Sydney | 2 | All Maps","protocol":17,"map":"koth_viaduct","folder":"tf","game":"Team Fortress","app_id":440,"player_count":0,"max_players":24,"Bots":0,"server_type":"Dedicated","server_os":"Linux","password":true,"vac":true,"version":"7757534","steam_id":85568392924470002,"keywords":["cp","nocrits","nodmgspread","uncletopia"],"game_id":440,"stv_port":27026,"stv_name":"Uncletopia | Sydney | 2 | All Maps | STV","players":null},{"server_id":395,"name":"Uncletopia | Sydney | 3 | All Maps","name_short":"syd-3","host":"syd-1.au.uncletopia.com","port":27035,"enabled":true,"region":"au","cc":"au","latitude":-33.865143,"longitude":151.2099,"reserved":0,"last_update":"0001-01-01T00:00:00Z","name_a2s":"Uncletopia | Sydney | 3 | All Maps","protocol":17,"map":"pl_upward","folder":"tf","game":"Team Fortress","app_id":440,"player_count":0,"max_players":24,"Bots":0,"server_type":"Dedicated","server_os":"Linux","password":true,"vac":true,"version":"7757534","steam_id":85568392925194467,"keywords":["nocrits","nodmgspread","payload","uncletopia"],"game_id":440,"stv_port":27036,"stv_name":"Uncletopia | Sydney | 3 | All Maps | STV","players":null},{"server_id":396,"name":"Uncletopia | Sydney | 4 | All Maps","name_short":"syd-4","host":"syd-1.au.uncletopia.com","port":27045,"enabled":true,"region":"au","cc":"au","latitude":-33.865143,"longitude":151.2099,"reserved":0,"last_update":"0001-01-01T00:00:00Z","name_a2s":"Uncletopia | Sydney | 4 | All Maps","protocol":17,"map":"koth_lakeside_final","folder":"tf","game":"Team Fortress","app_id":440,"player_count":0,"max_players":24,"Bots":0,"server_type":"Dedicated","server_os":"Linux","password":true,"vac":true,"version":"7757534","steam_id":85568392925397958,"keywords":["cp","nocrits","nodmgspread","uncletopia"],"game_id":440,"stv_port":27046,"stv_name":"Uncletopia | Sydney | 4 | All Maps | STV","players":null},{"server_id":58,"name":"Uncletopia | Sydney | 5 | Stopwatch Beta","name_short":"syd-5","host":"syd-1.au.uncletopia.com","port":27055,"enabled":true,"region":"au","cc":"au","latitude":-33.865143,"longitude":151.2099,"reserved":0,"last_update":"0001-01-01T00:00:00Z","name_a2s":"Uncletopia | Sydney | 5 | Stopwatch Beta","protocol":17,"map":"koth_highpass","folder":"tf","game":"Team Fortress","app_id":440,"player_count":0,"max_players":24,"Bots":0,"server_type":"Dedicated","server_os":"Linux","password":true,"vac":true,"version":"7757534","steam_id":85568392925397959,"keywords":["cp","nocrits","nodmgspread","uncletopia"],"game_id":440,"stv_port":27056,"stv_name":"Uncletopia | Sydney | 5 | Stopwatch Beta | STV","players":null},{"server_id":59,"name":"Uncletopia | Sydney | 6 | Community","name_short":"syd-6","host":"syd-1.au.uncletopia.com","port":27065,"enabled":true,"region":"au","cc":"au","latitude":-33.865143,"longitude":151.2099,"reserved":0,"last_update":"0001-01-01T00:00:00Z","name_a2s":"Uncletopia | Sydney | 6 | Community","protocol":17,"map":"workshop/cp_sulfur_rc2.ugc619869471","folder":"tf","game":"Team Fortress","app_id":440,"player_count":0,"max_players":24,"Bots":0,"server_type":"Dedicated","server_os":"Linux","password":true,"vac":true,"version":"7757534","steam_id":85568392925397960,"keywords":["cp","nocrits","nodmgspread","uncletopia"],"game_id":440,"stv_port":27066,"stv_name":"Uncletopia | Sydney | 6 | Community | STV","players":null},{"server_id":49,"name":"Uncletopia | Warsaw | 1 | All Maps","name_short":"waw-1","host":"waw-1.pl.uncletopia.com","port":27015,"enabled":true,"region":"eu","cc":"pl","latitude":52.2297,"longitude":21.017532,"reserved":0,"last_update":"0001-01-01T00:00:00Z","name_a2s":"","protocol":0,"map":"","folder":"","game":"","app_id":0,"player_count":0,"max_players":0,"Bots":0,"server_type":"","server_os":"","password":false,"vac":false,"version":"","steam_id":0,"keywords":null,"game_id":0,"stv_port":0,"stv_name":"","players":null},{"server_id":50,"name":"Uncletopia | Warsaw | 2 | All Maps","name_short":"waw-2","host":"waw-1.pl.uncletopia.com","port":27025,"enabled":true,"region":"eu","cc":"pl","latitude":52.2297,"longitude":21.017532,"reserved":0,"last_update":"0001-01-01T00:00:00Z","name_a2s":"Uncletopia | Warsaw | 2 | All Maps","protocol":17,"map":"koth_lakeside_final","folder":"tf","game":"Team Fortress","app_id":440,"player_count":0,"max_players":24,"Bots":0,"server_type":"Dedicated","server_os":"Linux","password":true,"vac":true,"version":"7757534","steam_id":85568392925397851,"keywords":["cp","nocrits","nodmgspread","uncletopia"],"game_id":440,"stv_port":27026,"stv_name":"Uncletopia | Warsaw | 2 | All Maps | STV","players":null},{"server_id":51,"name":"Uncletopia | Warsaw | 3 | All Maps","name_short":"waw-3","host":"waw-1.pl.uncletopia.com","port":27035,"enabled":true,"region":"eu","cc":"pl","latitude":52.2297,"longitude":21.017532,"reserved":0,"last_update":"0001-01-01T00:00:00Z","name_a2s":"Uncletopia | Warsaw | 3 | All Maps","protocol":17,"map":"cp_snakewater_final1","folder":"tf","game":"Team Fortress","app_id":440,"player_count":0,"max_players":24,"Bots":0,"server_type":"Dedicated","server_os":"Linux","password":true,"vac":true,"version":"7757534","steam_id":85568392925397852,"keywords":["cp","nocrits","nodmgspread","uncletopia"],"game_id":440,"stv_port":27036,"stv_name":"Uncletopia | Warsaw | 3 | All Maps | STV","players":null},{"server_id":52,"name":"Uncletopia | Warsaw | 4 | All Maps","name_short":"waw-4","host":"waw-1.pl.uncletopia.com","port":27045,"enabled":true,"region":"eu","cc":"pl","latitude":52.2297,"longitude":21.017532,"reserved":0,"last_update":"0001-01-01T00:00:00Z","name_a2s":"Uncletopia | Warsaw | 4 | All Maps","protocol":17,"map":"pl_borneo","folder":"tf","game":"Team Fortress","app_id":440,"player_count":0,"max_players":24,"Bots":0,"server_type":"Dedicated","server_os":"Linux","password":true,"vac":true,"version":"7757534","steam_id":85568392925397853,"keywords":["nocrits","nodmgspread","payload","uncletopia"],"game_id":440,"stv_port":27046,"stv_name":"Uncletopia | Warsaw | 4 | All Maps | STV","players":null},{"server_id":53,"name":"Uncletopia | Warsaw | 5 | Stopwatch Beta","name_short":"waw-5","host":"waw-1.pl.uncletopia.com","port":27055,"enabled":true,"region":"eu","cc":"pl","latitude":52.2297,"longitude":21.017532,"reserved":0,"last_update":"0001-01-01T00:00:00Z","name_a2s":"Uncletopia | Warsaw | 5 | Stopwatch Beta","protocol":17,"map":"pl_barnblitz","folder":"tf","game":"Team Fortress","app_id":440,"player_count":0,"max_players":24,"Bots":0,"server_type":"Dedicated","server_os":"Linux","password":true,"vac":true,"version":"7757534","steam_id":85568392925397854,"keywords":["nocrits","nodmgspread","payload","uncletopia"],"game_id":440,"stv_port":27056,"stv_name":"Uncletopia | Warsaw | 5 | Stopwatch Beta | STV","players":null},{"server_id":54,"name":"Uncletopia | Warsaw | 6 | Community","name_short":"waw-6","host":"waw-1.pl.uncletopia.com","port":27065,"enabled":true,"region":"eu","cc":"pl","latitude":52.2297,"longitude":21.017532,"reserved":0,"last_update":"0001-01-01T00:00:00Z","name_a2s":"Uncletopia | Warsaw | 6 | Community","protocol":17,"map":"workshop/koth_trenchfoot_b1a.ugc731436616","folder":"tf","game":"Team Fortress","app_id":440,"player_count":0,"max_players":24,"Bots":0,"server_type":"Dedicated","server_os":"Linux","password":true,"vac":true,"version":"7757534","steam_id":85568392925397856,"keywords":["cp","nocrits","nodmgspread","uncletopia"],"game_id":440,"stv_port":27066,"stv_name":"Uncletopia | Warsaw | 6 | Community | STV","players":null}]}