{"status":true,"message":"","result":[{"server_id":9,"name":"Uncletopia | Atlanta | 1 | All Maps","name_short":"atl-1","host":"atl-1.us.uncletopia.com","port":27015,"enabled":true,"region":"us-east","cc":"us","latitude":33.753746,"longitude":-84.38633,"reserved":0,"last_update":"0001-01-01T00:00:00Z","name_a2s":"Uncletopia | Atlanta | 1 | All Maps","protocol":17,"map":"pl_snowycoast","folder":"tf","game":"Team Fortress","app_id":440,"player_count":24,"max_players":24,"Bots":0,"server_type":"Dedicated","server_os":"Linux","password":true,"vac":true,"version":"7882260","steam_id":85568392924469982,"keywords":["nocrits","nodmgspread","payload","uncletopia"],"game_id":440,"stv_port":27016,"stv_name":"Uncletopia | Atlanta | 1 | All Maps | STV","players":[{"user_id":327,"name":"floom","steam_id":76561198387571809,"connected_time":2614000000000,"state":"active","ping":55},{"user_id":380,"name":"ma0re","steam_id":76561199231971506,"connected_time":371000000000,"state":"active","ping":62},{"user_id":368,"name":"Graybard","steam_id":76561198045100497,"connected_time":1441000000000,"state":"active","ping":63},{"user_id":367,"name":"Az","steam_id":76561198045643267,"connected_time":1751000000000,"state":"active","ping":69},{"user_id":382,"name":"Michaelpc1","steam_id":76561198088365519,"connected_time":340000000000,"state":"active","ping":69},{"user_id":276,"name":"FheeseWurger Insouptitty","steam_id":76561198130772096,"connected_time":8881000000000,"state":"active","ping":60},{"user_id":292,"name":"metalfan666|bday tmrw|","steam_id":76561198386344068,"connected_time":7311000000000,"state":"active","ping":71},{"user_id":294,"name":"Sophie","steam_id":76561198170408057,"connected_time":6839000000000,"state":"active","ping":60},{"user_id":283,"name":"Le4n!!!","steam_id":76561198045522596,"connected_time":7736000000000,"state":"active","ping":72},{"user_id":312,"name":"Wheat Box","steam_id":76561198203443358,"connected_time":4739000000000,"state":"active","ping":85},{"user_id":335,"name":"Im High","steam_id":76561198049954886,"connected_time":2163000000000,"state":"active","ping":75},{"user_id":373,"name":"yoklaty","steam_id":76561199020932212,"connected_time":1197000000000,"state":"active","ping":168},{"user_id":326,"name":"ATL1 | on my hunting trip","steam_id":76561198315341646,"connected_time":2623000000000,"state":"active","ping":76},{"user_id":333,"name":"DragonFalcon‚Ñ¢","steam_id":76561198044559930,"connected_time":2295000000000,"state":"active","ping":60},{"user_id":366,"name":"eish","steam_id":76561198089463603,"connected_time":1767000000000,"state":"active","ping":129},{"user_id":376,"name":"kite","steam_id":76561198346516392,"connected_time":1102000000000,"state":"active","ping":94},{"user_id":296,"name":"Toonice","steam_id":76561198402994885,"connected_time":6085000000000,"state":"active","ping":84},{"user_id":302,"name":"DrStarBucksCoffee","steam_id":76561198037372470,"connected_time":5415000000000,"state":"active","ping":90},{"user_id":374,"name":"Flint","steam_id":76561198066547582,"connected_time":1188000000000,"state":"active","ping":108},{"user_id":304,"name":"and i'm javert!","steam_id":76561198117033273,"connected_time":5373000000000,"state":"active","ping":141},{"user_id":379,"name":"lil hog","steam_id":76561199230929836,"connected_time":476000000000,"state":"active","ping":78},{"user_id":364,"name":"Bali","steam_id":76561198038693845,"connected_time":1928000000000,"state":"active","ping":77},{"user_id":377,"name":"Bocchi the Cock","steam_id":76561198152455316,"connected_time":988000000000,"state":"active","ping":105},{"user_id":375,"name":"bogus binted","steam_id":76561198203329842,"connected_time":1166000000000,"state":"active","ping":76}]},{"server_id":104,"name":"Uncletopia | Atlanta | 2 | All Maps","name_short":"atl-2","host":"atl-1.us.uncletopia.com","port":27025,"enabled":true,"region":"us-east","cc":"us","latitude":33.753746,"longitude":-84.38633,"reserved":0,"last_update":"0001-01-01T00:00:00Z","name_a2s":"Uncletopia | Atlanta | 2 | All Maps","protocol":17,"map":"koth_harvest_final","folder":"tf","game":"Team Fortress","app_id":440,"player_count":8,"max_players":24,"Bots":0,"server_type":"Dedicated","server_os":"Linux","password":true,"vac":true,"version":"7882260","steam_id":85568392924469983,"keywords":["cp","nocrits","nodmgspread","uncletopia"],"game_id":440,"stv_port":27026,"stv_name":"Uncletopia | Atlanta | 2 | All Maps | STV","players":[{"user_id":16,"name":"Waterzuka","steam_id":76561198254454489,"connected_time":2227000000000,"state":"active","ping":80},{"user_id":23,"name":"axlotl922","steam_id":76561199121176188,"connected_time":349000000000,"state":"active","ping":77},{"user_id":19,"name":"26O3 Ê•µÂÖâÈù¢Á¥ó","steam_id":76561198964074985,"connected_time":647000000000,"state":"active","ping":113},{"user_id":28,"name":"cake-mix","steam_id":76561199475394535,"connected_time":54000000000,"state":"active","ping":110},{"user_id":24,"name":"bobletoob","steam_id":76561199184464900,"connected_time":331000000000,"state":"active","ping":113},{"user_id":25,"name":"The Milkman #removeSniper","steam_id":76561199387783793,"connected_time":299000000000,"state":"active","ping":87},{"user_id":26,"name":"dozer","steam_id":76561199023109928,"connected_time":143000000000,"state":"active","ping":76},{"user_id":27,"name":"Archie","steam_id":76561198137112917,"connected_time":132000000000,"state":"active","ping":100}]},{"server_id":400,"name":"Uncletopia | Atlanta | 3 | Community","name_short":"atl-3","host":"atl-1.us.uncletopia.com","port":27035,"enabled":true,"region":"us-east","cc":"us","latitude":33.753746,"longitude":-84.38633,"reserved":0,"last_update":"0001-01-01T00:00:00Z","name_a2s":"Uncletopia | Atlanta | 3 | Community","protocol":17,"map":"workshop/cp_propaganda_b18.ugc1603743849","folder":"tf","game":"Team Fortress","app_id":440,"player_count":0,"max_players":24,"Bots":0,"server_type":"Dedicated","server_os":"Linux","password":true,"vac":true,"version":"7882260","steam_id":85568392924515187,"keywords":["cp","nocrits","nodmgspread","uncletopia"],"game_id":440,"stv_port":27036,"stv_name":"Uncletopia | Atlanta | 3 | Community | STV","players":null},{"server_id":401,"name":"Uncletopia | Atlanta | 4 | No Payload","name_short":"atl-4","host":"atl-1.us.uncletopia.com","port":27045,"enabled":true,"region":"us-east","cc":"us","latitude":33.753746,"longitude":-84.38633,"reserved":0,"last_update":"0001-01-01T00:00:00Z","name_a2s":"","protocol":0,"map":"","folder":"","game":"","app_id":0,"player_count":0,"max_players":0,"Bots":0,"server_type":"","server_os":"","password":false,"vac":false,"version":"","steam_id":0,"keywords":null,"game_id":0,"stv_port":0,"stv_name":"","players":null},{"server_id":2,"name":"Uncletopia | Chicago | 1 | All Maps","name_short":"chi-1","host":"chi-1.us.uncletopia.com","port":27015,"enabled":true,"region":"us-central","cc":"us","latitude":41.881832,"longitude":-87.62318,"reserved":0,"last_update":"0001-01-01T00:00:00Z","name_a2s":"Uncletopia | Chicago | 1 | All Maps","protocol":17,"map":"pl_borneo","folder":"tf","game":"Team Fortress","app_id":440,"player_count":24,"max_players":24,"Bots":0,"server_type":"Dedicated","server_os":"Linux","password":true,"vac":true,"version":"7882260","steam_id":85568392924469984,"keywords":["nocrits","nodmgspread","payload","uncletopia"],"game_id":440,"stv_port":27016,"stv_name":"Uncletopia | Chicago | 1 | All Maps | STV","players":[{"user_id":446,"name":"997 N State Street, Orem, Utah","steam_id":76561198285931413,"connected_time":3292000000000,"state":"active","ping":91},{"user_id":444,"name":"Scooter O'Boyl","steam_id":76561197971687069,"connected_time":3476000000000,"state":"active","ping":71},{"user_id":456,"name":"Petrivus","steam_id":76561198202152453,"connected_time":2465000000000,"state":"active","ping":111},{"user_id":419,"name":"Zixzs","steam_id":76561198055504126,"connected_time":5103000000000,"state":"active","ping":66},{"user_id":415,"name":"scrotal recall","steam_id":76561198135945598,"connected_time":5499000000000,"state":"active","ping":77},{"user_id":453,"name":"Stick Drift","steam_id":76561199019675078,"connected_time":2538000000000,"state":"active","ping":133},{"user_id":474,"name":"Charlotte","steam_id":76561199084344266,"connected_time":922000000000,"state":"active","ping":56},{"user_id":358,"name":"0","steam_id":76561198046055673,"connected_time":10409000000000,"state":"active","ping":72},{"user_id":466,"name":"Want Some Chocolate?¬ø","steam_id":76561199427444982,"connected_time":2026000000000,"state":"active","ping":96},{"user_id":479,"name":"Maverick","steam_id":76561198322829814,"connected_time":54000000000,"state":"active","ping":76},{"user_id":471,"name":"good_s1r","steam_id":76561199010842391,"connected_time":954000000000,"state":"active","ping":59},{"user_id":427,"name":"bought this cart for 15 dollars","steam_id":76561198253731826,"connected_time":4696000000000,"state":"active","ping":54},{"user_id":465,"name":"The Silkyest of Boys","steam_id":76561198320921269,"connected_time":2035000000000,"state":"active","ping":91},{"user_id":437,"name":"Sean Bae","steam_id":76561198036909521,"connected_time":4066000000000,"state":"active","ping":87},{"user_id":463,"name":"Doubting Dave","steam_id":76561198066410749,"connected_time":2242000000000,"state":"active","ping":66},{"user_id":467,"name":"Mediarch","steam_id":76561198050765729,"connected_time":1925000000000,"state":"active","ping":106},{"user_id":476,"name":"blakejack226","steam_id":76561199128917566,"connected_time":778000000000,"state":"active","ping":83},{"user_id":473,"name":"Notation","steam_id":76561198119509319,"connected_time":942000000000,"state":"active","ping":59},{"user_id":475,"name":"avantime","steam_id":76561199203175541,"connected_time":919000000000,"state":"active","ping":86},{"user_id":477,"name":"C.A.S.S.I.E (real)","steam_id":76561199040892651,"connected_time":703000000000,"state":"active","ping":67},{"user_id":455,"name":"pie_hero","steam_id":76561197972272716,"connected_time":2508000000000,"state":"active","ping":44},{"user_id":478,"name":"ultralisk52","steam_id":76561198051666604,"connected_time":687000000000,"state":"active","ping":61},{"user_id":461,"name":"triskit","steam_id":76561198246093894,"connected_time":2302000000000,"state":"active","ping":88},{"user_id":469,"name":"hobgob","steam_id":76561198148549095,"connected_time":1238000000000,"state":"active","ping":144}]},{"server_id":106,"name":"Uncletopia | Chicago | 2 | All Maps","name_short":"chi-2","host":"chi-1.us.uncletopia.com","port":27025,"enabled":true,"region":"us-central","cc":"us","latitude":41.881832,"longitude":-87.62318,"reserved":0,"last_update":"0001-01-01T00:00:00Z","name_a2s":"Uncletopia | Chicago | 2 | All Maps","protocol":17,"map":"plr_hightower","folder":"tf","game":"Team Fortress","app_id":440,"player_count":24,"max_players":24,"Bots":0,"server_type":"Dedicated","server_os":"Linux","password":true,"vac":true,"version":"7882260","steam_id":85568392924469985,"keywords":["nocrits","nodmgspread","payload","uncletopia"],"game_id":440,"stv_port":27026,"stv_name":"Uncletopia | Chicago | 2 | All Maps | STV","players":[{"user_id":167,"name":"bobbymcbobington","steam_id":76561199089411172,"connected_time":7538000000000,"state":"active","ping":114},{"user_id":230,"name":"Rukh","steam_id":76561197999361315,"connected_time":1742000000000,"state":"active","ping":92},{"user_id":250,"name":"NUt","steam_id":76561198031007966,"connected_time":375000000000,"state":"active","ping":85},{"user_id":251,"name":"WALKING GOPRO","steam_id":76561198186928885,"connected_time":370000000000,"state":"active","ping":69},{"user_id":246,"name":"PPFitzenreit","steam_id":76561199381005210,"connected_time":1014000000000,"state":"active","ping":75},{"user_id":248,"name":"femboy foxgirl","steam_id":76561198056432756,"connected_time":480000000000,"state":"active","ping":51},{"user_id":227,"name":"Rick Yeti","steam_id":76561198025462553,"connected_time":2482000000000,"state":"active","ping":60},{"user_id":247,"name":"Rafl","steam_id":76561198055222756,"connected_time":901000000000,"state":"active","ping":65},{"user_id":231,"name":"Shield12","steam_id":76561198857193675,"connected_time":1730000000000,"state":"active","ping":56},{"user_id":239,"name":"GuyGoom","steam_id":76561198254522178,"connected_time":1273000000000,"state":"active","ping":59},{"user_id":252,"name":"Mushy","steam_id":76561198083937545,"connected_time":370000000000,"state":"active","ping":96},{"user_id":245,"name":"¬§JoNJoN¬§","steam_id":76561197985230147,"connected_time":1058000000000,"state":"active","ping":54},{"user_id":254,"name":"hashmap","steam_id":76561198043794014,"connected_time":358000000000,"state":"active","ping":51},{"user_id":260,"name":"ThatOneKnight","steam_id":76561198388583650,"connected_time":51000000000,"state":"active","ping":53},{"user_id":258,"name":"Aster","steam_id":76561198037920420,"connected_time":236000000000,"state":"active","ping":87},{"user_id":233,"name":"Dandy Chiggins","steam_id":76561198106046107,"connected_time":1720000000000,"state":"active","ping":111},{"user_id":249,"name":"maS","steam_id":76561198033846407,"connected_time":447000000000,"state":"active","ping":53},{"user_id":240,"name":"the.land.of.avalon","steam_id":76561198245431668,"connected_time":1161000000000,"state":"active","ping":58},{"user_id":235,"name":"Shuu","steam_id":76561199199180558,"connected_time":1709000000000,"state":"active","ping":70},{"user_id":189,"name":"LunarrD","steam_id":76561198811220107,"connected_time":6076000000000,"state":"active","ping":86},{"user_id":244,"name":"||BassMan||","steam_id":76561198279865229,"connected_time":1097000000000,"state":"active","ping":129},{"user_id":62,"name":"Moomin","steam_id":76561198072726213,"connected_time":14512000000000,"state":"active","ping":101},{"user_id":256,"name":"SMILEzZZ","steam_id":76561199034761420,"connected_time":345000000000,"state":"active","ping":82},{"user_id":259,"name":"LG_Fridge_User","steam_id":76561198977815014,"connected_time":236000000000,"state":"active","ping":75}]},{"server_id":402,"name":"Uncletopia | Chicago | 3 | All Maps","name_short":"chi-3","host":"chi-1.us.uncletopia.com","port":27035,"enabled":true,"region":"us-central","cc":"us","latitude":41.881832,"longitude":-87.62318,"reserved":0,"last_update":"0001-01-01T00:00:00Z","name_a2s":"Uncletopia | Chicago | 3 | All Maps","protocol":17,"map":"cp_mountainlab","folder":"tf","game":"Team Fortress","app_id":440,"player_count":24,"max_players":24,"Bots":0,"server_type":"Dedicated","server_os":"Linux","password":true,"vac":true,"version":"7882260","steam_id":85568392924515191,"keywords":["cp","nocrits","nodmgspread","uncletopia"],"game_id":440,"stv_port":27036,"stv_name":"Uncletopia | Chicago | 3 | All Maps | STV","players":[{"user_id":368,"name":"Beyond Trash","steam_id":76561198835198281,"connected_time":630000000000,"state":"active","ping":55},{"user_id":320,"name":"coolkid","steam_id":76561198072600034,"connected_time":4062000000000,"state":"active","ping":117},{"user_id":353,"name":"Sash Curtis","steam_id":76561198025862440,"connected_time":1577000000000,"state":"active","ping":101},{"user_id":267,"name":"Token","steam_id":76561198067814426,"connected_time":8333000000000,"state":"active","ping":82},{"user_id":364,"name":"money getting 1 percenter","steam_id":76561198012796388,"connected_time":803000000000,"state":"active","ping":47},{"user_id":329,"name":"Gamba","steam_id":76561198069264650,"connected_time":3427000000000,"state":"active","ping":58},{"user_id":365,"name":"Coach McFish","steam_id":76561198210456405,"connected_time":780000000000,"state":"active","ping":75},{"user_id":369,"name":"WeegeePJ","steam_id":76561199383362382,"connected_time":629000000000,"state":"active","ping":89},{"user_id":265,"name":"Knooper","steam_id":76561198096149824,"connected_time":8503000000000,"state":"active","ping":112},{"user_id":203,"name":"Elroy Spark - DJ- Roro","steam_id":76561198071776428,"connected_time":12803000000000,"state":"active","ping":108},{"user_id":356,"name":"Sammich Slinger","steam_id":76561198007644532,"connected_time":1523000000000,"state":"active","ping":91},{"user_id":377,"name":"Mr.Frundles","steam_id":76561198134559026,"connected_time":166000000000,"state":"active","ping":67},{"user_id":278,"name":"shpadoinkle","steam_id":76561198044909073,"connected_time":7385000000000,"state":"active","ping":112},{"user_id":357,"name":"Definitely Not A Cat","steam_id":76561198123464621,"connected_time":1503000000000,"state":"active","ping":75},{"user_id":370,"name":"Margo_Rae","steam_id":76561198035046430,"connected_time":620000000000,"state":"active","ping":88},{"user_id":372,"name":"RandyPickleshoes","steam_id":76561198064139260,"connected_time":433000000000,"state":"active","ping":71},{"user_id":371,"name":"‚ô°a femboy‚ô°","steam_id":76561199212971864,"connected_time":579000000000,"state":"active","ping":76},{"user_id":333,"name":"Drippin Jimmy","steam_id":76561198161241865,"connected_time":3228000000000,"state":"active","ping":95},{"user_id":374,"name":"SuperFresh","steam_id":76561198200723198,"connected_time":281000000000,"state":"active","ping":42},{"user_id":359,"name":"Jazz2T","steam_id":76561198154418867,"connected_time":1480000000000,"state":"active","ping":102},{"user_id":363,"name":"Triples_","steam_id":76561198094249561,"connected_time":1025000000000,"state":"active","ping":56},{"user_id":367,"name":"piss guy","steam_id":76561199073225395,"connected_time":744000000000,"state":"active","ping":84},{"user_id":248,"name":"worst tf2 player ever","steam_id":76561198330205913,"connected_time":9839000000000,"state":"active","ping":82},{"user_id":340,"name":"Wanted Criminal Hedgehog","steam_id":76561198124081839,"connected_time":2923000000000,"state":"active","ping":84}]},{"server_id":403,"name":"Uncletopia | Chicago | 4 | All Maps","name_short":"chi-4","host":"chi-1.us.uncletopia.com","port":27045,"enabled":true,"region":"us-central","cc":"us","latitude":41.881832,"longitude":-87.62318,"reserved":0,"last_update":"0001-01-01T00:00:00Z","name_a2s":"Uncletopia | Chicago | 4 | All Maps","protocol":17,"map":"pl_barnblitz","folder":"tf","game":"Team Fortress","app_id":440,"player_count":24,"max_players":24,"Bots":0,"server_type":"Dedicated","server_os":"Linux","password":true,"vac":true,"version":"7882260","steam_id":85568392924515193,"keywords":["nocrits","nodmgspread","payload","uncletopia"],"game_id":440,"stv_port":27046,"stv_name":"Uncletopia | Chicago | 4 | All Maps | STV","players":[{"user_id":497,"name":"Cosmic Torgue","steam_id":76561198828724945,"connected_time":1657000000000,"state":"active","ping":84},{"user_id":472,"name":"nekoknight tf2","steam_id":76561198400058665,"connected_time":3816000000000,"state":"active","ping":70},{"user_id":518,"name":"fapasaurusrex","steam_id":76561197994951255,"connected_time":402000000000,"state":"active","ping":35},{"user_id":511,"name":"deb","steam_id":76561198414336279,"connected_time":566000000000,"state":"active","ping":79},{"user_id":499,"name":"Trusty","steam_id":76561198035444237,"connected_time":1496000000000,"state":"active","ping":59},{"user_id":503,"name":"Eerie Pumpkin","steam_id":76561198395499291,"connected_time":1188000000000,"state":"active","ping":31},{"user_id":407,"name":"WALL-E","steam_id":76561198154701370,"connected_time":8368000000000,"state":"active","ping":86},{"user_id":504,"name":"ThatGamingKiwi","steam_id":76561199170522237,"connected_time":1047000000000,"state":"active","ping":89},{"user_id":478,"name":"RyInc","steam_id":76561198874261643,"connected_time":3360000000000,"state":"active","ping":49},{"user_id":513,"name":"sassy loli","steam_id":76561198402316065,"connected_time":547000000000,"state":"active","ping":90},{"user_id":512,"name":"artichoke","steam_id":76561198980994364,"connected_time":558000000000,"state":"active","ping":90},{"user_id":514,"name":"Ring A Ding","steam_id":76561199205871164,"connected_time":534000000000,"state":"active","ping":95},{"user_id":484,"name":"bananalover5","steam_id":76561199143854578,"connected_time":2795000000000,"state":"active","ping":93},{"user_id":508,"name":"Femtofarad","steam_id":76561198308583053,"connected_time":591000000000,"state":"active","ping":76},{"user_id":479,"name":"Chicken Joe","steam_id":76561198278185182,"connected_time":3281000000000,"state":"active","ping":71},{"user_id":426,"name":"ItsRoy","steam_id":76561198119525485,"connected_time":7293000000000,"state":"active","ping":54},{"user_id":515,"name":"Centre","steam_id":76561198281612642,"connected_time":489000000000,"state":"active","ping":105},{"user_id":505,"name":"smile","steam_id":76561198971354161,"connected_time":1020000000000,"state":"active","ping":60},{"user_id":491,"name":"Mexican Lad","steam_id":76561198060874570,"connected_time":1873000000000,"state":"active","ping":110},{"user_id":506,"name":"Mr. Call You Back","steam_id":76561198025172811,"connected_time":983000000000,"state":"active","ping":57},{"user_id":516,"name":"Meat Mans Meat","steam_id":76561198062149455,"connected_time":487000000000,"state":"active","ping":60},{"user_id":498,"name":"El Bondin","steam_id":76561198820792434,"connected_time":1616000000000,"state":"active","ping":100},{"user_id":510,"name":"aiming with drawing tablet","steam_id":76561198397662124,"connected_time":569000000000,"state":"active","ping":87},{"user_id":517,"name":"frogs v3","steam_id":76561198338485558,"connected_time":467000000000,"state":"active","ping":46}]},{"server_id":36,"name":"Uncletopia | Chicago | 5 | All Maps","name_short":"chi-5","host":"chi-2.us.uncletopia.com","port":27015,"enabled":true,"region":"us-central","cc":"us","latitude":41.881832,"longitude":-87.62318,"reserved":0,"last_update":"0001-01-01T00:00:00Z","name_a2s":"Uncletopia | Chicago | 5 | All Maps","protocol":17,"map":"pl_frontier_final","folder":"tf","game":"Team Fortress","app_id":440,"player_count":23,"max_players":24,"Bots":0,"server_type":"Dedicated","server_os":"Linux","password":true,"vac":true,"version":"7882260","steam_id":85568392924866362,"keywords":["nocrits","nodmgspread","payload","uncletopia"],"game_id":440,"stv_port":27016,"stv_name":"Uncletopia | Chicago | 5 | All Maps | STV","players":[{"user_id":161,"name":"hatsune miku‚ô°","steam_id":76561199445009981,"connected_time":108000000000,"state":"active","ping":102},{"user_id":162,"name":"Rein","steam_id":76561198300340427,"connected_time":89000000000,"state":"active","ping":61},{"user_id":26,"name":"Blitzy","steam_id":76561198149472890,"connected_time":7526000000000,"state":"active","ping":74},{"user_id":155,"name":"wahooka","steam_id":76561197981211922,"connected_time":198000000000,"state":"active","ping":69},{"user_id":23,"name":"üÖúüÖîüÖîüÖöüÖ¢üÖ£üÖî\ufffd\ufffd\ufffd","steam_id":76561197999748343,"connected_time":7784000000000,"state":"active","ping":60},{"user_id":117,"name":"Serene Salamander","steam_id":76561198001094770,"connected_time":2921000000000,"state":"active","ping":101},{"user_id":135,"name":"Quark","steam_id":76561198328155605,"connected_time":1449000000000,"state":"active","ping":53},{"user_id":163,"name":"CyMeryy","steam_id":76561197984986540,"connected_time":89000000000,"state":"active","ping":67},{"user_id":164,"name":"cherry.blossom","steam_id":76561198014557455,"connected_time":52000000000,"state":"spawning","ping":54},{"user_id":148,"name":"LA TRUCKY","steam_id":76561199253239731,"connected_time":517000000000,"state":"active","ping":152},{"user_id":122,"name":"riSygneD","steam_id":76561198331618687,"connected_time":2700000000000,"state":"active","ping":91},{"user_id":147,"name":"Drapph","steam_id":76561199384213314,"connected_time":977000000000,"state":"active","ping":63},{"user_id":165,"name":"LITCH","steam_id":76561198033075871,"connected_time":43000000000,"state":"active","ping":90},{"user_id":166,"name":"TheDoomed","steam_id":76561198031561409,"connected_time":29000000000,"state":"active","ping":64},{"user_id":129,"name":"Whoplops","steam_id":76561197977188933,"connected_time":1634000000000,"state":"active","ping":83},{"user_id":156,"name":"shadow wizard money gang","steam_id":76561198089421742,"connected_time":196000000000,"state":"active","ping":125},{"user_id":167,"name":"Chechens Spotted","steam_id":76561199028910893,"connected_time":7000000000,"state":"spawning","ping":80},{"user_id":132,"name":"sauce","steam_id":76561198068430673,"connected_time":1565000000000,"state":"active","ping":82},{"user_id":146,"name":"Zebulon","steam_id":76561198025719753,"connected_time":1012000000000,"state":"active","ping":89},{"user_id":168,"name":"dolly","steam_id":76561198440779667,"connected_time":4000000000,"state":"spawning","ping":55},{"user_id":153,"name":"Also Known As Assteeth","steam_id":76561198049837377,"connected_time":448000000000,"state":"active","ping":49},{"user_id":149,"name":"H.","steam_id":76561198074951179,"connected_time":514000000000,"state":"active","ping":96},{"user_id":160,"name":"Fredfredfood","steam_id":76561198072824802,"connected_time":126000000000,"state":"active","ping":54}]},{"server_id":37,"name":"Uncletopia | Chicago | 6 | All Maps","name_short":"chi-6","host":"chi-2.us.uncletopia.com","port":27025,"enabled":true,"region":"us-central","cc":"us","latitude":41.881832,"longitude":-87.62318,"reserved":0,"last_update":"0001-01-01T00:00:00Z","name_a2s":"Uncletopia | Chicago | 6 | All Maps","protocol":17,"map":"koth_cascade","folder":"tf","game":"Team Fortress","app_id":440,"player_count":18,"max_players":24,"Bots":0,"server_type":"Dedicated","server_os":"Linux","password":true,"vac":true,"version":"7882260","steam_id":85568392924866363,"keywords":["cp","nocrits","nodmgspread","uncletopia"],"game_id":440,"stv_port":27026,"stv_name":"Uncletopia | Chicago | 6 | All Maps | STV","players":[{"user_id":8,"name":"Kaptinver","steam_id":76561199133313941,"connected_time":1323000000000,"state":"active","ping":79},{"user_id":9,"name":"laserx175","steam_id":76561199220960517,"connected_time":1253000000000,"state":"active","ping":78},{"user_id":16,"name":"jesuslover.2002","steam_id":76561198160629681,"connected_time":430000000000,"state":"active","ping":61},{"user_id":11,"name":"fortnern","steam_id":76561197972353370,"connected_time":889000000000,"state":"active","ping":63},{"user_id":15,"name":"3xtr3m3rWbyFan2901025","steam_id":76561198042286766,"connected_time":558000000000,"state":"active","ping":70},{"user_id":17,"name":"Friedrich Van Bingle","steam_id":76561198185952115,"connected_time":324000000000,"state":"active","ping":69},{"user_id":24,"name":"RedLetterDay","steam_id":76561198168026154,"connected_time":188000000000,"state":"active","ping":104},{"user_id":19,"name":"Tskuno","steam_id":76561198129291597,"connected_time":282000000000,"state":"active","ping":53},{"user_id":27,"name":"stupid retard","steam_id":76561198946783148,"connected_time":171000000000,"state":"active","ping":58},{"user_id":21,"name":"johnson exam","steam_id":76561198838784551,"connected_time":267000000000,"state":"active","ping":66},{"user_id":22,"name":"genuine reaction","steam_id":76561199007703661,"connected_time":253000000000,"state":"active","ping":73},{"user_id":23,"name":"Snake Handler","steam_id":76561198027198306,"connected_time":251000000000,"state":"active","ping":58},{"user_id":25,"name":"Brigade","steam_id":76561198044656610,"connected_time":186000000000,"state":"active","ping":68},{"user_id":26,"name":"ursa","steam_id":76561198025394298,"connected_time":184000000000,"state":"active","ping":52},{"user_id":29,"name":"OrangeSodaMachine","steam_id":76561198079230156,"connected_time":130000000000,"state":"active","ping":77},{"user_id":30,"name":"LukeLeal","steam_id":76561198049822995,"connected_time":121000000000,"state":"active","ping":166},{"user_id":31,"name":"dr. fartgood","steam_id":76561198329087915,"connected_time":120000000000,"state":"active","ping":107},{"user_id":32,"name":"marf","steam_id":76561198259541415,"connected_time":73000000000,"state":"active","ping":68}]},{"server_id":38,"name":"Uncletopia | Chicago | 7 | Stopwatch Beta","name_short":"chi-7","host":"chi-2.us.uncletopia.com","port":27035,"enabled":true,"region":"us-central","cc":"us","latitude":41.881832,"longitude":-87.62318,"reserved":0,"last_update":"0001-01-01T00:00:00Z","name_a2s":"Uncletopia | Chicago | 7 | Stopwatch Beta","protocol":17,"map":"pl_borneo","folder":"tf","game":"Team Fortress","app_id":440,"player_count":0,"max_players":24,"Bots":0,"server_type":"Dedicated","server_os":"Linux","password":true,"vac":true,"version":"7882260","steam_id":85568392924866364,"keywords":["nocrits","nodmgspread","payload","uncletopia"],"game_id":440,"stv_port":27036,"stv_name":"Uncletopia | Chicago | 7 | Stopwatch Beta | STV","players":null},{"server_id":39,"name":"Uncletopia | Chicago | 8 | Community","name_short":"chi-8","host":"chi-2.us.uncletopia.com","port":27045,"enabled":true,"region":"us-central","cc":"us","latitude":41.881832,"longitude":-87.62318,"reserved":0,"last_update":"0001-01-01T00:00:00Z","name_a2s":"Uncletopia | Chicago | 8 | Community","protocol":17,"map":"workshop/cp_caldera_rc2.ugc2834196889","folder":"tf","game":"Team Fortress","app_id":440,"player_count":0,"max_players":24,"Bots":0,"server_type":"Dedicated","server_os":"Linux","password":true,"vac":true,"version":"7882260","steam_id":85568392924866365,"keywords":["cp","nocrits","nodmgspread","uncletopia"],"game_id":440,"stv_port":27046,"stv_name":"Uncletopia | Chicago | 8 | Community | STV","players":null},{"server_id":8,"name":"Uncletopia | Dallas | 1 | All Maps","name_short":"dal-1","host":"dal-1.us.uncletopia.com","port":27015,"enabled":true,"region":"us-central","cc":"us","latitude":32.779167,"longitude":-96.80889,"reserved":0,"last_update":"0001-01-01T00:00:00Z","name_a2s":"Uncletopia | Dallas | 1 | All Maps","protocol":17,"map":"pl_badwater","folder":"tf","game":"Team Fortress","app_id":440,"player_count":24,"max_players":24,"Bots":0,"server_type":"Dedicated","server_os":"Linux","password":true,"vac":true,"version":"7882260","steam_id":85568392924469986,"keywords":["nocrits","nodmgspread","payload","uncletopia"],"game_id":440,"stv_port":27016,"stv_name":"Uncletopia | Dallas | 1 | All Maps | STV","players":[{"user_id":280,"name":"„Ç¥?!Jon Chainsaw!?„Ç¥","steam_id":76561198400240040,"connected_time":207000000000,"state":"active","ping":46},{"user_id":278,"name":"DJ-Whatchya #rEtiReD","steam_id":76561198060355298,"connected_time":485000000000,"state":"active","ping":91},{"user_id":263,"name":"Borgir","steam_id":76561198325390265,"connected_time":2044000000000,"state":"active","ping":68},{"user_id":261,"name":"Cargoshorts Johnny","steam_id":76561198281732417,"connected_time":2159000000000,"state":"active","ping":81},{"user_id":243,"name":"Jazztral (Grandmaster)","steam_id":76561198067827514,"connected_time":3286000000000,"state":"active","ping":35},{"user_id":255,"name":"Duckywinner","steam_id":76561198254828139,"connected_time":2513000000000,"state":"active","ping":82},{"user_id":200,"name":"SmokeyGalaxy","steam_id":76561198118780516,"connected_time":6376000000000,"state":"active","ping":56},{"user_id":248,"name":"Weerk","steam_id":76561199209543551,"connected_time":2697000000000,"state":"active","ping":78},{"user_id":230,"name":"wrist game dumbin","steam_id":76561198247984828,"connected_time":4359000000000,"state":"active","ping":60},{"user_id":262,"name":"„Ç≥„Ç´„Ç§„É≥","steam_id":76561198254360137,"connected_time":2148000000000,"state":"active","ping":86},{"user_id":232,"name":"goon refinery","steam_id":76561198166781089,"connected_time":4274000000000,"state":"active","ping":52},{"user_id":272,"name":"Dark Horse","steam_id":76561198088951869,"connected_time":1286000000000,"state":"active","ping":101},{"user_id":234,"name":"Miro","steam_id":76561198936412406,"connected_time":3918000000000,"state":"active","ping":82},{"user_id":270,"name":"sam1521","steam_id":76561198027264163,"connected_time":1622000000000,"state":"active","ping":71},{"user_id":247,"name":"Kito","steam_id":76561198394383213,"connected_time":2708000000000,"state":"active","ping":100},{"user_id":260,"name":"Boingo","steam_id":76561199086931535,"connected_time":2315000000000,"state":"active","ping":58},{"user_id":273,"name":"HOMESHAKE","steam_id":76561198045144546,"connected_time":1286000000000,"state":"active","ping":90},{"user_id":221,"name":"Ÿ©(^·¥ó^)€∂","steam_id":76561199013337543,"connected_time":5454000000000,"state":"active","ping":66},{"user_id":275,"name":"floofy","steam_id":76561198389769098,"connected_time":1013000000000,"state":"active","ping":83},{"user_id":147,"name":"Moonflower ‚ú¶","steam_id":76561198191782483,"connected_time":10970000000000,"state":"active","ping":49},{"user_id":281,"name":"Trash Rummager","steam_id":76561198085388962,"connected_time":171000000000,"state":"active","ping":69},{"user_id":207,"name":"Xanveil","steam_id":76561198370304125,"connected_time":5969000000000,"state":"active","ping":61},{"user_id":254,"name":"Solar","steam_id":76561198070121486,"connected_time":2600000000000,"state":"active","ping":81},{"user_id":284,"name":"Humon Player","steam_id":76561198013593178,"connected_time":50000000000,"state":"active","ping":56}]},{"server_id":108,"name":"Uncletopia | Dallas | 2 | All Maps","name_short":"dal-2","host":"dal-1.us.uncletopia.com","port":27025,"enabled":true,"region":"us-central","cc":"us","latitude":32.779167,"longitude":-96.80889,"reserved":0,"last_update":"0001-01-01T00:00:00Z","name_a2s":"Uncletopia | Dallas | 2 | All Maps","protocol":17,"map":"cp_altitude","folder":"tf","game":"Team Fortress","app_id":440,"player_count":24,"max_players":24,"Bots":0,"server_type":"Dedicated","server_os":"Linux","password":true,"vac":true,"version":"7882260","steam_id":85568392924469988,"keywords":["cp","nocrits","nodmgspread","uncletopia"],"game_id":440,"stv_port":27026,"stv_name":"Uncletopia | Dallas | 2 | All Maps | STV","players":[{"user_id":147,"name":"Owl Pacino","steam_id":76561197979970666,"connected_time":650000000000,"state":"active","ping":75},{"user_id":148,"name":"Takyon","steam_id":76561198240014196,"connected_time":494000000000,"state":"active","ping":76},{"user_id":84,"name":"vgMaster749","steam_id":76561198205048900,"connected_time":5046000000000,"state":"active","ping":60},{"user_id":154,"name":"wizorb","steam_id":76561198002172674,"connected_time":189000000000,"state":"active","ping":71},{"user_id":69,"name":"BigPimpin","steam_id":76561198119549348,"connected_time":5777000000000,"state":"active","ping":49},{"user_id":118,"name":"aintnowaiyboi","steam_id":76561198301372369,"connected_time":3389000000000,"state":"active","ping":34},{"user_id":134,"name":"ayecodex","steam_id":76561199477598858,"connected_time":1414000000000,"state":"active","ping":80},{"user_id":115,"name":"Panda Loser","steam_id":76561198828745176,"connected_time":3479000000000,"state":"active","ping":109},{"user_id":122,"name":"Sup m8","steam_id":76561198081659121,"connected_time":2652000000000,"state":"active","ping":36},{"user_id":117,"name":"thepokeyen","steam_id":76561198236847572,"connected_time":3419000000000,"state":"active","ping":84},{"user_id":146,"name":"adami","steam_id":76561198800334731,"connected_time":840000000000,"state":"active","ping":80},{"user_id":149,"name":"hforce11","steam_id":76561198087647130,"connected_time":470000000000,"state":"active","ping":57},{"user_id":143,"name":"Baked Beans","steam_id":76561198090419068,"connected_time":1266000000000,"state":"active","ping":135},{"user_id":85,"name":"Ethan7704","steam_id":76561198821010606,"connected_time":5038000000000,"state":"active","ping":80},{"user_id":150,"name":"sebasnerd12","steam_id":76561199437010123,"connected_time":459000000000,"state":"active","ping":77},{"user_id":151,"name":"¬øsoup?","steam_id":76561198121042852,"connected_time":455000000000,"state":"active","ping":99},{"user_id":135,"name":"sky walker","steam_id":76561198937717599,"connected_time":1413000000000,"state":"active","ping":43},{"user_id":110,"name":"Emijon","steam_id":76561198255179590,"connected_time":4116000000000,"state":"active","ping":101},{"user_id":141,"name":"GodandTitans","steam_id":76561198070070155,"connected_time":1321000000000,"state":"active","ping":117},{"user_id":130,"name":"Jacob Hornberger 2016","steam_id":76561198204549723,"connected_time":2000000000000,"state":"active","ping":127},{"user_id":152,"name":"Quakedad","steam_id":76561198055811307,"connected_time":454000000000,"state":"active","ping":141},{"user_id":153,"name":"Pluto","steam_id":76561198338593690,"connected_time":396000000000,"state":"active","ping":86},{"user_id":144,"name":"Xyverle","steam_id":76561198799726415,"connected_time":1164000000000,"state":"active","ping":97},{"user_id":137,"name":"kimchiking82","steam_id":76561198008423339,"connected_time":1389000000000,"state":"active","ping":70}]},{"server_id":5,"name":"Uncletopia | Frankfurt | 1 | All Maps","name_short":"frk-1","host":"frk-1.de.uncletopia.com","port":27015,"enabled":true,"region":"eu","cc":"de","latitude":50.110924,"longitude":8.682127,"reserved":0,"last_update":"0001-01-01T00:00:00Z","name_a2s":"Uncletopia | Frankfurt | 1 | All Maps","protocol":17,"map":"pl_pier","folder":"tf","game":"Team Fortress","app_id":440,"player_count":24,"max_players":24,"Bots":0,"server_type":"Dedicated","server_os":"Linux","password":true,"vac":true,"version":"7882260","steam_id":85568392924469989,"keywords":["nocrits","nodmgspread","payload","uncletopia"],"game_id":440,"stv_port":27016,"stv_name":"Uncletopia | Frankfurt | 1 | All Maps | STV","players":[{"user_id":766,"name":"Tonne","steam_id":76561197970856766,"connected_time":203000000000,"state":"active","ping":55},{"user_id":764,"name":"i drink a lot of coffee","steam_id":76561199233979726,"connected_time":247000000000,"state":"active","ping":80},{"user_id":739,"name":"Edla","steam_id":76561198062815315,"connected_time":1537000000000,"state":"active","ping":127},{"user_id":744,"name":"Onyx Odin - Alcoholic Alchemist","steam_id":76561198044560148,"connected_time":1371000000000,"state":"active","ping":69},{"user_id":765,"name":"Mata_FM","steam_id":76561198044824504,"connected_time":247000000000,"state":"active","ping":64},{"user_id":697,"name":"Atronic","steam_id":76561198354960567,"connected_time":4026000000000,"state":"active","ping":48},{"user_id":767,"name":"skatie","steam_id":76561198169487380,"connected_time":178000000000,"state":"active","ping":77},{"user_id":768,"name":"Unwanted Hero","steam_id":76561198070211478,"connected_time":172000000000,"state":"active","ping":180},{"user_id":726,"name":"[O\u0026O]YaboiDucki","steam_id":76561198195976589,"connected_time":2936000000000,"state":"active","ping":76},{"user_id":769,"name":"JunkJen","steam_id":76561198017223402,"connected_time":145000000000,"state":"active","ping":69},{"user_id":750,"name":"ldshwt","steam_id":76561198090364357,"connected_time":839000000000,"state":"active","ping":48},{"user_id":735,"name":"Rastalin","steam_id":76561198037374081,"connected_time":1732000000000,"state":"active","ping":103},{"user_id":740,"name":"truebosnianking","steam_id":76561199440060597,"connected_time":1508000000000,"state":"active","ping":76},{"user_id":756,"name":"Lampinen","steam_id":76561198004936228,"connected_time":588000000000,"state":"active","ping":84},{"user_id":771,"name":"etc","steam_id":76561197998394797,"connected_time":127000000000,"state":"active","ping":59},{"user_id":760,"name":"Providence","steam_id":76561198003920270,"connected_time":489000000000,"state":"active","ping":82},{"user_id":743,"name":"Michael Explosion","steam_id":76561198008010361,"connected_time":1398000000000,"state":"active","ping":144},{"user_id":745,"name":"Stefan Bizantni","steam_id":76561198274068720,"connected_time":1351000000000,"state":"active","ping":73},{"user_id":772,"name":"ChPerette","steam_id":76561198060004887,"connected_time":90000000000,"state":"active","ping":56},{"user_id":731,"name":"SNS BATIN–ê–®","steam_id":76561198053914183,"connected_time":2135000000000,"state":"active","ping":68},{"user_id":724,"name":"Weebot00","steam_id":76561199479204459,"connected_time":3033000000000,"state":"active","ping":82},{"user_id":762,"name":"Sir Kiops","steam_id":76561198022769275,"connected_time":420000000000,"state":"active","ping":112},{"user_id":720,"name":"Smurph","steam_id":76561197996539360,"connected_time":3283000000000,"state":"active","ping":101},{"user_id":747,"name":"atomic press","steam_id":76561198120668070,"connected_time":926000000000,"state":"active","ping":62}]},{"server_id":110,"name":"Uncletopia | Frankfurt | 2 | All Maps","name_short":"frk-2","host":"frk-1.de.uncletopia.com","port":27025,"enabled":true,"region":"eu","cc":"de","latitude":50.110924,"longitude":8.682127,"reserved":0,"last_update":"0001-01-01T00:00:00Z","name_a2s":"Uncletopia | Frankfurt | 2 | All Maps","protocol":17,"map":"koth_highpass","folder":"tf","game":"Team Fortress","app_id":440,"player_count":23,"max_players":24,"Bots":0,"server_type":"Dedicated","server_os":"Linux","password":true,"vac":true,"version":"7882260","steam_id":85568392924469990,"keywords":["cp","nocrits","nodmgspread","uncletopia"],"game_id":440,"stv_port":27026,"stv_name":"Uncletopia | Frankfurt | 2 | All Maps | STV","players":[{"user_id":525,"name":"Lucan","steam_id":76561198219195135,"connected_time":4000000000,"state":"spawning","ping":59},{"user_id":517,"name":"c0mpaz","steam_id":76561198165292894,"connected_time":202000000000,"state":"active","ping":63},{"user_id":465,"name":"_Starlight_","steam_id":76561197993885738,"connected_time":2935000000000,"state":"active","ping":77},{"user_id":498,"name":"wieto","steam_id":76561198050626427,"connected_time":1190000000000,"state":"active","ping":54},{"user_id":489,"name":"mpk02","steam_id":76561198056572735,"connected_time":1393000000000,"state":"active","ping":58},{"user_id":510,"name":"Paulbraker","steam_id":76561198150162470,"connected_time":463000000000,"state":"active","ping":75},{"user_id":511,"name":"pijukaaaaaaaa","steam_id":76561198083063005,"connected_time":450000000000,"state":"active","ping":46},{"user_id":513,"name":"RebirthInFire","steam_id":76561198200555755,"connected_time":322000000000,"state":"active","ping":57},{"user_id":493,"name":"Nuda","steam_id":76561198097550587,"connected_time":1278000000000,"state":"active","ping":83},{"user_id":407,"name":"Melford","steam_id":76561198319650677,"connected_time":7043000000000,"state":"active","ping":137},{"user_id":506,"name":"aimtroll","steam_id":76561198164806677,"connected_time":576000000000,"state":"active","ping":117},{"user_id":491,"name":"Ravenleeds","steam_id":76561198130577266,"connected_time":1372000000000,"state":"active","ping":70},{"user_id":483,"name":"Moe Jama","steam_id":76561198021676997,"connected_time":1921000000000,"state":"active","ping":74},{"user_id":507,"name":"mewcat","steam_id":76561199087050938,"connected_time":557000000000,"state":"active","ping":91},{"user_id":524,"name":"true","steam_id":76561198031145243,"connected_time":29000000000,"state":"active","ping":78},{"user_id":516,"name":"cowboy","steam_id":76561198080361351,"connected_time":221000000000,"state":"active","ping":58},{"user_id":520,"name":"Godzilla! TrashVerN","steam_id":76561197977444051,"connected_time":129000000000,"state":"active","ping":74},{"user_id":496,"name":"poopoocum","steam_id":76561198180641206,"connected_time":1242000000000,"state":"active","ping":61},{"user_id":521,"name":"ddd","steam_id":76561198078083456,"connected_time":100000000000,"state":"active","ping":104},{"user_id":473,"name":"paguro","steam_id":76561198119560871,"connected_time":2767000000000,"state":"active","ping":70},{"user_id":522,"name":"shits in urinals","steam_id":76561199480942903,"connected_time":96000000000,"state":"active","ping":68},{"user_id":523,"name":"snowycoast","steam_id":76561198346638308,"connected_time":91000000000,"state":"active","ping":67},{"user_id":475,"name":"leminsc8","steam_id":76561198825084995,"connected_time":2748000000000,"state":"active","ping":39}]},{"server_id":308,"name":"Uncletopia | Frankfurt | 3 | All Maps","name_short":"frk-3","host":"frk-1.de.uncletopia.com","port":27035,"enabled":true,"region":"eu","cc":"de","latitude":50.110924,"longitude":8.682127,"reserved":0,"last_update":"0001-01-01T00:00:00Z","name_a2s":"Uncletopia | Frankfurt | 3 | All Maps","protocol":17,"map":"cp_snakewater_final1","folder":"tf","game":"Team Fortress","app_id":440,"player_count":13,"max_players":24,"Bots":0,"server_type":"Dedicated","server_os":"Linux","password":true,"vac":true,"version":"7882260","steam_id":85568392924504274,"keywords":["cp","nocrits","nodmgspread","uncletopia"],"game_id":440,"stv_port":27036,"stv_name":"Uncletopia | Frankfurt | 3 | All Maps | STV","players":[{"user_id":337,"name":"Tegnerud","steam_id":76561198214185612,"connected_time":714000000000,"state":"active","ping":67},{"user_id":338,"name":"PluNgBe","steam_id":76561198131100420,"connected_time":313000000000,"state":"active","ping":61},{"user_id":336,"name":"Your local defective","steam_id":76561198072950522,"connected_time":798000000000,"state":"active","ping":72},{"user_id":298,"name":"akakez","steam_id":76561198095432821,"connected_time":4037000000000,"state":"active","ping":119},{"user_id":301,"name":"SudPad","steam_id":76561198312204253,"connected_time":2647000000000,"state":"active","ping":110},{"user_id":235,"name":"Grim","steam_id":76561198141464555,"connected_time":9436000000000,"state":"active","ping":75},{"user_id":339,"name":"netsurfer","steam_id":76561198836246326,"connected_time":121000000000,"state":"active","ping":73},{"user_id":335,"name":"Cataleptic","steam_id":76561197997966949,"connected_time":862000000000,"state":"active","ping":69},{"user_id":340,"name":"Flame‚ò†","steam_id":76561198192163673,"connected_time":121000000000,"state":"active","ping":47},{"user_id":341,"name":"john01k","steam_id":76561198059731548,"connected_time":16000000000,"state":"active","ping":178},{"user_id":334,"name":"Tomex999","steam_id":76561198049587675,"connected_time":886000000000,"state":"active","ping":75},{"user_id":313,"name":"Dor_atar","steam_id":76561198973980542,"connected_time":1853000000000,"state":"active","ping":60},{"user_id":329,"name":"Cleaner 0-1 | Ichinose Asuna","steam_id":76561198985309519,"connected_time":1396000000000,"state":"active","ping":71}]},{"server_id":309,"name":"Uncletopia | Frankfurt | 4 | All Maps","name_short":"frk-4","host":"frk-1.de.uncletopia.com","port":27045,"enabled":true,"region":"eu","cc":"de","latitude":50.110924,"longitude":8.682127,"reserved":0,"last_update":"0001-01-01T00:00:00Z","name_a2s":"Uncletopia | Frankfurt | 4 | All Maps","protocol":17,"map":"ctf_well","folder":"tf","game":"Team Fortress","app_id":440,"player_count":13,"max_players":24,"Bots":0,"server_type":"Dedicated","server_os":"Linux","password":true,"vac":true,"version":"7882260","steam_id":85568392924504275,"keywords":["ctf","nocrits","nodmgspread","uncletopia"],"game_id":440,"stv_port":27046,"stv_name":"Uncletopia | Frankfurt | 4 | All Maps | STV","players":[{"user_id":692,"name":"MrKampfCookie","steam_id":76561198085490175,"connected_time":4751000000000,"state":"active","ping":46},{"user_id":707,"name":"swallowed 10 pennies please hel","steam_id":76561198055816412,"connected_time":3469000000000,"state":"active","ping":60},{"user_id":743,"name":"\u003c3","steam_id":76561199429407130,"connected_time":270000000000,"state":"active","ping":89},{"user_id":745,"name":"Uncle Moomin","steam_id":76561198011628656,"connected_time":173000000000,"state":"active","ping":82},{"user_id":698,"name":"Alpha","steam_id":76561198133229149,"connected_time":4209000000000,"state":"active","ping":92},{"user_id":689,"name":"wgbubl","steam_id":76561199133004884,"connected_time":5098000000000,"state":"active","ping":86},{"user_id":744,"name":"Brage","steam_id":76561198111623044,"connected_time":262000000000,"state":"active","ping":85},{"user_id":701,"name":"PierraNova","steam_id":76561198145686102,"connected_time":4079000000000,"state":"active","ping":59},{"user_id":737,"name":"Plow cheese","steam_id":76561198142478067,"connected_time":1030000000000,"state":"active","ping":77},{"user_id":739,"name":"zak","steam_id":76561197998895428,"connected_time":607000000000,"state":"active","ping":56},{"user_id":714,"name":"BELADIT","steam_id":76561198011911501,"connected_time":3113000000000,"state":"active","ping":62},{"user_id":676,"name":"Agartha Dweller","steam_id":76561198076881381,"connected_time":5946000000000,"state":"active","ping":70},{"user_id":713,"name":"Dzan50","steam_id":76561198059758591,"connected_time":3146000000000,"state":"active","ping":100}]},{"server_id":310,"name":"Uncletopia | Frankfurt | 5 | All Maps","name_short":"frk-5","host":"frk-1.de.uncletopia.com","port":27055,"enabled":true,"region":"eu","cc":"de","latitude":50.110924,"longitude":8.682127,"reserved":0,"last_update":"0001-01-01T00:00:00Z","name_a2s":"Uncletopia | Frankfurt | 5 | All Maps","protocol":17,"map":"cp_granary","folder":"tf","game":"Team Fortress","app_id":440,"player_count":10,"max_players":24,"Bots":0,"server_type":"Dedicated","server_os":"Linux","password":true,"vac":true,"version":"7882260","steam_id":85568392924504277,"keywords":["cp","nocrits","nodmgspread","uncletopia"],"game_id":440,"stv_port":27056,"stv_name":"Uncletopia | Frankfurt | 5 | All Maps | STV","players":[{"user_id":672,"name":"ja","steam_id":76561199228540618,"connected_time":729000000000,"state":"active","ping":70},{"user_id":673,"name":"Evoxyre","steam_id":76561198382531285,"connected_time":548000000000,"state":"active","ping":46},{"user_id":671,"name":"kanyewestlover911","steam_id":76561198410567223,"connected_time":965000000000,"state":"active","ping":57},{"user_id":669,"name":"Intruder","steam_id":76561198156128173,"connected_time":1150000000000,"state":"active","ping":75},{"user_id":670,"name":"Hindmost","steam_id":76561199081837220,"connected_time":1086000000000,"state":"active","ping":175},{"user_id":674,"name":"FROYO racist","steam_id":76561198179461907,"connected_time":470000000000,"state":"active","ping":73},{"user_id":649,"name":"TheTiredMario","steam_id":76561199062425739,"connected_time":2430000000000,"state":"active","ping":152},{"user_id":678,"name":"AudioTrope","steam_id":76561198084116909,"connected_time":218000000000,"state":"active","ping":158},{"user_id":599,"name":"Massmarine","steam_id":76561198038696531,"connected_time":6590000000000,"state":"active","ping":113},{"user_id":661,"name":"bowchika wowa #SlavaUkraine","steam_id":76561198159564550,"connected_time":1778000000000,"state":"active","ping":73}]},{"server_id":311,"name":"Uncletopia | Frankfurt | 6 | All Maps","name_short":"frk-6","host":"frk-1.de.uncletopia.com","port":27065,"enabled":true,"region":"eu","cc":"de","latitude":50.110924,"longitude":8.682127,"reserved":0,"last_update":"0001-01-01T00:00:00Z","name_a2s":"Uncletopia | Frankfurt | 6 | All Maps","protocol":17,"map":"koth_viaduct","folder":"tf","game":"Team Fortress","app_id":440,"player_count":17,"max_players":24,"Bots":0,"server_type":"Dedicated","server_os":"Linux","password":true,"vac":true,"version":"7882260","steam_id":85568392924504278,"keywords":["cp","nocrits","nodmgspread","uncletopia"],"game_id":440,"stv_port":27066,"stv_name":"Uncletopia | Frankfurt | 6 | All Maps | STV","players":[{"user_id":214,"name":"painting4","steam_id":76561198067554256,"connected_time":504000000000,"state":"active","ping":60},{"user_id":216,"name":"koira","steam_id":76561197996199669,"connected_time":477000000000,"state":"active","ping":87},{"user_id":217,"name":"YOU'RE GONNA BE","steam_id":76561198124230698,"connected_time":455000000000,"state":"active","ping":68},{"user_id":190,"name":"svantezch","steam_id":76561198373831657,"connected_time":3061000000000,"state":"active","ping":69},{"user_id":191,"name":"‚≤ò‚≤ì‚≤Å","steam_id":76561199005875559,"connected_time":3038000000000,"state":"active","ping":45},{"user_id":186,"name":"Chucky.","steam_id":76561197969361063,"connected_time":3327000000000,"state":"active","ping":90},{"user_id":192,"name":"MONKEY FIT CHECK üíÄüíÄüíÄ","steam_id":76561198235739036,"connected_time":2981000000000,"state":"active","ping":84},{"user_id":223,"name":"Sqilluy","steam_id":76561198130993466,"connected_time":35000000000,"state":"spawning","ping":178},{"user_id":210,"name":"dashin389","steam_id":76561199375915760,"connected_time":1522000000000,"state":"active","ping":157},{"user_id":175,"name":"Testicular torsion","steam_id":76561198119547399,"connected_time":4354000000000,"state":"active","ping":46},{"user_id":213,"name":"twitch/auratf2","steam_id":76561197988085026,"connected_time":521000000000,"state":"active","ping":71},{"user_id":196,"name":"Doobie","steam_id":76561198257836694,"connected_time":2460000000000,"state":"active","ping":52},{"user_id":202,"name":"TylowStar","steam_id":76561198357107806,"connected_time":2199000000000,"state":"active","ping":60},{"user_id":220,"name":"adga","steam_id":76561198037563515,"connected_time":387000000000,"state":"active","ping":81},{"user_id":195,"name":"REN","steam_id":76561198000596385,"connected_time":2671000000000,"state":"active","ping":67},{"user_id":136,"name":"xx_peter_griffinzz_xx","steam_id":76561198863013731,"connected_time":8355000000000,"state":"active","ping":51},{"user_id":138,"name":"Kaiser","steam_id":76561198024490825,"connected_time":8263000000000,"state":"active","ping":45}]},{"server_id":23,"name":"Uncletopia | Frankfurt | 7 | Stopwatch Beta","name_short":"frk-7","host":"frk-1.de.uncletopia.com","port":27075,"enabled":true,"region":"eu","cc":"de","latitude":50.110924,"longitude":8.682127,"reserved":0,"last_update":"0001-01-01T00:00:00Z","name_a2s":"Uncletopia | Frankfurt | 7 | Stopwatch Beta","protocol":17,"map":"workshop/pl_badwater_pro_v12.ugc2142942074","folder":"tf","game":"Team Fortress","app_id":440,"player_count":0,"max_players":24,"Bots":0,"server_type":"Dedicated","server_os":"Linux","password":true,"vac":true,"version":"7882260","steam_id":85568392924742827,"keywords":["nocrits","nodmgspread","payload","uncletopia"],"game_id":440,"stv_port":27076,"stv_name":"Uncletopia | Frankfurt | 7 | Stopwatch Beta | STV","players":null},{"server_id":24,"name":"Uncletopia | Frankfurt | 8 | Community","name_short":"frk-8","host":"frk-1.de.uncletopia.com","port":27085,"enabled":true,"region":"eu","cc":"de","latitude":50.110924,"longitude":8.682127,"reserved":0,"last_update":"0001-01-01T00:00:00Z","name_a2s":"Uncletopia | Frankfurt | 8 | Community","protocol":17,"map":"workshop/koth_trenchfoot_b1a.ugc731436616","folder":"tf","game":"Team Fortress","app_id":440,"player_count":0,"max_players":24,"Bots":0,"server_type":"Dedicated","server_os":"Linux","password":true,"vac":true,"version":"7882260","steam_id":85568392924742828,"keywords":["cp","nocrits","nodmgspread","uncletopia"],"game_id":440,"stv_port":27086,"stv_name":"Uncletopia | Frankfurt | 8 | Community | STV","players":null},{"server_id":202,"name":"Uncletopia | Hong Kong | 1 | All Maps","name_short":"hgk-1","host":"hgk-1.hk.uncletopia.com","port":27015,"enabled":true,"region":"asia","cc":"hk","latitude":22.302711,"longitude":114.177216,"reserved":0,"last_update":"0001-01-01T00:00:00Z","name_a2s":"Uncletopia | Hong Kong | 1 | All Maps","protocol":17,"map":"koth_cascade","folder":"tf","game":"Team Fortress","app_id":440,"player_count":0,"max_players":24,"Bots":0,"server_type":"Dedicated","server_os":"Linux","password":true,"vac":true,"version":"7882260","steam_id":85568392924494504,"keywords":["cp","nocrits","nodmgspread","uncletopia"],"game_id":440,"stv_port":27016,"stv_name":"Uncletopia | Hong Kong | 1 | All Maps | STV","players":null},{"server_id":1,"name":"Uncletopia | Los Angeles | 1 | All Maps","name_short":"lax-1","host":"lax-1.us.uncletopia.com","port":27015,"enabled":true,"region":"us-west","cc":"us","latitude":33.94279,"longitude":-118.41004,"reserved":0,"last_update":"0001-01-01T00:00:00Z","name_a2s":"Uncletopia | Los Angeles | 1 | All Maps","protocol":17,"map":"koth_viaduct","folder":"tf","game":"Team Fortress","app_id":440,"player_count":24,"max_players":24,"Bots":0,"server_type":"Dedicated","server_os":"Linux","password":true,"vac":true,"version":"7882260","steam_id":85568392924469991,"keywords":["cp","nocrits","nodmgspread","uncletopia"],"game_id":440,"stv_port":27016,"stv_name":"Uncletopia | Los Angeles | 1 | All Maps | STV","players":[{"user_id":206,"name":"Mediocre","steam_id":76561198056352693,"connected_time":1240000000000,"state":"active","ping":55},{"user_id":225,"name":"–ü–∞–≤–ª–æ –ü–∞—á–µ–Ω–∫–æ","steam_id":76561198314446564,"connected_time":632000000000,"state":"active","ping":54},{"user_id":215,"name":"kenny from south park (real)","steam_id":76561199229114113,"connected_time":757000000000,"state":"active","ping":112},{"user_id":110,"name":"cielael","steam_id":76561198043971956,"connected_time":4519000000000,"state":"active","ping":46},{"user_id":205,"name":"IPlayGamez","steam_id":76561198041387508,"connected_time":1307000000000,"state":"active","ping":96},{"user_id":190,"name":"Doc_Eevee","steam_id":76561199289204820,"connected_time":2040000000000,"state":"active","ping":76},{"user_id":236,"name":"***** beheader","steam_id":76561199395351700,"connected_time":20000000000,"state":"active","ping":47},{"user_id":235,"name":"June","steam_id":76561198141803658,"connected_time":77000000000,"state":"active","ping":45},{"user_id":198,"name":"bonkers","steam_id":76561199206080182,"connected_time":1722000000000,"state":"active","ping":109},{"user_id":182,"name":"Niftylizard","steam_id":76561198175872151,"connected_time":2219000000000,"state":"active","ping":64},{"user_id":193,"name":"Bobby","steam_id":76561198265253992,"connected_time":1941000000000,"state":"active","ping":64},{"user_id":227,"name":"uzr","steam_id":76561198799343084,"connected_time":608000000000,"state":"active","ping":48},{"user_id":230,"name":"RetroFerret","steam_id":76561199269714905,"connected_time":281000000000,"state":"active","ping":115},{"user_id":233,"name":"usedhalfcart","steam_id":76561198072621852,"connected_time":187000000000,"state":"active","ping":76},{"user_id":79,"name":"gumcuzzler","steam_id":76561198118644686,"connected_time":6807000000000,"state":"active","ping":55},{"user_id":211,"name":"Sir Coreden","steam_id":76561198008430589,"connected_time":978000000000,"state":"active","ping":109},{"user_id":228,"name":"Sweattadpole","steam_id":76561199456100100,"connected_time":600000000000,"state":"active","ping":122},{"user_id":213,"name":"Monkey D. Management","steam_id":76561198400603422,"connected_time":901000000000,"state":"active","ping":104},{"user_id":214,"name":"Isaac Clarke","steam_id":76561198317662346,"connected_time":831000000000,"state":"active","ping":130},{"user_id":199,"name":"Einstein_Kid","steam_id":76561199079149141,"connected_time":1688000000000,"state":"active","ping":59},{"user_id":232,"name":"Good Vibes","steam_id":76561197985206513,"connected_time":241000000000,"state":"active","ping":120},{"user_id":141,"name":"I throw a lot","steam_id":76561198209650964,"connected_time":3420000000000,"state":"active","ping":56},{"user_id":209,"name":"lasagna","steam_id":76561198882758067,"connected_time":1066000000000,"state":"active","ping":90},{"user_id":203,"name":"SanitysEdge","steam_id":76561198130732813,"connected_time":1549000000000,"state":"active","ping":48}]},{"server_id":112,"name":"Uncletopia | Los Angeles | 2 | All Maps","name_short":"lax-2","host":"lax-1.us.uncletopia.com","port":27025,"enabled":true,"region":"us-west","cc":"us","latitude":33.94279,"longitude":-118.41004,"reserved":0,"last_update":"0001-01-01T00:00:00Z","name_a2s":"Uncletopia | Los Angeles | 2 | All Maps","protocol":17,"map":"pl_snowycoast","folder":"tf","game":"Team Fortress","app_id":440,"player_count":0,"max_players":24,"Bots":0,"server_type":"Dedicated","server_os":"Linux","password":true,"vac":true,"version":"7882260","steam_id":85568392924469992,"keywords":["nocrits","nodmgspread","payload","uncletopia"],"game_id":440,"stv_port":27026,"stv_name":"Uncletopia | Los Angeles | 2 | All Maps | STV","players":null},{"server_id":324,"name":"Uncletopia | Los Angeles | 3 | All Maps","name_short":"lax-3","host":"lax-1.us.uncletopia.com","port":27035,"enabled":true,"region":"us-west","cc":"us","latitude":33.94279,"longitude":-118.41004,"reserved":0,"last_update":"0001-01-01T00:00:00Z","name_a2s":"Uncletopia | Los Angeles | 3 | All Maps","protocol":17,"map":"pl_pier","folder":"tf","game":"Team Fortress","app_id":440,"player_count":0,"max_players":24,"Bots":0,"server_type":"Dedicated","server_os":"Linux","password":true,"vac":true,"version":"7882260","steam_id":85568392924510198,"keywords":["nocrits","nodmgspread","payload","uncletopia"],"game_id":440,"stv_port":27036,"stv_name":"Uncletopia | Los Angeles | 3 | All Maps | STV","players":null},{"server_id":25,"name":"Uncletopia | Los Angeles | 4 | Stopwatch Beta","name_short":"lax-4","host":"lax-1.us.uncletopia.com","port":27045,"enabled":true,"region":"us-west","cc":"us","latitude":33.94279,"longitude":-118.41004,"reserved":0,"last_update":"0001-01-01T00:00:00Z","name_a2s":"Uncletopia | Los Angeles | 4 | Stopwatch Beta","protocol":17,"map":"workshop/koth_bagel_rc6.ugc2514036946","folder":"tf","game":"Team Fortress","app_id":440,"player_count":0,"max_players":24,"Bots":0,"server_type":"Dedicated","server_os":"Linux","password":true,"vac":true,"version":"7882260","steam_id":85568392924510199,"keywords":["cp","nocrits","nodmgspread","uncletopia"],"game_id":440,"stv_port":27046,"stv_name":"Uncletopia | Los Angeles | 4 | Stopwatch Beta | STV","players":null},{"server_id":11,"name":"Uncletopia | London | 1 | All Maps","name_short":"lon-1","host":"lon-1.uk.uncletopia.com","port":27015,"enabled":true,"region":"eu","cc":"gb","latitude":51.509865,"longitude":-0.118092,"reserved":0,"last_update":"0001-01-01T00:00:00Z","name_a2s":"Uncletopia | London | 1 | All Maps","protocol":17,"map":"pl_swiftwater_final1","folder":"tf","game":"Team Fortress","app_id":440,"player_count":24,"max_players":24,"Bots":0,"server_type":"Dedicated","server_os":"Linux","password":true,"vac":true,"version":"7882260","steam_id":85568392924367362,"keywords":["nocrits","nodmgspread","payload","uncletopia"],"game_id":440,"stv_port":27016,"stv_name":"Uncletopia | London | 1 | All Maps | STV","players":[{"user_id":382,"name":"Solarwolf64 #SaveTF2","steam_id":76561198023570251,"connected_time":235000000000,"state":"active","ping":47},{"user_id":387,"name":"Smokio","steam_id":76561198069650580,"connected_time":0,"state":"spawning","ping":0},{"user_id":359,"name":"BreadBubbles","steam_id":76561198174332826,"connected_time":2214000000000,"state":"active","ping":58},{"user_id":385,"name":"dn4k","steam_id":76561199221755690,"connected_time":159000000000,"state":"active","ping":83},{"user_id":384,"name":"oh my science","steam_id":76561198190583242,"connected_time":213000000000,"state":"active","ping":77},{"user_id":352,"name":"dec","steam_id":76561198009660168,"connected_time":3181000000000,"state":"active","ping":58},{"user_id":287,"name":"‚ô• aura ‚ô•","steam_id":76561198066258544,"connected_time":8546000000000,"state":"active","ping":61},{"user_id":373,"name":"Hoff","steam_id":76561198026537318,"connected_time":1623000000000,"state":"active","ping":44},{"user_id":340,"name":"flappi","steam_id":76561198072892783,"connected_time":4537000000000,"state":"active","ping":60},{"user_id":307,"name":"trite","steam_id":76561197983765323,"connected_time":6966000000000,"state":"active","ping":48},{"user_id":363,"name":"maritalfuture36","steam_id":76561198272718247,"connected_time":2136000000000,"state":"active","ping":83},{"user_id":266,"name":"Pinkchup","steam_id":76561198106802803,"connected_time":10702000000000,"state":"active","ping":70},{"user_id":365,"name":"Dr Ludwig","steam_id":76561198426522902,"connected_time":2099000000000,"state":"active","ping":54},{"user_id":377,"name":"Oak","steam_id":76561198067315672,"connected_time":422000000000,"state":"active","ping":65},{"user_id":366,"name":"stepbro","steam_id":76561198119607160,"connected_time":2089000000000,"state":"active","ping":72},{"user_id":375,"name":"Arcader","steam_id":76561198109860110,"connected_time":1464000000000,"state":"active","ping":87},{"user_id":374,"name":"Mell","steam_id":76561198356521260,"connected_time":1594000000000,"state":"active","ping":95},{"user_id":376,"name":"Aaron","steam_id":76561197990046953,"connected_time":1067000000000,"state":"active","ping":50},{"user_id":323,"name":"CalzoneCarl456","steam_id":76561198846982793,"connected_time":5477000000000,"state":"active","ping":51},{"user_id":252,"name":"Minimi","steam_id":76561198873850443,"connected_time":11019000000000,"state":"active","ping":45},{"user_id":351,"name":"jimmy bob","steam_id":76561198319583692,"connected_time":3444000000000,"state":"active","ping":59},{"user_id":357,"name":"sareena","steam_id":76561198810194062,"connected_time":2491000000000,"state":"active","ping":74},{"user_id":386,"name":"AXAL","steam_id":76561198178250598,"connected_time":109000000000,"state":"active","ping":55},{"user_id":309,"name":"Dwevy - professional sex haver","steam_id":76561198090379437,"connected_time":6824000000000,"state":"active","ping":47}]},{"server_id":114,"name":"Uncletopia | London | 2 | All Maps","name_short":"lon-2","host":"lon-1.uk.uncletopia.com","port":27025,"enabled":true,"region":"eu","cc":"gb","latitude":51.509865,"longitude":-0.118092,"reserved":0,"last_update":"0001-01-01T00:00:00Z","name_a2s":"Uncletopia | London | 2 | All Maps","protocol":17,"map":"ctf_turbine","folder":"tf","game":"Team Fortress","app_id":440,"player_count":5,"max_players":24,"Bots":0,"server_type":"Dedicated","server_os":"Linux","password":true,"vac":true,"version":"7882260","steam_id":85568392924470941,"keywords":["ctf","nocrits","nodmgspread","uncletopia"],"game_id":440,"stv_port":27026,"stv_name":"Uncletopia | London | 2 | All Maps | STV","players":[{"user_id":323,"name":"Parable Dude","steam_id":76561198453563932,"connected_time":445000000000,"state":"active","ping":52},{"user_id":316,"name":"CLAPPER","steam_id":76561199061808252,"connected_time":3218000000000,"state":"active","ping":55},{"user_id":319,"name":"Spectre","steam_id":76561198163819482,"connected_time":2400000000000,"state":"active","ping":68},{"user_id":320,"name":"Banatical Bean","steam_id":76561198122356617,"connected_time":2136000000000,"state":"active","ping":68},{"user_id":325,"name":"MMMPHH","steam_id":76561199224120496,"connected_time":165000000000,"state":"active","ping":138}]},{"server_id":320,"name":"Uncletopia | London | 3 | All Maps","name_short":"lon-3","host":"lon-1.uk.uncletopia.com","port":27035,"enabled":true,"region":"eu","cc":"gb","latitude":51.509865,"longitude":-0.118092,"reserved":0,"last_update":"0001-01-01T00:00:00Z","name_a2s":"Uncletopia | London | 3 | All Maps","protocol":17,"map":"pl_badwater","folder":"tf","game":"Team Fortress","app_id":440,"player_count":24,"max_players":24,"Bots":0,"server_type":"Dedicated","server_os":"Linux","password":true,"vac":true,"version":"7882260","steam_id":85568392924510192,"keywords":["nocrits","nodmgspread","payload","uncletopia"],"game_id":440,"stv_port":27036,"stv_name":"Uncletopia | London | 3 | All Maps | STV","players":[{"user_id":131,"name":"Spliffendor","steam_id":76561198144020209,"connected_time":2150000000000,"state":"active","ping":51},{"user_id":111,"name":"zozo","steam_id":76561198332612319,"connected_time":2831000000000,"state":"active","ping":121},{"user_id":150,"name":"CraigslistAdmen","steam_id":76561199018473539,"connected_time":1207000000000,"state":"active","ping":77},{"user_id":114,"name":"Rez","steam_id":76561198410598772,"connected_time":2719000000000,"state":"active","ping":57},{"user_id":132,"name":"20BB Raxor","steam_id":76561198239927434,"connected_time":1796000000000,"state":"active","ping":84},{"user_id":133,"name":"stay focus","steam_id":76561198033695429,"connected_time":1795000000000,"state":"active","ping":34},{"user_id":152,"name":"Varky","steam_id":76561198040196427,"connected_time":204000000000,"state":"active","ping":94},{"user_id":107,"name":"inebriation of the senses","steam_id":76561198977420882,"connected_time":3482000000000,"state":"active","ping":39},{"user_id":70,"name":"gabagool","steam_id":76561198307111838,"connected_time":6813000000000,"state":"active","ping":39},{"user_id":135,"name":"Mr gnash","steam_id":76561198007410990,"connected_time":1752000000000,"state":"active","ping":67},{"user_id":136,"name":"Frank","steam_id":76561198086672774,"connected_time":1723000000000,"state":"active","ping":49},{"user_id":122,"name":"meriones","steam_id":76561198034234373,"connected_time":2591000000000,"state":"active","ping":44},{"user_id":153,"name":"Oblivious","steam_id":76561198058570705,"connected_time":189000000000,"state":"active","ping":85},{"user_id":126,"name":"ChomeDomer","steam_id":76561198049375898,"connected_time":2391000000000,"state":"active","ping":81},{"user_id":78,"name":"Big Al","steam_id":76561198079585198,"connected_time":5569000000000,"state":"active","ping":52},{"user_id":127,"name":"Shvgo","steam_id":76561199005196948,"connected_time":2389000000000,"state":"active","ping":68},{"user_id":138,"name":"XSCod","steam_id":76561198124586634,"connected_time":1702000000000,"state":"active","ping":69},{"user_id":142,"name":"kektuse","steam_id":76561198088426580,"connected_time":1545000000000,"state":"active","ping":61},{"user_id":154,"name":"Lord","steam_id":76561198241305816,"connected_time":188000000000,"state":"active","ping":132},{"user_id":143,"name":"Captain HandicappedCock","steam_id":76561198109850402,"connected_time":1541000000000,"state":"active","ping":70},{"user_id":151,"name":"BlinkedUp","steam_id":76561198249985618,"connected_time":828000000000,"state":"active","ping":68},{"user_id":145,"name":"Zedifo","steam_id":76561198044032070,"connected_time":1506000000000,"state":"active","ping":32},{"user_id":146,"name":"Midget Thrower","steam_id":76561198112128564,"connected_time":1469000000000,"state":"active","ping":79},{"user_id":149,"name":"Dr.Sees [F2P]","steam_id":76561199219233587,"connected_time":1262000000000,"state":"active","ping":79}]},{"server_id":321,"name":"Uncletopia | London | 4 | All Maps","name_short":"lon-4","host":"lon-1.uk.uncletopia.com","port":27045,"enabled":true,"region":"eu","cc":"gb","latitude":51.509865,"longitude":-0.118092,"reserved":0,"last_update":"0001-01-01T00:00:00Z","name_a2s":"Uncletopia | London | 4 | All Maps","protocol":17,"map":"pl_upward","folder":"tf","game":"Team Fortress","app_id":440,"player_count":24,"max_players":24,"Bots":0,"server_type":"Dedicated","server_os":"Linux","password":true,"vac":true,"version":"7882260","steam_id":85568392924510193,"keywords":["nocrits","nodmgspread","payload","uncletopia"],"game_id":440,"stv_port":27046,"stv_name":"Uncletopia | London | 4 | All Maps | STV","players":[{"user_id":307,"name":"ùì§ùìµùìæùìµùì§","steam_id":76561198396007276,"connected_time":876000000000,"state":"active","ping":87},{"user_id":293,"name":"monaskick","steam_id":76561198326190912,"connected_time":2292000000000,"state":"active","ping":66},{"user_id":220,"name":"Gnarville","steam_id":76561198006373329,"connected_time":8266000000000,"state":"active","ping":46},{"user_id":303,"name":"wouris","steam_id":76561198876188003,"connected_time":1016000000000,"state":"active","ping":71},{"user_id":313,"name":"Rubi","steam_id":76561198139410003,"connected_time":245000000000,"state":"active","ping":74},{"user_id":259,"name":"frosty","steam_id":76561198094560834,"connected_time":5469000000000,"state":"active","ping":49},{"user_id":261,"name":"Jon","steam_id":76561199380849468,"connected_time":5438000000000,"state":"active","ping":63},{"user_id":291,"name":"Steen","steam_id":76561198122992510,"connected_time":2576000000000,"state":"active","ping":45},{"user_id":290,"name":"cinny","steam_id":76561198832112629,"connected_time":2726000000000,"state":"active","ping":83},{"user_id":305,"name":"‚òûLaZe‚òú","steam_id":76561198202191400,"connected_time":913000000000,"state":"active","ping":46},{"user_id":306,"name":"Sylvanas","steam_id":76561198154904165,"connected_time":891000000000,"state":"active","ping":122},{"user_id":308,"name":"Captain Scrumpe","steam_id":76561198032206577,"connected_time":832000000000,"state":"active","ping":84},{"user_id":297,"name":"Fat Pigeon","steam_id":76561198817940142,"connected_time":1484000000000,"state":"active","ping":47},{"user_id":312,"name":"Ë™∞„Åã„ÅåË¶ã„Å¶„ÅÑ„Çã","steam_id":76561198834913692,"connected_time":292000000000,"state":"active","ping":76},{"user_id":309,"name":"lego obi-wan kenobi","steam_id":76561198103336739,"connected_time":812000000000,"state":"active","ping":83},{"user_id":298,"name":"CAWER","steam_id":76561198277265652,"connected_time":1452000000000,"state":"active","ping":54},{"user_id":269,"name":"Finn","steam_id":76561198179960193,"connected_time":5009000000000,"state":"active","ping":40},{"user_id":296,"name":"Volcyy","steam_id":76561198063979124,"connected_time":1596000000000,"state":"active","ping":52},{"user_id":311,"name":"Nameless","steam_id":76561198084215731,"connected_time":671000000000,"state":"active","ping":43},{"user_id":278,"name":"Bill Carr","steam_id":76561198110033943,"connected_time":3733000000000,"state":"active","ping":33},{"user_id":283,"name":"General Petrov","steam_id":76561198027204104,"connected_time":3118000000000,"state":"active","ping":75},{"user_id":295,"name":"P√¶b√¶s","steam_id":76561198088369219,"connected_time":2259000000000,"state":"active","ping":89},{"user_id":271,"name":"Sarii","steam_id":76561199155102111,"connected_time":4986000000000,"state":"active","ping":82},{"user_id":302,"name":"–∏–≤–∞–Ω","steam_id":76561198072730591,"connected_time":1040000000000,"state":"active","ping":59}]},{"server_id":21,"name":"Uncletopia | London | 5 | All Maps","name_short":"lon-5","host":"lon-1.uk.uncletopia.com","port":27055,"enabled":true,"region":"eu","cc":"gb","latitude":51.509865,"longitude":-0.118092,"reserved":0,"last_update":"0001-01-01T00:00:00Z","name_a2s":"Uncletopia | London | 5 | All Maps","protocol":17,"map":"pl_frontier_final","folder":"tf","game":"Team Fortress","app_id":440,"player_count":23,"max_players":24,"Bots":0,"server_type":"Dedicated","server_os":"Linux","password":true,"vac":true,"version":"7882260","steam_id":85568392924742829,"keywords":["nocrits","nodmgspread","payload","uncletopia"],"game_id":440,"stv_port":27056,"stv_name":"Uncletopia | London | 5 | All Maps | STV","players":[{"user_id":93,"name":"BeefHammer","steam_id":76561198078426223,"connected_time":968000000000,"state":"active","ping":89},{"user_id":86,"name":"Economic crisis","steam_id":76561198063562843,"connected_time":1120000000000,"state":"active","ping":62},{"user_id":66,"name":"Toa LightMakuta","steam_id":76561198212178104,"connected_time":3333000000000,"state":"active","ping":50},{"user_id":90,"name":"Wake","steam_id":76561198873753505,"connected_time":1063000000000,"state":"active","ping":71},{"user_id":79,"name":"Big Benn","steam_id":76561199024168373,"connected_time":1284000000000,"state":"active","ping":61},{"user_id":84,"name":"HonkBonk","steam_id":76561199001346680,"connected_time":1153000000000,"state":"active","ping":178},{"user_id":85,"name":"arcSolver","steam_id":76561198212013944,"connected_time":1137000000000,"state":"active","ping":36},{"user_id":99,"name":"Umby","steam_id":76561198166584580,"connected_time":638000000000,"state":"active","ping":40},{"user_id":74,"name":"froufrou","steam_id":76561198129110010,"connected_time":2433000000000,"state":"active","ping":85},{"user_id":58,"name":"Clitorina","steam_id":76561198077570815,"connected_time":4171000000000,"state":"active","ping":44},{"user_id":87,"name":"Milk","steam_id":76561198125876588,"connected_time":1117000000000,"state":"active","ping":42},{"user_id":94,"name":"Perci","steam_id":76561198097789669,"connected_time":922000000000,"state":"active","ping":68},{"user_id":51,"name":"gfjhsdf","steam_id":76561198136736426,"connected_time":4943000000000,"state":"active","ping":64},{"user_id":45,"name":"eva.","steam_id":76561198054474684,"connected_time":5413000000000,"state":"active","ping":89},{"user_id":100,"name":"vadr","steam_id":76561198334528186,"connected_time":635000000000,"state":"active","ping":46},{"user_id":101,"name":"\u003c3","steam_id":76561198865170684,"connected_time":618000000000,"state":"active","ping":61},{"user_id":91,"name":"Dark Steveneq","steam_id":76561198339648209,"connected_time":1040000000000,"state":"active","ping":102},{"user_id":63,"name":"Ran33","steam_id":76561197991474499,"connected_time":3619000000000,"state":"active","ping":85},{"user_id":55,"name":"medicinal man","steam_id":76561198202668788,"connected_time":4433000000000,"state":"active","ping":65},{"user_id":92,"name":"ultralex","steam_id":76561198024910383,"connected_time":1020000000000,"state":"active","ping":40},{"user_id":104,"name":"goff","steam_id":76561198118989010,"connected_time":398000000000,"state":"active","ping":45},{"user_id":97,"name":"Ready Rice Cakes","steam_id":76561198091969871,"connected_time":857000000000,"state":"active","ping":83},{"user_id":106,"name":"Nicholas Angel","steam_id":76561198434652604,"connected_time":301000000000,"state":"active","ping":80}]},{"server_id":22,"name":"Uncletopia | London | 6 | All Maps","name_short":"lon-6","host":"lon-1.uk.uncletopia.com","port":27065,"enabled":true,"region":"eu","cc":"gb","latitude":51.509865,"longitude":-0.118092,"reserved":0,"last_update":"0001-01-01T00:00:00Z","name_a2s":"Uncletopia | London | 6 | All Maps","protocol":17,"map":"pl_thundermountain","folder":"tf","game":"Team Fortress","app_id":440,"player_count":24,"max_players":24,"Bots":0,"server_type":"Dedicated","server_os":"Linux","password":true,"vac":true,"version":"7882260","steam_id":85568392924742830,"keywords":["nocrits","nodmgspread","payload","uncletopia"],"game_id":440,"stv_port":27066,"stv_name":"Uncletopia | London | 6 | All Maps | STV","players":[{"user_id":546,"name":"John Fortress","steam_id":76561197984661199,"connected_time":1580000000000,"state":"active","ping":53},{"user_id":524,"name":"heiiis.","steam_id":76561199149006242,"connected_time":2775000000000,"state":"active","ping":106},{"user_id":555,"name":"rrm#4395","steam_id":76561199225339381,"connected_time":896000000000,"state":"active","ping":51},{"user_id":545,"name":"TTV/DireChris","steam_id":76561198050122096,"connected_time":1655000000000,"state":"active","ping":59},{"user_id":548,"name":"Rat King","steam_id":76561198256783599,"connected_time":1446000000000,"state":"active","ping":54},{"user_id":521,"name":":P","steam_id":76561198106399430,"connected_time":2934000000000,"state":"active","ping":45},{"user_id":508,"name":"DelaNo","steam_id":76561199125086655,"connected_time":3354000000000,"state":"active","ping":37},{"user_id":540,"name":"Popxpce / trade.tf","steam_id":76561198365405733,"connected_time":1984000000000,"state":"active","ping":109},{"user_id":467,"name":"LiterallyRyanGosling","steam_id":76561199017856691,"connected_time":6572000000000,"state":"active","ping":52},{"user_id":544,"name":"Pipp Petals2014","steam_id":76561198147668373,"connected_time":1792000000000,"state":"active","ping":62},{"user_id":509,"name":"DoDonPachi","steam_id":76561199085984801,"connected_time":3318000000000,"state":"active","ping":60},{"user_id":526,"name":"nedilya","steam_id":76561198039692077,"connected_time":2740000000000,"state":"active","ping":64},{"user_id":527,"name":"Carrotcracker","steam_id":76561198034862396,"connected_time":2737000000000,"state":"active","ping":80},{"user_id":510,"name":"mercurial","steam_id":76561198046227550,"connected_time":3316000000000,"state":"active","ping":43},{"user_id":511,"name":"neo the cracked protogen","steam_id":76561198874467825,"connected_time":3297000000000,"state":"active","ping":53},{"user_id":419,"name":"burgz","steam_id":76561198109955787,"connected_time":9952000000000,"state":"active","ping":51},{"user_id":541,"name":"Sixie","steam_id":76561198251675360,"connected_time":1929000000000,"state":"active","ping":54},{"user_id":547,"name":"Cheese","steam_id":76561198146419076,"connected_time":1556000000000,"state":"active","ping":66},{"user_id":558,"name":"Ecton","steam_id":76561198025103720,"connected_time":610000000000,"state":"active","ping":55},{"user_id":560,"name":"DeadInside","steam_id":76561198073887931,"connected_time":370000000000,"state":"active","ping":113},{"user_id":551,"name":"c4t","steam_id":76561199106399206,"connected_time":1130000000000,"state":"active","ping":41},{"user_id":543,"name":"Sarah Obama Michella","steam_id":76561198078996559,"connected_time":1901000000000,"state":"active","ping":84},{"user_id":559,"name":"Purps","steam_id":76561198053886680,"connected_time":422000000000,"state":"active","ping":40},{"user_id":562,"name":"ShoobyDooby","steam_id":76561198118473910,"connected_time":66000000000,"state":"active","ping":58}]},{"server_id":40,"name":"Uncletopia | London | 7 | No Payload","name_short":"lon-7","host":"lon-1.uk.uncletopia.com","port":27075,"enabled":true,"region":"eu","cc":"gb","latitude":51.509865,"longitude":-0.118092,"reserved":0,"last_update":"0001-01-01T00:00:00Z","name_a2s":"Uncletopia | London | 7 | No Payload","protocol":17,"map":"koth_viaduct","folder":"tf","game":"Team Fortress","app_id":440,"player_count":0,"max_players":24,"Bots":0,"server_type":"Dedicated","server_os":"Linux","password":true,"vac":true,"version":"7882260","steam_id":85568392924964314,"keywords":["cp","nocrits","nodmgspread","uncletopia"],"game_id":440,"stv_port":27076,"stv_name":"Uncletopia | London | 7 | No Payload | STV","players":null},{"server_id":41,"name":"Uncletopia | London | 8 | Community","name_short":"lon-8","host":"lon-1.uk.uncletopia.com","port":27085,"enabled":true,"region":"eu","cc":"gb","latitude":51.509865,"longitude":-0.118092,"reserved":0,"last_update":"0001-01-01T00:00:00Z","name_a2s":"Uncletopia | London | 8 | Community","protocol":17,"map":"workshop/koth_kemptown_rc1.ugc767410655","folder":"tf","game":"Team Fortress","app_id":440,"player_count":0,"max_players":24,"Bots":0,"server_type":"Dedicated","server_os":"Linux","password":true,"vac":true,"version":"7882260","steam_id":85568392924964315,"keywords":["cp","nocrits","nodmgspread","uncletopia"],"game_id":440,"stv_port":27086,"stv_name":"Uncletopia | London | 8 | Community | STV","players":null},{"server_id":300,"name":"Uncletopia | Montr√©al | 1 | All Maps","name_short":"mtl-1","host":"mtl-1.ca.uncletopia.com","port":27015,"enabled":true,"region":"us-east","cc":"ca","latitude":45.50889,"longitude":-73.56167,"reserved":0,"last_update":"0001-01-01T00:00:00Z","name_a2s":"Uncletopia | Montr√©al | 1 | All Maps","protocol":17,"map":"koth_viaduct","folder":"tf","game":"Team Fortress","app_id":440,"player_count":0,"max_players":24,"Bots":0,"server_type":"Dedicated","server_os":"Linux","password":true,"vac":true,"version":"7882260","steam_id":85568392924500087,"keywords":["cp","nocrits","nodmgspread","uncletopia"],"game_id":440,"stv_port":27016,"stv_name":"Uncletopia | Montr√©al | 1 | All Maps | STV","players":null},{"server_id":301,"name":"Uncletopia | Montr√©al | 2 | All Maps","name_short":"mtl-2","host":"mtl-1.ca.uncletopia.com","port":27025,"enabled":true,"region":"us-east","cc":"ca","latitude":45.50889,"longitude":-73.56167,"reserved":0,"last_update":"0001-01-01T00:00:00Z","name_a2s":"Uncletopia | Montr√©al | 2 | All Maps","protocol":17,"map":"koth_cascade","folder":"tf","game":"Team Fortress","app_id":440,"player_count":5,"max_players":24,"Bots":0,"server_type":"Dedicated","server_os":"Linux","password":true,"vac":true,"version":"7882260","steam_id":85568392924500088,"keywords":["cp","nocrits","nodmgspread","uncletopia"],"game_id":440,"stv_port":27026,"stv_name":"Uncletopia | Montr√©al | 2 | All Maps | STV","players":[{"user_id":8,"name":"BEES","steam_id":76561198811545874,"connected_time":111000000000,"state":"active","ping":154},{"user_id":6,"name":"LucasIsNeverHere","steam_id":76561198995748555,"connected_time":1771000000000,"state":"active","ping":61},{"user_id":7,"name":"Triple-Edged","steam_id":76561198308472155,"connected_time":200000000000,"state":"active","ping":41},{"user_id":9,"name":"lightcatnap","steam_id":76561199385584854,"connected_time":98000000000,"state":"active","ping":86},{"user_id":10,"name":"bachphong760","steam_id":76561199433780443,"connected_time":33000000000,"state":"active","ping":79}]},{"server_id":302,"name":"Uncletopia | Montr√©al | 3 | All Maps","name_short":"mtl-3","host":"mtl-1.ca.uncletopia.com","port":27035,"enabled":true,"region":"us-east","cc":"ca","latitude":45.50889,"longitude":-73.56167,"reserved":0,"last_update":"0001-01-01T00:00:00Z","name_a2s":"Uncletopia | Montr√©al | 3 | All Maps","protocol":17,"map":"pl_pier","folder":"tf","game":"Team Fortress","app_id":440,"player_count":0,"max_players":24,"Bots":0,"server_type":"Dedicated","server_os":"Linux","password":true,"vac":true,"version":"7882260","steam_id":85568392924500089,"keywords":["nocrits","nodmgspread","payload","uncletopia"],"game_id":440,"stv_port":27036,"stv_name":"Uncletopia | Montr√©al | 3 | All Maps | STV","players":null},{"server_id":303,"name":"Uncletopia | Montr√©al | 4 | No Payload","name_short":"mtl-4","host":"mtl-1.ca.uncletopia.com","port":27045,"enabled":true,"region":"us-east","cc":"ca","latitude":45.50889,"longitude":-73.56167,"reserved":0,"last_update":"0001-01-01T00:00:00Z","name_a2s":"Uncletopia | Montr√©al | 4 | No Payload","protocol":17,"map":"cp_altitude","folder":"tf","game":"Team Fortress","app_id":440,"player_count":0,"max_players":24,"Bots":0,"server_type":"Dedicated","server_os":"Linux","password":true,"vac":true,"version":"7882260","steam_id":85568392924500090,"keywords":["cp","nocrits","nodmgspread","uncletopia"],"game_id":440,"stv_port":27046,"stv_name":"Uncletopia | Montr√©al | 4 | No Payload | STV","players":null},{"server_id":13,"name":"Uncletopia | New York City | 1 | All Maps","name_short":"nyc-1","host":"nyc-1.us.uncletopia.com","port":27015,"enabled":true,"region":"us-east","cc":"us","latitude":40.73061,"longitude":-73.93524,"reserved":0,"last_update":"0001-01-01T00:00:00Z","name_a2s":"Uncletopia | New York City | 1 | All Maps","protocol":17,"map":"cp_steel","folder":"tf","game":"Team Fortress","app_id":440,"player_count":24,"max_players":24,"Bots":0,"server_type":"Dedicated","server_os":"Linux","password":true,"vac":true,"version":"7882260","steam_id":85568392924469993,"keywords":["cp","nocrits","nodmgspread","uncletopia"],"game_id":440,"stv_port":27016,"stv_name":"Uncletopia | New York City | 1 | All Maps | STV","players":[{"user_id":62,"name":"Kamin","steam_id":76561198255299559,"connected_time":720000000000,"state":"active","ping":133},{"user_id":13,"name":"Failtastic","steam_id":76561198994009973,"connected_time":3155000000000,"state":"active","ping":48},{"user_id":63,"name":"BuncusBeffer","steam_id":76561198285936616,"connected_time":663000000000,"state":"active","ping":131},{"user_id":73,"name":"Mops","steam_id":76561198058213741,"connected_time":119000000000,"state":"active","ping":48},{"user_id":16,"name":"don't leave her waiting","steam_id":76561198103496593,"connected_time":2946000000000,"state":"active","ping":64},{"user_id":58,"name":"Ian","steam_id":76561199078852180,"connected_time":1280000000000,"state":"active","ping":71},{"user_id":72,"name":"[chef] iron","steam_id":76561197970888616,"connected_time":131000000000,"state":"active","ping":70},{"user_id":68,"name":"yeyoi","steam_id":76561198069821885,"connected_time":579000000000,"state":"active","ping":58},{"user_id":53,"name":"Gamerdude313","steam_id":76561198869211435,"connected_time":1535000000000,"state":"active","ping":67},{"user_id":56,"name":"marge","steam_id":76561198064823861,"connected_time":1423000000000,"state":"active","ping":58},{"user_id":60,"name":"Kurtis","steam_id":76561198054122278,"connected_time":928000000000,"state":"active","ping":75},{"user_id":64,"name":"peace dog","steam_id":76561198267988522,"connected_time":645000000000,"state":"active","ping":64},{"user_id":65,"name":"E4Estrogen","steam_id":76561198085813708,"connected_time":627000000000,"state":"active","ping":74},{"user_id":75,"name":"stink","steam_id":76561198099318923,"connected_time":94000000000,"state":"active","ping":63},{"user_id":71,"name":"Womp","steam_id":76561198245103000,"connected_time":382000000000,"state":"active","ping":55},{"user_id":45,"name":"Chezaus","steam_id":76561198317397837,"connected_time":1777000000000,"state":"active","ping":78},{"user_id":55,"name":"Cerabond","steam_id":76561199230915333,"connected_time":1437000000000,"state":"active","ping":71},{"user_id":76,"name":"Mister Rattlebones","steam_id":76561198065560157,"connected_time":71000000000,"state":"active","ping":42},{"user_id":34,"name":"Kawflynn","steam_id":76561198029885678,"connected_time":2223000000000,"state":"active","ping":89},{"user_id":69,"name":"MetalNavigator","steam_id":76561198974231439,"connected_time":469000000000,"state":"active","ping":105},{"user_id":37,"name":"Detective Conner","steam_id":76561198272050414,"connected_time":2164000000000,"state":"active","ping":94},{"user_id":59,"name":"Frajer","steam_id":76561198059129680,"connected_time":1095000000000,"state":"active","ping":63},{"user_id":61,"name":"Pa-Py-ro-ni","steam_id":76561198139054162,"connected_time":915000000000,"state":"active","ping":68},{"user_id":74,"name":"Surinferior","steam_id":76561198008953177,"connected_time":119000000000,"state":"active","ping":67}]},{"server_id":14,"name":"Uncletopia | New York City | 2 | All Maps","name_short":"nyc-2","host":"nyc-1.us.uncletopia.com","port":27025,"enabled":true,"region":"us-east","cc":"us","latitude":40.73061,"longitude":-73.93524,"reserved":0,"last_update":"0001-01-01T00:00:00Z","name_a2s":"Uncletopia | New York City | 2 | All Maps","protocol":17,"map":"cp_dustbowl","folder":"tf","game":"Team Fortress","app_id":440,"player_count":3,"max_players":24,"Bots":0,"server_type":"Dedicated","server_os":"Linux","password":true,"vac":true,"version":"7882260","steam_id":85568392924469994,"keywords":["cp","nocrits","nodmgspread","uncletopia"],"game_id":440,"stv_port":27026,"stv_name":"Uncletopia | New York City | 2 | All Maps | STV","players":[{"user_id":12,"name":"THE WINDOW","steam_id":76561198344122625,"connected_time":1179000000000,"state":"active","ping":75},{"user_id":13,"name":"Zaku 2 Party Type","steam_id":76561198356522924,"connected_time":1128000000000,"state":"active","ping":54},{"user_id":14,"name":"mateololero","steam_id":76561198852900219,"connected_time":990000000000,"state":"active","ping":189}]},{"server_id":15,"name":"Uncletopia | New York City | 3 | Stopwatch Beta","name_short":"nyc-3","host":"nyc-1.us.uncletopia.com","port":27035,"enabled":true,"region":"us-east","cc":"us","latitude":40.73061,"longitude":-73.93524,"reserved":0,"last_update":"0001-01-01T00:00:00Z","name_a2s":"Uncletopia | New York City | 3 | Stopwatch Beta","protocol":17,"map":"workshop/koth_ashville_final.ugc2130459942","folder":"tf","game":"Team Fortress","app_id":440,"player_count":0,"max_players":24,"Bots":0,"server_type":"Dedicated","server_os":"Linux","password":true,"vac":true,"version":"7882260","steam_id":85568392924742820,"keywords":["cp","nocrits","nodmgspread","uncletopia"],"game_id":440,"stv_port":27036,"stv_name":"Uncletopia | New York City | 3 | Stopwatch Beta | STV","players":null},{"server_id":16,"name":"Uncletopia | New York City | 4 | Community","name_short":"nyc-4","host":"nyc-1.us.uncletopia.com","port":27045,"enabled":true,"region":"us-east","cc":"us","latitude":40.73061,"longitude":-73.93524,"reserved":0,"last_update":"0001-01-01T00:00:00Z","name_a2s":"Uncletopia | New York City | 4 | Community","protocol":17,"map":"workshop/pl_barnblitz_pro7.ugc582280235","folder":"tf","game":"Team Fortress","app_id":440,"player_count":0,"max_players":24,"Bots":0,"server_type":"Dedicated","server_os":"Linux","password":true,"vac":true,"version":"7882260","steam_id":85568392924742821,"keywords":["nocrits","nodmgspread","payload","uncletopia"],"game_id":440,"stv_port":27046,"stv_name":"Uncletopia | New York City | 4 | Community | STV","players":null},{"server_id":142,"name":"Uncletopia | S√£o Paulo | 1 | All Maps","name_short":"sao-1","host":"sao-1.br.uncletopia.com","port":27015,"enabled":true,"region":"sa","cc":"br","latitude":-23.533773,"longitude":-46.62529,"reserved":0,"last_update":"0001-01-01T00:00:00Z","name_a2s":"Uncletopia | S√£o Paulo | 1 | All Maps","protocol":17,"map":"koth_viaduct","folder":"tf","game":"Team Fortress","app_id":440,"player_count":1,"max_players":24,"Bots":0,"server_type":"Dedicated","server_os":"Linux","password":true,"vac":true,"version":"7882260","steam_id":85568392924469996,"keywords":["cp","nocrits","nodmgspread","uncletopia"],"game_id":440,"stv_port":27016,"stv_name":"Uncletopia | S√£o Paulo | 1 | All Maps | STV","players":[{"user_id":8,"name":"family guy","steam_id":76561199087663959,"connected_time":30000000000,"state":"active","ping":52}]},{"server_id":143,"name":"Uncletopia | S√£o Paulo | 2 | All Maps","name_short":"sao-2","host":"sao-2.br.uncletopia.com","port":27015,"enabled":true,"region":"sa","cc":"br","latitude":-23.533773,"longitude":-46.62529,"reserved":0,"last_update":"0001-01-01T00:00:00Z","name_a2s":"Uncletopia | S√£o Paulo | 2 | All Maps","protocol":17,"map":"pl_badwater","folder":"tf","game":"Team Fortress","app_id":440,"player_count":3,"max_players":24,"Bots":0,"server_type":"Dedicated","server_os":"Linux","password":true,"vac":true,"version":"7882260","steam_id":85568392924485349,"keywords":["nocrits","nodmgspread","payload","uncletopia"],"game_id":440,"stv_port":27016,"stv_name":"Uncletopia | S√£o Paulo | 2 | All Maps | STV","players":[{"user_id":14,"name":"burrildo_11","steam_id":76561199163140389,"connected_time":1132000000000,"state":"active","ping":63},{"user_id":18,"name":"Ô∑Ω","steam_id":76561198049047270,"connected_time":75000000000,"state":"active","ping":254},{"user_id":19,"name":"ÈπÖÈò¥ËåéÁ≤æÊ∂≤","steam_id":76561198067376454,"connected_time":52000000000,"state":"active","ping":254}]},{"server_id":7,"name":"Uncletopia | Seattle | 1 | All Maps","name_short":"sea-1","host":"sea-1.us.uncletopia.com","port":27015,"enabled":true,"region":"us-west","cc":"us","latitude":47.608013,"longitude":-122.33517,"reserved":0,"last_update":"0001-01-01T00:00:00Z","name_a2s":"Uncletopia | Seattle | 1 | All Maps","protocol":17,"map":"pl_goldrush","folder":"tf","game":"Team Fortress","app_id":440,"player_count":23,"max_players":24,"Bots":0,"server_type":"Dedicated","server_os":"Linux","password":true,"vac":true,"version":"7882260","steam_id":85568392924469997,"keywords":["nocrits","nodmgspread","payload","uncletopia"],"game_id":440,"stv_port":27016,"stv_name":"Uncletopia | Seattle | 1 | All Maps | STV","players":[{"user_id":319,"name":"imtoofadedicantevendapuup","steam_id":76561198180372310,"connected_time":4697000000000,"state":"active","ping":60},{"user_id":369,"name":"Homura Simp","steam_id":76561198246080762,"connected_time":83000000000,"state":"active","ping":61},{"user_id":352,"name":"worker","steam_id":76561198039608940,"connected_time":1514000000000,"state":"active","ping":55},{"user_id":368,"name":"Astronat","steam_id":76561198096321896,"connected_time":121000000000,"state":"active","ping":76},{"user_id":336,"name":"Boyaredeen","steam_id":76561198880492636,"connected_time":3177000000000,"state":"active","ping":57},{"user_id":342,"name":"leaderlenny","steam_id":76561199182747781,"connected_time":2364000000000,"state":"active","ping":125},{"user_id":315,"name":"Jacobzeba01","steam_id":76561198131808718,"connected_time":4876000000000,"state":"active","ping":59},{"user_id":367,"name":"Balls Insurance","steam_id":76561198005860388,"connected_time":132000000000,"state":"active","ping":76},{"user_id":351,"name":"The Collective","steam_id":76561198170423483,"connected_time":1538000000000,"state":"active","ping":122},{"user_id":346,"name":"mega","steam_id":76561198089520959,"connected_time":2022000000000,"state":"active","ping":103},{"user_id":329,"name":"LizardBoyTailFrotting","steam_id":76561199169859135,"connected_time":3441000000000,"state":"active","ping":104},{"user_id":353,"name":"this","steam_id":76561198170195505,"connected_time":1484000000000,"state":"active","ping":53},{"user_id":333,"name":"Cardboardcoin","steam_id":76561199421284163,"connected_time":3359000000000,"state":"active","ping":83},{"user_id":299,"name":"Flores","steam_id":76561198106938500,"connected_time":6241000000000,"state":"active","ping":92},{"user_id":365,"name":"Chara","steam_id":76561198070136073,"connected_time":546000000000,"state":"active","ping":118},{"user_id":370,"name":"captain red","steam_id":76561198191587983,"connected_time":63000000000,"state":"active","ping":76},{"user_id":359,"name":"Shark Sandwich","steam_id":76561198025007938,"connected_time":874000000000,"state":"active","ping":62},{"user_id":371,"name":"colespudzo","steam_id":76561198051127147,"connected_time":55000000000,"state":"active","ping":47},{"user_id":343,"name":"BlazedBunny","steam_id":76561198243610560,"connected_time":2242000000000,"state":"active","ping":79},{"user_id":285,"name":"Ruben","steam_id":76561198048508642,"connected_time":7143000000000,"state":"active","ping":55},{"user_id":358,"name":"[50] domo","steam_id":76561198048026825,"connected_time":1291000000000,"state":"active","ping":78},{"user_id":298,"name":"forest (italian)","steam_id":76561198157960257,"connected_time":6267000000000,"state":"active","ping":46},{"user_id":357,"name":"PissBeam","steam_id":76561198830303485,"connected_time":1439000000000,"state":"active","ping":65}]},{"server_id":119,"name":"Uncletopia | Seattle | 2 | All Maps","name_short":"sea-2","host":"sea-1.us.uncletopia.com","port":27025,"enabled":true,"region":"us-west","cc":"us","latitude":47.608013,"longitude":-122.33517,"reserved":0,"last_update":"0001-01-01T00:00:00Z","name_a2s":"Uncletopia | Seattle | 2 | All Maps","protocol":17,"map":"plr_hightower","folder":"tf","game":"Team Fortress","app_id":440,"player_count":18,"max_players":24,"Bots":0,"server_type":"Dedicated","server_os":"Linux","password":true,"vac":true,"version":"7882260","steam_id":85568392924469998,"keywords":["nocrits","nodmgspread","payload","uncletopia"],"game_id":440,"stv_port":27026,"stv_name":"Uncletopia | Seattle | 2 | All Maps | STV","players":[{"user_id":218,"name":"Danyel_Teixeira","steam_id":76561198355431453,"connected_time":21000000000,"state":"active","ping":182},{"user_id":181,"name":"laggy mcstab","steam_id":76561198106379962,"connected_time":2666000000000,"state":"active","ping":59},{"user_id":150,"name":"AmiableNebula","steam_id":76561198094306627,"connected_time":4488000000000,"state":"active","ping":69},{"user_id":187,"name":"hacivad","steam_id":76561198205981316,"connected_time":1920000000000,"state":"active","ping":75},{"user_id":216,"name":"wmjledger","steam_id":76561198443046861,"connected_time":105000000000,"state":"active","ping":56},{"user_id":158,"name":"Bookhead","steam_id":76561197962042356,"connected_time":4201000000000,"state":"active","ping":31},{"user_id":200,"name":"SadFapping","steam_id":76561198076651049,"connected_time":747000000000,"state":"active","ping":55},{"user_id":217,"name":"Skabbety","steam_id":76561198168044257,"connected_time":71000000000,"state":"active","ping":30},{"user_id":188,"name":"Sir Axel VI","steam_id":76561198066016272,"connected_time":1880000000000,"state":"active","ping":110},{"user_id":197,"name":"ITS NOT FAIR!!!!","steam_id":76561198276310307,"connected_time":1023000000000,"state":"active","ping":74},{"user_id":196,"name":"dahperson","steam_id":76561198067207467,"connected_time":1469000000000,"state":"active","ping":101},{"user_id":189,"name":"HFMurasama","steam_id":76561198272021214,"connected_time":1872000000000,"state":"active","ping":73},{"user_id":203,"name":"MrRojan","steam_id":76561197993760849,"connected_time":706000000000,"state":"active","ping":56},{"user_id":192,"name":"Lo-Pan","steam_id":76561198085670133,"connected_time":1745000000000,"state":"active","ping":101},{"user_id":194,"name":"AllPantsNoSkill","steam_id":76561198049655464,"connected_time":1672000000000,"state":"active","ping":120},{"user_id":195,"name":"Good Person","steam_id":76561199224442516,"connected_time":1665000000000,"state":"active","ping":55},{"user_id":209,"name":"Nottawink","steam_id":76561198071248705,"connected_time":603000000000,"state":"active","ping":99},{"user_id":175,"name":"PopcornBucketGames","steam_id":76561199089562026,"connected_time":2803000000000,"state":"active","ping":49}]},{"server_id":406,"name":"Uncletopia | Seattle | 3 | Stopwatch Beta","name_short":"sea-3","host":"sea-1.us.uncletopia.com","port":27035,"enabled":true,"region":"us-west","cc":"us","latitude":47.608013,"longitude":-122.33517,"reserved":0,"last_update":"0001-01-01T00:00:00Z","name_a2s":"Uncletopia | Seattle | 3 | Stopwatch Beta","protocol":17,"map":"workshop/pl_badwater_pro_v12.ugc2142942074","folder":"tf","game":"Team Fortress","app_id":440,"player_count":0,"max_players":24,"Bots":0,"server_type":"Dedicated","server_os":"Linux","password":true,"vac":true,"version":"7882260","steam_id":85568392924515217,"keywords":["nocrits","nodmgspread","payload","uncletopia"],"game_id":440,"stv_port":27036,"stv_name":"Uncletopia | Seattle | 3 | Stopwatch Beta | STV","players":null},{"server_id":17,"name":"Uncletopia | San Francisco | 1 | All Maps","name_short":"sfo-1","host":"sfo-1.us.uncletopia.com","port":27015,"enabled":true,"region":"us-west","cc":"us","latitude":37.77397,"longitude":-122.4313,"reserved":0,"last_update":"0001-01-01T00:00:00Z","name_a2s":"Uncletopia | San Francisco | 1 | All Maps","protocol":17,"map":"cp_process_final","folder":"tf","game":"Team Fortress","app_id":440,"player_count":0,"max_players":24,"Bots":0,"server_type":"Dedicated","server_os":"Linux","password":true,"vac":true,"version":"7757534","steam_id":85568392924469999,"keywords":["cp","nocrits","nodmgspread","uncletopia"],"game_id":440,"stv_port":27016,"stv_name":"Uncletopia | San Francisco | 1 | All Maps | STV","players":null},{"server_id":18,"name":"Uncletopia | San Francisco | 2 | All Maps","name_short":"sfo-2","host":"sfo-1.us.uncletopia.com","port":27025,"enabled":true,"region":"us-west","cc":"us","latitude":37.77397,"longitude":-122.4313,"reserved":0,"last_update":"0001-01-01T00:00:00Z","name_a2s":"Uncletopia | San Francisco | 2 | All Maps","protocol":17,"map":"koth_highpass","folder":"tf","game":"Team Fortress","app_id":440,"player_count":0,"max_players":24,"Bots":0,"server_type":"Dedicated","server_os":"Linux","password":true,"vac":true,"version":"7757534","steam_id":85568392924470000,"keywords":["cp","nocrits","nodmgspread","uncletopia"],"game_id":440,"stv_port":27026,"stv_name":"Uncletopia | San Francisco | 2 | All Maps | STV","players":null},{"server_id":19,"name":"Uncletopia | San Francisco | 3 | Stopwatch Beta","name_short":"sfo-3","host":"sfo-1.us.uncletopia.com","port":27035,"enabled":true,"region":"us-west","cc":"us","latitude":37.77397,"longitude":-122.4313,"reserved":0,"last_update":"0001-01-01T00:00:00Z","name_a2s":"Uncletopia | San Francisco | 3 | Stopwatch Beta","protocol":17,"map":"koth_lakeside_final","folder":"tf","game":"Team Fortress","app_id":440,"player_count":0,"max_players":24,"Bots":0,"server_type":"Dedicated","server_os":"Linux","password":true,"vac":true,"version":"7757534","steam_id":85568392924742824,"keywords":["cp","nocrits","nodmgspread","uncletopia"],"game_id":440,"stv_port":27036,"stv_name":"Uncletopia | San Francisco | 3 | Stopwatch Beta | STV","players":null},{"server_id":20,"name":"Uncletopia | San Francisco | 4 | Community","name_short":"sfo-4","host":"sfo-1.us.uncletopia.com","port":27045,"enabled":true,"region":"us-west","cc":"us","latitude":37.77397,"longitude":-122.4313,"reserved":0,"last_update":"0001-01-01T00:00:00Z","name_a2s":"Uncletopia | San Francisco | 4 | Community","protocol":17,"map":"cp_altitude","folder":"tf","game":"Team Fortress","app_id":440,"player_count":0,"max_players":24,"Bots":0,"server_type":"Dedicated","server_os":"Linux","password":true,"vac":true,"version":"7757534","steam_id":85568392924742826,"keywords":["cp","nocrits","nodmgspread","uncletopia"],"game_id":440,"stv_port":27046,"stv_name":"Uncletopia | San Francisco | 4 | Community | STV","players":null},{"server_id":141,"name":"Uncletopia | Sydney | 1 | All Maps","name_short":"syd-1","host":"syd-1.au.uncletopia.com","port":27015,"enabled":true,"region":"au","cc":"au","latitude":-33.865143,"longitude":151.2099,"reserved":0,"last_update":"0001-01-01T00:00:00Z","name_a2s":"Uncletopia | Sydney | 1 | All Maps","protocol":17,"map":"koth_highpass","folder":"tf","game":"Team Fortress","app_id":440,"player_count":0,"max_players":24,"Bots":0,"server_type":"Dedicated","server_os":"Linux","password":true,"vac":true,"version":"7882260","steam_id":85568392924470001,"keywords":["cp","nocrits","nodmgspread","uncletopia"],"game_id":440,"stv_port":27016,"stv_name":"Uncletopia | Sydney | 1 | All Maps | STV","players":null},{"server_id":123,"name":"Uncletopia | Sydney | 2 | All Maps","name_short":"syd-2","host":"syd-1.au.uncletopia.com","port":27025,"enabled":true,"region":"au","cc":"au","latitude":-33.865143,"longitude":151.2099,"reserved":0,"last_update":"0001-01-01T00:00:00Z","name_a2s":"Uncletopia | Sydney | 2 | All Maps","protocol":17,"map":"pl_barnblitz","folder":"tf","game":"Team Fortress","app_id":440,"player_count":0,"max_players":24,"Bots":0,"server_type":"Dedicated","server_os":"Linux","password":true,"vac":true,"version":"7882260","steam_id":85568392924470002,"keywords":["nocrits","nodmgspread","payload","uncletopia"],"game_id":440,"stv_port":27026,"stv_name":"Uncletopia | Sydney | 2 | All Maps | STV","players":null},{"server_id":395,"name":"Uncletopia | Sydney | 3 | All Maps","name_short":"syd-3","host":"syd-1.au.uncletopia.com","port":27035,"enabled":true,"region":"au","cc":"au","latitude":-33.865143,"longitude":151.2099,"reserved":0,"last_update":"0001-01-01T00:00:00Z","name_a2s":"Uncletopia | Sydney | 3 | All Maps","protocol":17,"map":"pl_badwater","folder":"tf","game":"Team Fortress","app_id":440,"player_count":0,"max_players":24,"Bots":0,"server_type":"Dedicated","server_os":"Linux","password":true,"vac":true,"version":"7882260","steam_id":85568392925194467,"keywords":["nocrits","nodmgspread","payload","uncletopia"],"game_id":440,"stv_port":27036,"stv_name":"Uncletopia | Sydney | 3 | All Maps | STV","players":null},{"server_id":396,"name":"Uncletopia | Sydney | 4 | All Maps","name_short":"syd-4","host":"syd-1.au.uncletopia.com","port":27045,"enabled":true,"region":"au","cc":"au","latitude":-33.865143,"longitude":151.2099,"reserved":0,"last_update":"0001-01-01T00:00:00Z","name_a2s":"Uncletopia | Sydney | 4 | All Maps","protocol":17,"map":"cp_dustbowl","folder":"tf","game":"Team Fortress","app_id":440,"player_count":0,"max_players":24,"Bots":0,"server_type":"Dedicated","server_os":"Linux","password":true,"vac":true,"version":"7882260","steam_id":85568392925397958,"keywords":["cp","nocrits","nodmgspread","uncletopia"],"game_id":440,"stv_port":27046,"stv_name":"Uncletopia | Sydney | 4 | All Maps | STV","players":null},{"server_id":58,"name":"Uncletopia | Sydney | 5 | Stopwatch Beta","name_short":"syd-5","host":"syd-1.au.uncletopia.com","port":27055,"enabled":true,"region":"au","cc":"au","latitude":-33.865143,"longitude":151.2099,"reserved":0,"last_update":"0001-01-01T00:00:00Z","name_a2s":"Uncletopia | Sydney | 5 | Stopwatch Beta","protocol":17,"map":"cp_snakewater_final1","folder":"tf","game":"Team Fortress","app_id":440,"player_count":0,"max_players":24,"Bots":0,"server_type":"Dedicated","server_os":"Linux","password":true,"vac":true,"version":"7882260","steam_id":85568392925397959,"keywords":["cp","nocrits","nodmgspread","uncletopia"],"game_id":440,"stv_port":27056,"stv_name":"Uncletopia | Sydney | 5 | Stopwatch Beta | STV","players":null},{"server_id":59,"name":"Uncletopia | Sydney | 6 | Community","name_short":"syd-6","host":"syd-1.au.uncletopia.com","port":27065,"enabled":true,"region":"au","cc":"au","latitude":-33.865143,"longitude":151.2099,"reserved":0,"last_update":"0001-01-01T00:00:00Z","name_a2s":"Uncletopia | Sydney | 6 | Community","protocol":17,"map":"workshop/koth_ramjam_rc1.ugc459778887","folder":"tf","game":"Team Fortress","app_id":440,"player_count":0,"max_players":24,"Bots":0,"server_type":"Dedicated","server_os":"Linux","password":true,"vac":true,"version":"7882260","steam_id":85568392925397960,"keywords":["cp","nocrits","nodmgspread","uncletopia"],"game_id":440,"stv_port":27066,"stv_name":"Uncletopia | Sydney | 6 | Community | STV","players":null},{"server_id":49,"name":"Uncletopia | Warsaw | 1 | All Maps","name_short":"waw-1","host":"waw-1.pl.uncletopia.com","port":27015,"enabled":true,"region":"eu","cc":"pl","latitude":52.2297,"longitude":21.017532,"reserved":0,"last_update":"0001-01-01T00:00:00Z","name_a2s":"","protocol":0,"map":"","folder":"","game":"","app_id":0,"player_count":0,"max_players":0,"Bots":0,"server_type":"","server_os":"","password":false,"vac":false,"version":"","steam_id":0,"keywords":null,"game_id":0,"stv_port":0,"stv_name":"","players":null},{"server_id":50,"name":"Uncletopia | Warsaw | 2 | All Maps","name_short":"waw-2","host":"waw-1.pl.uncletopia.com","port":27025,"enabled":true,"region":"eu","cc":"pl","latitude":52.2297,"longitude":21.017532,"reserved":0,"last_update":"0001-01-01T00:00:00Z","name_a2s":"Uncletopia | Warsaw | 2 | All Maps","protocol":17,"map":"cp_snakewater_final1","folder":"tf","game":"Team Fortress","app_id":440,"player_count":0,"max_players":24,"Bots":0,"server_type":"Dedicated","server_os":"Linux","password":true,"vac":true,"version":"7882260","steam_id":85568392925397851,"keywords":["cp","nocrits","nodmgspread","uncletopia"],"game_id":440,"stv_port":27026,"stv_name":"Uncletopia | Warsaw | 2 | All Maps | STV","players":null},{"server_id":51,"name":"Uncletopia | Warsaw | 3 | All Maps","name_short":"waw-3","host":"waw-1.pl.uncletopia.com","port":27035,"enabled":true,"region":"eu","cc":"pl","latitude":52.2297,"longitude":21.017532,"reserved":0,"last_update":"0001-01-01T00:00:00Z","name_a2s":"Uncletopia | Warsaw | 3 | All Maps","protocol":17,"map":"koth_lakeside_final","folder":"tf","game":"Team Fortress","app_id":440,"player_count":0,"max_players":24,"Bots":0,"server_type":"Dedicated","server_os":"Linux","password":true,"vac":true,"version":"7882260","steam_id":85568392925397852,"keywords":["cp","nocrits","nodmgspread","uncletopia"],"game_id":440,"stv_port":27036,"stv_name":"Uncletopia | Warsaw | 3 | All Maps | STV","players":null},{"server_id":52,"name":"Uncletopia | Warsaw | 4 | All Maps","name_short":"waw-4","host":"waw-1.pl.uncletopia.com","port":27045,"enabled":true,"region":"eu","cc":"pl","latitude":52.2297,"longitude":21.017532,"reserved":0,"last_update":"0001-01-01T00:00:00Z","name_a2s":"Uncletopia | Warsaw | 4 | All Maps","protocol":17,"map":"koth_highpass","folder":"tf","game":"Team Fortress","app_id":440,"player_count":0,"max_players":24,"Bots":0,"server_type":"Dedicated","server_os":"Linux","password":true,"vac":true,"version":"7882260","steam_id":85568392925397853,"keywords":["cp","nocrits","nodmgspread","uncletopia"],"game_id":440,"stv_port":27046,"stv_name":"Uncletopia | Warsaw | 4 | All Maps | STV","players":null},{"server_id":53,"name":"Uncletopia | Warsaw | 5 | Stopwatch Beta","name_short":"waw-5","host":"waw-1.pl.uncletopia.com","port":27055,"enabled":true,"region":"eu","cc":"pl","latitude":52.2297,"longitude":21.017532,"reserved":0,"last_update":"0001-01-01T00:00:00Z","name_a2s":"Uncletopia | Warsaw | 5 | Stopwatch Beta","protocol":17,"map":"cp_mountainlab","folder":"tf","game":"Team Fortress","app_id":440,"player_count":0,"max_players":24,"Bots":0,"server_type":"Dedicated","server_os":"Linux","password":true,"vac":true,"version":"7882260","steam_id":85568392925397854,"keywords":["cp","nocrits","nodmgspread","uncletopia"],"game_id":440,"stv_port":27056,"stv_name":"Uncletopia | Warsaw | 5 | Stopwatch Beta | STV","players":null},{"server_id":54,"name":"Uncletopia | Warsaw | 6 | Community","name_short":"waw-6","host":"waw-1.pl.uncletopia.com","port":27065,"enabled":true,"region":"eu","cc":"pl","latitude":52.2297,"longitude":21.017532,"reserved":0,"last_update":"0001-01-01T00:00:00Z","name_a2s":"Uncletopia | Warsaw | 6 | Community","protocol":17,"map":"workshop/cp_mannbase_rc2a.ugc1900737467","folder":"tf","game":"Team Fortress","app_id":440,"player_count":0,"max_players":24,"Bots":0,"server_type":"Dedicated","server_os":"Linux","password":true,"vac":true,"version":"7882260","steam_id":85568392925397856,"keywords":["cp","nocrits","nodmgspread","uncletopia"],"game_id":440,"stv_port":27066,"stv_name":"Uncletopia | Warsaw | 6 | Community | STV","players":null}]}