{"status":true,"message":"","result":[{"server_id":9,"name":"Uncletopia | Atlanta | 1 | All Maps","name_short":"atl-1","host":"atl-1.us.uncletopia.com","port":27015,"enabled":true,"region":"us-east","cc":"us","latitude":33.753746,"longitude":-84.38633,"reserved":0,"last_update":"0001-01-01T00:00:00Z","name_a2s":"Uncletopia | Atlanta | 1 | All Maps","protocol":17,"map":"pl_barnblitz","folder":"tf","game":"Team Fortress","app_id":440,"player_count":24,"max_players":24,"Bots":0,"server_type":"Dedicated","server_os":"Linux","password":true,"vac":true,"version":"7757534","steam_id":85568392924469982,"keywords":["nocrits","nodmgspread","payload","uncletopia"],"game_id":440,"stv_port":27016,"stv_name":"Uncletopia | Atlanta | 1 | All Maps | STV","players":[{"user_id":133,"name":"Raigeki","steam_id":76561199013163462,"connected_time":469000000000,"state":"active","ping":181},{"user_id":128,"name":"cheeks","steam_id":76561197993371179,"connected_time":902000000000,"state":"active","ping":53},{"user_id":99,"name":"shadow wizard","steam_id":76561198165212575,"connected_time":3208000000000,"state":"active","ping":81},{"user_id":82,"name":"Toasty","steam_id":76561198176700097,"connected_time":4216000000000,"state":"active","ping":87},{"user_id":127,"name":"shinon","steam_id":76561198373626848,"connected_time":1159000000000,"state":"active","ping":59},{"user_id":106,"name":"hippo mode","steam_id":76561198073455521,"connected_time":2606000000000,"state":"active","ping":46},{"user_id":137,"name":"Chaotic Rushu","steam_id":76561198170054407,"connected_time":102000000000,"state":"spawning","ping":75},{"user_id":134,"name":"noelleleleleleee","steam_id":76561198844676860,"connected_time":439000000000,"state":"active","ping":88},{"user_id":69,"name":"deech","steam_id":76561198066429444,"connected_time":4784000000000,"state":"active","ping":60},{"user_id":114,"name":"amnyak","steam_id":76561198165831950,"connected_time":2345000000000,"state":"active","ping":76},{"user_id":125,"name":"fudo myoo","steam_id":76561198456258164,"connected_time":1250000000000,"state":"active","ping":58},{"user_id":108,"name":"Hope","steam_id":76561199201900779,"connected_time":2569000000000,"state":"active","ping":76},{"user_id":109,"name":"Aristotle Voulton","steam_id":76561198100174923,"connected_time":2563000000000,"state":"active","ping":87},{"user_id":140,"name":"urban legend","steam_id":76561198069188276,"connected_time":18000000000,"state":"active","ping":98},{"user_id":131,"name":"angelina ajimu enjoyer","steam_id":76561198055407168,"connected_time":809000000000,"state":"active","ping":59},{"user_id":132,"name":"Mango","steam_id":76561199209533440,"connected_time":802000000000,"state":"active","ping":71},{"user_id":136,"name":"WasabiBoi™","steam_id":76561198214845908,"connected_time":153000000000,"state":"active","ping":59},{"user_id":107,"name":"Faust main","steam_id":76561198971799149,"connected_time":2605000000000,"state":"active","ping":99},{"user_id":123,"name":"Fewseb","steam_id":76561198104808456,"connected_time":1391000000000,"state":"active","ping":89},{"user_id":52,"name":"vitamin","steam_id":76561198277799227,"connected_time":6614000000000,"state":"active","ping":61},{"user_id":121,"name":"ATL1 | Pango","steam_id":76561198069811545,"connected_time":1521000000000,"state":"active","ping":47},{"user_id":139,"name":"friend me and i will pocket you","steam_id":76561199383789041,"connected_time":38000000000,"state":"active","ping":166},{"user_id":118,"name":"BigBubble42","steam_id":76561198136286123,"connected_time":2043000000000,"state":"active","ping":45},{"user_id":126,"name":"ham bone","steam_id":76561198351143785,"connected_time":1250000000000,"state":"active","ping":76}]},{"server_id":400,"name":"Uncletopia | Atlanta | 3 | Community","name_short":"atl-3","host":"atl-1.us.uncletopia.com","port":27035,"enabled":true,"region":"us-east","cc":"us","latitude":33.753746,"longitude":-84.38633,"reserved":0,"last_update":"0001-01-01T00:00:00Z","name_a2s":"Uncletopia | Atlanta | 3 | Community","protocol":17,"map":"pl_swiftwater_final1","folder":"tf","game":"Team Fortress","app_id":440,"player_count":0,"max_players":32,"Bots":0,"server_type":"Dedicated","server_os":"Linux","password":true,"vac":true,"version":"7757534","steam_id":85568392924515187,"keywords":["increased_maxplayers","nocrits","nodmgspread","payload","uncletopia"],"game_id":440,"stv_port":27036,"stv_name":"Uncletopia | Atlanta | 3 | Community | STV","players":null},{"server_id":401,"name":"Uncletopia | Atlanta | 4 | No Payload","name_short":"atl-4","host":"atl-1.us.uncletopia.com","port":27045,"enabled":true,"region":"us-east","cc":"us","latitude":33.753746,"longitude":-84.38633,"reserved":0,"last_update":"0001-01-01T00:00:00Z","name_a2s":"","protocol":0,"map":"","folder":"","game":"","app_id":0,"player_count":0,"max_players":0,"Bots":0,"server_type":"","server_os":"","password":false,"vac":false,"version":"","steam_id":0,"keywords":null,"game_id":0,"stv_port":0,"stv_name":"","players":null},{"server_id":2,"name":"Uncletopia | Chicago | 1 | All Maps","name_short":"chi-1","host":"chi-1.us.uncletopia.com","port":27015,"enabled":true,"region":"us-central","cc":"us","latitude":41.881832,"longitude":-87.62318,"reserved":0,"last_update":"0001-01-01T00:00:00Z","name_a2s":"Uncletopia | Chicago | 1 | All Maps","protocol":17,"map":"koth_cascade","folder":"tf","game":"Team Fortress","app_id":440,"player_count":24,"max_players":24,"Bots":0,"server_type":"Dedicated","server_os":"Linux","password":true,"vac":true,"version":"7757534","steam_id":85568392924469984,"keywords":["cp","nocrits","nodmgspread","uncletopia"],"game_id":440,"stv_port":27016,"stv_name":"Uncletopia | Chicago | 1 | All Maps | STV","players":[{"user_id":452,"name":"Soundproof","steam_id":76561198133392504,"connected_time":1308000000000,"state":"active","ping":61},{"user_id":468,"name":"I smoke fractals","steam_id":76561198083345384,"connected_time":532000000000,"state":"active","ping":87},{"user_id":454,"name":"Valeee","steam_id":76561198169897086,"connected_time":1134000000000,"state":"active","ping":129},{"user_id":456,"name":"tinkercrab11","steam_id":76561198881792140,"connected_time":889000000000,"state":"active","ping":85},{"user_id":451,"name":"Toottoot","steam_id":76561197992404836,"connected_time":1649000000000,"state":"active","ping":47},{"user_id":410,"name":"Gachalover","steam_id":76561199231552074,"connected_time":4820000000000,"state":"active","ping":75},{"user_id":457,"name":"Hitlinemoss","steam_id":76561198155435669,"connected_time":889000000000,"state":"active","ping":73},{"user_id":448,"name":"trobin120","steam_id":76561199122420273,"connected_time":2440000000000,"state":"active","ping":68},{"user_id":436,"name":"Tyler\u0026Fingers","steam_id":76561198085154485,"connected_time":3021000000000,"state":"active","ping":85},{"user_id":458,"name":"Dilo","steam_id":76561198799078414,"connected_time":884000000000,"state":"active","ping":74},{"user_id":431,"name":"defs98","steam_id":76561198134813102,"connected_time":3499000000000,"state":"active","ping":59},{"user_id":469,"name":"soccernano","steam_id":76561198116633137,"connected_time":323000000000,"state":"active","ping":61},{"user_id":434,"name":"morbissey","steam_id":76561198072592880,"connected_time":3173000000000,"state":"active","ping":42},{"user_id":459,"name":"Yhimir","steam_id":76561198973439216,"connected_time":882000000000,"state":"active","ping":100},{"user_id":460,"name":"Solar.","steam_id":76561199097174697,"connected_time":875000000000,"state":"active","ping":54},{"user_id":442,"name":"ameritech","steam_id":76561198064769089,"connected_time":2784000000000,"state":"active","ping":87},{"user_id":270,"name":"Fiendish Frog","steam_id":76561198029478821,"connected_time":6916000000000,"state":"active","ping":68},{"user_id":471,"name":"Kit Carson","steam_id":76561198115691546,"connected_time":239000000000,"state":"active","ping":105},{"user_id":470,"name":"Dispenser (Twan)","steam_id":76561197991064908,"connected_time":320000000000,"state":"active","ping":60},{"user_id":453,"name":"Oh, it's Zach","steam_id":76561198103309672,"connected_time":1222000000000,"state":"active","ping":41},{"user_id":462,"name":"neet","steam_id":76561197968115168,"connected_time":863000000000,"state":"active","ping":56},{"user_id":464,"name":"pat fusty","steam_id":76561198117181511,"connected_time":739000000000,"state":"active","ping":53},{"user_id":466,"name":"Hugo","steam_id":76561198045581609,"connected_time":597000000000,"state":"active","ping":70},{"user_id":391,"name":"yitz","steam_id":76561198375575841,"connected_time":4977000000000,"state":"active","ping":57}]},{"server_id":106,"name":"Uncletopia | Chicago | 2 | All Maps","name_short":"chi-2","host":"chi-1.us.uncletopia.com","port":27025,"enabled":true,"region":"us-central","cc":"us","latitude":41.881832,"longitude":-87.62318,"reserved":0,"last_update":"0001-01-01T00:00:00Z","name_a2s":"Uncletopia | Chicago | 2 | All Maps","protocol":17,"map":"koth_cascade","folder":"tf","game":"Team Fortress","app_id":440,"player_count":0,"max_players":24,"Bots":0,"server_type":"Dedicated","server_os":"Linux","password":true,"vac":true,"version":"7757534","steam_id":85568392924469985,"keywords":["cp","nocrits","nodmgspread","uncletopia"],"game_id":440,"stv_port":27026,"stv_name":"Uncletopia | Chicago | 2 | All Maps | STV","players":null},{"server_id":402,"name":"Uncletopia | Chicago | 3 | All Maps","name_short":"chi-3","host":"chi-1.us.uncletopia.com","port":27035,"enabled":true,"region":"us-central","cc":"us","latitude":41.881832,"longitude":-87.62318,"reserved":0,"last_update":"0001-01-01T00:00:00Z","name_a2s":"Uncletopia | Chicago | 3 | All Maps","protocol":17,"map":"koth_cascade","folder":"tf","game":"Team Fortress","app_id":440,"player_count":0,"max_players":24,"Bots":0,"server_type":"Dedicated","server_os":"Linux","password":true,"vac":true,"version":"7757534","steam_id":85568392924515191,"keywords":["cp","nocrits","nodmgspread","uncletopia"],"game_id":440,"stv_port":27036,"stv_name":"Uncletopia | Chicago | 3 | All Maps | STV","players":null},{"server_id":403,"name":"Uncletopia | Chicago | 4 | All Maps","name_short":"chi-4","host":"chi-1.us.uncletopia.com","port":27045,"enabled":true,"region":"us-central","cc":"us","latitude":41.881832,"longitude":-87.62318,"reserved":0,"last_update":"0001-01-01T00:00:00Z","name_a2s":"Uncletopia | Chicago | 4 | All Maps","protocol":17,"map":"koth_lakeside_final","folder":"tf","game":"Team Fortress","app_id":440,"player_count":0,"max_players":24,"Bots":0,"server_type":"Dedicated","server_os":"Linux","password":true,"vac":true,"version":"7757534","steam_id":85568392924515193,"keywords":["cp","nocrits","nodmgspread","uncletopia"],"game_id":440,"stv_port":27046,"stv_name":"Uncletopia | Chicago | 4 | All Maps | STV","players":null},{"server_id":36,"name":"Uncletopia | Chicago | 5 | All Maps","name_short":"chi-5","host":"chi-2.us.uncletopia.com","port":27015,"enabled":true,"region":"us-central","cc":"us","latitude":41.881832,"longitude":-87.62318,"reserved":0,"last_update":"0001-01-01T00:00:00Z","name_a2s":"Uncletopia | Chicago | 5 | All Maps","protocol":17,"map":"koth_cascade","folder":"tf","game":"Team Fortress","app_id":440,"player_count":0,"max_players":24,"Bots":0,"server_type":"Dedicated","server_os":"Linux","password":true,"vac":true,"version":"7757534","steam_id":85568392924866362,"keywords":["cp","nocrits","nodmgspread","uncletopia"],"game_id":440,"stv_port":27016,"stv_name":"Uncletopia | Chicago | 5 | All Maps | STV","players":null},{"server_id":37,"name":"Uncletopia | Chicago | 6 | All Maps","name_short":"chi-6","host":"chi-2.us.uncletopia.com","port":27025,"enabled":true,"region":"us-central","cc":"us","latitude":41.881832,"longitude":-87.62318,"reserved":0,"last_update":"0001-01-01T00:00:00Z","name_a2s":"Uncletopia | Chicago | 6 | All Maps","protocol":17,"map":"koth_cascade","folder":"tf","game":"Team Fortress","app_id":440,"player_count":0,"max_players":24,"Bots":0,"server_type":"Dedicated","server_os":"Linux","password":true,"vac":true,"version":"7757534","steam_id":85568392924866363,"keywords":["cp","nocrits","nodmgspread","uncletopia"],"game_id":440,"stv_port":27026,"stv_name":"Uncletopia | Chicago | 6 | All Maps | STV","players":null},{"server_id":38,"name":"Uncletopia | Chicago | 7 | Stopwatch Beta","name_short":"chi-7","host":"chi-2.us.uncletopia.com","port":27035,"enabled":true,"region":"us-central","cc":"us","latitude":41.881832,"longitude":-87.62318,"reserved":0,"last_update":"0001-01-01T00:00:00Z","name_a2s":"Uncletopia | Chicago | 7 | Stopwatch Beta","protocol":17,"map":"pl_upward","folder":"tf","game":"Team Fortress","app_id":440,"player_count":0,"max_players":24,"Bots":0,"server_type":"Dedicated","server_os":"Linux","password":true,"vac":true,"version":"7757534","steam_id":85568392924866364,"keywords":["nocrits","nodmgspread","payload","uncletopia"],"game_id":440,"stv_port":27036,"stv_name":"Uncletopia | Chicago | 7 | Stopwatch Beta | STV","players":null},{"server_id":39,"name":"Uncletopia | Chicago | 8 | Community","name_short":"chi-8","host":"chi-2.us.uncletopia.com","port":27045,"enabled":true,"region":"us-central","cc":"us","latitude":41.881832,"longitude":-87.62318,"reserved":0,"last_update":"0001-01-01T00:00:00Z","name_a2s":"Uncletopia | Chicago | 8 | Community","protocol":17,"map":"pl_barnblitz","folder":"tf","game":"Team Fortress","app_id":440,"player_count":0,"max_players":24,"Bots":0,"server_type":"Dedicated","server_os":"Linux","password":true,"vac":true,"version":"7757534","steam_id":85568392924866365,"keywords":["nocrits","nodmgspread","payload","uncletopia"],"game_id":440,"stv_port":27046,"stv_name":"Uncletopia | Chicago | 8 | Community | STV","players":null},{"server_id":8,"name":"Uncletopia | Dallas | 1 | All Maps","name_short":"dal-1","host":"dal-1.us.uncletopia.com","port":27015,"enabled":true,"region":"us-central","cc":"us","latitude":32.779167,"longitude":-96.80889,"reserved":0,"last_update":"0001-01-01T00:00:00Z","name_a2s":"Uncletopia | Dallas | 1 | All Maps","protocol":17,"map":"pl_badwater","folder":"tf","game":"Team Fortress","app_id":440,"player_count":24,"max_players":24,"Bots":0,"server_type":"Dedicated","server_os":"Linux","password":true,"vac":true,"version":"7757534","steam_id":85568392924469986,"keywords":["nocrits","nodmgspread","payload","uncletopia"],"game_id":440,"stv_port":27016,"stv_name":"Uncletopia | Dallas | 1 | All Maps | STV","players":[{"user_id":7,"name":"iansav","steam_id":76561198346746454,"connected_time":1103000000000,"state":"active","ping":57},{"user_id":8,"name":"Spoilt Pudding","steam_id":76561198001195423,"connected_time":1080000000000,"state":"active","ping":56},{"user_id":9,"name":"TTV/ChadMorningWood","steam_id":76561198139832291,"connected_time":798000000000,"state":"active","ping":60},{"user_id":10,"name":"Honest Tunnel Salesman","steam_id":76561198059071100,"connected_time":693000000000,"state":"active","ping":90},{"user_id":11,"name":"xxxtentacion fan","steam_id":76561198841016072,"connected_time":691000000000,"state":"active","ping":104},{"user_id":14,"name":"laszlo","steam_id":76561198141198352,"connected_time":621000000000,"state":"active","ping":62},{"user_id":13,"name":"Rex","steam_id":76561198138365053,"connected_time":638000000000,"state":"active","ping":126},{"user_id":34,"name":"PingableUsername","steam_id":76561198138760165,"connected_time":228000000000,"state":"active","ping":72},{"user_id":16,"name":"Omori","steam_id":76561198117991560,"connected_time":594000000000,"state":"active","ping":60},{"user_id":35,"name":"Jatotz","steam_id":76561198317467283,"connected_time":221000000000,"state":"active","ping":74},{"user_id":18,"name":"Axio","steam_id":76561198062072555,"connected_time":585000000000,"state":"active","ping":83},{"user_id":19,"name":"Thequirka","steam_id":76561198968058652,"connected_time":580000000000,"state":"active","ping":96},{"user_id":25,"name":"Azazel","steam_id":76561198370600754,"connected_time":396000000000,"state":"active","ping":60},{"user_id":21,"name":"Saodde","steam_id":76561198119653709,"connected_time":527000000000,"state":"active","ping":76},{"user_id":39,"name":"sevanial","steam_id":76561198071532126,"connected_time":45000000000,"state":"active","ping":60},{"user_id":24,"name":"tide*･ﾟ✧","steam_id":76561198092224185,"connected_time":447000000000,"state":"active","ping":85},{"user_id":26,"name":"Sup m8","steam_id":76561198081659121,"connected_time":395000000000,"state":"active","ping":38},{"user_id":27,"name":"Emma","steam_id":76561198318093783,"connected_time":384000000000,"state":"active","ping":68},{"user_id":28,"name":"SirArza","steam_id":76561198196214655,"connected_time":381000000000,"state":"active","ping":78},{"user_id":29,"name":"TheCrimsonAssassin","steam_id":76561198281332259,"connected_time":371000000000,"state":"active","ping":91},{"user_id":31,"name":"Chimpish","steam_id":76561199263493270,"connected_time":320000000000,"state":"active","ping":97},{"user_id":32,"name":"WayO","steam_id":76561198035969198,"connected_time":302000000000,"state":"active","ping":75},{"user_id":37,"name":"TheUrgeWithin","steam_id":76561198033385972,"connected_time":201000000000,"state":"active","ping":103},{"user_id":38,"name":"sleepy","steam_id":76561198193621693,"connected_time":201000000000,"state":"active","ping":75}]},{"server_id":108,"name":"Uncletopia | Dallas | 2 | All Maps","name_short":"dal-2","host":"dal-1.us.uncletopia.com","port":27025,"enabled":true,"region":"us-central","cc":"us","latitude":32.779167,"longitude":-96.80889,"reserved":0,"last_update":"0001-01-01T00:00:00Z","name_a2s":"Uncletopia | Dallas | 2 | All Maps","protocol":17,"map":"koth_lakeside_final","folder":"tf","game":"Team Fortress","app_id":440,"player_count":0,"max_players":24,"Bots":0,"server_type":"Dedicated","server_os":"Linux","password":true,"vac":true,"version":"7757534","steam_id":85568392924469988,"keywords":["cp","nocrits","nodmgspread","uncletopia"],"game_id":440,"stv_port":27026,"stv_name":"Uncletopia | Dallas | 2 | All Maps | STV","players":null},{"server_id":5,"name":"Uncletopia | Frankfurt | 1 | All Maps","name_short":"frk-1","host":"frk-1.de.uncletopia.com","port":27015,"enabled":true,"region":"eu","cc":"de","latitude":50.110924,"longitude":8.682127,"reserved":0,"last_update":"0001-01-01T00:00:00Z","name_a2s":"Uncletopia | Frankfurt | 1 | All Maps","protocol":17,"map":"cp_dustbowl","folder":"tf","game":"Team Fortress","app_id":440,"player_count":24,"max_players":24,"Bots":0,"server_type":"Dedicated","server_os":"Linux","password":true,"vac":true,"version":"7757534","steam_id":85568392924469989,"keywords":["cp","nocrits","nodmgspread","uncletopia"],"game_id":440,"stv_port":27016,"stv_name":"Uncletopia | Frankfurt | 1 | All Maps | STV","players":[{"user_id":171,"name":"citronous","steam_id":76561198093290934,"connected_time":13597000000000,"state":"active","ping":55},{"user_id":312,"name":"\"Sniper_Airlines\"","steam_id":76561198169443647,"connected_time":3764000000000,"state":"active","ping":88},{"user_id":335,"name":"MaximusTheFish","steam_id":76561199025652089,"connected_time":1799000000000,"state":"active","ping":68},{"user_id":338,"name":"i always miss","steam_id":76561199379233899,"connected_time":1469000000000,"state":"active","ping":91},{"user_id":343,"name":"Денис Базука","steam_id":76561198835849082,"connected_time":711000000000,"state":"active","ping":101},{"user_id":330,"name":"Žvingia, Žvingia","steam_id":76561199293036742,"connected_time":2057000000000,"state":"active","ping":51},{"user_id":353,"name":"Gabriel","steam_id":76561198283934869,"connected_time":316000000000,"state":"active","ping":80},{"user_id":340,"name":"japanese TF2EASY.COM | blw.tf","steam_id":76561198382064472,"connected_time":1351000000000,"state":"active","ping":58},{"user_id":360,"name":"HatMann","steam_id":76561198821664938,"connected_time":57000000000,"state":"active","ping":87},{"user_id":334,"name":"doctor amongus","steam_id":76561199096919345,"connected_time":1857000000000,"state":"active","ping":82},{"user_id":325,"name":"KNARRER","steam_id":76561199130777953,"connected_time":2121000000000,"state":"active","ping":55},{"user_id":327,"name":"Serton♝","steam_id":76561198011061126,"connected_time":2108000000000,"state":"active","ping":84},{"user_id":344,"name":"LarsInABox","steam_id":76561198028329262,"connected_time":683000000000,"state":"active","ping":72},{"user_id":356,"name":"swag warrior","steam_id":76561198796600155,"connected_time":136000000000,"state":"active","ping":84},{"user_id":345,"name":"\u003c blank \u003e","steam_id":76561199149307190,"connected_time":640000000000,"state":"active","ping":80},{"user_id":357,"name":"angel","steam_id":76561198121408313,"connected_time":132000000000,"state":"active","ping":86},{"user_id":321,"name":"Master Rizzjitsu","steam_id":76561198263779934,"connected_time":2725000000000,"state":"active","ping":100},{"user_id":341,"name":"Nelu","steam_id":76561198073415991,"connected_time":1039000000000,"state":"active","ping":64},{"user_id":358,"name":"RangerDanger","steam_id":76561198863970320,"connected_time":129000000000,"state":"active","ping":88},{"user_id":329,"name":"YEEET","steam_id":76561198914938199,"connected_time":2081000000000,"state":"active","ping":91},{"user_id":359,"name":"Badass gangnam style minion","steam_id":76561198297602677,"connected_time":116000000000,"state":"active","ping":86},{"user_id":350,"name":"Alarmed Felix","steam_id":76561198167208311,"connected_time":490000000000,"state":"active","ping":84},{"user_id":352,"name":"SantiThePug #ReviveTheCaber","steam_id":76561199049615996,"connected_time":382000000000,"state":"active","ping":77},{"user_id":348,"name":"Pestdoktor","steam_id":76561198058159271,"connected_time":599000000000,"state":"active","ping":62}]},{"server_id":110,"name":"Uncletopia | Frankfurt | 2 | All Maps","name_short":"frk-2","host":"frk-1.de.uncletopia.com","port":27025,"enabled":true,"region":"eu","cc":"de","latitude":50.110924,"longitude":8.682127,"reserved":0,"last_update":"0001-01-01T00:00:00Z","name_a2s":"Uncletopia | Frankfurt | 2 | All Maps","protocol":17,"map":"cp_process_final","folder":"tf","game":"Team Fortress","app_id":440,"player_count":20,"max_players":24,"Bots":0,"server_type":"Dedicated","server_os":"Linux","password":true,"vac":true,"version":"7757534","steam_id":85568392924469990,"keywords":["cp","nocrits","nodmgspread","uncletopia"],"game_id":440,"stv_port":27026,"stv_name":"Uncletopia | Frankfurt | 2 | All Maps | STV","players":[{"user_id":443,"name":"flr","steam_id":76561198249327786,"connected_time":37000000000,"state":"active","ping":58},{"user_id":413,"name":"GHOST RIDER","steam_id":76561198060780111,"connected_time":3072000000000,"state":"active","ping":89},{"user_id":414,"name":"Fat Pigeon","steam_id":76561198817940142,"connected_time":3030000000000,"state":"active","ping":53},{"user_id":444,"name":"axl","steam_id":76561198991661832,"connected_time":32000000000,"state":"active","ping":159},{"user_id":424,"name":"YuraGreek","steam_id":76561198050182252,"connected_time":2409000000000,"state":"active","ping":71},{"user_id":426,"name":"Udinese Dion","steam_id":76561198067931573,"connected_time":1957000000000,"state":"active","ping":73},{"user_id":433,"name":"froggy","steam_id":76561198064115286,"connected_time":1055000000000,"state":"active","ping":60},{"user_id":445,"name":"Tugazu","steam_id":76561198144223649,"connected_time":10000000000,"state":"spawning","ping":60},{"user_id":441,"name":"eron","steam_id":76561198063634841,"connected_time":226000000000,"state":"active","ping":58},{"user_id":435,"name":"Duck_gaming","steam_id":76561198841587079,"connected_time":938000000000,"state":"spawning","ping":49},{"user_id":396,"name":"MARKO","steam_id":76561198065127504,"connected_time":4267000000000,"state":"active","ping":55},{"user_id":442,"name":"Optimist 50","steam_id":76561198039631442,"connected_time":85000000000,"state":"active","ping":83},{"user_id":356,"name":"whatever","steam_id":76561198095943461,"connected_time":7653000000000,"state":"active","ping":67},{"user_id":446,"name":"ikeaworst","steam_id":76561198936990378,"connected_time":1000000000,"state":"spawning","ping":38},{"user_id":421,"name":"Shynii","steam_id":76561198194682105,"connected_time":2653000000000,"state":"active","ping":68},{"user_id":418,"name":"Roe Jogan","steam_id":76561198871991529,"connected_time":2917000000000,"state":"active","ping":76},{"user_id":438,"name":"ICEBORN GAUNTLET","steam_id":76561198051283300,"connected_time":303000000000,"state":"active","ping":81},{"user_id":386,"name":"i'm bad at this game","steam_id":76561198120166752,"connected_time":5423000000000,"state":"active","ping":112},{"user_id":425,"name":"wouris","steam_id":76561198876188003,"connected_time":2139000000000,"state":"active","ping":67},{"user_id":431,"name":"smelter demon","steam_id":76561198038748489,"connected_time":1251000000000,"state":"active","ping":73}]},{"server_id":308,"name":"Uncletopia | Frankfurt | 3 | All Maps","name_short":"frk-3","host":"frk-1.de.uncletopia.com","port":27035,"enabled":true,"region":"eu","cc":"de","latitude":50.110924,"longitude":8.682127,"reserved":0,"last_update":"0001-01-01T00:00:00Z","name_a2s":"Uncletopia | Frankfurt | 3 | All Maps","protocol":17,"map":"plr_pipeline","folder":"tf","game":"Team Fortress","app_id":440,"player_count":24,"max_players":24,"Bots":0,"server_type":"Dedicated","server_os":"Linux","password":true,"vac":true,"version":"7757534","steam_id":85568392924504274,"keywords":["nocrits","nodmgspread","payload","uncletopia"],"game_id":440,"stv_port":27036,"stv_name":"Uncletopia | Frankfurt | 3 | All Maps | STV","players":[{"user_id":510,"name":"fearlessbot","steam_id":76561199002587064,"connected_time":1140000000000,"state":"active","ping":61},{"user_id":511,"name":"M0rph","steam_id":76561198127339176,"connected_time":1120000000000,"state":"active","ping":54},{"user_id":498,"name":"Gossamer","steam_id":76561198110914300,"connected_time":2132000000000,"state":"active","ping":81},{"user_id":479,"name":"TylowStar","steam_id":76561198357107806,"connected_time":4108000000000,"state":"active","ping":60},{"user_id":505,"name":"hud_saytext_time 0","steam_id":76561198010327228,"connected_time":1786000000000,"state":"active","ping":54},{"user_id":429,"name":"Hot Bean","steam_id":76561198803639155,"connected_time":7367000000000,"state":"active","ping":90},{"user_id":518,"name":"wickEd_","steam_id":76561198048068999,"connected_time":1011000000000,"state":"active","ping":169},{"user_id":504,"name":"GuyWithoutAPie","steam_id":76561198054512149,"connected_time":1993000000000,"state":"active","ping":61},{"user_id":488,"name":"Nötig","steam_id":76561198150158285,"connected_time":3335000000000,"state":"active","ping":74},{"user_id":512,"name":"Qwerty","steam_id":76561198023525894,"connected_time":1087000000000,"state":"active","ping":75},{"user_id":500,"name":"dirty","steam_id":76561197995572935,"connected_time":2121000000000,"state":"active","ping":83},{"user_id":506,"name":"Alfred2.2","steam_id":76561198339314744,"connected_time":1748000000000,"state":"active","ping":69},{"user_id":462,"name":"night.s","steam_id":76561198326287823,"connected_time":5187000000000,"state":"active","ping":72},{"user_id":494,"name":"Ben Doverr","steam_id":76561198034264020,"connected_time":2723000000000,"state":"active","ping":107},{"user_id":513,"name":"dotdotdot","steam_id":76561198057628751,"connected_time":1073000000000,"state":"active","ping":60},{"user_id":420,"name":"I was good before.","steam_id":76561198187045217,"connected_time":7974000000000,"state":"active","ping":78},{"user_id":493,"name":"Dasmonson","steam_id":76561199029771850,"connected_time":2927000000000,"state":"active","ping":122},{"user_id":515,"name":"poshto :-)","steam_id":76561198106182078,"connected_time":1035000000000,"state":"active","ping":101},{"user_id":522,"name":"Gio'sMonkey","steam_id":76561198892432223,"connected_time":28000000000,"state":"active","ping":74},{"user_id":516,"name":"Daniel Day-Lewis","steam_id":76561198147249160,"connected_time":1035000000000,"state":"active","ping":93},{"user_id":520,"name":"Big Balls Bill","steam_id":76561198045998627,"connected_time":146000000000,"state":"active","ping":60},{"user_id":517,"name":"Adalwolfa","steam_id":76561198194671218,"connected_time":1024000000000,"state":"active","ping":146},{"user_id":376,"name":"PLUTO","steam_id":76561198312436128,"connected_time":11411000000000,"state":"active","ping":119},{"user_id":496,"name":"Miatthew","steam_id":76561198034102895,"connected_time":2669000000000,"state":"active","ping":70}]},{"server_id":309,"name":"Uncletopia | Frankfurt | 4 | All Maps","name_short":"frk-4","host":"frk-1.de.uncletopia.com","port":27045,"enabled":true,"region":"eu","cc":"de","latitude":50.110924,"longitude":8.682127,"reserved":0,"last_update":"0001-01-01T00:00:00Z","name_a2s":"Uncletopia | Frankfurt | 4 | All Maps","protocol":17,"map":"cp_snakewater_final1","folder":"tf","game":"Team Fortress","app_id":440,"player_count":24,"max_players":24,"Bots":0,"server_type":"Dedicated","server_os":"Linux","password":true,"vac":true,"version":"7757534","steam_id":85568392924504275,"keywords":["cp","nocrits","nodmgspread","uncletopia"],"game_id":440,"stv_port":27046,"stv_name":"Uncletopia | Frankfurt | 4 | All Maps | STV","players":[{"user_id":309,"name":"Lag","steam_id":76561198159360376,"connected_time":519000000000,"state":"active","ping":66},{"user_id":158,"name":"my head + the wall = \u003c3","steam_id":76561198058012525,"connected_time":10669000000000,"state":"active","ping":72},{"user_id":306,"name":"NitPig","steam_id":76561198212991935,"connected_time":559000000000,"state":"active","ping":128},{"user_id":286,"name":"Flight of the Blonde Giraffes","steam_id":76561198451585571,"connected_time":2451000000000,"state":"active","ping":65},{"user_id":289,"name":"profreshional cactus","steam_id":76561198837919828,"connected_time":2310000000000,"state":"active","ping":103},{"user_id":298,"name":"joebot","steam_id":76561197975606100,"connected_time":1359000000000,"state":"active","ping":142},{"user_id":296,"name":"雲","steam_id":76561198111134021,"connected_time":1466000000000,"state":"active","ping":68},{"user_id":281,"name":"Fran","steam_id":76561199070516960,"connected_time":3102000000000,"state":"active","ping":65},{"user_id":305,"name":"Not Steven -ƒ$-","steam_id":76561198051881261,"connected_time":703000000000,"state":"active","ping":52},{"user_id":270,"name":"Vershal Smershal","steam_id":76561198116223995,"connected_time":4237000000000,"state":"active","ping":61},{"user_id":283,"name":"Hasamnas","steam_id":76561199125038537,"connected_time":2666000000000,"state":"active","ping":57},{"user_id":288,"name":"plazma","steam_id":76561198886594048,"connected_time":2418000000000,"state":"active","ping":103},{"user_id":315,"name":"Synth","steam_id":76561198155450360,"connected_time":300000000000,"state":"active","ping":57},{"user_id":316,"name":"SIR MEPHEDRONE","steam_id":76561198302623594,"connected_time":279000000000,"state":"active","ping":91},{"user_id":284,"name":"Churaq Cyril","steam_id":76561198125381319,"connected_time":2612000000000,"state":"active","ping":88},{"user_id":317,"name":"akakez","steam_id":76561198095432821,"connected_time":252000000000,"state":"active","ping":121},{"user_id":318,"name":"sareena","steam_id":76561198810194062,"connected_time":82000000000,"state":"active","ping":78},{"user_id":312,"name":"Leszy","steam_id":76561198372172135,"connected_time":462000000000,"state":"active","ping":60},{"user_id":277,"name":"Mi Manchi","steam_id":76561198171573129,"connected_time":3385000000000,"state":"active","ping":60},{"user_id":313,"name":"caucasian male","steam_id":76561198062107879,"connected_time":392000000000,"state":"active","ping":76},{"user_id":314,"name":"T K","steam_id":76561198134256917,"connected_time":364000000000,"state":"active","ping":69},{"user_id":300,"name":"Grim the lemon","steam_id":76561199083433988,"connected_time":1236000000000,"state":"active","ping":65},{"user_id":308,"name":"Wüstenfuchs","steam_id":76561198453885708,"connected_time":543000000000,"state":"active","ping":68},{"user_id":215,"name":"Kvicha Kvaratskhelia","steam_id":76561198179339326,"connected_time":6879000000000,"state":"active","ping":75}]},{"server_id":310,"name":"Uncletopia | Frankfurt | 5 | All Maps","name_short":"frk-5","host":"frk-1.de.uncletopia.com","port":27055,"enabled":true,"region":"eu","cc":"de","latitude":50.110924,"longitude":8.682127,"reserved":0,"last_update":"0001-01-01T00:00:00Z","name_a2s":"Uncletopia | Frankfurt | 5 | All Maps","protocol":17,"map":"cp_coldfront","folder":"tf","game":"Team Fortress","app_id":440,"player_count":0,"max_players":24,"Bots":0,"server_type":"Dedicated","server_os":"Linux","password":true,"vac":true,"version":"7757534","steam_id":85568392924504277,"keywords":["cp","nocrits","nodmgspread","uncletopia"],"game_id":440,"stv_port":27056,"stv_name":"Uncletopia | Frankfurt | 5 | All Maps | STV","players":null},{"server_id":311,"name":"Uncletopia | Frankfurt | 6 | All Maps","name_short":"frk-6","host":"frk-1.de.uncletopia.com","port":27065,"enabled":true,"region":"eu","cc":"de","latitude":50.110924,"longitude":8.682127,"reserved":0,"last_update":"0001-01-01T00:00:00Z","name_a2s":"Uncletopia | Frankfurt | 6 | All Maps","protocol":17,"map":"cp_process_final","folder":"tf","game":"Team Fortress","app_id":440,"player_count":17,"max_players":24,"Bots":0,"server_type":"Dedicated","server_os":"Linux","password":true,"vac":true,"version":"7757534","steam_id":85568392924504278,"keywords":["cp","nocrits","nodmgspread","uncletopia"],"game_id":440,"stv_port":27066,"stv_name":"Uncletopia | Frankfurt | 6 | All Maps | STV","players":[{"user_id":112,"name":"O B S E R V E R","steam_id":76561198397143311,"connected_time":918000000000,"state":"active","ping":61},{"user_id":123,"name":"Hexagon","steam_id":76561198151205758,"connected_time":8000000000,"state":"spawning","ping":57},{"user_id":102,"name":"Hussain_144","steam_id":76561198346029208,"connected_time":1349000000000,"state":"active","ping":180},{"user_id":119,"name":"Никита Партосик","steam_id":76561197992927989,"connected_time":242000000000,"state":"active","ping":114},{"user_id":122,"name":"Segra blw.tf","steam_id":76561198441974031,"connected_time":53000000000,"state":"active","ping":67},{"user_id":79,"name":"hellrunner","steam_id":76561198205309695,"connected_time":3282000000000,"state":"active","ping":80},{"user_id":120,"name":"Toasty5050","steam_id":76561198073540881,"connected_time":194000000000,"state":"active","ping":42},{"user_id":78,"name":"Lantrax","steam_id":76561198281941835,"connected_time":3421000000000,"state":"active","ping":85},{"user_id":114,"name":"Bob Sacamano","steam_id":76561198085610701,"connected_time":860000000000,"state":"active","ping":92},{"user_id":97,"name":"Hazzah","steam_id":76561198197242377,"connected_time":1673000000000,"state":"active","ping":62},{"user_id":101,"name":"cl","steam_id":76561199436640904,"connected_time":1374000000000,"state":"active","ping":73},{"user_id":111,"name":"shed theory","steam_id":76561198308279567,"connected_time":983000000000,"state":"active","ping":45},{"user_id":118,"name":"monke gaming","steam_id":76561199062738005,"connected_time":341000000000,"state":"active","ping":65},{"user_id":92,"name":"Rimx","steam_id":76561198053034840,"connected_time":2217000000000,"state":"active","ping":95},{"user_id":107,"name":"dOni","steam_id":76561198257223353,"connected_time":1222000000000,"state":"active","ping":75},{"user_id":69,"name":"Abhorrent","steam_id":76561198056338288,"connected_time":4867000000000,"state":"active","ping":60},{"user_id":109,"name":"glyph","steam_id":76561197980736364,"connected_time":1112000000000,"state":"active","ping":76}]},{"server_id":23,"name":"Uncletopia | Frankfurt | 7 | Stopwatch Beta","name_short":"frk-7","host":"frk-1.de.uncletopia.com","port":27075,"enabled":true,"region":"eu","cc":"de","latitude":50.110924,"longitude":8.682127,"reserved":0,"last_update":"0001-01-01T00:00:00Z","name_a2s":"Uncletopia | Frankfurt | 7 | Stopwatch Beta","protocol":17,"map":"pl_frontier_final","folder":"tf","game":"Team Fortress","app_id":440,"player_count":0,"max_players":24,"Bots":0,"server_type":"Dedicated","server_os":"Linux","password":true,"vac":true,"version":"7757534","steam_id":85568392924742827,"keywords":["nocrits","nodmgspread","payload","uncletopia"],"game_id":440,"stv_port":27076,"stv_name":"Uncletopia | Frankfurt | 7 | Stopwatch Beta | STV","players":null},{"server_id":24,"name":"Uncletopia | Frankfurt | 8 | Community","name_short":"frk-8","host":"frk-1.de.uncletopia.com","port":27085,"enabled":true,"region":"eu","cc":"de","latitude":50.110924,"longitude":8.682127,"reserved":0,"last_update":"0001-01-01T00:00:00Z","name_a2s":"Uncletopia | Frankfurt | 8 | Community","protocol":17,"map":"workshop/koth_slaughter_rc1.ugc1712845210","folder":"tf","game":"Team Fortress","app_id":440,"player_count":4,"max_players":24,"Bots":0,"server_type":"Dedicated","server_os":"Linux","password":true,"vac":true,"version":"7757534","steam_id":85568392924742828,"keywords":["cp","nocrits","nodmgspread","uncletopia"],"game_id":440,"stv_port":27086,"stv_name":"Uncletopia | Frankfurt | 8 | Community | STV","players":[{"user_id":11,"name":"Happybot","steam_id":76561199162691716,"connected_time":1642000000000,"state":"active","ping":88},{"user_id":12,"name":"dr.bogdanchiper","steam_id":76561199215765878,"connected_time":1636000000000,"state":"active","ping":109},{"user_id":13,"name":"FugCaDracu","steam_id":76561198374985053,"connected_time":1627000000000,"state":"active","ping":72},{"user_id":16,"name":"Fratm_Wolf","steam_id":76561199100512277,"connected_time":579000000000,"state":"active","ping":60}]},{"server_id":202,"name":"Uncletopia | Hong Kong | 1 | All Maps","name_short":"hgk-1","host":"hgk-1.hk.uncletopia.com","port":27015,"enabled":true,"region":"asia","cc":"hk","latitude":22.302711,"longitude":114.177216,"reserved":0,"last_update":"0001-01-01T00:00:00Z","name_a2s":"Uncletopia | Hong Kong | 1 | All Maps","protocol":17,"map":"pl_barnblitz","folder":"tf","game":"Team Fortress","app_id":440,"player_count":0,"max_players":24,"Bots":0,"server_type":"Dedicated","server_os":"Linux","password":true,"vac":true,"version":"7757534","steam_id":85568392924494504,"keywords":["nocrits","nodmgspread","payload","uncletopia"],"game_id":440,"stv_port":27016,"stv_name":"Uncletopia | Hong Kong | 1 | All Maps | STV","players":null},{"server_id":1,"name":"Uncletopia | Los Angeles | 1 | All Maps","name_short":"lax-1","host":"lax-1.us.uncletopia.com","port":27015,"enabled":true,"region":"us-west","cc":"us","latitude":33.94279,"longitude":-118.41004,"reserved":0,"last_update":"0001-01-01T00:00:00Z","name_a2s":"Uncletopia | Los Angeles | 1 | All Maps","protocol":17,"map":"pl_borneo","folder":"tf","game":"Team Fortress","app_id":440,"player_count":0,"max_players":24,"Bots":0,"server_type":"Dedicated","server_os":"Linux","password":true,"vac":true,"version":"7757534","steam_id":85568392924469991,"keywords":["nocrits","nodmgspread","payload","uncletopia"],"game_id":440,"stv_port":27016,"stv_name":"Uncletopia | Los Angeles | 1 | All Maps | STV","players":null},{"server_id":112,"name":"Uncletopia | Los Angeles | 2 | All Maps","name_short":"lax-2","host":"lax-1.us.uncletopia.com","port":27025,"enabled":true,"region":"us-west","cc":"us","latitude":33.94279,"longitude":-118.41004,"reserved":0,"last_update":"0001-01-01T00:00:00Z","name_a2s":"Uncletopia | Los Angeles | 2 | All Maps","protocol":17,"map":"koth_cascade","folder":"tf","game":"Team Fortress","app_id":440,"player_count":0,"max_players":24,"Bots":0,"server_type":"Dedicated","server_os":"Linux","password":true,"vac":true,"version":"7757534","steam_id":85568392924469992,"keywords":["cp","nocrits","nodmgspread","uncletopia"],"game_id":440,"stv_port":27026,"stv_name":"Uncletopia | Los Angeles | 2 | All Maps | STV","players":null},{"server_id":324,"name":"Uncletopia | Los Angeles | 3 | All Maps","name_short":"lax-3","host":"lax-1.us.uncletopia.com","port":27035,"enabled":true,"region":"us-west","cc":"us","latitude":33.94279,"longitude":-118.41004,"reserved":0,"last_update":"0001-01-01T00:00:00Z","name_a2s":"Uncletopia | Los Angeles | 3 | All Maps","protocol":17,"map":"cp_process_final","folder":"tf","game":"Team Fortress","app_id":440,"player_count":0,"max_players":24,"Bots":0,"server_type":"Dedicated","server_os":"Linux","password":true,"vac":true,"version":"7757534","steam_id":85568392924510198,"keywords":["cp","nocrits","nodmgspread","uncletopia"],"game_id":440,"stv_port":27036,"stv_name":"Uncletopia | Los Angeles | 3 | All Maps | STV","players":null},{"server_id":25,"name":"Uncletopia | Los Angeles | 4 | Stopwatch Beta","name_short":"lax-4","host":"lax-1.us.uncletopia.com","port":27045,"enabled":true,"region":"us-west","cc":"us","latitude":33.94279,"longitude":-118.41004,"reserved":0,"last_update":"0001-01-01T00:00:00Z","name_a2s":"Uncletopia | Los Angeles | 4 | Stopwatch Beta","protocol":17,"map":"pl_frontier_final","folder":"tf","game":"Team Fortress","app_id":440,"player_count":0,"max_players":24,"Bots":0,"server_type":"Dedicated","server_os":"Linux","password":true,"vac":true,"version":"7757534","steam_id":85568392924510199,"keywords":["nocrits","nodmgspread","payload","uncletopia"],"game_id":440,"stv_port":27046,"stv_name":"Uncletopia | Los Angeles | 4 | Stopwatch Beta | STV","players":null},{"server_id":11,"name":"Uncletopia | London | 1 | All Maps","name_short":"lon-1","host":"lon-1.uk.uncletopia.com","port":27015,"enabled":true,"region":"eu","cc":"gb","latitude":51.509865,"longitude":-0.118092,"reserved":0,"last_update":"0001-01-01T00:00:00Z","name_a2s":"Uncletopia | London | 1 | All Maps","protocol":17,"map":"pl_upward","folder":"tf","game":"Team Fortress","app_id":440,"player_count":24,"max_players":24,"Bots":0,"server_type":"Dedicated","server_os":"Linux","password":true,"vac":true,"version":"7757534","steam_id":85568392924367362,"keywords":["nocrits","nodmgspread","payload","uncletopia"],"game_id":440,"stv_port":27016,"stv_name":"Uncletopia | London | 1 | All Maps | STV","players":[{"user_id":243,"name":"BladedBloom4611","steam_id":76561198416655215,"connected_time":1099000000000,"state":"active","ping":56},{"user_id":253,"name":"jeff","steam_id":76561198025815509,"connected_time":457000000000,"state":"active","ping":47},{"user_id":166,"name":"Nexosert","steam_id":76561198941142018,"connected_time":6989000000000,"state":"active","ping":77},{"user_id":206,"name":"Lessoz","steam_id":76561199211572036,"connected_time":3874000000000,"state":"active","ping":87},{"user_id":252,"name":"Rune","steam_id":76561198012822726,"connected_time":482000000000,"state":"active","ping":95},{"user_id":244,"name":"Kapitan Polska","steam_id":76561197968069413,"connected_time":1081000000000,"state":"active","ping":67},{"user_id":184,"name":"Femboy Destroyer","steam_id":76561198848650365,"connected_time":5236000000000,"state":"active","ping":101},{"user_id":204,"name":"Zombi3","steam_id":76561198326290621,"connected_time":3879000000000,"state":"active","ping":69},{"user_id":231,"name":"Smiles","steam_id":76561198107197973,"connected_time":2237000000000,"state":"active","ping":149},{"user_id":214,"name":"Space","steam_id":76561198021572167,"connected_time":3751000000000,"state":"active","ping":45},{"user_id":215,"name":"near dt, mi","steam_id":76561198163244605,"connected_time":3729000000000,"state":"active","ping":83},{"user_id":245,"name":"After8","steam_id":76561198090750865,"connected_time":1076000000000,"state":"active","ping":67},{"user_id":246,"name":"Dragul","steam_id":76561198032885938,"connected_time":1004000000000,"state":"active","ping":71},{"user_id":228,"name":"on1on (pickled)","steam_id":76561197995304137,"connected_time":2348000000000,"state":"active","ping":70},{"user_id":216,"name":"Gimli","steam_id":76561198004149706,"connected_time":3726000000000,"state":"active","ping":62},{"user_id":251,"name":"gibb (official)","steam_id":76561198074097655,"connected_time":618000000000,"state":"active","ping":45},{"user_id":256,"name":"AshCup","steam_id":76561198166795156,"connected_time":229000000000,"state":"active","ping":150},{"user_id":248,"name":"kotamine","steam_id":76561198068907991,"connected_time":968000000000,"state":"active","ping":74},{"user_id":224,"name":"tm","steam_id":76561198256619964,"connected_time":2991000000000,"state":"active","ping":87},{"user_id":229,"name":"sex havin'","steam_id":76561198169857427,"connected_time":2347000000000,"state":"active","ping":72},{"user_id":255,"name":"Guru","steam_id":76561198093853069,"connected_time":353000000000,"state":"active","ping":61},{"user_id":219,"name":"Wuffington","steam_id":76561198033762881,"connected_time":3548000000000,"state":"active","ping":53},{"user_id":250,"name":"wxyz kapıcı izzet","steam_id":76561198241873438,"connected_time":909000000000,"state":"active","ping":97},{"user_id":211,"name":"Birdseye","steam_id":76561198025852216,"connected_time":3831000000000,"state":"active","ping":50}]},{"server_id":114,"name":"Uncletopia | London | 2 | All Maps","name_short":"lon-2","host":"lon-1.uk.uncletopia.com","port":27025,"enabled":true,"region":"eu","cc":"gb","latitude":51.509865,"longitude":-0.118092,"reserved":0,"last_update":"0001-01-01T00:00:00Z","name_a2s":"Uncletopia | London | 2 | All Maps","protocol":17,"map":"pl_upward","folder":"tf","game":"Team Fortress","app_id":440,"player_count":24,"max_players":24,"Bots":0,"server_type":"Dedicated","server_os":"Linux","password":true,"vac":true,"version":"7757534","steam_id":85568392924470941,"keywords":["nocrits","nodmgspread","payload","uncletopia"],"game_id":440,"stv_port":27026,"stv_name":"Uncletopia | London | 2 | All Maps | STV","players":[{"user_id":52,"name":"Yessirskiii","steam_id":76561198179324075,"connected_time":843000000000,"state":"active","ping":61},{"user_id":56,"name":"Senior","steam_id":76561198065014164,"connected_time":562000000000,"state":"active","ping":45},{"user_id":15,"name":"Dwevy","steam_id":76561198090379437,"connected_time":2340000000000,"state":"active","ping":54},{"user_id":59,"name":"kick","steam_id":76561198333549678,"connected_time":353000000000,"state":"active","ping":75},{"user_id":62,"name":"RIFT","steam_id":76561198991622379,"connected_time":194000000000,"state":"active","ping":39},{"user_id":18,"name":"scouser1998","steam_id":76561198118844384,"connected_time":2234000000000,"state":"active","ping":62},{"user_id":19,"name":"moser23","steam_id":76561197960543171,"connected_time":2179000000000,"state":"active","ping":63},{"user_id":42,"name":"Equinox","steam_id":76561199055592635,"connected_time":1538000000000,"state":"active","ping":55},{"user_id":31,"name":"ali.","steam_id":76561198148359093,"connected_time":1832000000000,"state":"active","ping":41},{"user_id":49,"name":"C0d3s","steam_id":76561198093907544,"connected_time":1026000000000,"state":"active","ping":101},{"user_id":28,"name":"DrExplosive","steam_id":76561198063678579,"connected_time":1900000000000,"state":"active","ping":48},{"user_id":24,"name":"Wardruna96","steam_id":76561199057083828,"connected_time":1945000000000,"state":"active","ping":86},{"user_id":57,"name":"Diggity","steam_id":76561198297157085,"connected_time":549000000000,"state":"active","ping":44},{"user_id":63,"name":"Burny Bob","steam_id":76561198073513081,"connected_time":177000000000,"state":"active","ping":60},{"user_id":67,"name":"the joy of recycling","steam_id":76561198415564349,"connected_time":111000000000,"state":"active","ping":60},{"user_id":29,"name":"silenk","steam_id":76561198367689055,"connected_time":1893000000000,"state":"active","ping":85},{"user_id":50,"name":"Firearms","steam_id":76561197989867612,"connected_time":1017000000000,"state":"active","ping":46},{"user_id":48,"name":"MuZe","steam_id":76561198096212604,"connected_time":1130000000000,"state":"active","ping":150},{"user_id":33,"name":"d u k k i","steam_id":76561198071807437,"connected_time":1750000000000,"state":"active","ping":85},{"user_id":35,"name":"i hate the lil bro meme","steam_id":76561198047359132,"connected_time":1679000000000,"state":"active","ping":74},{"user_id":55,"name":"PGAndy","steam_id":76561199218070297,"connected_time":740000000000,"state":"active","ping":95},{"user_id":38,"name":"psychotic friends network","steam_id":76561199160343323,"connected_time":1665000000000,"state":"active","ping":103},{"user_id":60,"name":"sPork","steam_id":76561198056880331,"connected_time":332000000000,"state":"active","ping":66},{"user_id":65,"name":"relic_","steam_id":76561199053114167,"connected_time":166000000000,"state":"active","ping":73}]},{"server_id":320,"name":"Uncletopia | London | 3 | All Maps","name_short":"lon-3","host":"lon-1.uk.uncletopia.com","port":27035,"enabled":true,"region":"eu","cc":"gb","latitude":51.509865,"longitude":-0.118092,"reserved":0,"last_update":"0001-01-01T00:00:00Z","name_a2s":"Uncletopia | London | 3 | All Maps","protocol":17,"map":"pl_badwater","folder":"tf","game":"Team Fortress","app_id":440,"player_count":24,"max_players":24,"Bots":0,"server_type":"Dedicated","server_os":"Linux","password":true,"vac":true,"version":"7757534","steam_id":85568392924510192,"keywords":["nocrits","nodmgspread","payload","uncletopia"],"game_id":440,"stv_port":27036,"stv_name":"Uncletopia | London | 3 | All Maps | STV","players":[{"user_id":688,"name":"DilerVincent","steam_id":76561198417366067,"connected_time":486000000000,"state":"active","ping":73},{"user_id":678,"name":"☞LaZe☜","steam_id":76561198202191400,"connected_time":1296000000000,"state":"active","ping":60},{"user_id":694,"name":"oepidus","steam_id":76561198963841479,"connected_time":188000000000,"state":"active","ping":94},{"user_id":668,"name":"Kodutah","steam_id":76561198203405574,"connected_time":2218000000000,"state":"active","ping":65},{"user_id":653,"name":"maKU","steam_id":76561198073943958,"connected_time":2829000000000,"state":"active","ping":63},{"user_id":690,"name":"Titar Industries","steam_id":76561198143078476,"connected_time":311000000000,"state":"active","ping":136},{"user_id":614,"name":"Gumit","steam_id":76561198208126512,"connected_time":4662000000000,"state":"active","ping":118},{"user_id":604,"name":"Rowan Atkinson","steam_id":76561199378865926,"connected_time":5197000000000,"state":"active","ping":79},{"user_id":673,"name":"Miiukade","steam_id":76561198089157860,"connected_time":1542000000000,"state":"active","ping":123},{"user_id":676,"name":"Ecton","steam_id":76561198025103720,"connected_time":1389000000000,"state":"active","ping":55},{"user_id":617,"name":"dark souls 2 is the worst game","steam_id":76561198055389492,"connected_time":4623000000000,"state":"active","ping":39},{"user_id":695,"name":"SolidSalt","steam_id":76561198334789026,"connected_time":162000000000,"state":"active","ping":35},{"user_id":666,"name":"KFC Enjoyer","steam_id":76561198840259819,"connected_time":2298000000000,"state":"active","ping":58},{"user_id":692,"name":"MRLOLENO","steam_id":76561198450911838,"connected_time":288000000000,"state":"active","ping":67},{"user_id":643,"name":"Miloš","steam_id":76561198129684105,"connected_time":3527000000000,"state":"active","ping":71},{"user_id":693,"name":"Enforcer02","steam_id":76561197966045944,"connected_time":221000000000,"state":"active","ping":63},{"user_id":622,"name":"It's a me Malario","steam_id":76561198176546013,"connected_time":4486000000000,"state":"active","ping":50},{"user_id":640,"name":"yush","steam_id":76561198121688934,"connected_time":3842000000000,"state":"active","ping":72},{"user_id":684,"name":"perch","steam_id":76561198214849363,"connected_time":944000000000,"state":"active","ping":89},{"user_id":664,"name":"Kaek","steam_id":76561197960283484,"connected_time":2338000000000,"state":"active","ping":76},{"user_id":530,"name":"ThatGamingKiwi","steam_id":76561199170522237,"connected_time":7761000000000,"state":"active","ping":143},{"user_id":662,"name":"Alpaca","steam_id":76561198071132354,"connected_time":2453000000000,"state":"active","ping":101},{"user_id":689,"name":"Vic maher","steam_id":76561198097523768,"connected_time":344000000000,"state":"active","ping":70},{"user_id":672,"name":"20BB Raxor","steam_id":76561198239927434,"connected_time":1712000000000,"state":"active","ping":76}]},{"server_id":321,"name":"Uncletopia | London | 4 | All Maps","name_short":"lon-4","host":"lon-1.uk.uncletopia.com","port":27045,"enabled":true,"region":"eu","cc":"gb","latitude":51.509865,"longitude":-0.118092,"reserved":0,"last_update":"0001-01-01T00:00:00Z","name_a2s":"Uncletopia | London | 4 | All Maps","protocol":17,"map":"koth_highpass","folder":"tf","game":"Team Fortress","app_id":440,"player_count":0,"max_players":24,"Bots":0,"server_type":"Dedicated","server_os":"Linux","password":true,"vac":true,"version":"7757534","steam_id":85568392924510193,"keywords":["cp","nocrits","nodmgspread","uncletopia"],"game_id":440,"stv_port":27046,"stv_name":"Uncletopia | London | 4 | All Maps | STV","players":null},{"server_id":21,"name":"Uncletopia | London | 5 | All Maps","name_short":"lon-5","host":"lon-1.uk.uncletopia.com","port":27055,"enabled":true,"region":"eu","cc":"gb","latitude":51.509865,"longitude":-0.118092,"reserved":0,"last_update":"0001-01-01T00:00:00Z","name_a2s":"Uncletopia | London | 5 | All Maps","protocol":17,"map":"cp_dustbowl","folder":"tf","game":"Team Fortress","app_id":440,"player_count":24,"max_players":24,"Bots":0,"server_type":"Dedicated","server_os":"Linux","password":true,"vac":true,"version":"7757534","steam_id":85568392924742829,"keywords":["cp","nocrits","nodmgspread","uncletopia"],"game_id":440,"stv_port":27056,"stv_name":"Uncletopia | London | 5 | All Maps | STV","players":[{"user_id":60,"name":"Khoreo","steam_id":76561198208096339,"connected_time":973000000000,"state":"active","ping":45},{"user_id":44,"name":"Napole","steam_id":76561198267530436,"connected_time":2156000000000,"state":"active","ping":111},{"user_id":61,"name":"dung eater","steam_id":76561198037130528,"connected_time":891000000000,"state":"active","ping":67},{"user_id":47,"name":"KAYDAN","steam_id":76561198817674900,"connected_time":1779000000000,"state":"active","ping":85},{"user_id":43,"name":"TerraformerBeing","steam_id":76561198281011934,"connected_time":2285000000000,"state":"active","ping":92},{"user_id":51,"name":"⋆ Efficiency V","steam_id":76561199058375538,"connected_time":1459000000000,"state":"active","ping":82},{"user_id":52,"name":"SausageRoll","steam_id":76561197994072622,"connected_time":1404000000000,"state":"active","ping":47},{"user_id":62,"name":"Ayyy lmao","steam_id":76561198153366647,"connected_time":880000000000,"state":"active","ping":59},{"user_id":63,"name":"makaronrycy","steam_id":76561198018208790,"connected_time":855000000000,"state":"active","ping":83},{"user_id":55,"name":"Mazata","steam_id":76561198104303163,"connected_time":1325000000000,"state":"active","ping":55},{"user_id":57,"name":"Pootis","steam_id":76561198823265247,"connected_time":1207000000000,"state":"active","ping":79},{"user_id":67,"name":"plot4a_plan","steam_id":76561199165158814,"connected_time":718000000000,"state":"active","ping":160},{"user_id":58,"name":"1couver","steam_id":76561198168553215,"connected_time":1126000000000,"state":"active","ping":105},{"user_id":29,"name":"Penis Contortionist","steam_id":76561198073663784,"connected_time":2608000000000,"state":"active","ping":36},{"user_id":72,"name":"Agro | KritzKast","steam_id":76561197970498549,"connected_time":569000000000,"state":"active","ping":42},{"user_id":28,"name":"luckiee","steam_id":76561198062926958,"connected_time":2627000000000,"state":"active","ping":38},{"user_id":65,"name":"jackchan37","steam_id":76561199084555750,"connected_time":741000000000,"state":"active","ping":53},{"user_id":74,"name":"lord-carlos","steam_id":76561198025150761,"connected_time":410000000000,"state":"active","ping":62},{"user_id":66,"name":"Madoga0 EU","steam_id":76561198102371701,"connected_time":733000000000,"state":"active","ping":104},{"user_id":75,"name":"Soldoux","steam_id":76561199093055113,"connected_time":244000000000,"state":"active","ping":53},{"user_id":71,"name":"Panzerkampfwagen IV Ausf.H","steam_id":76561198420827196,"connected_time":657000000000,"state":"active","ping":121},{"user_id":70,"name":"Jon Snuh","steam_id":76561198075298635,"connected_time":684000000000,"state":"active","ping":134},{"user_id":40,"name":"Elfie","steam_id":76561198206802255,"connected_time":2397000000000,"state":"active","ping":75},{"user_id":42,"name":"ヌベール (Nubert)","steam_id":76561199121806567,"connected_time":2379000000000,"state":"active","ping":47}]},{"server_id":22,"name":"Uncletopia | London | 6 | All Maps","name_short":"lon-6","host":"lon-1.uk.uncletopia.com","port":27065,"enabled":true,"region":"eu","cc":"gb","latitude":51.509865,"longitude":-0.118092,"reserved":0,"last_update":"0001-01-01T00:00:00Z","name_a2s":"Uncletopia | London | 6 | All Maps","protocol":17,"map":"pl_pier","folder":"tf","game":"Team Fortress","app_id":440,"player_count":24,"max_players":24,"Bots":0,"server_type":"Dedicated","server_os":"Linux","password":true,"vac":true,"version":"7757534","steam_id":85568392924742830,"keywords":["nocrits","nodmgspread","payload","uncletopia"],"game_id":440,"stv_port":27066,"stv_name":"Uncletopia | London | 6 | All Maps | STV","players":[{"user_id":215,"name":"idiots","steam_id":76561198101451654,"connected_time":2145000000000,"state":"active","ping":45},{"user_id":239,"name":"Mafew","steam_id":76561198119993886,"connected_time":315000000000,"state":"active","ping":58},{"user_id":208,"name":"CYBERPSYCHOSIS","steam_id":76561198121260981,"connected_time":2818000000000,"state":"active","ping":45},{"user_id":242,"name":"MatesThePlayer","steam_id":76561198066156449,"connected_time":267000000000,"state":"active","ping":64},{"user_id":240,"name":"Bat in a thousand","steam_id":76561198320506848,"connected_time":302000000000,"state":"active","ping":44},{"user_id":189,"name":"Jeans Plus","steam_id":76561198052125103,"connected_time":3382000000000,"state":"active","ping":60},{"user_id":226,"name":"Le Pepp","steam_id":76561198042427803,"connected_time":1297000000000,"state":"active","ping":55},{"user_id":246,"name":"lambrusco di sorbara","steam_id":76561198066071855,"connected_time":172000000000,"state":"active","ping":73},{"user_id":233,"name":"e36 1.8","steam_id":76561198134203031,"connected_time":980000000000,"state":"active","ping":67},{"user_id":211,"name":"the package","steam_id":76561198049312442,"connected_time":2360000000000,"state":"active","ping":45},{"user_id":212,"name":"wytchboy","steam_id":76561198342787966,"connected_time":2223000000000,"state":"active","ping":56},{"user_id":220,"name":"GamingCarp","steam_id":76561198285235511,"connected_time":2014000000000,"state":"active","ping":48},{"user_id":244,"name":"kill","steam_id":76561198147277460,"connected_time":237000000000,"state":"active","ping":61},{"user_id":216,"name":".:/]GOON[\\:. mardy bum","steam_id":76561198117247903,"connected_time":2124000000000,"state":"active","ping":44},{"user_id":245,"name":"ᗜ˰ᗜ","steam_id":76561198148074472,"connected_time":229000000000,"state":"active","ping":50},{"user_id":228,"name":"Ze","steam_id":76561198314901652,"connected_time":1116000000000,"state":"active","ping":96},{"user_id":222,"name":"Teo","steam_id":76561198030853412,"connected_time":1750000000000,"state":"active","ping":61},{"user_id":225,"name":"New","steam_id":76561198402195911,"connected_time":1395000000000,"state":"active","ping":118},{"user_id":219,"name":"Deva Path","steam_id":76561198085763542,"connected_time":2070000000000,"state":"active","ping":85},{"user_id":238,"name":"maze","steam_id":76561197998394797,"connected_time":556000000000,"state":"active","ping":48},{"user_id":234,"name":"NothingMan","steam_id":76561198051284446,"connected_time":817000000000,"state":"active","ping":48},{"user_id":221,"name":"grip reaper","steam_id":76561198066631833,"connected_time":1999000000000,"state":"active","ping":82},{"user_id":210,"name":"wcyd","steam_id":76561198103660553,"connected_time":2619000000000,"state":"active","ping":90},{"user_id":231,"name":"local shaman","steam_id":76561198051497921,"connected_time":1087000000000,"state":"active","ping":61}]},{"server_id":40,"name":"Uncletopia | London | 7 | No Payload","name_short":"lon-7","host":"lon-1.uk.uncletopia.com","port":27075,"enabled":true,"region":"eu","cc":"gb","latitude":51.509865,"longitude":-0.118092,"reserved":0,"last_update":"0001-01-01T00:00:00Z","name_a2s":"Uncletopia | London | 7 | No Payload","protocol":17,"map":"koth_harvest_final","folder":"tf","game":"Team Fortress","app_id":440,"player_count":1,"max_players":24,"Bots":0,"server_type":"Dedicated","server_os":"Linux","password":true,"vac":true,"version":"7757534","steam_id":85568392924964314,"keywords":["cp","nocrits","nodmgspread","uncletopia"],"game_id":440,"stv_port":27076,"stv_name":"Uncletopia | London | 7 | No Payload | STV","players":[{"user_id":9,"name":"Petight","steam_id":76561197999438798,"connected_time":628000000000,"state":"active","ping":30}]},{"server_id":41,"name":"Uncletopia | London | 8 | Community","name_short":"lon-8","host":"lon-1.uk.uncletopia.com","port":27085,"enabled":true,"region":"eu","cc":"gb","latitude":51.509865,"longitude":-0.118092,"reserved":0,"last_update":"0001-01-01T00:00:00Z","name_a2s":"Uncletopia | London | 8 | Community","protocol":17,"map":"workshop/koth_kemptown_rc1.ugc767410655","folder":"tf","game":"Team Fortress","app_id":440,"player_count":0,"max_players":24,"Bots":0,"server_type":"Dedicated","server_os":"Linux","password":true,"vac":true,"version":"7757534","steam_id":85568392924964315,"keywords":["cp","nocrits","nodmgspread","uncletopia"],"game_id":440,"stv_port":27086,"stv_name":"Uncletopia | London | 8 | Community | STV","players":null},{"server_id":300,"name":"Uncletopia | Montréal | 1 | All Maps","name_short":"mtl-1","host":"mtl-1.ca.uncletopia.com","port":27015,"enabled":true,"region":"us-east","cc":"ca","latitude":45.50889,"longitude":-73.56167,"reserved":0,"last_update":"0001-01-01T00:00:00Z","name_a2s":"Uncletopia | Montréal | 1 | All Maps","protocol":17,"map":"pl_snowycoast","folder":"tf","game":"Team Fortress","app_id":440,"player_count":0,"max_players":24,"Bots":0,"server_type":"Dedicated","server_os":"Linux","password":true,"vac":true,"version":"7757534","steam_id":85568392924500087,"keywords":["nocrits","nodmgspread","payload","uncletopia"],"game_id":440,"stv_port":27016,"stv_name":"Uncletopia | Montréal | 1 | All Maps | STV","players":null},{"server_id":301,"name":"Uncletopia | Montréal | 2 | All Maps","name_short":"mtl-2","host":"mtl-1.ca.uncletopia.com","port":27025,"enabled":true,"region":"us-east","cc":"ca","latitude":45.50889,"longitude":-73.56167,"reserved":0,"last_update":"0001-01-01T00:00:00Z","name_a2s":"Uncletopia | Montréal | 2 | All Maps","protocol":17,"map":"pl_snowycoast","folder":"tf","game":"Team Fortress","app_id":440,"player_count":0,"max_players":24,"Bots":0,"server_type":"Dedicated","server_os":"Linux","password":true,"vac":true,"version":"7757534","steam_id":85568392924500088,"keywords":["nocrits","nodmgspread","payload","uncletopia"],"game_id":440,"stv_port":27026,"stv_name":"Uncletopia | Montréal | 2 | All Maps | STV","players":null},{"server_id":302,"name":"Uncletopia | Montréal | 3 | All Maps","name_short":"mtl-3","host":"mtl-1.ca.uncletopia.com","port":27035,"enabled":true,"region":"us-east","cc":"ca","latitude":45.50889,"longitude":-73.56167,"reserved":0,"last_update":"0001-01-01T00:00:00Z","name_a2s":"Uncletopia | Montréal | 3 | All Maps","protocol":17,"map":"cp_dustbowl","folder":"tf","game":"Team Fortress","app_id":440,"player_count":0,"max_players":24,"Bots":0,"server_type":"Dedicated","server_os":"Linux","password":true,"vac":true,"version":"7757534","steam_id":85568392924500089,"keywords":["cp","nocrits","nodmgspread","uncletopia"],"game_id":440,"stv_port":27036,"stv_name":"Uncletopia | Montréal | 3 | All Maps | STV","players":null},{"server_id":303,"name":"Uncletopia | Montréal | 4 | No Payload","name_short":"mtl-4","host":"mtl-1.ca.uncletopia.com","port":27045,"enabled":true,"region":"us-east","cc":"ca","latitude":45.50889,"longitude":-73.56167,"reserved":0,"last_update":"0001-01-01T00:00:00Z","name_a2s":"Uncletopia | Montréal | 4 | No Payload","protocol":17,"map":"pl_borneo","folder":"tf","game":"Team Fortress","app_id":440,"player_count":0,"max_players":24,"Bots":0,"server_type":"Dedicated","server_os":"Linux","password":true,"vac":true,"version":"7757534","steam_id":85568392924500090,"keywords":["nocrits","nodmgspread","payload","uncletopia"],"game_id":440,"stv_port":27046,"stv_name":"Uncletopia | Montréal | 4 | No Payload | STV","players":null},{"server_id":13,"name":"Uncletopia | New York City | 1 | All Maps","name_short":"nyc-1","host":"nyc-1.us.uncletopia.com","port":27015,"enabled":true,"region":"us-east","cc":"us","latitude":40.73061,"longitude":-73.93524,"reserved":0,"last_update":"0001-01-01T00:00:00Z","name_a2s":"Uncletopia | New York City | 1 | All Maps","protocol":17,"map":"koth_highpass","folder":"tf","game":"Team Fortress","app_id":440,"player_count":1,"max_players":24,"Bots":0,"server_type":"Dedicated","server_os":"Linux","password":true,"vac":true,"version":"7757534","steam_id":85568392924469993,"keywords":["cp","nocrits","nodmgspread","uncletopia"],"game_id":440,"stv_port":27016,"stv_name":"Uncletopia | New York City | 1 | All Maps | STV","players":[{"user_id":23,"name":"Nice21","steam_id":76561199427548141,"connected_time":45000000000,"state":"active","ping":65}]},{"server_id":14,"name":"Uncletopia | New York City | 2 | All Maps","name_short":"nyc-2","host":"nyc-1.us.uncletopia.com","port":27025,"enabled":true,"region":"us-east","cc":"us","latitude":40.73061,"longitude":-73.93524,"reserved":0,"last_update":"0001-01-01T00:00:00Z","name_a2s":"Uncletopia | New York City | 2 | All Maps","protocol":17,"map":"pl_goldrush","folder":"tf","game":"Team Fortress","app_id":440,"player_count":24,"max_players":24,"Bots":0,"server_type":"Dedicated","server_os":"Linux","password":true,"vac":true,"version":"7757534","steam_id":85568392924469994,"keywords":["nocrits","nodmgspread","payload","uncletopia"],"game_id":440,"stv_port":27026,"stv_name":"Uncletopia | New York City | 2 | All Maps | STV","players":[{"user_id":132,"name":"indi","steam_id":76561198045917538,"connected_time":404000000000,"state":"active","ping":71},{"user_id":87,"name":"puppyonline_","steam_id":76561198253574099,"connected_time":3960000000000,"state":"active","ping":76},{"user_id":79,"name":"breesey","steam_id":76561198341658826,"connected_time":4252000000000,"state":"active","ping":40},{"user_id":133,"name":"Back with the milk","steam_id":76561199020105501,"connected_time":386000000000,"state":"active","ping":38},{"user_id":130,"name":"Neoplix","steam_id":76561199012756422,"connected_time":515000000000,"state":"active","ping":57},{"user_id":127,"name":"Walmart Employee","steam_id":76561198840373909,"connected_time":904000000000,"state":"active","ping":95},{"user_id":118,"name":"Grand Piano Tuna","steam_id":76561198135137213,"connected_time":2058000000000,"state":"active","ping":95},{"user_id":33,"name":"The Lelda of Zelda","steam_id":76561199120483390,"connected_time":8118000000000,"state":"active","ping":98},{"user_id":121,"name":"CeigeBirb","steam_id":76561198068538473,"connected_time":1240000000000,"state":"active","ping":92},{"user_id":138,"name":"hehe","steam_id":76561198125913580,"connected_time":23000000000,"state":"active","ping":66},{"user_id":124,"name":"heimdall","steam_id":76561198069380992,"connected_time":1197000000000,"state":"active","ping":99},{"user_id":70,"name":"Candy Sparkles","steam_id":76561198126871264,"connected_time":5720000000000,"state":"active","ping":80},{"user_id":135,"name":"BroBuck3","steam_id":76561198119436987,"connected_time":307000000000,"state":"active","ping":93},{"user_id":57,"name":"tony fantano 2","steam_id":76561197997139225,"connected_time":6341000000000,"state":"active","ping":52},{"user_id":95,"name":"Viokik","steam_id":76561198408846602,"connected_time":3447000000000,"state":"active","ping":61},{"user_id":122,"name":"Whirblewind","steam_id":76561197964722449,"connected_time":1240000000000,"state":"active","ping":82},{"user_id":94,"name":"hot pockets in your area","steam_id":76561198052988988,"connected_time":3470000000000,"state":"active","ping":60},{"user_id":136,"name":"Shock Trooper","steam_id":76561199086731683,"connected_time":302000000000,"state":"active","ping":51},{"user_id":54,"name":"Humble Leader","steam_id":76561198169966346,"connected_time":6497000000000,"state":"active","ping":69},{"user_id":137,"name":"Dark Lord","steam_id":76561198044199150,"connected_time":266000000000,"state":"active","ping":71},{"user_id":120,"name":"Ubadiah","steam_id":76561198329996885,"connected_time":1612000000000,"state":"active","ping":46},{"user_id":126,"name":"Fluffeline","steam_id":76561198352909489,"connected_time":1033000000000,"state":"active","ping":149},{"user_id":117,"name":"Pluto","steam_id":76561198012630802,"connected_time":2147000000000,"state":"active","ping":126},{"user_id":101,"name":"Davy Jones","steam_id":76561198956823243,"connected_time":2820000000000,"state":"active","ping":61}]},{"server_id":15,"name":"Uncletopia | New York City | 3 | Stopwatch Beta","name_short":"nyc-3","host":"nyc-1.us.uncletopia.com","port":27035,"enabled":true,"region":"us-east","cc":"us","latitude":40.73061,"longitude":-73.93524,"reserved":0,"last_update":"0001-01-01T00:00:00Z","name_a2s":"Uncletopia | New York City | 3 | Stopwatch Beta","protocol":17,"map":"cp_snakewater_final1","folder":"tf","game":"Team Fortress","app_id":440,"player_count":0,"max_players":24,"Bots":0,"server_type":"Dedicated","server_os":"Linux","password":true,"vac":true,"version":"7757534","steam_id":85568392924742820,"keywords":["cp","nocrits","nodmgspread","uncletopia"],"game_id":440,"stv_port":27036,"stv_name":"Uncletopia | New York City | 3 | Stopwatch Beta | STV","players":null},{"server_id":16,"name":"Uncletopia | New York City | 4 | Community","name_short":"nyc-4","host":"nyc-1.us.uncletopia.com","port":27045,"enabled":true,"region":"us-east","cc":"us","latitude":40.73061,"longitude":-73.93524,"reserved":0,"last_update":"0001-01-01T00:00:00Z","name_a2s":"Uncletopia | New York City | 4 | Community","protocol":17,"map":"workshop/cp_logjam_rc12.ugc454812035","folder":"tf","game":"Team Fortress","app_id":440,"player_count":0,"max_players":24,"Bots":0,"server_type":"Dedicated","server_os":"Linux","password":true,"vac":true,"version":"7757534","steam_id":85568392924742821,"keywords":["cp","nocrits","nodmgspread","uncletopia"],"game_id":440,"stv_port":27046,"stv_name":"Uncletopia | New York City | 4 | Community | STV","players":null},{"server_id":142,"name":"Uncletopia | São Paulo | 1 | All Maps","name_short":"sao-1","host":"sao-1.br.uncletopia.com","port":27015,"enabled":true,"region":"sa","cc":"br","latitude":-23.533773,"longitude":-46.62529,"reserved":0,"last_update":"0001-01-01T00:00:00Z","name_a2s":"Uncletopia | São Paulo | 1 | All Maps","protocol":17,"map":"koth_cascade","folder":"tf","game":"Team Fortress","app_id":440,"player_count":0,"max_players":24,"Bots":0,"server_type":"Dedicated","server_os":"Linux","password":true,"vac":true,"version":"7757534","steam_id":85568392924469996,"keywords":["cp","nocrits","nodmgspread","uncletopia"],"game_id":440,"stv_port":27016,"stv_name":"Uncletopia | São Paulo | 1 | All Maps | STV","players":null},{"server_id":143,"name":"Uncletopia | São Paulo | 2 | All Maps","name_short":"sao-2","host":"sao-2.br.uncletopia.com","port":27015,"enabled":true,"region":"sa","cc":"br","latitude":-23.533773,"longitude":-46.62529,"reserved":0,"last_update":"0001-01-01T00:00:00Z","name_a2s":"Uncletopia | São Paulo | 2 | All Maps","protocol":17,"map":"koth_viaduct","folder":"tf","game":"Team Fortress","app_id":440,"player_count":0,"max_players":24,"Bots":0,"server_type":"Dedicated","server_os":"Linux","password":true,"vac":true,"version":"7757534","steam_id":85568392924485349,"keywords":["cp","nocrits","nodmgspread","uncletopia"],"game_id":440,"stv_port":27016,"stv_name":"Uncletopia | São Paulo | 2 | All Maps | STV","players":null},{"server_id":7,"name":"Uncletopia | Seattle | 1 | All Maps","name_short":"sea-1","host":"sea-1.us.uncletopia.com","port":27015,"enabled":true,"region":"us-west","cc":"us","latitude":47.608013,"longitude":-122.33517,"reserved":0,"last_update":"0001-01-01T00:00:00Z","name_a2s":"Uncletopia | Seattle | 1 | All Maps","protocol":17,"map":"koth_harvest_final","folder":"tf","game":"Team Fortress","app_id":440,"player_count":23,"max_players":24,"Bots":0,"server_type":"Dedicated","server_os":"Linux","password":true,"vac":true,"version":"7757534","steam_id":85568392924469997,"keywords":["cp","nocrits","nodmgspread","uncletopia"],"game_id":440,"stv_port":27016,"stv_name":"Uncletopia | Seattle | 1 | All Maps | STV","players":[{"user_id":175,"name":"silly jester","steam_id":76561198079609974,"connected_time":1071000000000,"state":"active","ping":79},{"user_id":183,"name":".exe","steam_id":76561198088679081,"connected_time":579000000000,"state":"active","ping":119},{"user_id":117,"name":"Chin","steam_id":76561198247426906,"connected_time":4794000000000,"state":"active","ping":146},{"user_id":120,"name":"Batso","steam_id":76561198106589452,"connected_time":4511000000000,"state":"active","ping":83},{"user_id":179,"name":"cactus eater","steam_id":76561199107499844,"connected_time":685000000000,"state":"active","ping":86},{"user_id":187,"name":"Eosson","steam_id":76561198108642113,"connected_time":339000000000,"state":"active","ping":69},{"user_id":191,"name":"Mirari","steam_id":76561198126889358,"connected_time":175000000000,"state":"active","ping":129},{"user_id":176,"name":"PinHead","steam_id":76561198415627181,"connected_time":1037000000000,"state":"active","ping":132},{"user_id":111,"name":"TheMagicMrWaffle","steam_id":76561198104357256,"connected_time":5198000000000,"state":"active","ping":65},{"user_id":162,"name":"cat fan","steam_id":76561198872316133,"connected_time":2284000000000,"state":"active","ping":61},{"user_id":184,"name":"boneyard","steam_id":76561199080454140,"connected_time":434000000000,"state":"active","ping":120},{"user_id":172,"name":"Mom","steam_id":76561198207936000,"connected_time":1217000000000,"state":"active","ping":59},{"user_id":192,"name":"I've been edging for 8 hours!","steam_id":76561199001748822,"connected_time":94000000000,"state":"active","ping":41},{"user_id":188,"name":"Malevo","steam_id":76561198148606522,"connected_time":320000000000,"state":"active","ping":105},{"user_id":48,"name":"〣dust〣 -she/it-","steam_id":76561198045218909,"connected_time":10307000000000,"state":"active","ping":37},{"user_id":181,"name":"worker","steam_id":76561198039608940,"connected_time":616000000000,"state":"active","ping":57},{"user_id":145,"name":"Kontray","steam_id":76561198294948653,"connected_time":3479000000000,"state":"active","ping":82},{"user_id":178,"name":"Quansen","steam_id":76561198151594550,"connected_time":735000000000,"state":"active","ping":100},{"user_id":190,"name":"Decimus","steam_id":76561198341781527,"connected_time":188000000000,"state":"active","ping":120},{"user_id":193,"name":"money getter","steam_id":76561199065645094,"connected_time":16000000000,"state":"spawning","ping":76},{"user_id":177,"name":"Screwwie","steam_id":76561198006892781,"connected_time":745000000000,"state":"active","ping":53},{"user_id":166,"name":"Brain Tumor","steam_id":76561198805526881,"connected_time":2160000000000,"state":"active","ping":126},{"user_id":174,"name":"isy","steam_id":76561198068017860,"connected_time":1080000000000,"state":"active","ping":83}]},{"server_id":119,"name":"Uncletopia | Seattle | 2 | All Maps","name_short":"sea-2","host":"sea-1.us.uncletopia.com","port":27025,"enabled":true,"region":"us-west","cc":"us","latitude":47.608013,"longitude":-122.33517,"reserved":0,"last_update":"0001-01-01T00:00:00Z","name_a2s":"Uncletopia | Seattle | 2 | All Maps","protocol":17,"map":"pl_barnblitz","folder":"tf","game":"Team Fortress","app_id":440,"player_count":23,"max_players":24,"Bots":0,"server_type":"Dedicated","server_os":"Linux","password":true,"vac":true,"version":"7757534","steam_id":85568392924469998,"keywords":["nocrits","nodmgspread","payload","uncletopia"],"game_id":440,"stv_port":27026,"stv_name":"Uncletopia | Seattle | 2 | All Maps | STV","players":[{"user_id":253,"name":"Rick Assley","steam_id":76561198365019199,"connected_time":1883000000000,"state":"active","ping":115},{"user_id":274,"name":"Flyfriend28","steam_id":76561198131983415,"connected_time":59000000000,"state":"active","ping":74},{"user_id":252,"name":"sara, boylady","steam_id":76561198283462369,"connected_time":1957000000000,"state":"active","ping":85},{"user_id":275,"name":"Coolshroomish","steam_id":76561199109440924,"connected_time":49000000000,"state":"active","ping":45},{"user_id":268,"name":"Mr8bittripper","steam_id":76561198133894229,"connected_time":815000000000,"state":"active","ping":53},{"user_id":160,"name":"Lolxdloldx","steam_id":76561198136887125,"connected_time":8269000000000,"state":"active","ping":131},{"user_id":255,"name":"Midden","steam_id":76561198371214232,"connected_time":1769000000000,"state":"active","ping":131},{"user_id":256,"name":"Alex Narex","steam_id":76561198814364412,"connected_time":1735000000000,"state":"active","ping":78},{"user_id":276,"name":"a team of ants doing their best","steam_id":76561198440145948,"connected_time":20000000000,"state":"spawning","ping":108},{"user_id":257,"name":"DarkForce8","steam_id":76561198853892261,"connected_time":1726000000000,"state":"active","ping":88},{"user_id":248,"name":"Pudsla","steam_id":76561198258974036,"connected_time":2479000000000,"state":"active","ping":65},{"user_id":267,"name":"Shamrock Shake Oct.10.2020 @8pm","steam_id":76561198833313201,"connected_time":846000000000,"state":"active","ping":78},{"user_id":150,"name":"Banzai Blitz","steam_id":76561198196503877,"connected_time":9068000000000,"state":"active","ping":44},{"user_id":277,"name":"neurotic","steam_id":76561198081545480,"connected_time":14000000000,"state":"active","ping":92},{"user_id":263,"name":"prestige worldwide (wide)","steam_id":76561198045655893,"connected_time":1106000000000,"state":"active","ping":105},{"user_id":258,"name":"Ed Sheeran rapping","steam_id":76561198200485827,"connected_time":1679000000000,"state":"active","ping":42},{"user_id":246,"name":"Shark Sandwich","steam_id":76561198025007938,"connected_time":2506000000000,"state":"active","ping":93},{"user_id":269,"name":"TheGreatDong","steam_id":76561198000634178,"connected_time":740000000000,"state":"active","ping":75},{"user_id":260,"name":"Substitute Teacher Mr. Garvey","steam_id":76561198866629645,"connected_time":1643000000000,"state":"active","ping":53},{"user_id":265,"name":"oil","steam_id":76561198099980149,"connected_time":1078000000000,"state":"active","ping":72},{"user_id":271,"name":"NeoJesus","steam_id":76561197973145852,"connected_time":625000000000,"state":"active","ping":111},{"user_id":272,"name":"gamer_hater","steam_id":76561198973306314,"connected_time":622000000000,"state":"active","ping":69},{"user_id":270,"name":"Samus","steam_id":76561198121933439,"connected_time":737000000000,"state":"active","ping":134}]},{"server_id":406,"name":"Uncletopia | Seattle | 3 | Stopwatch Beta","name_short":"sea-3","host":"sea-1.us.uncletopia.com","port":27035,"enabled":true,"region":"us-west","cc":"us","latitude":47.608013,"longitude":-122.33517,"reserved":0,"last_update":"0001-01-01T00:00:00Z","name_a2s":"Uncletopia | Seattle | 3 | Stopwatch Beta","protocol":17,"map":"cp_sunshine","folder":"tf","game":"Team Fortress","app_id":440,"player_count":0,"max_players":24,"Bots":0,"server_type":"Dedicated","server_os":"Linux","password":true,"vac":true,"version":"7757534","steam_id":85568392924515217,"keywords":["cp","nocrits","nodmgspread","uncletopia"],"game_id":440,"stv_port":27036,"stv_name":"Uncletopia | Seattle | 3 | Stopwatch Beta | STV","players":null},{"server_id":17,"name":"Uncletopia | San Francisco | 1 | All Maps","name_short":"sfo-1","host":"sfo-1.us.uncletopia.com","port":27015,"enabled":true,"region":"us-west","cc":"us","latitude":37.77397,"longitude":-122.4313,"reserved":0,"last_update":"0001-01-01T00:00:00Z","name_a2s":"Uncletopia | San Francisco | 1 | All Maps","protocol":17,"map":"cp_process_final","folder":"tf","game":"Team Fortress","app_id":440,"player_count":0,"max_players":24,"Bots":0,"server_type":"Dedicated","server_os":"Linux","password":true,"vac":true,"version":"7757534","steam_id":85568392924469999,"keywords":["cp","nocrits","nodmgspread","uncletopia"],"game_id":440,"stv_port":27016,"stv_name":"Uncletopia | San Francisco | 1 | All Maps | STV","players":null},{"server_id":18,"name":"Uncletopia | San Francisco | 2 | All Maps","name_short":"sfo-2","host":"sfo-1.us.uncletopia.com","port":27025,"enabled":true,"region":"us-west","cc":"us","latitude":37.77397,"longitude":-122.4313,"reserved":0,"last_update":"0001-01-01T00:00:00Z","name_a2s":"Uncletopia | San Francisco | 2 | All Maps","protocol":17,"map":"pl_swiftwater_final1","folder":"tf","game":"Team Fortress","app_id":440,"player_count":0,"max_players":24,"Bots":0,"server_type":"Dedicated","server_os":"Linux","password":true,"vac":true,"version":"7757534","steam_id":85568392924470000,"keywords":["nocrits","nodmgspread","payload","uncletopia"],"game_id":440,"stv_port":27026,"stv_name":"Uncletopia | San Francisco | 2 | All Maps | STV","players":null},{"server_id":19,"name":"Uncletopia | San Francisco | 3 | Stopwatch Beta","name_short":"sfo-3","host":"sfo-1.us.uncletopia.com","port":27035,"enabled":true,"region":"us-west","cc":"us","latitude":37.77397,"longitude":-122.4313,"reserved":0,"last_update":"0001-01-01T00:00:00Z","name_a2s":"Uncletopia | San Francisco | 3 | Stopwatch Beta","protocol":17,"map":"pl_borneo","folder":"tf","game":"Team Fortress","app_id":440,"player_count":0,"max_players":24,"Bots":0,"server_type":"Dedicated","server_os":"Linux","password":true,"vac":true,"version":"7757534","steam_id":85568392924742824,"keywords":["nocrits","nodmgspread","payload","uncletopia"],"game_id":440,"stv_port":27036,"stv_name":"Uncletopia | San Francisco | 3 | Stopwatch Beta | STV","players":null},{"server_id":20,"name":"Uncletopia | San Francisco | 4 | Community","name_short":"sfo-4","host":"sfo-1.us.uncletopia.com","port":27045,"enabled":true,"region":"us-west","cc":"us","latitude":37.77397,"longitude":-122.4313,"reserved":0,"last_update":"0001-01-01T00:00:00Z","name_a2s":"Uncletopia | San Francisco | 4 | Community","protocol":17,"map":"koth_highpass","folder":"tf","game":"Team Fortress","app_id":440,"player_count":0,"max_players":24,"Bots":0,"server_type":"Dedicated","server_os":"Linux","password":true,"vac":true,"version":"7757534","steam_id":85568392924742826,"keywords":["cp","nocrits","nodmgspread","uncletopia"],"game_id":440,"stv_port":27046,"stv_name":"Uncletopia | San Francisco | 4 | Community | STV","players":null},{"server_id":141,"name":"Uncletopia | Sydney | 1 | All Maps","name_short":"syd-1","host":"syd-1.au.uncletopia.com","port":27015,"enabled":true,"region":"au","cc":"au","latitude":-33.865143,"longitude":151.2099,"reserved":0,"last_update":"0001-01-01T00:00:00Z","name_a2s":"Uncletopia | Sydney | 1 | All Maps","protocol":17,"map":"cp_process_final","folder":"tf","game":"Team Fortress","app_id":440,"player_count":0,"max_players":24,"Bots":0,"server_type":"Dedicated","server_os":"Linux","password":true,"vac":true,"version":"7757534","steam_id":85568392924470001,"keywords":["cp","nocrits","nodmgspread","uncletopia"],"game_id":440,"stv_port":27016,"stv_name":"Uncletopia | Sydney | 1 | All Maps | STV","players":null},{"server_id":123,"name":"Uncletopia | Sydney | 2 | All Maps","name_short":"syd-2","host":"syd-1.au.uncletopia.com","port":27025,"enabled":true,"region":"au","cc":"au","latitude":-33.865143,"longitude":151.2099,"reserved":0,"last_update":"0001-01-01T00:00:00Z","name_a2s":"Uncletopia | Sydney | 2 | All Maps","protocol":17,"map":"koth_viaduct","folder":"tf","game":"Team Fortress","app_id":440,"player_count":0,"max_players":24,"Bots":0,"server_type":"Dedicated","server_os":"Linux","password":true,"vac":true,"version":"7757534","steam_id":85568392924470002,"keywords":["cp","nocrits","nodmgspread","uncletopia"],"game_id":440,"stv_port":27026,"stv_name":"Uncletopia | Sydney | 2 | All Maps | STV","players":null},{"server_id":395,"name":"Uncletopia | Sydney | 3 | All Maps","name_short":"syd-3","host":"syd-1.au.uncletopia.com","port":27035,"enabled":true,"region":"au","cc":"au","latitude":-33.865143,"longitude":151.2099,"reserved":0,"last_update":"0001-01-01T00:00:00Z","name_a2s":"Uncletopia | Sydney | 3 | All Maps","protocol":17,"map":"pl_upward","folder":"tf","game":"Team Fortress","app_id":440,"player_count":0,"max_players":24,"Bots":0,"server_type":"Dedicated","server_os":"Linux","password":true,"vac":true,"version":"7757534","steam_id":85568392925194467,"keywords":["nocrits","nodmgspread","payload","uncletopia"],"game_id":440,"stv_port":27036,"stv_name":"Uncletopia | Sydney | 3 | All Maps | STV","players":null},{"server_id":396,"name":"Uncletopia | Sydney | 4 | All Maps","name_short":"syd-4","host":"syd-1.au.uncletopia.com","port":27045,"enabled":true,"region":"au","cc":"au","latitude":-33.865143,"longitude":151.2099,"reserved":0,"last_update":"0001-01-01T00:00:00Z","name_a2s":"Uncletopia | Sydney | 4 | All Maps","protocol":17,"map":"koth_lakeside_final","folder":"tf","game":"Team Fortress","app_id":440,"player_count":0,"max_players":24,"Bots":0,"server_type":"Dedicated","server_os":"Linux","password":true,"vac":true,"version":"7757534","steam_id":85568392925397958,"keywords":["cp","nocrits","nodmgspread","uncletopia"],"game_id":440,"stv_port":27046,"stv_name":"Uncletopia | Sydney | 4 | All Maps | STV","players":null},{"server_id":58,"name":"Uncletopia | Sydney | 5 | Stopwatch Beta","name_short":"syd-5","host":"syd-1.au.uncletopia.com","port":27055,"enabled":true,"region":"au","cc":"au","latitude":-33.865143,"longitude":151.2099,"reserved":0,"last_update":"0001-01-01T00:00:00Z","name_a2s":"Uncletopia | Sydney | 5 | Stopwatch Beta","protocol":17,"map":"koth_highpass","folder":"tf","game":"Team Fortress","app_id":440,"player_count":0,"max_players":24,"Bots":0,"server_type":"Dedicated","server_os":"Linux","password":true,"vac":true,"version":"7757534","steam_id":85568392925397959,"keywords":["cp","nocrits","nodmgspread","uncletopia"],"game_id":440,"stv_port":27056,"stv_name":"Uncletopia | Sydney | 5 | Stopwatch Beta | STV","players":null},{"server_id":59,"name":"Uncletopia | Sydney | 6 | Community","name_short":"syd-6","host":"syd-1.au.uncletopia.com","port":27065,"enabled":true,"region":"au","cc":"au","latitude":-33.865143,"longitude":151.2099,"reserved":0,"last_update":"0001-01-01T00:00:00Z","name_a2s":"Uncletopia | Sydney | 6 | Community","protocol":17,"map":"cp_sunshine","folder":"tf","game":"Team Fortress","app_id":440,"player_count":0,"max_players":24,"Bots":0,"server_type":"Dedicated","server_os":"Linux","password":true,"vac":true,"version":"7757534","steam_id":85568392925397960,"keywords":["cp","nocrits","nodmgspread","uncletopia"],"game_id":440,"stv_port":27066,"stv_name":"Uncletopia | Sydney | 6 | Community | STV","players":null},{"server_id":49,"name":"Uncletopia | Warsaw | 1 | All Maps","name_short":"waw-1","host":"waw-1.pl.uncletopia.com","port":27015,"enabled":true,"region":"eu","cc":"pl","latitude":52.2297,"longitude":21.017532,"reserved":0,"last_update":"0001-01-01T00:00:00Z","name_a2s":"","protocol":0,"map":"","folder":"","game":"","app_id":0,"player_count":0,"max_players":0,"Bots":0,"server_type":"","server_os":"","password":false,"vac":false,"version":"","steam_id":0,"keywords":null,"game_id":0,"stv_port":0,"stv_name":"","players":null},{"server_id":50,"name":"Uncletopia | Warsaw | 2 | All Maps","name_short":"waw-2","host":"waw-1.pl.uncletopia.com","port":27025,"enabled":true,"region":"eu","cc":"pl","latitude":52.2297,"longitude":21.017532,"reserved":0,"last_update":"0001-01-01T00:00:00Z","name_a2s":"Uncletopia | Warsaw | 2 | All Maps","protocol":17,"map":"cp_mountainlab","folder":"tf","game":"Team Fortress","app_id":440,"player_count":0,"max_players":24,"Bots":0,"server_type":"Dedicated","server_os":"Linux","password":true,"vac":true,"version":"7757534","steam_id":85568392925397851,"keywords":["cp","nocrits","nodmgspread","uncletopia"],"game_id":440,"stv_port":27026,"stv_name":"Uncletopia | Warsaw | 2 | All Maps | STV","players":null},{"server_id":51,"name":"Uncletopia | Warsaw | 3 | All Maps","name_short":"waw-3","host":"waw-1.pl.uncletopia.com","port":27035,"enabled":true,"region":"eu","cc":"pl","latitude":52.2297,"longitude":21.017532,"reserved":0,"last_update":"0001-01-01T00:00:00Z","name_a2s":"Uncletopia | Warsaw | 3 | All Maps","protocol":17,"map":"cp_snakewater_final1","folder":"tf","game":"Team Fortress","app_id":440,"player_count":0,"max_players":24,"Bots":0,"server_type":"Dedicated","server_os":"Linux","password":true,"vac":true,"version":"7757534","steam_id":85568392925397852,"keywords":["cp","nocrits","nodmgspread","uncletopia"],"game_id":440,"stv_port":27036,"stv_name":"Uncletopia | Warsaw | 3 | All Maps | STV","players":null},{"server_id":52,"name":"Uncletopia | Warsaw | 4 | All Maps","name_short":"waw-4","host":"waw-1.pl.uncletopia.com","port":27045,"enabled":true,"region":"eu","cc":"pl","latitude":52.2297,"longitude":21.017532,"reserved":0,"last_update":"0001-01-01T00:00:00Z","name_a2s":"Uncletopia | Warsaw | 4 | All Maps","protocol":17,"map":"pl_borneo","folder":"tf","game":"Team Fortress","app_id":440,"player_count":0,"max_players":24,"Bots":0,"server_type":"Dedicated","server_os":"Linux","password":true,"vac":true,"version":"7757534","steam_id":85568392925397853,"keywords":["nocrits","nodmgspread","payload","uncletopia"],"game_id":440,"stv_port":27046,"stv_name":"Uncletopia | Warsaw | 4 | All Maps | STV","players":null},{"server_id":53,"name":"Uncletopia | Warsaw | 5 | Stopwatch Beta","name_short":"waw-5","host":"waw-1.pl.uncletopia.com","port":27055,"enabled":true,"region":"eu","cc":"pl","latitude":52.2297,"longitude":21.017532,"reserved":0,"last_update":"0001-01-01T00:00:00Z","name_a2s":"Uncletopia | Warsaw | 5 | Stopwatch Beta","protocol":17,"map":"pl_barnblitz","folder":"tf","game":"Team Fortress","app_id":440,"player_count":0,"max_players":24,"Bots":0,"server_type":"Dedicated","server_os":"Linux","password":true,"vac":true,"version":"7757534","steam_id":85568392925397854,"keywords":["nocrits","nodmgspread","payload","uncletopia"],"game_id":440,"stv_port":27056,"stv_name":"Uncletopia | Warsaw | 5 | Stopwatch Beta | STV","players":null},{"server_id":54,"name":"Uncletopia | Warsaw | 6 | Community","name_short":"waw-6","host":"waw-1.pl.uncletopia.com","port":27065,"enabled":true,"region":"eu","cc":"pl","latitude":52.2297,"longitude":21.017532,"reserved":0,"last_update":"0001-01-01T00:00:00Z","name_a2s":"Uncletopia | Warsaw | 6 | Community","protocol":17,"map":"workshop/koth_trenchfoot_b1a.ugc731436616","folder":"tf","game":"Team Fortress","app_id":440,"player_count":0,"max_players":24,"Bots":0,"server_type":"Dedicated","server_os":"Linux","password":true,"vac":true,"version":"7757534","steam_id":85568392925397856,"keywords":["cp","nocrits","nodmgspread","uncletopia"],"game_id":440,"stv_port":27066,"stv_name":"Uncletopia | Warsaw | 6 | Community | STV","players":null}]}