{"status":true,"message":"","result":[{"server_id":9,"name":"Uncletopia | Atlanta | 1 | All Maps","name_short":"atl-1","host":"atl-1.us.uncletopia.com","port":27015,"enabled":true,"region":"us-east","cc":"us","latitude":33.753746,"longitude":-84.38633,"reserved":0,"last_update":"0001-01-01T00:00:00Z","name_a2s":"Uncletopia | Atlanta | 1 | All Maps","protocol":17,"map":"pl_swiftwater_final1","folder":"tf","game":"Team Fortress","app_id":440,"player_count":24,"max_players":24,"Bots":0,"server_type":"Dedicated","server_os":"Linux","password":true,"vac":true,"version":"7757534","steam_id":85568392924469982,"keywords":["nocrits","nodmgspread","payload","uncletopia"],"game_id":440,"stv_port":27016,"stv_name":"Uncletopia | Atlanta | 1 | All Maps | STV","players":[{"user_id":115,"name":"lu","steam_id":76561198080731872,"connected_time":1744000000000,"state":"active","ping":74},{"user_id":124,"name":"fudo myoo","steam_id":76561198456258164,"connected_time":564000000000,"state":"active","ping":52},{"user_id":137,"name":"SleepyT","steam_id":76561198042272576,"connected_time":271000000000,"state":"active","ping":59},{"user_id":110,"name":"majormace64","steam_id":76561198045078098,"connected_time":2699000000000,"state":"active","ping":99},{"user_id":94,"name":"violet.gb","steam_id":76561198248461754,"connected_time":3814000000000,"state":"active","ping":106},{"user_id":139,"name":"a finger named kid","steam_id":76561198170928310,"connected_time":231000000000,"state":"active","ping":64},{"user_id":128,"name":"M4xW3LL","steam_id":76561198828562719,"connected_time":484000000000,"state":"active","ping":62},{"user_id":44,"name":"owl","steam_id":76561198105374054,"connected_time":7752000000000,"state":"active","ping":119},{"user_id":129,"name":"128gb sd card","steam_id":76561198043636749,"connected_time":441000000000,"state":"active","ping":106},{"user_id":138,"name":"SDL","steam_id":76561198859719985,"connected_time":268000000000,"state":"active","ping":92},{"user_id":133,"name":"bojack from the show bojack hor","steam_id":76561198053006712,"connected_time":353000000000,"state":"active","ping":64},{"user_id":119,"name":"Skinny Pete","steam_id":76561198801608576,"connected_time":882000000000,"state":"active","ping":73},{"user_id":98,"name":"mobe","steam_id":76561198121633820,"connected_time":3709000000000,"state":"active","ping":115},{"user_id":105,"name":"Prof. Eggnog","steam_id":76561198193389166,"connected_time":3023000000000,"state":"active","ping":122},{"user_id":113,"name":"Huntiairi","steam_id":76561198065935917,"connected_time":2132000000000,"state":"active","ping":52},{"user_id":122,"name":"Mr. Rogers","steam_id":76561198296190438,"connected_time":759000000000,"state":"active","ping":61},{"user_id":112,"name":"indi","steam_id":76561198045917538,"connected_time":2529000000000,"state":"active","ping":66},{"user_id":131,"name":"'LaxAttack","steam_id":76561198044129346,"connected_time":420000000000,"state":"active","ping":64},{"user_id":116,"name":"Cirno","steam_id":76561198283602302,"connected_time":1725000000000,"state":"active","ping":45},{"user_id":135,"name":"Wrench","steam_id":76561198055879094,"connected_time":318000000000,"state":"active","ping":54},{"user_id":103,"name":"crunchy and spicy wasp snack","steam_id":76561199322728703,"connected_time":3626000000000,"state":"active","ping":73},{"user_id":136,"name":"Futa Lover","steam_id":76561198056775795,"connected_time":314000000000,"state":"active","ping":60},{"user_id":114,"name":"Bali","steam_id":76561198038693845,"connected_time":1882000000000,"state":"active","ping":69},{"user_id":107,"name":"barbara","steam_id":76561198072417792,"connected_time":2888000000000,"state":"active","ping":88}]},{"server_id":400,"name":"Uncletopia | Atlanta | 3 | Community","name_short":"atl-3","host":"atl-1.us.uncletopia.com","port":27035,"enabled":true,"region":"us-east","cc":"us","latitude":33.753746,"longitude":-84.38633,"reserved":0,"last_update":"0001-01-01T00:00:00Z","name_a2s":"Uncletopia | Atlanta | 3 | Community","protocol":17,"map":"workshop/pl_badwater_pro_v12.ugc2142942074","folder":"tf","game":"Team Fortress","app_id":440,"player_count":0,"max_players":24,"Bots":0,"server_type":"Dedicated","server_os":"Linux","password":true,"vac":true,"version":"7757534","steam_id":85568392924515187,"keywords":["nocrits","nodmgspread","payload","uncletopia"],"game_id":440,"stv_port":27036,"stv_name":"Uncletopia | Atlanta | 3 | Community | STV","players":null},{"server_id":401,"name":"Uncletopia | Atlanta | 4 | No Payload","name_short":"atl-4","host":"atl-1.us.uncletopia.com","port":27045,"enabled":true,"region":"us-east","cc":"us","latitude":33.753746,"longitude":-84.38633,"reserved":0,"last_update":"0001-01-01T00:00:00Z","name_a2s":"","protocol":0,"map":"","folder":"","game":"","app_id":0,"player_count":0,"max_players":0,"Bots":0,"server_type":"","server_os":"","password":false,"vac":false,"version":"","steam_id":0,"keywords":null,"game_id":0,"stv_port":0,"stv_name":"","players":null},{"server_id":2,"name":"Uncletopia | Chicago | 1 | All Maps","name_short":"chi-1","host":"chi-1.us.uncletopia.com","port":27015,"enabled":true,"region":"us-central","cc":"us","latitude":41.881832,"longitude":-87.62318,"reserved":0,"last_update":"0001-01-01T00:00:00Z","name_a2s":"Uncletopia | Chicago | 1 | All Maps","protocol":17,"map":"pl_swiftwater_final1","folder":"tf","game":"Team Fortress","app_id":440,"player_count":0,"max_players":24,"Bots":0,"server_type":"Dedicated","server_os":"Linux","password":true,"vac":true,"version":"7757534","steam_id":85568392924469984,"keywords":["nocrits","nodmgspread","payload","uncletopia"],"game_id":440,"stv_port":27016,"stv_name":"Uncletopia | Chicago | 1 | All Maps | STV","players":null},{"server_id":106,"name":"Uncletopia | Chicago | 2 | All Maps","name_short":"chi-2","host":"chi-1.us.uncletopia.com","port":27025,"enabled":true,"region":"us-central","cc":"us","latitude":41.881832,"longitude":-87.62318,"reserved":0,"last_update":"0001-01-01T00:00:00Z","name_a2s":"Uncletopia | Chicago | 2 | All Maps","protocol":17,"map":"cp_process_final","folder":"tf","game":"Team Fortress","app_id":440,"player_count":0,"max_players":24,"Bots":0,"server_type":"Dedicated","server_os":"Linux","password":true,"vac":true,"version":"7757534","steam_id":85568392924469985,"keywords":["cp","nocrits","nodmgspread","uncletopia"],"game_id":440,"stv_port":27026,"stv_name":"Uncletopia | Chicago | 2 | All Maps | STV","players":null},{"server_id":402,"name":"Uncletopia | Chicago | 3 | All Maps","name_short":"chi-3","host":"chi-1.us.uncletopia.com","port":27035,"enabled":true,"region":"us-central","cc":"us","latitude":41.881832,"longitude":-87.62318,"reserved":0,"last_update":"0001-01-01T00:00:00Z","name_a2s":"Uncletopia | Chicago | 3 | All Maps","protocol":17,"map":"koth_cascade","folder":"tf","game":"Team Fortress","app_id":440,"player_count":0,"max_players":24,"Bots":0,"server_type":"Dedicated","server_os":"Linux","password":true,"vac":true,"version":"7757534","steam_id":85568392924515191,"keywords":["cp","nocrits","nodmgspread","uncletopia"],"game_id":440,"stv_port":27036,"stv_name":"Uncletopia | Chicago | 3 | All Maps | STV","players":null},{"server_id":403,"name":"Uncletopia | Chicago | 4 | All Maps","name_short":"chi-4","host":"chi-1.us.uncletopia.com","port":27045,"enabled":true,"region":"us-central","cc":"us","latitude":41.881832,"longitude":-87.62318,"reserved":0,"last_update":"0001-01-01T00:00:00Z","name_a2s":"Uncletopia | Chicago | 4 | All Maps","protocol":17,"map":"koth_sawmill","folder":"tf","game":"Team Fortress","app_id":440,"player_count":23,"max_players":24,"Bots":0,"server_type":"Dedicated","server_os":"Linux","password":true,"vac":true,"version":"7757534","steam_id":85568392924515193,"keywords":["cp","nocrits","nodmgspread","uncletopia"],"game_id":440,"stv_port":27046,"stv_name":"Uncletopia | Chicago | 4 | All Maps | STV","players":[{"user_id":274,"name":"Anthony","steam_id":76561199439030933,"connected_time":1336000000000,"state":"active","ping":81},{"user_id":208,"name":"Saggy","steam_id":76561198166706479,"connected_time":6062000000000,"state":"active","ping":68},{"user_id":260,"name":"Uso","steam_id":76561198012093238,"connected_time":2894000000000,"state":"active","ping":50},{"user_id":275,"name":"VixianUwU","steam_id":76561198948815060,"connected_time":1329000000000,"state":"active","ping":86},{"user_id":241,"name":"Hylic","steam_id":76561199051314589,"connected_time":3398000000000,"state":"active","ping":60},{"user_id":281,"name":"cyro","steam_id":76561198146241989,"connected_time":872000000000,"state":"active","ping":72},{"user_id":288,"name":"Mister36","steam_id":76561198019132100,"connected_time":228000000000,"state":"active","ping":46},{"user_id":251,"name":"Drileyx","steam_id":76561197989545404,"connected_time":3118000000000,"state":"active","ping":83},{"user_id":269,"name":"deech","steam_id":76561198066429444,"connected_time":2069000000000,"state":"active","ping":60},{"user_id":282,"name":"Mister Frank","steam_id":76561198161473385,"connected_time":821000000000,"state":"active","ping":59},{"user_id":284,"name":"Ansuz();","steam_id":76561198260732135,"connected_time":777000000000,"state":"active","ping":69},{"user_id":246,"name":"MoonlightDragon","steam_id":76561198124808865,"connected_time":3269000000000,"state":"active","ping":76},{"user_id":272,"name":"Æğis","steam_id":76561198105421633,"connected_time":1951000000000,"state":"active","ping":71},{"user_id":270,"name":"Ejaculation Zach","steam_id":76561198203765200,"connected_time":2066000000000,"state":"active","ping":57},{"user_id":280,"name":"fallguy49","steam_id":76561198293094802,"connected_time":1193000000000,"state":"active","ping":72},{"user_id":287,"name":"Emperor of the Universe","steam_id":76561199076038487,"connected_time":246000000000,"state":"active","ping":78},{"user_id":271,"name":"still bad at video games","steam_id":76561198328675913,"connected_time":2061000000000,"state":"active","ping":110},{"user_id":286,"name":"Owen From Total Drama","steam_id":76561198333128330,"connected_time":312000000000,"state":"active","ping":37},{"user_id":289,"name":"OrangeSodaMachine","steam_id":76561198079230156,"connected_time":172000000000,"state":"active","ping":128},{"user_id":236,"name":"rustyorion","steam_id":76561198439186347,"connected_time":4063000000000,"state":"active","ping":108},{"user_id":285,"name":"banana man","steam_id":76561199385170644,"connected_time":754000000000,"state":"active","ping":59},{"user_id":273,"name":"mel","steam_id":76561198215559840,"connected_time":1880000000000,"state":"active","ping":60},{"user_id":262,"name":"AdmiralSharpie","steam_id":76561198066394239,"connected_time":2753000000000,"state":"active","ping":73}]},{"server_id":36,"name":"Uncletopia | Chicago | 5 | All Maps","name_short":"chi-5","host":"chi-2.us.uncletopia.com","port":27015,"enabled":true,"region":"us-central","cc":"us","latitude":41.881832,"longitude":-87.62318,"reserved":0,"last_update":"0001-01-01T00:00:00Z","name_a2s":"Uncletopia | Chicago | 5 | All Maps","protocol":17,"map":"koth_lakeside_final","folder":"tf","game":"Team Fortress","app_id":440,"player_count":0,"max_players":24,"Bots":0,"server_type":"Dedicated","server_os":"Linux","password":true,"vac":true,"version":"7757534","steam_id":85568392924866362,"keywords":["cp","nocrits","nodmgspread","uncletopia"],"game_id":440,"stv_port":27016,"stv_name":"Uncletopia | Chicago | 5 | All Maps | STV","players":null},{"server_id":37,"name":"Uncletopia | Chicago | 6 | All Maps","name_short":"chi-6","host":"chi-2.us.uncletopia.com","port":27025,"enabled":true,"region":"us-central","cc":"us","latitude":41.881832,"longitude":-87.62318,"reserved":0,"last_update":"0001-01-01T00:00:00Z","name_a2s":"Uncletopia | Chicago | 6 | All Maps","protocol":17,"map":"cp_altitude","folder":"tf","game":"Team Fortress","app_id":440,"player_count":0,"max_players":24,"Bots":0,"server_type":"Dedicated","server_os":"Linux","password":true,"vac":true,"version":"7757534","steam_id":85568392924866363,"keywords":["cp","nocrits","nodmgspread","uncletopia"],"game_id":440,"stv_port":27026,"stv_name":"Uncletopia | Chicago | 6 | All Maps | STV","players":null},{"server_id":38,"name":"Uncletopia | Chicago | 7 | Stopwatch Beta","name_short":"chi-7","host":"chi-2.us.uncletopia.com","port":27035,"enabled":true,"region":"us-central","cc":"us","latitude":41.881832,"longitude":-87.62318,"reserved":0,"last_update":"0001-01-01T00:00:00Z","name_a2s":"Uncletopia | Chicago | 7 | Stopwatch Beta","protocol":17,"map":"koth_viaduct","folder":"tf","game":"Team Fortress","app_id":440,"player_count":0,"max_players":24,"Bots":0,"server_type":"Dedicated","server_os":"Linux","password":true,"vac":true,"version":"7757534","steam_id":85568392924866364,"keywords":["cp","nocrits","nodmgspread","uncletopia"],"game_id":440,"stv_port":27036,"stv_name":"Uncletopia | Chicago | 7 | Stopwatch Beta | STV","players":null},{"server_id":39,"name":"Uncletopia | Chicago | 8 | Community","name_short":"chi-8","host":"chi-2.us.uncletopia.com","port":27045,"enabled":true,"region":"us-central","cc":"us","latitude":41.881832,"longitude":-87.62318,"reserved":0,"last_update":"0001-01-01T00:00:00Z","name_a2s":"Uncletopia | Chicago | 8 | Community","protocol":17,"map":"koth_lakeside_final","folder":"tf","game":"Team Fortress","app_id":440,"player_count":0,"max_players":24,"Bots":0,"server_type":"Dedicated","server_os":"Linux","password":true,"vac":true,"version":"7757534","steam_id":85568392924866365,"keywords":["cp","nocrits","nodmgspread","uncletopia"],"game_id":440,"stv_port":27046,"stv_name":"Uncletopia | Chicago | 8 | Community | STV","players":null},{"server_id":8,"name":"Uncletopia | Dallas | 1 | All Maps","name_short":"dal-1","host":"dal-1.us.uncletopia.com","port":27015,"enabled":true,"region":"us-central","cc":"us","latitude":32.779167,"longitude":-96.80889,"reserved":0,"last_update":"0001-01-01T00:00:00Z","name_a2s":"Uncletopia | Dallas | 1 | All Maps","protocol":17,"map":"koth_cascade","folder":"tf","game":"Team Fortress","app_id":440,"player_count":8,"max_players":24,"Bots":0,"server_type":"Dedicated","server_os":"Linux","password":true,"vac":true,"version":"7757534","steam_id":85568392924469986,"keywords":["cp","nocrits","nodmgspread","uncletopia"],"game_id":440,"stv_port":27016,"stv_name":"Uncletopia | Dallas | 1 | All Maps | STV","players":[{"user_id":27,"name":"Smack Ass","steam_id":76561198065902690,"connected_time":22000000000,"state":"spawning","ping":110},{"user_id":16,"name":"average engineer main","steam_id":76561199047645218,"connected_time":1023000000000,"state":"active","ping":52},{"user_id":23,"name":"Fart Slave","steam_id":76561198931130520,"connected_time":393000000000,"state":"active","ping":69},{"user_id":24,"name":"Random User","steam_id":76561199081044980,"connected_time":349000000000,"state":"active","ping":85},{"user_id":14,"name":"ThatFrog","steam_id":76561198437198904,"connected_time":1213000000000,"state":"active","ping":73},{"user_id":25,"name":"icm2008","steam_id":76561199277408836,"connected_time":305000000000,"state":"active","ping":85},{"user_id":20,"name":"BIGMONEYZONE","steam_id":76561199160422863,"connected_time":742000000000,"state":"active","ping":149},{"user_id":26,"name":"freak ya nature","steam_id":76561198310502474,"connected_time":202000000000,"state":"active","ping":62}]},{"server_id":108,"name":"Uncletopia | Dallas | 2 | All Maps","name_short":"dal-2","host":"dal-1.us.uncletopia.com","port":27025,"enabled":true,"region":"us-central","cc":"us","latitude":32.779167,"longitude":-96.80889,"reserved":0,"last_update":"0001-01-01T00:00:00Z","name_a2s":"Uncletopia | Dallas | 2 | All Maps","protocol":17,"map":"pl_snowycoast","folder":"tf","game":"Team Fortress","app_id":440,"player_count":0,"max_players":24,"Bots":0,"server_type":"Dedicated","server_os":"Linux","password":true,"vac":true,"version":"7757534","steam_id":85568392924469988,"keywords":["nocrits","nodmgspread","payload","uncletopia"],"game_id":440,"stv_port":27026,"stv_name":"Uncletopia | Dallas | 2 | All Maps | STV","players":null},{"server_id":5,"name":"Uncletopia | Frankfurt | 1 | All Maps","name_short":"frk-1","host":"frk-1.de.uncletopia.com","port":27015,"enabled":true,"region":"eu","cc":"de","latitude":50.110924,"longitude":8.682127,"reserved":0,"last_update":"0001-01-01T00:00:00Z","name_a2s":"Uncletopia | Frankfurt | 1 | All Maps","protocol":17,"map":"cp_altitude","folder":"tf","game":"Team Fortress","app_id":440,"player_count":0,"max_players":24,"Bots":0,"server_type":"Dedicated","server_os":"Linux","password":true,"vac":true,"version":"7757534","steam_id":85568392924469989,"keywords":["cp","nocrits","nodmgspread","uncletopia"],"game_id":440,"stv_port":27016,"stv_name":"Uncletopia | Frankfurt | 1 | All Maps | STV","players":null},{"server_id":110,"name":"Uncletopia | Frankfurt | 2 | All Maps","name_short":"frk-2","host":"frk-1.de.uncletopia.com","port":27025,"enabled":true,"region":"eu","cc":"de","latitude":50.110924,"longitude":8.682127,"reserved":0,"last_update":"0001-01-01T00:00:00Z","name_a2s":"Uncletopia | Frankfurt | 2 | All Maps","protocol":17,"map":"cp_mountainlab","folder":"tf","game":"Team Fortress","app_id":440,"player_count":0,"max_players":24,"Bots":0,"server_type":"Dedicated","server_os":"Linux","password":true,"vac":true,"version":"7757534","steam_id":85568392924469990,"keywords":["cp","nocrits","nodmgspread","uncletopia"],"game_id":440,"stv_port":27026,"stv_name":"Uncletopia | Frankfurt | 2 | All Maps | STV","players":null},{"server_id":308,"name":"Uncletopia | Frankfurt | 3 | All Maps","name_short":"frk-3","host":"frk-1.de.uncletopia.com","port":27035,"enabled":true,"region":"eu","cc":"de","latitude":50.110924,"longitude":8.682127,"reserved":0,"last_update":"0001-01-01T00:00:00Z","name_a2s":"Uncletopia | Frankfurt | 3 | All Maps","protocol":17,"map":"pl_badwater","folder":"tf","game":"Team Fortress","app_id":440,"player_count":24,"max_players":24,"Bots":0,"server_type":"Dedicated","server_os":"Linux","password":true,"vac":true,"version":"7757534","steam_id":85568392924504274,"keywords":["nocrits","nodmgspread","payload","uncletopia"],"game_id":440,"stv_port":27036,"stv_name":"Uncletopia | Frankfurt | 3 | All Maps | STV","players":[{"user_id":240,"name":"deva uor","steam_id":76561198168251125,"connected_time":785000000000,"state":"active","ping":69},{"user_id":237,"name":"Kira","steam_id":76561198204168909,"connected_time":1001000000000,"state":"active","ping":120},{"user_id":242,"name":"festry","steam_id":76561198873296090,"connected_time":658000000000,"state":"active","ping":63},{"user_id":238,"name":"upward enjoyer","steam_id":76561198055389492,"connected_time":955000000000,"state":"active","ping":50},{"user_id":234,"name":"LoliCatgirls.swf","steam_id":76561198055900955,"connected_time":1321000000000,"state":"active","ping":65},{"user_id":245,"name":"decommandpro","steam_id":76561198971647041,"connected_time":272000000000,"state":"active","ping":79},{"user_id":221,"name":"Qwichi","steam_id":76561198264893430,"connected_time":2570000000000,"state":"active","ping":72},{"user_id":241,"name":"aura","steam_id":76561197991687793,"connected_time":774000000000,"state":"active","ping":71},{"user_id":209,"name":"on1on (pickled)","steam_id":76561197995304137,"connected_time":3310000000000,"state":"active","ping":58},{"user_id":170,"name":"pepper","steam_id":76561198059782462,"connected_time":5812000000000,"state":"active","ping":47},{"user_id":229,"name":"Deacon Dracul","steam_id":76561198046880663,"connected_time":2010000000000,"state":"active","ping":98},{"user_id":231,"name":"dirty","steam_id":76561197995572935,"connected_time":1384000000000,"state":"active","ping":81},{"user_id":250,"name":"steriml (swe)","steam_id":76561198109984023,"connected_time":170000000000,"state":"active","ping":99},{"user_id":230,"name":"MAKENTAKEN","steam_id":76561199127359587,"connected_time":1898000000000,"state":"active","ping":87},{"user_id":246,"name":"HOT LOIS","steam_id":76561198302623594,"connected_time":225000000000,"state":"spawning","ping":98},{"user_id":190,"name":"smrk","steam_id":76561198066926098,"connected_time":4397000000000,"state":"active","ping":60},{"user_id":150,"name":"The real Postal Dude","steam_id":76561198799097492,"connected_time":8025000000000,"state":"active","ping":56},{"user_id":251,"name":"mr paladin","steam_id":76561198267612598,"connected_time":164000000000,"state":"active","ping":76},{"user_id":247,"name":"Trebox78","steam_id":76561198071963357,"connected_time":212000000000,"state":"active","ping":81},{"user_id":216,"name":"AleXandriX","steam_id":76561198035203950,"connected_time":2680000000000,"state":"active","ping":61},{"user_id":163,"name":"ÃNVS DRÃNVS","steam_id":76561198138733015,"connected_time":6815000000000,"state":"active","ping":156},{"user_id":228,"name":"Art","steam_id":76561198823514629,"connected_time":2092000000000,"state":"active","ping":117},{"user_id":211,"name":"Edgy Name","steam_id":76561198378270820,"connected_time":3019000000000,"state":"active","ping":69},{"user_id":249,"name":"wepon | google.com","steam_id":76561198097789669,"connected_time":182000000000,"state":"active","ping":61}]},{"server_id":309,"name":"Uncletopia | Frankfurt | 4 | All Maps","name_short":"frk-4","host":"frk-1.de.uncletopia.com","port":27045,"enabled":true,"region":"eu","cc":"de","latitude":50.110924,"longitude":8.682127,"reserved":0,"last_update":"0001-01-01T00:00:00Z","name_a2s":"Uncletopia | Frankfurt | 4 | All Maps","protocol":17,"map":"pl_barnblitz","folder":"tf","game":"Team Fortress","app_id":440,"player_count":24,"max_players":24,"Bots":0,"server_type":"Dedicated","server_os":"Linux","password":true,"vac":true,"version":"7757534","steam_id":85568392924504275,"keywords":["nocrits","nodmgspread","payload","uncletopia"],"game_id":440,"stv_port":27046,"stv_name":"Uncletopia | Frankfurt | 4 | All Maps | STV","players":[{"user_id":128,"name":"Jara.","steam_id":76561197992207165,"connected_time":280000000000,"state":"active","ping":97},{"user_id":129,"name":"kbbq","steam_id":76561198346638308,"connected_time":277000000000,"state":"active","ping":59},{"user_id":131,"name":"Tywhip","steam_id":76561199207545191,"connected_time":220000000000,"state":"active","ping":57},{"user_id":116,"name":"john fortress","steam_id":76561198013237629,"connected_time":1544000000000,"state":"active","ping":100},{"user_id":118,"name":"jones","steam_id":76561198044434971,"connected_time":1536000000000,"state":"active","ping":58},{"user_id":112,"name":"Miles","steam_id":76561198084891833,"connected_time":2246000000000,"state":"active","ping":60},{"user_id":93,"name":"LOBZIK","steam_id":76561198114830120,"connected_time":3116000000000,"state":"active","ping":75},{"user_id":132,"name":"Pingutaro","steam_id":76561198112803718,"connected_time":134000000000,"state":"active","ping":61},{"user_id":102,"name":"hirmunen rölli","steam_id":76561198283846056,"connected_time":2737000000000,"state":"active","ping":60},{"user_id":130,"name":"System","steam_id":76561199442503973,"connected_time":276000000000,"state":"active","ping":35},{"user_id":31,"name":"Mozza","steam_id":76561198035915570,"connected_time":7122000000000,"state":"active","ping":80},{"user_id":133,"name":"2D","steam_id":76561199113659141,"connected_time":95000000000,"state":"active","ping":129},{"user_id":123,"name":"Lyell","steam_id":76561198350329389,"connected_time":1178000000000,"state":"active","ping":80},{"user_id":134,"name":"big hoops","steam_id":76561198004703799,"connected_time":39000000000,"state":"active","ping":45},{"user_id":65,"name":"quickfast","steam_id":76561199438900919,"connected_time":5143000000000,"state":"active","ping":54},{"user_id":113,"name":"Arcader","steam_id":76561198109860110,"connected_time":2168000000000,"state":"active","ping":56},{"user_id":121,"name":"Dor_atar","steam_id":76561198973980542,"connected_time":1289000000000,"state":"active","ping":70},{"user_id":119,"name":"wxyz kapıcı izzet","steam_id":76561198241873438,"connected_time":1534000000000,"state":"active","ping":77},{"user_id":89,"name":"triangle","steam_id":76561198046838168,"connected_time":3376000000000,"state":"active","ping":48},{"user_id":127,"name":"Laki","steam_id":76561198126078953,"connected_time":648000000000,"state":"active","ping":110},{"user_id":125,"name":"Jon (alt)","steam_id":76561199380849468,"connected_time":789000000000,"state":"active","ping":67},{"user_id":109,"name":"stonebum","steam_id":76561198057004606,"connected_time":2366000000000,"state":"active","ping":60},{"user_id":122,"name":"cinny","steam_id":76561198832112629,"connected_time":1272000000000,"state":"active","ping":84},{"user_id":111,"name":"EdSuedi","steam_id":76561199387956486,"connected_time":2291000000000,"state":"active","ping":51}]},{"server_id":310,"name":"Uncletopia | Frankfurt | 5 | All Maps","name_short":"frk-5","host":"frk-1.de.uncletopia.com","port":27055,"enabled":true,"region":"eu","cc":"de","latitude":50.110924,"longitude":8.682127,"reserved":0,"last_update":"0001-01-01T00:00:00Z","name_a2s":"Uncletopia | Frankfurt | 5 | All Maps","protocol":17,"map":"cp_dustbowl","folder":"tf","game":"Team Fortress","app_id":440,"player_count":24,"max_players":24,"Bots":0,"server_type":"Dedicated","server_os":"Linux","password":true,"vac":true,"version":"7757534","steam_id":85568392924504277,"keywords":["cp","nocrits","nodmgspread","uncletopia"],"game_id":440,"stv_port":27056,"stv_name":"Uncletopia | Frankfurt | 5 | All Maps | STV","players":[{"user_id":161,"name":"Scottish Resistance","steam_id":76561198071360214,"connected_time":1496000000000,"state":"active","ping":45},{"user_id":159,"name":"Soulman25 (FIN)","steam_id":76561198103611974,"connected_time":1544000000000,"state":"active","ping":97},{"user_id":180,"name":"Musicano","steam_id":76561198114541088,"connected_time":595000000000,"state":"active","ping":98},{"user_id":185,"name":"Farmercy","steam_id":76561198000038039,"connected_time":236000000000,"state":"active","ping":55},{"user_id":160,"name":"strahphic","steam_id":76561199279295106,"connected_time":1517000000000,"state":"active","ping":112},{"user_id":186,"name":"Vi","steam_id":76561198036546142,"connected_time":188000000000,"state":"active","ping":50},{"user_id":135,"name":"TJ1212","steam_id":76561199013575313,"connected_time":3121000000000,"state":"active","ping":66},{"user_id":136,"name":"Foreskin Gamer","steam_id":76561198283106341,"connected_time":3112000000000,"state":"active","ping":58},{"user_id":119,"name":"_Cpt.Decoder_","steam_id":76561198236937010,"connected_time":4645000000000,"state":"active","ping":87},{"user_id":181,"name":"Average meme enjoyer","steam_id":76561199087566663,"connected_time":535000000000,"state":"active","ping":83},{"user_id":176,"name":"Mikeshowsha","steam_id":76561199114014127,"connected_time":756000000000,"state":"active","ping":74},{"user_id":187,"name":"Kudos","steam_id":76561198073079344,"connected_time":170000000000,"state":"active","ping":85},{"user_id":172,"name":"S_ApplePie","steam_id":76561198106947669,"connected_time":1047000000000,"state":"active","ping":84},{"user_id":156,"name":"FreeMarket","steam_id":76561198029916416,"connected_time":1577000000000,"state":"active","ping":61},{"user_id":146,"name":"halo 3 rat","steam_id":76561198439007717,"connected_time":2621000000000,"state":"active","ping":81},{"user_id":165,"name":"Magirby","steam_id":76561198818777390,"connected_time":1423000000000,"state":"active","ping":112},{"user_id":166,"name":"roblan11","steam_id":76561198066839258,"connected_time":1410000000000,"state":"active","ping":47},{"user_id":171,"name":"ChaosMaster","steam_id":76561198360983155,"connected_time":1255000000000,"state":"active","ping":80},{"user_id":182,"name":"i5","steam_id":76561198212702751,"connected_time":530000000000,"state":"active","ping":86},{"user_id":175,"name":"just_adhenz1284 #SaveTF2","steam_id":76561198293654671,"connected_time":834000000000,"state":"active","ping":156},{"user_id":151,"name":"Caliban","steam_id":76561197999696839,"connected_time":2185000000000,"state":"active","ping":102},{"user_id":144,"name":"gwałt wątroby 0,7 i 5 piw","steam_id":76561199038973360,"connected_time":2962000000000,"state":"active","ping":107},{"user_id":179,"name":"Ach Wheesht","steam_id":76561197996993222,"connected_time":659000000000,"state":"active","ping":60},{"user_id":184,"name":"SantiTzePug","steam_id":76561199049615996,"connected_time":468000000000,"state":"active","ping":77}]},{"server_id":311,"name":"Uncletopia | Frankfurt | 6 | All Maps","name_short":"frk-6","host":"frk-1.de.uncletopia.com","port":27065,"enabled":true,"region":"eu","cc":"de","latitude":50.110924,"longitude":8.682127,"reserved":0,"last_update":"0001-01-01T00:00:00Z","name_a2s":"Uncletopia | Frankfurt | 6 | All Maps","protocol":17,"map":"cp_process_final","folder":"tf","game":"Team Fortress","app_id":440,"player_count":0,"max_players":24,"Bots":0,"server_type":"Dedicated","server_os":"Linux","password":true,"vac":true,"version":"7757534","steam_id":85568392924504278,"keywords":["cp","nocrits","nodmgspread","uncletopia"],"game_id":440,"stv_port":27066,"stv_name":"Uncletopia | Frankfurt | 6 | All Maps | STV","players":null},{"server_id":23,"name":"Uncletopia | Frankfurt | 7 | Stopwatch Beta","name_short":"frk-7","host":"frk-1.de.uncletopia.com","port":27075,"enabled":true,"region":"eu","cc":"de","latitude":50.110924,"longitude":8.682127,"reserved":0,"last_update":"0001-01-01T00:00:00Z","name_a2s":"Uncletopia | Frankfurt | 7 | Stopwatch Beta","protocol":17,"map":"pl_borneo","folder":"tf","game":"Team Fortress","app_id":440,"player_count":0,"max_players":24,"Bots":0,"server_type":"Dedicated","server_os":"Linux","password":true,"vac":true,"version":"7757534","steam_id":85568392924742827,"keywords":["nocrits","nodmgspread","payload","uncletopia"],"game_id":440,"stv_port":27076,"stv_name":"Uncletopia | Frankfurt | 7 | Stopwatch Beta | STV","players":null},{"server_id":24,"name":"Uncletopia | Frankfurt | 8 | Community","name_short":"frk-8","host":"frk-1.de.uncletopia.com","port":27085,"enabled":true,"region":"eu","cc":"de","latitude":50.110924,"longitude":8.682127,"reserved":0,"last_update":"0001-01-01T00:00:00Z","name_a2s":"Uncletopia | Frankfurt | 8 | Community","protocol":17,"map":"workshop/cp_indulge.ugc528106646","folder":"tf","game":"Team Fortress","app_id":440,"player_count":0,"max_players":24,"Bots":0,"server_type":"Dedicated","server_os":"Linux","password":true,"vac":true,"version":"7757534","steam_id":85568392924742828,"keywords":["cp","nocrits","nodmgspread","uncletopia"],"game_id":440,"stv_port":27086,"stv_name":"Uncletopia | Frankfurt | 8 | Community | STV","players":null},{"server_id":202,"name":"Uncletopia | Hong Kong | 1 | All Maps","name_short":"hgk-1","host":"hgk-1.hk.uncletopia.com","port":27015,"enabled":true,"region":"asia","cc":"hk","latitude":22.302711,"longitude":114.177216,"reserved":0,"last_update":"0001-01-01T00:00:00Z","name_a2s":"Uncletopia | Hong Kong | 1 | All Maps","protocol":17,"map":"koth_lakeside_final","folder":"tf","game":"Team Fortress","app_id":440,"player_count":0,"max_players":24,"Bots":0,"server_type":"Dedicated","server_os":"Linux","password":true,"vac":true,"version":"7757534","steam_id":85568392924494504,"keywords":["cp","nocrits","nodmgspread","uncletopia"],"game_id":440,"stv_port":27016,"stv_name":"Uncletopia | Hong Kong | 1 | All Maps | STV","players":null},{"server_id":1,"name":"Uncletopia | Los Angeles | 1 | All Maps","name_short":"lax-1","host":"lax-1.us.uncletopia.com","port":27015,"enabled":true,"region":"us-west","cc":"us","latitude":33.94279,"longitude":-118.41004,"reserved":0,"last_update":"0001-01-01T00:00:00Z","name_a2s":"Uncletopia | Los Angeles | 1 | All Maps","protocol":17,"map":"cp_process_final","folder":"tf","game":"Team Fortress","app_id":440,"player_count":0,"max_players":24,"Bots":0,"server_type":"Dedicated","server_os":"Linux","password":true,"vac":true,"version":"7757534","steam_id":85568392924469991,"keywords":["cp","nocrits","nodmgspread","uncletopia"],"game_id":440,"stv_port":27016,"stv_name":"Uncletopia | Los Angeles | 1 | All Maps | STV","players":null},{"server_id":112,"name":"Uncletopia | Los Angeles | 2 | All Maps","name_short":"lax-2","host":"lax-1.us.uncletopia.com","port":27025,"enabled":true,"region":"us-west","cc":"us","latitude":33.94279,"longitude":-118.41004,"reserved":0,"last_update":"0001-01-01T00:00:00Z","name_a2s":"Uncletopia | Los Angeles | 2 | All Maps","protocol":17,"map":"koth_viaduct","folder":"tf","game":"Team Fortress","app_id":440,"player_count":0,"max_players":24,"Bots":0,"server_type":"Dedicated","server_os":"Linux","password":true,"vac":true,"version":"7757534","steam_id":85568392924469992,"keywords":["cp","nocrits","nodmgspread","uncletopia"],"game_id":440,"stv_port":27026,"stv_name":"Uncletopia | Los Angeles | 2 | All Maps | STV","players":null},{"server_id":324,"name":"Uncletopia | Los Angeles | 3 | All Maps","name_short":"lax-3","host":"lax-1.us.uncletopia.com","port":27035,"enabled":true,"region":"us-west","cc":"us","latitude":33.94279,"longitude":-118.41004,"reserved":0,"last_update":"0001-01-01T00:00:00Z","name_a2s":"Uncletopia | Los Angeles | 3 | All Maps","protocol":17,"map":"cp_altitude","folder":"tf","game":"Team Fortress","app_id":440,"player_count":2,"max_players":24,"Bots":0,"server_type":"Dedicated","server_os":"Linux","password":true,"vac":true,"version":"7757534","steam_id":85568392924510198,"keywords":["cp","nocrits","nodmgspread","uncletopia"],"game_id":440,"stv_port":27036,"stv_name":"Uncletopia | Los Angeles | 3 | All Maps | STV","players":[{"user_id":3,"name":"Cheese","steam_id":76561199228445316,"connected_time":273000000000,"state":"active","ping":79},{"user_id":4,"name":"Illogical Unicorn","steam_id":76561199367847351,"connected_time":251000000000,"state":"active","ping":84}]},{"server_id":25,"name":"Uncletopia | Los Angeles | 4 | Stopwatch Beta","name_short":"lax-4","host":"lax-1.us.uncletopia.com","port":27045,"enabled":true,"region":"us-west","cc":"us","latitude":33.94279,"longitude":-118.41004,"reserved":0,"last_update":"0001-01-01T00:00:00Z","name_a2s":"Uncletopia | Los Angeles | 4 | Stopwatch Beta","protocol":17,"map":"cp_dustbowl","folder":"tf","game":"Team Fortress","app_id":440,"player_count":0,"max_players":24,"Bots":0,"server_type":"Dedicated","server_os":"Linux","password":true,"vac":true,"version":"7757534","steam_id":85568392924510199,"keywords":["cp","nocrits","nodmgspread","uncletopia"],"game_id":440,"stv_port":27046,"stv_name":"Uncletopia | Los Angeles | 4 | Stopwatch Beta | STV","players":null},{"server_id":11,"name":"Uncletopia | London | 1 | All Maps","name_short":"lon-1","host":"lon-1.uk.uncletopia.com","port":27015,"enabled":true,"region":"eu","cc":"gb","latitude":51.509865,"longitude":-0.118092,"reserved":0,"last_update":"0001-01-01T00:00:00Z","name_a2s":"Uncletopia | London | 1 | All Maps","protocol":17,"map":"cp_process_final","folder":"tf","game":"Team Fortress","app_id":440,"player_count":24,"max_players":24,"Bots":0,"server_type":"Dedicated","server_os":"Linux","password":true,"vac":true,"version":"7757534","steam_id":85568392924367362,"keywords":["cp","nocrits","nodmgspread","uncletopia"],"game_id":440,"stv_port":27016,"stv_name":"Uncletopia | London | 1 | All Maps | STV","players":[{"user_id":221,"name":"Oxer","steam_id":76561198055942412,"connected_time":1668000000000,"state":"active","ping":94},{"user_id":232,"name":"Kenpachi","steam_id":76561198365750503,"connected_time":1207000000000,"state":"active","ping":43},{"user_id":235,"name":"Kendo-6","steam_id":76561198318748304,"connected_time":790000000000,"state":"active","ping":262},{"user_id":238,"name":"simon","steam_id":76561198880361394,"connected_time":628000000000,"state":"active","ping":57},{"user_id":233,"name":"Moja jaja šlajdraju","steam_id":76561198280390098,"connected_time":851000000000,"state":"active","ping":82},{"user_id":168,"name":"kelpie","steam_id":76561198128327529,"connected_time":6524000000000,"state":"active","ping":59},{"user_id":239,"name":"123","steam_id":76561198113733477,"connected_time":619000000000,"state":"active","ping":53},{"user_id":209,"name":"I HAVE EBOLA","steam_id":76561198059635136,"connected_time":2112000000000,"state":"active","ping":63},{"user_id":178,"name":"Senator Armstrong","steam_id":76561198984346408,"connected_time":4593000000000,"state":"active","ping":77},{"user_id":206,"name":"Денис Базука","steam_id":76561198835849082,"connected_time":2189000000000,"state":"active","ping":104},{"user_id":231,"name":"xx cum boy pee stain zz","steam_id":76561198164002536,"connected_time":1284000000000,"state":"active","ping":78},{"user_id":212,"name":"Hussite","steam_id":76561199293036742,"connected_time":2040000000000,"state":"active","ping":59},{"user_id":234,"name":"Bo","steam_id":76561198023975550,"connected_time":828000000000,"state":"active","ping":50},{"user_id":216,"name":"Burgoo_King","steam_id":76561198133572225,"connected_time":1833000000000,"state":"active","ping":80},{"user_id":217,"name":"Key","steam_id":76561198121647920,"connected_time":1800000000000,"state":"active","ping":125},{"user_id":218,"name":"jill valentine","steam_id":76561198075068529,"connected_time":1737000000000,"state":"active","ping":60},{"user_id":237,"name":"Segra blw.tf","steam_id":76561198441974031,"connected_time":712000000000,"state":"active","ping":79},{"user_id":229,"name":"A","steam_id":76561198930670117,"connected_time":1365000000000,"state":"active","ping":44},{"user_id":240,"name":"fume.","steam_id":76561197960476801,"connected_time":226000000000,"state":"active","ping":49},{"user_id":230,"name":"Living Bomb","steam_id":76561198822153659,"connected_time":1365000000000,"state":"active","ping":96},{"user_id":226,"name":"rz-/Atomic Punch","steam_id":76561199195508541,"connected_time":1612000000000,"state":"active","ping":74},{"user_id":241,"name":"joakimp09","steam_id":76561199122753127,"connected_time":56000000000,"state":"spawning","ping":64},{"user_id":190,"name":"Purps","steam_id":76561198053886680,"connected_time":3596000000000,"state":"active","ping":64},{"user_id":228,"name":"PizzaPete123","steam_id":76561198089478290,"connected_time":1605000000000,"state":"active","ping":38}]},{"server_id":114,"name":"Uncletopia | London | 2 | All Maps","name_short":"lon-2","host":"lon-1.uk.uncletopia.com","port":27025,"enabled":true,"region":"eu","cc":"gb","latitude":51.509865,"longitude":-0.118092,"reserved":0,"last_update":"0001-01-01T00:00:00Z","name_a2s":"Uncletopia | London | 2 | All Maps","protocol":17,"map":"pl_frontier_final","folder":"tf","game":"Team Fortress","app_id":440,"player_count":22,"max_players":24,"Bots":0,"server_type":"Dedicated","server_os":"Linux","password":true,"vac":true,"version":"7757534","steam_id":85568392924470941,"keywords":["nocrits","nodmgspread","payload","uncletopia"],"game_id":440,"stv_port":27026,"stv_name":"Uncletopia | London | 2 | All Maps | STV","players":[{"user_id":48,"name":"Diamondeevee305","steam_id":76561199223098113,"connected_time":1363000000000,"state":"active","ping":54},{"user_id":74,"name":"flare","steam_id":76561199109721258,"connected_time":108000000000,"state":"active","ping":49},{"user_id":50,"name":"tori_spring","steam_id":76561199375975842,"connected_time":1113000000000,"state":"active","ping":49},{"user_id":51,"name":"a perfectly fine dog","steam_id":76561198000890796,"connected_time":1045000000000,"state":"active","ping":100},{"user_id":39,"name":"copium addict","steam_id":76561199401665282,"connected_time":2490000000000,"state":"active","ping":104},{"user_id":53,"name":"Zerfesh","steam_id":76561198117534358,"connected_time":815000000000,"state":"active","ping":98},{"user_id":54,"name":"\u003eSix in swedish + y","steam_id":76561198372971096,"connected_time":767000000000,"state":"active","ping":89},{"user_id":63,"name":"?","steam_id":76561198267167505,"connected_time":350000000000,"state":"active","ping":76},{"user_id":56,"name":"lazoboy","steam_id":76561199074095198,"connected_time":621000000000,"state":"active","ping":109},{"user_id":72,"name":"Laurie","steam_id":76561198082951750,"connected_time":180000000000,"state":"active","ping":46},{"user_id":77,"name":"Cosmetic brain","steam_id":76561198055936410,"connected_time":12000000000,"state":"spawning","ping":74},{"user_id":59,"name":"il","steam_id":76561198122662610,"connected_time":420000000000,"state":"active","ping":82},{"user_id":75,"name":"TryX","steam_id":76561199356781475,"connected_time":89000000000,"state":"active","ping":73},{"user_id":78,"name":"spearfishNL","steam_id":76561199077022985,"connected_time":7000000000,"state":"spawning","ping":54},{"user_id":65,"name":"Sweetcheesus","steam_id":76561198022299033,"connected_time":336000000000,"state":"active","ping":44},{"user_id":66,"name":"YuraGreek","steam_id":76561198050182252,"connected_time":312000000000,"state":"active","ping":75},{"user_id":67,"name":"LivEssense","steam_id":76561198052476979,"connected_time":311000000000,"state":"active","ping":75},{"user_id":68,"name":"day","steam_id":76561198260265302,"connected_time":311000000000,"state":"active","ping":44},{"user_id":69,"name":"akakez","steam_id":76561198095432821,"connected_time":294000000000,"state":"active","ping":110},{"user_id":70,"name":"fried","steam_id":76561198307522022,"connected_time":281000000000,"state":"active","ping":43},{"user_id":71,"name":"Yangire","steam_id":76561198293443930,"connected_time":216000000000,"state":"active","ping":123},{"user_id":76,"name":"ev1lboyo","steam_id":76561199199499453,"connected_time":70000000000,"state":"active","ping":166}]},{"server_id":320,"name":"Uncletopia | London | 3 | All Maps","name_short":"lon-3","host":"lon-1.uk.uncletopia.com","port":27035,"enabled":true,"region":"eu","cc":"gb","latitude":51.509865,"longitude":-0.118092,"reserved":0,"last_update":"0001-01-01T00:00:00Z","name_a2s":"Uncletopia | London | 3 | All Maps","protocol":17,"map":"pl_borneo","folder":"tf","game":"Team Fortress","app_id":440,"player_count":23,"max_players":24,"Bots":0,"server_type":"Dedicated","server_os":"Linux","password":true,"vac":true,"version":"7757534","steam_id":85568392924510192,"keywords":["nocrits","nodmgspread","payload","uncletopia"],"game_id":440,"stv_port":27036,"stv_name":"Uncletopia | London | 3 | All Maps | STV","players":[{"user_id":467,"name":"Oak","steam_id":76561198067315672,"connected_time":3161000000000,"state":"active","ping":45},{"user_id":426,"name":"Noob_with_source","steam_id":76561198870362103,"connected_time":6490000000000,"state":"active","ping":57},{"user_id":490,"name":"Flint","steam_id":76561197995920776,"connected_time":1915000000000,"state":"active","ping":45},{"user_id":476,"name":"Alpaca","steam_id":76561198071132354,"connected_time":2711000000000,"state":"active","ping":101},{"user_id":497,"name":"kryhu","steam_id":76561198293327713,"connected_time":860000000000,"state":"active","ping":75},{"user_id":475,"name":"Canis[Magnus]Pectus","steam_id":76561198363775072,"connected_time":2759000000000,"state":"active","ping":130},{"user_id":480,"name":"chuumin","steam_id":76561198993127867,"connected_time":2639000000000,"state":"active","ping":99},{"user_id":492,"name":"Ansari","steam_id":76561198074982971,"connected_time":1026000000000,"state":"active","ping":60},{"user_id":433,"name":"Reed","steam_id":76561198048226025,"connected_time":5416000000000,"state":"active","ping":151},{"user_id":498,"name":"PinkKong","steam_id":76561197993950694,"connected_time":810000000000,"state":"active","ping":85},{"user_id":454,"name":"B1urred","steam_id":76561198263657694,"connected_time":4063000000000,"state":"active","ping":47},{"user_id":500,"name":"spooks","steam_id":76561198048205059,"connected_time":711000000000,"state":"active","ping":89},{"user_id":477,"name":"MEDiUM","steam_id":76561198112328561,"connected_time":2694000000000,"state":"active","ping":83},{"user_id":487,"name":"SexyHotChocolate","steam_id":76561198164087698,"connected_time":2060000000000,"state":"active","ping":85},{"user_id":474,"name":"night.s","steam_id":76561198326287823,"connected_time":2860000000000,"state":"active","ping":79},{"user_id":499,"name":"iCupCake","steam_id":76561198042930405,"connected_time":793000000000,"state":"active","ping":74},{"user_id":483,"name":"einsMax","steam_id":76561198129594042,"connected_time":2321000000000,"state":"active","ping":74},{"user_id":464,"name":"poliakov.noam","steam_id":76561199259322961,"connected_time":3478000000000,"state":"active","ping":105},{"user_id":479,"name":"Certified Hood pybro (ua)","steam_id":76561198970562699,"connected_time":2644000000000,"state":"active","ping":50},{"user_id":485,"name":"outlaw","steam_id":76561198323805289,"connected_time":2093000000000,"state":"active","ping":31},{"user_id":441,"name":"Carter","steam_id":76561198005243938,"connected_time":5228000000000,"state":"active","ping":69},{"user_id":482,"name":"Creative","steam_id":76561198835034247,"connected_time":2559000000000,"state":"active","ping":82},{"user_id":486,"name":"9034kh-bgtio","steam_id":76561198401523966,"connected_time":2086000000000,"state":"active","ping":96}]},{"server_id":321,"name":"Uncletopia | London | 4 | All Maps","name_short":"lon-4","host":"lon-1.uk.uncletopia.com","port":27045,"enabled":true,"region":"eu","cc":"gb","latitude":51.509865,"longitude":-0.118092,"reserved":0,"last_update":"0001-01-01T00:00:00Z","name_a2s":"Uncletopia | London | 4 | All Maps","protocol":17,"map":"pl_barnblitz","folder":"tf","game":"Team Fortress","app_id":440,"player_count":0,"max_players":24,"Bots":0,"server_type":"Dedicated","server_os":"Linux","password":true,"vac":true,"version":"7757534","steam_id":85568392924510193,"keywords":["nocrits","nodmgspread","payload","uncletopia"],"game_id":440,"stv_port":27046,"stv_name":"Uncletopia | London | 4 | All Maps | STV","players":null},{"server_id":21,"name":"Uncletopia | London | 5 | All Maps","name_short":"lon-5","host":"lon-1.uk.uncletopia.com","port":27055,"enabled":true,"region":"eu","cc":"gb","latitude":51.509865,"longitude":-0.118092,"reserved":0,"last_update":"0001-01-01T00:00:00Z","name_a2s":"Uncletopia | London | 5 | All Maps","protocol":17,"map":"koth_cascade","folder":"tf","game":"Team Fortress","app_id":440,"player_count":0,"max_players":24,"Bots":0,"server_type":"Dedicated","server_os":"Linux","password":true,"vac":true,"version":"7757534","steam_id":85568392924742829,"keywords":["cp","nocrits","nodmgspread","uncletopia"],"game_id":440,"stv_port":27056,"stv_name":"Uncletopia | London | 5 | All Maps | STV","players":null},{"server_id":22,"name":"Uncletopia | London | 6 | All Maps","name_short":"lon-6","host":"lon-1.uk.uncletopia.com","port":27065,"enabled":true,"region":"eu","cc":"gb","latitude":51.509865,"longitude":-0.118092,"reserved":0,"last_update":"0001-01-01T00:00:00Z","name_a2s":"Uncletopia | London | 6 | All Maps","protocol":17,"map":"koth_highpass","folder":"tf","game":"Team Fortress","app_id":440,"player_count":0,"max_players":24,"Bots":0,"server_type":"Dedicated","server_os":"Linux","password":true,"vac":true,"version":"7757534","steam_id":85568392924742830,"keywords":["cp","nocrits","nodmgspread","uncletopia"],"game_id":440,"stv_port":27066,"stv_name":"Uncletopia | London | 6 | All Maps | STV","players":null},{"server_id":40,"name":"Uncletopia | London | 7 | No Payload","name_short":"lon-7","host":"lon-1.uk.uncletopia.com","port":27075,"enabled":true,"region":"eu","cc":"gb","latitude":51.509865,"longitude":-0.118092,"reserved":0,"last_update":"0001-01-01T00:00:00Z","name_a2s":"Uncletopia | London | 7 | No Payload","protocol":17,"map":"koth_highpass","folder":"tf","game":"Team Fortress","app_id":440,"player_count":0,"max_players":24,"Bots":0,"server_type":"Dedicated","server_os":"Linux","password":true,"vac":true,"version":"7757534","steam_id":85568392924964314,"keywords":["cp","nocrits","nodmgspread","uncletopia"],"game_id":440,"stv_port":27076,"stv_name":"Uncletopia | London | 7 | No Payload | STV","players":null},{"server_id":41,"name":"Uncletopia | London | 8 | Community","name_short":"lon-8","host":"lon-1.uk.uncletopia.com","port":27085,"enabled":true,"region":"eu","cc":"gb","latitude":51.509865,"longitude":-0.118092,"reserved":0,"last_update":"0001-01-01T00:00:00Z","name_a2s":"Uncletopia | London | 8 | Community","protocol":17,"map":"workshop/cp_propaganda_b18.ugc1603743849","folder":"tf","game":"Team Fortress","app_id":440,"player_count":0,"max_players":24,"Bots":0,"server_type":"Dedicated","server_os":"Linux","password":true,"vac":true,"version":"7757534","steam_id":85568392924964315,"keywords":["cp","nocrits","nodmgspread","uncletopia"],"game_id":440,"stv_port":27086,"stv_name":"Uncletopia | London | 8 | Community | STV","players":null},{"server_id":300,"name":"Uncletopia | Montréal | 1 | All Maps","name_short":"mtl-1","host":"mtl-1.ca.uncletopia.com","port":27015,"enabled":true,"region":"us-east","cc":"ca","latitude":45.50889,"longitude":-73.56167,"reserved":0,"last_update":"0001-01-01T00:00:00Z","name_a2s":"Uncletopia | Montréal | 1 | All Maps","protocol":17,"map":"pl_badwater","folder":"tf","game":"Team Fortress","app_id":440,"player_count":24,"max_players":24,"Bots":0,"server_type":"Dedicated","server_os":"Linux","password":true,"vac":true,"version":"7757534","steam_id":85568392924500087,"keywords":["nocrits","nodmgspread","payload","uncletopia"],"game_id":440,"stv_port":27016,"stv_name":"Uncletopia | Montréal | 1 | All Maps | STV","players":[{"user_id":3,"name":"plaid catgirl","steam_id":76561198036965113,"connected_time":4094000000000,"state":"active","ping":47},{"user_id":39,"name":"⚧ AylaBB ⚧","steam_id":76561198119211246,"connected_time":635000000000,"state":"active","ping":49},{"user_id":7,"name":"navis","steam_id":76561198996230924,"connected_time":2944000000000,"state":"active","ping":62},{"user_id":40,"name":"󠀡󠀡⁧⁧simian","steam_id":76561198799329306,"connected_time":584000000000,"state":"active","ping":53},{"user_id":9,"name":"alldogsgotoheaven2fan","steam_id":76561199085931379,"connected_time":2549000000000,"state":"active","ping":83},{"user_id":14,"name":"beats","steam_id":76561199245717718,"connected_time":1672000000000,"state":"active","ping":45},{"user_id":11,"name":"Steven Minecraft","steam_id":76561198060072829,"connected_time":2415000000000,"state":"active","ping":83},{"user_id":12,"name":"Fish Roe Man","steam_id":76561198197796766,"connected_time":2312000000000,"state":"active","ping":47},{"user_id":16,"name":"Vapourium","steam_id":76561198943316255,"connected_time":1446000000000,"state":"active","ping":56},{"user_id":47,"name":"Raven","steam_id":76561198112988615,"connected_time":287000000000,"state":"active","ping":69},{"user_id":17,"name":"bensneb","steam_id":76561198046110099,"connected_time":1416000000000,"state":"active","ping":82},{"user_id":18,"name":"just had 3 mcgriddles","steam_id":76561199438698036,"connected_time":1342000000000,"state":"active","ping":83},{"user_id":38,"name":"BasicPeaches","steam_id":76561198190890150,"connected_time":703000000000,"state":"active","ping":69},{"user_id":20,"name":"kallerannar","steam_id":76561199095701143,"connected_time":1208000000000,"state":"active","ping":160},{"user_id":21,"name":"Dr.Feelgood","steam_id":76561198873340760,"connected_time":1185000000000,"state":"active","ping":96},{"user_id":35,"name":"edwinbrood","steam_id":76561198044848769,"connected_time":876000000000,"state":"active","ping":80},{"user_id":41,"name":"Ates164","steam_id":76561199123074978,"connected_time":566000000000,"state":"active","ping":150},{"user_id":29,"name":"Doc{MDW}","steam_id":76561198075049640,"connected_time":923000000000,"state":"active","ping":107},{"user_id":42,"name":"Dill","steam_id":76561197995325198,"connected_time":533000000000,"state":"active","ping":79},{"user_id":31,"name":"Speeder Mingus","steam_id":76561198106841910,"connected_time":918000000000,"state":"active","ping":102},{"user_id":32,"name":"DededeMain | trade.tf","steam_id":76561198310951632,"connected_time":910000000000,"state":"active","ping":67},{"user_id":48,"name":"PoseidonBroZeus","steam_id":76561199228500346,"connected_time":246000000000,"state":"active","ping":96},{"user_id":44,"name":"ScarredPixel123","steam_id":76561199165112703,"connected_time":493000000000,"state":"active","ping":165},{"user_id":45,"name":"Vegerot","steam_id":76561197997843710,"connected_time":367000000000,"state":"active","ping":54}]},{"server_id":301,"name":"Uncletopia | Montréal | 2 | All Maps","name_short":"mtl-2","host":"mtl-1.ca.uncletopia.com","port":27025,"enabled":true,"region":"us-east","cc":"ca","latitude":45.50889,"longitude":-73.56167,"reserved":0,"last_update":"0001-01-01T00:00:00Z","name_a2s":"Uncletopia | Montréal | 2 | All Maps","protocol":17,"map":"cp_sunshine","folder":"tf","game":"Team Fortress","app_id":440,"player_count":0,"max_players":24,"Bots":0,"server_type":"Dedicated","server_os":"Linux","password":true,"vac":true,"version":"7757534","steam_id":85568392924500088,"keywords":["cp","nocrits","nodmgspread","uncletopia"],"game_id":440,"stv_port":27026,"stv_name":"Uncletopia | Montréal | 2 | All Maps | STV","players":null},{"server_id":302,"name":"Uncletopia | Montréal | 3 | All Maps","name_short":"mtl-3","host":"mtl-1.ca.uncletopia.com","port":27035,"enabled":true,"region":"us-east","cc":"ca","latitude":45.50889,"longitude":-73.56167,"reserved":0,"last_update":"0001-01-01T00:00:00Z","name_a2s":"Uncletopia | Montréal | 3 | All Maps","protocol":17,"map":"pl_frontier_final","folder":"tf","game":"Team Fortress","app_id":440,"player_count":0,"max_players":24,"Bots":0,"server_type":"Dedicated","server_os":"Linux","password":true,"vac":true,"version":"7757534","steam_id":85568392924500089,"keywords":["nocrits","nodmgspread","payload","uncletopia"],"game_id":440,"stv_port":27036,"stv_name":"Uncletopia | Montréal | 3 | All Maps | STV","players":null},{"server_id":303,"name":"Uncletopia | Montréal | 4 | No Payload","name_short":"mtl-4","host":"mtl-1.ca.uncletopia.com","port":27045,"enabled":true,"region":"us-east","cc":"ca","latitude":45.50889,"longitude":-73.56167,"reserved":0,"last_update":"0001-01-01T00:00:00Z","name_a2s":"Uncletopia | Montréal | 4 | No Payload","protocol":17,"map":"pl_pier","folder":"tf","game":"Team Fortress","app_id":440,"player_count":0,"max_players":24,"Bots":0,"server_type":"Dedicated","server_os":"Linux","password":true,"vac":true,"version":"7757534","steam_id":85568392924500090,"keywords":["nocrits","nodmgspread","payload","uncletopia"],"game_id":440,"stv_port":27046,"stv_name":"Uncletopia | Montréal | 4 | No Payload | STV","players":null},{"server_id":13,"name":"Uncletopia | New York City | 1 | All Maps","name_short":"nyc-1","host":"nyc-1.us.uncletopia.com","port":27015,"enabled":true,"region":"us-east","cc":"us","latitude":40.73061,"longitude":-73.93524,"reserved":0,"last_update":"0001-01-01T00:00:00Z","name_a2s":"Uncletopia | New York City | 1 | All Maps","protocol":17,"map":"cp_dustbowl","folder":"tf","game":"Team Fortress","app_id":440,"player_count":0,"max_players":24,"Bots":0,"server_type":"Dedicated","server_os":"Linux","password":true,"vac":true,"version":"7757534","steam_id":85568392924469993,"keywords":["cp","nocrits","nodmgspread","uncletopia"],"game_id":440,"stv_port":27016,"stv_name":"Uncletopia | New York City | 1 | All Maps | STV","players":null},{"server_id":14,"name":"Uncletopia | New York City | 2 | All Maps","name_short":"nyc-2","host":"nyc-1.us.uncletopia.com","port":27025,"enabled":true,"region":"us-east","cc":"us","latitude":40.73061,"longitude":-73.93524,"reserved":0,"last_update":"0001-01-01T00:00:00Z","name_a2s":"Uncletopia | New York City | 2 | All Maps","protocol":17,"map":"koth_cascade","folder":"tf","game":"Team Fortress","app_id":440,"player_count":2,"max_players":24,"Bots":0,"server_type":"Dedicated","server_os":"Linux","password":true,"vac":true,"version":"7757534","steam_id":85568392924469994,"keywords":["cp","nocrits","nodmgspread","uncletopia"],"game_id":440,"stv_port":27026,"stv_name":"Uncletopia | New York City | 2 | All Maps | STV","players":[{"user_id":9,"name":"the trollining","steam_id":76561199160884713,"connected_time":10000000000,"state":"spawning","ping":61},{"user_id":8,"name":"nay ners","steam_id":76561199238480644,"connected_time":72000000000,"state":"spawning","ping":45}]},{"server_id":15,"name":"Uncletopia | New York City | 3 | Stopwatch Beta","name_short":"nyc-3","host":"nyc-1.us.uncletopia.com","port":27035,"enabled":true,"region":"us-east","cc":"us","latitude":40.73061,"longitude":-73.93524,"reserved":0,"last_update":"0001-01-01T00:00:00Z","name_a2s":"Uncletopia | New York City | 3 | Stopwatch Beta","protocol":17,"map":"koth_cascade","folder":"tf","game":"Team Fortress","app_id":440,"player_count":0,"max_players":24,"Bots":0,"server_type":"Dedicated","server_os":"Linux","password":true,"vac":true,"version":"7757534","steam_id":85568392924742820,"keywords":["cp","nocrits","nodmgspread","uncletopia"],"game_id":440,"stv_port":27036,"stv_name":"Uncletopia | New York City | 3 | Stopwatch Beta | STV","players":null},{"server_id":16,"name":"Uncletopia | New York City | 4 | Community","name_short":"nyc-4","host":"nyc-1.us.uncletopia.com","port":27045,"enabled":true,"region":"us-east","cc":"us","latitude":40.73061,"longitude":-73.93524,"reserved":0,"last_update":"0001-01-01T00:00:00Z","name_a2s":"Uncletopia | New York City | 4 | Community","protocol":17,"map":"pl_frontier_final","folder":"tf","game":"Team Fortress","app_id":440,"player_count":0,"max_players":24,"Bots":0,"server_type":"Dedicated","server_os":"Linux","password":true,"vac":true,"version":"7757534","steam_id":85568392924742821,"keywords":["nocrits","nodmgspread","payload","uncletopia"],"game_id":440,"stv_port":27046,"stv_name":"Uncletopia | New York City | 4 | Community | STV","players":null},{"server_id":142,"name":"Uncletopia | São Paulo | 1 | All Maps","name_short":"sao-1","host":"sao-1.br.uncletopia.com","port":27015,"enabled":true,"region":"sa","cc":"br","latitude":-23.533773,"longitude":-46.62529,"reserved":0,"last_update":"0001-01-01T00:00:00Z","name_a2s":"Uncletopia | São Paulo | 1 | All Maps","protocol":17,"map":"cp_altitude","folder":"tf","game":"Team Fortress","app_id":440,"player_count":0,"max_players":24,"Bots":0,"server_type":"Dedicated","server_os":"Linux","password":true,"vac":true,"version":"7757534","steam_id":85568392924469996,"keywords":["cp","nocrits","nodmgspread","uncletopia"],"game_id":440,"stv_port":27016,"stv_name":"Uncletopia | São Paulo | 1 | All Maps | STV","players":null},{"server_id":143,"name":"Uncletopia | São Paulo | 2 | All Maps","name_short":"sao-2","host":"sao-2.br.uncletopia.com","port":27015,"enabled":true,"region":"sa","cc":"br","latitude":-23.533773,"longitude":-46.62529,"reserved":0,"last_update":"0001-01-01T00:00:00Z","name_a2s":"Uncletopia | São Paulo | 2 | All Maps","protocol":17,"map":"cp_dustbowl","folder":"tf","game":"Team Fortress","app_id":440,"player_count":0,"max_players":24,"Bots":0,"server_type":"Dedicated","server_os":"Linux","password":true,"vac":true,"version":"7757534","steam_id":85568392924485349,"keywords":["cp","nocrits","nodmgspread","uncletopia"],"game_id":440,"stv_port":27016,"stv_name":"Uncletopia | São Paulo | 2 | All Maps | STV","players":null},{"server_id":7,"name":"Uncletopia | Seattle | 1 | All Maps","name_short":"sea-1","host":"sea-1.us.uncletopia.com","port":27015,"enabled":true,"region":"us-west","cc":"us","latitude":47.608013,"longitude":-122.33517,"reserved":0,"last_update":"0001-01-01T00:00:00Z","name_a2s":"Uncletopia | Seattle | 1 | All Maps","protocol":17,"map":"koth_harvest_final","folder":"tf","game":"Team Fortress","app_id":440,"player_count":19,"max_players":24,"Bots":0,"server_type":"Dedicated","server_os":"Linux","password":true,"vac":true,"version":"7757534","steam_id":85568392924469997,"keywords":["cp","nocrits","nodmgspread","uncletopia"],"game_id":440,"stv_port":27016,"stv_name":"Uncletopia | Seattle | 1 | All Maps | STV","players":[{"user_id":3,"name":"Banzai Blitz","steam_id":76561198196503877,"connected_time":7366000000000,"state":"active","ping":44},{"user_id":83,"name":"Tsubasa","steam_id":76561198329439995,"connected_time":709000000000,"state":"active","ping":105},{"user_id":84,"name":"MyWaifuNow","steam_id":76561198135273510,"connected_time":689000000000,"state":"active","ping":129},{"user_id":85,"name":"Leo","steam_id":76561198309760791,"connected_time":679000000000,"state":"active","ping":127},{"user_id":89,"name":"Shark Sandwich","steam_id":76561198025007938,"connected_time":339000000000,"state":"active","ping":85},{"user_id":14,"name":"CoPilot","steam_id":76561198798217843,"connected_time":5513000000000,"state":"active","ping":92},{"user_id":88,"name":"Cactus™ ♥","steam_id":76561198036441270,"connected_time":648000000000,"state":"active","ping":95},{"user_id":90,"name":"dust | she/it","steam_id":76561198045218909,"connected_time":268000000000,"state":"active","ping":34},{"user_id":92,"name":"Little Linguine","steam_id":76561198816986370,"connected_time":221000000000,"state":"active","ping":58},{"user_id":68,"name":"Combustionaut","steam_id":76561198164877813,"connected_time":2473000000000,"state":"active","ping":47},{"user_id":16,"name":"LesserAce","steam_id":76561198153258132,"connected_time":5418000000000,"state":"active","ping":126},{"user_id":91,"name":"Quansen","steam_id":76561198151594550,"connected_time":254000000000,"state":"active","ping":93},{"user_id":95,"name":"TTV/ChadMorningWood","steam_id":76561198139832291,"connected_time":120000000000,"state":"active","ping":78},{"user_id":96,"name":"watchfull","steam_id":76561198433266742,"connected_time":99000000000,"state":"active","ping":55},{"user_id":70,"name":"ShredMaan","steam_id":76561198429982138,"connected_time":2406000000000,"state":"active","ping":85},{"user_id":24,"name":"Crunchy","steam_id":76561198240523882,"connected_time":4962000000000,"state":"active","ping":90},{"user_id":54,"name":"Spoilt Pudding","steam_id":76561198001195423,"connected_time":3476000000000,"state":"active","ping":102},{"user_id":31,"name":"TheGrassMan (He/Him)","steam_id":76561198118984048,"connected_time":4643000000000,"state":"active","ping":124},{"user_id":73,"name":"[TrC] Dackstrus","steam_id":76561197973518509,"connected_time":2214000000000,"state":"active","ping":60}]},{"server_id":119,"name":"Uncletopia | Seattle | 2 | All Maps","name_short":"sea-2","host":"sea-1.us.uncletopia.com","port":27025,"enabled":true,"region":"us-west","cc":"us","latitude":47.608013,"longitude":-122.33517,"reserved":0,"last_update":"0001-01-01T00:00:00Z","name_a2s":"Uncletopia | Seattle | 2 | All Maps","protocol":17,"map":"pl_barnblitz","folder":"tf","game":"Team Fortress","app_id":440,"player_count":0,"max_players":24,"Bots":0,"server_type":"Dedicated","server_os":"Linux","password":true,"vac":true,"version":"7757534","steam_id":85568392924469998,"keywords":["nocrits","nodmgspread","payload","uncletopia"],"game_id":440,"stv_port":27026,"stv_name":"Uncletopia | Seattle | 2 | All Maps | STV","players":null},{"server_id":406,"name":"Uncletopia | Seattle | 3 | Stopwatch Beta","name_short":"sea-3","host":"sea-1.us.uncletopia.com","port":27035,"enabled":true,"region":"us-west","cc":"us","latitude":47.608013,"longitude":-122.33517,"reserved":0,"last_update":"0001-01-01T00:00:00Z","name_a2s":"Uncletopia | Seattle | 3 | Stopwatch Beta","protocol":17,"map":"cp_process_final","folder":"tf","game":"Team Fortress","app_id":440,"player_count":0,"max_players":24,"Bots":0,"server_type":"Dedicated","server_os":"Linux","password":true,"vac":true,"version":"7757534","steam_id":85568392924515217,"keywords":["cp","nocrits","nodmgspread","uncletopia"],"game_id":440,"stv_port":27036,"stv_name":"Uncletopia | Seattle | 3 | Stopwatch Beta | STV","players":null},{"server_id":17,"name":"Uncletopia | San Francisco | 1 | All Maps","name_short":"sfo-1","host":"sfo-1.us.uncletopia.com","port":27015,"enabled":true,"region":"us-west","cc":"us","latitude":37.77397,"longitude":-122.4313,"reserved":0,"last_update":"0001-01-01T00:00:00Z","name_a2s":"Uncletopia | San Francisco | 1 | All Maps","protocol":17,"map":"pl_badwater","folder":"tf","game":"Team Fortress","app_id":440,"player_count":0,"max_players":24,"Bots":0,"server_type":"Dedicated","server_os":"Linux","password":true,"vac":true,"version":"7757534","steam_id":85568392924469999,"keywords":["nocrits","nodmgspread","payload","uncletopia"],"game_id":440,"stv_port":27016,"stv_name":"Uncletopia | San Francisco | 1 | All Maps | STV","players":null},{"server_id":18,"name":"Uncletopia | San Francisco | 2 | All Maps","name_short":"sfo-2","host":"sfo-1.us.uncletopia.com","port":27025,"enabled":true,"region":"us-west","cc":"us","latitude":37.77397,"longitude":-122.4313,"reserved":0,"last_update":"0001-01-01T00:00:00Z","name_a2s":"Uncletopia | San Francisco | 2 | All Maps","protocol":17,"map":"koth_viaduct","folder":"tf","game":"Team Fortress","app_id":440,"player_count":0,"max_players":24,"Bots":0,"server_type":"Dedicated","server_os":"Linux","password":true,"vac":true,"version":"7757534","steam_id":85568392924470000,"keywords":["cp","nocrits","nodmgspread","uncletopia"],"game_id":440,"stv_port":27026,"stv_name":"Uncletopia | San Francisco | 2 | All Maps | STV","players":null},{"server_id":19,"name":"Uncletopia | San Francisco | 3 | Stopwatch Beta","name_short":"sfo-3","host":"sfo-1.us.uncletopia.com","port":27035,"enabled":true,"region":"us-west","cc":"us","latitude":37.77397,"longitude":-122.4313,"reserved":0,"last_update":"0001-01-01T00:00:00Z","name_a2s":"Uncletopia | San Francisco | 3 | Stopwatch Beta","protocol":17,"map":"cp_snakewater_final1","folder":"tf","game":"Team Fortress","app_id":440,"player_count":0,"max_players":24,"Bots":0,"server_type":"Dedicated","server_os":"Linux","password":true,"vac":true,"version":"7757534","steam_id":85568392924742824,"keywords":["cp","nocrits","nodmgspread","uncletopia"],"game_id":440,"stv_port":27036,"stv_name":"Uncletopia | San Francisco | 3 | Stopwatch Beta | STV","players":null},{"server_id":20,"name":"Uncletopia | San Francisco | 4 | Community","name_short":"sfo-4","host":"sfo-1.us.uncletopia.com","port":27045,"enabled":true,"region":"us-west","cc":"us","latitude":37.77397,"longitude":-122.4313,"reserved":0,"last_update":"0001-01-01T00:00:00Z","name_a2s":"Uncletopia | San Francisco | 4 | Community","protocol":17,"map":"pl_frontier_final","folder":"tf","game":"Team Fortress","app_id":440,"player_count":0,"max_players":24,"Bots":0,"server_type":"Dedicated","server_os":"Linux","password":true,"vac":true,"version":"7757534","steam_id":85568392924742826,"keywords":["nocrits","nodmgspread","payload","uncletopia"],"game_id":440,"stv_port":27046,"stv_name":"Uncletopia | San Francisco | 4 | Community | STV","players":null},{"server_id":141,"name":"Uncletopia | Sydney | 1 | All Maps","name_short":"syd-1","host":"syd-1.au.uncletopia.com","port":27015,"enabled":true,"region":"au","cc":"au","latitude":-33.865143,"longitude":151.2099,"reserved":0,"last_update":"0001-01-01T00:00:00Z","name_a2s":"Uncletopia | Sydney | 1 | All Maps","protocol":17,"map":"cp_dustbowl","folder":"tf","game":"Team Fortress","app_id":440,"player_count":0,"max_players":24,"Bots":0,"server_type":"Dedicated","server_os":"Linux","password":true,"vac":true,"version":"7757534","steam_id":85568392924470001,"keywords":["cp","nocrits","nodmgspread","uncletopia"],"game_id":440,"stv_port":27016,"stv_name":"Uncletopia | Sydney | 1 | All Maps | STV","players":null},{"server_id":123,"name":"Uncletopia | Sydney | 2 | All Maps","name_short":"syd-2","host":"syd-1.au.uncletopia.com","port":27025,"enabled":true,"region":"au","cc":"au","latitude":-33.865143,"longitude":151.2099,"reserved":0,"last_update":"0001-01-01T00:00:00Z","name_a2s":"Uncletopia | Sydney | 2 | All Maps","protocol":17,"map":"pl_barnblitz","folder":"tf","game":"Team Fortress","app_id":440,"player_count":0,"max_players":24,"Bots":0,"server_type":"Dedicated","server_os":"Linux","password":true,"vac":true,"version":"7757534","steam_id":85568392924470002,"keywords":["nocrits","nodmgspread","payload","uncletopia"],"game_id":440,"stv_port":27026,"stv_name":"Uncletopia | Sydney | 2 | All Maps | STV","players":null},{"server_id":395,"name":"Uncletopia | Sydney | 3 | All Maps","name_short":"syd-3","host":"syd-1.au.uncletopia.com","port":27035,"enabled":true,"region":"au","cc":"au","latitude":-33.865143,"longitude":151.2099,"reserved":0,"last_update":"0001-01-01T00:00:00Z","name_a2s":"Uncletopia | Sydney | 3 | All Maps","protocol":17,"map":"pl_barnblitz","folder":"tf","game":"Team Fortress","app_id":440,"player_count":0,"max_players":24,"Bots":0,"server_type":"Dedicated","server_os":"Linux","password":true,"vac":true,"version":"7757534","steam_id":85568392925194467,"keywords":["nocrits","nodmgspread","payload","uncletopia"],"game_id":440,"stv_port":27036,"stv_name":"Uncletopia | Sydney | 3 | All Maps | STV","players":null},{"server_id":396,"name":"Uncletopia | Sydney | 4 | All Maps","name_short":"syd-4","host":"syd-1.au.uncletopia.com","port":27045,"enabled":true,"region":"au","cc":"au","latitude":-33.865143,"longitude":151.2099,"reserved":0,"last_update":"0001-01-01T00:00:00Z","name_a2s":"Uncletopia | Sydney | 4 | All Maps","protocol":17,"map":"koth_lakeside_final","folder":"tf","game":"Team Fortress","app_id":440,"player_count":0,"max_players":24,"Bots":0,"server_type":"Dedicated","server_os":"Linux","password":true,"vac":true,"version":"7757534","steam_id":85568392925397958,"keywords":["cp","nocrits","nodmgspread","uncletopia"],"game_id":440,"stv_port":27046,"stv_name":"Uncletopia | Sydney | 4 | All Maps | STV","players":null},{"server_id":58,"name":"Uncletopia | Sydney | 5 | Stopwatch Beta","name_short":"syd-5","host":"syd-1.au.uncletopia.com","port":27055,"enabled":true,"region":"au","cc":"au","latitude":-33.865143,"longitude":151.2099,"reserved":0,"last_update":"0001-01-01T00:00:00Z","name_a2s":"Uncletopia | Sydney | 5 | Stopwatch Beta","protocol":17,"map":"workshop/koth_clearcut_b15.ugc2107050255","folder":"tf","game":"Team Fortress","app_id":440,"player_count":0,"max_players":24,"Bots":0,"server_type":"Dedicated","server_os":"Linux","password":true,"vac":true,"version":"7757534","steam_id":85568392925397959,"keywords":["cp","nocrits","nodmgspread","uncletopia"],"game_id":440,"stv_port":27056,"stv_name":"Uncletopia | Sydney | 5 | Stopwatch Beta | STV","players":null},{"server_id":59,"name":"Uncletopia | Sydney | 6 | Community","name_short":"syd-6","host":"syd-1.au.uncletopia.com","port":27065,"enabled":true,"region":"au","cc":"au","latitude":-33.865143,"longitude":151.2099,"reserved":0,"last_update":"0001-01-01T00:00:00Z","name_a2s":"Uncletopia | Sydney | 6 | Community","protocol":17,"map":"workshop/koth_trenchfoot_b1a.ugc731436616","folder":"tf","game":"Team Fortress","app_id":440,"player_count":0,"max_players":24,"Bots":0,"server_type":"Dedicated","server_os":"Linux","password":true,"vac":true,"version":"7757534","steam_id":85568392925397960,"keywords":["cp","nocrits","nodmgspread","uncletopia"],"game_id":440,"stv_port":27066,"stv_name":"Uncletopia | Sydney | 6 | Community | STV","players":null},{"server_id":49,"name":"Uncletopia | Warsaw | 1 | All Maps","name_short":"waw-1","host":"waw-1.pl.uncletopia.com","port":27015,"enabled":true,"region":"eu","cc":"pl","latitude":52.2297,"longitude":21.017532,"reserved":0,"last_update":"0001-01-01T00:00:00Z","name_a2s":"","protocol":0,"map":"","folder":"","game":"","app_id":0,"player_count":0,"max_players":0,"Bots":0,"server_type":"","server_os":"","password":false,"vac":false,"version":"","steam_id":0,"keywords":null,"game_id":0,"stv_port":0,"stv_name":"","players":null},{"server_id":50,"name":"Uncletopia | Warsaw | 2 | All Maps","name_short":"waw-2","host":"waw-1.pl.uncletopia.com","port":27025,"enabled":true,"region":"eu","cc":"pl","latitude":52.2297,"longitude":21.017532,"reserved":0,"last_update":"0001-01-01T00:00:00Z","name_a2s":"Uncletopia | Warsaw | 2 | All Maps","protocol":17,"map":"pl_borneo","folder":"tf","game":"Team Fortress","app_id":440,"player_count":0,"max_players":24,"Bots":0,"server_type":"Dedicated","server_os":"Linux","password":true,"vac":true,"version":"7757534","steam_id":85568392925397851,"keywords":["nocrits","nodmgspread","payload","uncletopia"],"game_id":440,"stv_port":27026,"stv_name":"Uncletopia | Warsaw | 2 | All Maps | STV","players":null},{"server_id":51,"name":"Uncletopia | Warsaw | 3 | All Maps","name_short":"waw-3","host":"waw-1.pl.uncletopia.com","port":27035,"enabled":true,"region":"eu","cc":"pl","latitude":52.2297,"longitude":21.017532,"reserved":0,"last_update":"0001-01-01T00:00:00Z","name_a2s":"Uncletopia | Warsaw | 3 | All Maps","protocol":17,"map":"pl_barnblitz","folder":"tf","game":"Team Fortress","app_id":440,"player_count":0,"max_players":24,"Bots":0,"server_type":"Dedicated","server_os":"Linux","password":true,"vac":true,"version":"7757534","steam_id":85568392925397852,"keywords":["nocrits","nodmgspread","payload","uncletopia"],"game_id":440,"stv_port":27036,"stv_name":"Uncletopia | Warsaw | 3 | All Maps | STV","players":null},{"server_id":52,"name":"Uncletopia | Warsaw | 4 | All Maps","name_short":"waw-4","host":"waw-1.pl.uncletopia.com","port":27045,"enabled":true,"region":"eu","cc":"pl","latitude":52.2297,"longitude":21.017532,"reserved":0,"last_update":"0001-01-01T00:00:00Z","name_a2s":"Uncletopia | Warsaw | 4 | All Maps","protocol":17,"map":"koth_lakeside_final","folder":"tf","game":"Team Fortress","app_id":440,"player_count":0,"max_players":24,"Bots":0,"server_type":"Dedicated","server_os":"Linux","password":true,"vac":true,"version":"7757534","steam_id":85568392925397853,"keywords":["cp","nocrits","nodmgspread","uncletopia"],"game_id":440,"stv_port":27046,"stv_name":"Uncletopia | Warsaw | 4 | All Maps | STV","players":null},{"server_id":53,"name":"Uncletopia | Warsaw | 5 | Stopwatch Beta","name_short":"waw-5","host":"waw-1.pl.uncletopia.com","port":27055,"enabled":true,"region":"eu","cc":"pl","latitude":52.2297,"longitude":21.017532,"reserved":0,"last_update":"0001-01-01T00:00:00Z","name_a2s":"Uncletopia | Warsaw | 5 | Stopwatch Beta","protocol":17,"map":"pl_pier","folder":"tf","game":"Team Fortress","app_id":440,"player_count":0,"max_players":24,"Bots":0,"server_type":"Dedicated","server_os":"Linux","password":true,"vac":true,"version":"7757534","steam_id":85568392925397854,"keywords":["nocrits","nodmgspread","payload","uncletopia"],"game_id":440,"stv_port":27056,"stv_name":"Uncletopia | Warsaw | 5 | Stopwatch Beta | STV","players":null},{"server_id":54,"name":"Uncletopia | Warsaw | 6 | Community","name_short":"waw-6","host":"waw-1.pl.uncletopia.com","port":27065,"enabled":true,"region":"eu","cc":"pl","latitude":52.2297,"longitude":21.017532,"reserved":0,"last_update":"0001-01-01T00:00:00Z","name_a2s":"Uncletopia | Warsaw | 6 | Community","protocol":17,"map":"koth_highpass","folder":"tf","game":"Team Fortress","app_id":440,"player_count":0,"max_players":24,"Bots":0,"server_type":"Dedicated","server_os":"Linux","password":true,"vac":true,"version":"7757534","steam_id":85568392925397856,"keywords":["cp","nocrits","nodmgspread","uncletopia"],"game_id":440,"stv_port":27066,"stv_name":"Uncletopia | Warsaw | 6 | Community | STV","players":null}]}