{"status":true,"message":"","result":[{"server_id":9,"name":"Uncletopia | Atlanta | 1 | All Maps","name_short":"atl-1","host":"atl-1.us.uncletopia.com","port":27015,"enabled":true,"region":"us-east","cc":"us","latitude":33.753746,"longitude":-84.38633,"reserved":0,"last_update":"0001-01-01T00:00:00Z","name_a2s":"Uncletopia | Atlanta | 1 | All Maps","protocol":17,"map":"cp_steel","folder":"tf","game":"Team Fortress","app_id":440,"player_count":24,"max_players":24,"Bots":0,"server_type":"Dedicated","server_os":"Linux","password":true,"vac":true,"version":"7882260","steam_id":85568392924469982,"keywords":["cp","nocrits","nodmgspread","uncletopia"],"game_id":440,"stv_port":27016,"stv_name":"Uncletopia | Atlanta | 1 | All Maps | STV","players":[{"user_id":86,"name":"Higgle Poggers","steam_id":76561198043960257,"connected_time":1114000000000,"state":"active","ping":67},{"user_id":89,"name":"Reggie Thumpleton","steam_id":76561199223614399,"connected_time":900000000000,"state":"active","ping":75},{"user_id":55,"name":"Monkey Mode","steam_id":76561197961267543,"connected_time":4010000000000,"state":"active","ping":53},{"user_id":88,"name":"Lancer Fan Club","steam_id":76561198355495948,"connected_time":905000000000,"state":"active","ping":53},{"user_id":98,"name":"Nox(She/They)","steam_id":76561198141950842,"connected_time":635000000000,"state":"active","ping":46},{"user_id":79,"name":"lil hog","steam_id":76561199230929836,"connected_time":2044000000000,"state":"active","ping":75},{"user_id":11,"name":"Flint","steam_id":76561198066547582,"connected_time":5407000000000,"state":"active","ping":107},{"user_id":78,"name":"BIG HOG","steam_id":76561198079923652,"connected_time":2051000000000,"state":"active","ping":70},{"user_id":84,"name":"Uganda Knuckles lll","steam_id":76561199121276474,"connected_time":1517000000000,"state":"active","ping":88},{"user_id":36,"name":"Dreszerg","steam_id":76561198838757422,"connected_time":5274000000000,"state":"active","ping":81},{"user_id":82,"name":"melancholy","steam_id":76561198024301465,"connected_time":1829000000000,"state":"active","ping":44},{"user_id":52,"name":"troll","steam_id":76561198040890252,"connected_time":4557000000000,"state":"active","ping":53},{"user_id":99,"name":"Oddball","steam_id":76561198040440984,"connected_time":513000000000,"state":"active","ping":88},{"user_id":101,"name":"Bara Himbo","steam_id":76561198063265957,"connected_time":491000000000,"state":"active","ping":98},{"user_id":85,"name":"morphine","steam_id":76561198072124799,"connected_time":1262000000000,"state":"active","ping":84},{"user_id":92,"name":"DJThunderHeart","steam_id":76561198274197575,"connected_time":892000000000,"state":"active","ping":64},{"user_id":93,"name":"ATL1 | cola","steam_id":76561198374390458,"connected_time":871000000000,"state":"active","ping":49},{"user_id":95,"name":"Just PYE","steam_id":76561199439622967,"connected_time":858000000000,"state":"active","ping":87},{"user_id":45,"name":"chubbbo","steam_id":76561198943598378,"connected_time":5083000000000,"state":"active","ping":42},{"user_id":74,"name":"SparkStorm","steam_id":76561198095817025,"connected_time":2072000000000,"state":"active","ping":37},{"user_id":94,"name":"ma0re","steam_id":76561199231971506,"connected_time":871000000000,"state":"active","ping":68},{"user_id":97,"name":"nooblover69","steam_id":76561198249206656,"connected_time":644000000000,"state":"active","ping":85},{"user_id":87,"name":"HARRY","steam_id":76561198842067238,"connected_time":1113000000000,"state":"active","ping":69},{"user_id":77,"name":"NBA Youngboy","steam_id":76561199118797200,"connected_time":2068000000000,"state":"active","ping":70}]},{"server_id":104,"name":"Uncletopia | Atlanta | 2 | All Maps","name_short":"atl-2","host":"atl-1.us.uncletopia.com","port":27025,"enabled":true,"region":"us-east","cc":"us","latitude":33.753746,"longitude":-84.38633,"reserved":0,"last_update":"0001-01-01T00:00:00Z","name_a2s":"Uncletopia | Atlanta | 2 | All Maps","protocol":17,"map":"pl_upward","folder":"tf","game":"Team Fortress","app_id":440,"player_count":24,"max_players":24,"Bots":0,"server_type":"Dedicated","server_os":"Linux","password":true,"vac":true,"version":"7882260","steam_id":85568392924469983,"keywords":["nocrits","nodmgspread","payload","uncletopia"],"game_id":440,"stv_port":27026,"stv_name":"Uncletopia | Atlanta | 2 | All Maps | STV","players":[{"user_id":21,"name":"whittlo","steam_id":76561198056793479,"connected_time":1822000000000,"state":"active","ping":72},{"user_id":18,"name":"eau:","steam_id":76561198110020262,"connected_time":1958000000000,"state":"active","ping":86},{"user_id":50,"name":"Zixzs","steam_id":76561198055504126,"connected_time":308000000000,"state":"active","ping":75},{"user_id":20,"name":"Pig master","steam_id":76561199388075545,"connected_time":1934000000000,"state":"active","ping":121},{"user_id":53,"name":"C^a^L","steam_id":76561198241124222,"connected_time":136000000000,"state":"active","ping":100},{"user_id":23,"name":"Average Engineer Main","steam_id":76561198101969991,"connected_time":1722000000000,"state":"active","ping":61},{"user_id":29,"name":"Blehnder","steam_id":76561198172097526,"connected_time":1621000000000,"state":"active","ping":82},{"user_id":49,"name":"Crazy Cane","steam_id":76561198993941174,"connected_time":328000000000,"state":"active","ping":67},{"user_id":26,"name":"mEch114","steam_id":76561198236936060,"connected_time":1664000000000,"state":"active","ping":68},{"user_id":27,"name":"Ukes","steam_id":76561198055508999,"connected_time":1627000000000,"state":"active","ping":90},{"user_id":28,"name":"nocham","steam_id":76561198097674181,"connected_time":1627000000000,"state":"active","ping":84},{"user_id":51,"name":"roman","steam_id":76561198170066797,"connected_time":304000000000,"state":"active","ping":58},{"user_id":32,"name":"Revan108","steam_id":76561199039870311,"connected_time":1589000000000,"state":"active","ping":65},{"user_id":33,"name":"Effie","steam_id":76561198261842068,"connected_time":1530000000000,"state":"active","ping":60},{"user_id":34,"name":"Shattered Glass","steam_id":76561198116835391,"connected_time":1522000000000,"state":"active","ping":89},{"user_id":48,"name":"An Unhappy Clown","steam_id":76561198175516514,"connected_time":480000000000,"state":"active","ping":62},{"user_id":36,"name":"DJ Spit","steam_id":76561198186637025,"connected_time":1494000000000,"state":"active","ping":87},{"user_id":37,"name":"Spike Bones","steam_id":76561198234926120,"connected_time":1487000000000,"state":"active","ping":90},{"user_id":52,"name":"Diplodocus","steam_id":76561198023323121,"connected_time":297000000000,"state":"active","ping":121},{"user_id":40,"name":"goldgardian","steam_id":76561198319471339,"connected_time":1470000000000,"state":"active","ping":265},{"user_id":41,"name":"redkindworm","steam_id":76561199279351747,"connected_time":1466000000000,"state":"active","ping":92},{"user_id":45,"name":"the man","steam_id":76561199103120314,"connected_time":1346000000000,"state":"active","ping":102},{"user_id":44,"name":"Velvety","steam_id":76561198081922813,"connected_time":1435000000000,"state":"active","ping":101},{"user_id":47,"name":"Kaluka","steam_id":76561198036861445,"connected_time":1138000000000,"state":"active","ping":65}]},{"server_id":400,"name":"Uncletopia | Atlanta | 3 | Community","name_short":"atl-3","host":"atl-1.us.uncletopia.com","port":27035,"enabled":true,"region":"us-east","cc":"us","latitude":33.753746,"longitude":-84.38633,"reserved":0,"last_update":"0001-01-01T00:00:00Z","name_a2s":"Uncletopia | Atlanta | 3 | Community","protocol":17,"map":"workshop/cp_sulfur_rc2.ugc619869471","folder":"tf","game":"Team Fortress","app_id":440,"player_count":19,"max_players":24,"Bots":0,"server_type":"Dedicated","server_os":"Linux","password":true,"vac":true,"version":"7882260","steam_id":85568392924515187,"keywords":["cp","nocrits","nodmgspread","uncletopia"],"game_id":440,"stv_port":27036,"stv_name":"Uncletopia | Atlanta | 3 | Community | STV","players":[{"user_id":54,"name":"-BRH- Tangled up in Bluegrass","steam_id":76561197987181139,"connected_time":3153000000000,"state":"active","ping":80},{"user_id":109,"name":"Kickpuncher","steam_id":76561198121528357,"connected_time":26000000000,"state":"spawning","ping":226},{"user_id":105,"name":"The sad vanilla","steam_id":76561198268621447,"connected_time":75000000000,"state":"spawning","ping":437},{"user_id":102,"name":"noahjwarner09","steam_id":76561199444479988,"connected_time":131000000000,"state":"active","ping":83},{"user_id":100,"name":"Grilled Jizo","steam_id":76561199250875340,"connected_time":257000000000,"state":"active","ping":120},{"user_id":89,"name":"Qwerty","steam_id":76561198023525894,"connected_time":1486000000000,"state":"active","ping":172},{"user_id":95,"name":"Harold","steam_id":76561198057317770,"connected_time":496000000000,"state":"active","ping":105},{"user_id":106,"name":"Coach McFish","steam_id":76561198210456405,"connected_time":49000000000,"state":"active","ping":99},{"user_id":104,"name":"Pathara44","steam_id":76561198048238620,"connected_time":120000000000,"state":"active","ping":76},{"user_id":107,"name":"NerdCuddles","steam_id":76561198078915242,"connected_time":43000000000,"state":"spawning","ping":164},{"user_id":97,"name":"Aeonspassed","steam_id":76561198014016451,"connected_time":349000000000,"state":"active","ping":85},{"user_id":108,"name":"comet","steam_id":76561198149217841,"connected_time":38000000000,"state":"spawning","ping":251},{"user_id":110,"name":"RarestGuide","steam_id":76561198050338923,"connected_time":9000000000,"state":"spawning","ping":110},{"user_id":47,"name":"Antwan","steam_id":76561198246200638,"connected_time":3347000000000,"state":"active","ping":59},{"user_id":72,"name":"Sockhead","steam_id":76561198253181773,"connected_time":2418000000000,"state":"active","ping":77},{"user_id":96,"name":"Zho Biden","steam_id":76561198079224101,"connected_time":462000000000,"state":"active","ping":39},{"user_id":77,"name":"litroolay","steam_id":76561197995226856,"connected_time":2067000000000,"state":"active","ping":107},{"user_id":91,"name":"Whomsticot","steam_id":76561198406721885,"connected_time":969000000000,"state":"active","ping":132},{"user_id":92,"name":"Big Ears","steam_id":76561198851363077,"connected_time":842000000000,"state":"active","ping":47}]},{"server_id":401,"name":"Uncletopia | Atlanta | 4 | No Payload","name_short":"atl-4","host":"atl-1.us.uncletopia.com","port":27045,"enabled":true,"region":"us-east","cc":"us","latitude":33.753746,"longitude":-84.38633,"reserved":0,"last_update":"0001-01-01T00:00:00Z","name_a2s":"","protocol":0,"map":"","folder":"","game":"","app_id":0,"player_count":0,"max_players":0,"Bots":0,"server_type":"","server_os":"","password":false,"vac":false,"version":"","steam_id":0,"keywords":null,"game_id":0,"stv_port":0,"stv_name":"","players":null},{"server_id":2,"name":"Uncletopia | Chicago | 1 | All Maps","name_short":"chi-1","host":"chi-1.us.uncletopia.com","port":27015,"enabled":true,"region":"us-central","cc":"us","latitude":41.881832,"longitude":-87.62318,"reserved":0,"last_update":"0001-01-01T00:00:00Z","name_a2s":"Uncletopia | Chicago | 1 | All Maps","protocol":17,"map":"pl_badwater","folder":"tf","game":"Team Fortress","app_id":440,"player_count":24,"max_players":24,"Bots":0,"server_type":"Dedicated","server_os":"Linux","password":true,"vac":true,"version":"7882260","steam_id":85568392924469984,"keywords":["nocrits","nodmgspread","payload","uncletopia"],"game_id":440,"stv_port":27016,"stv_name":"Uncletopia | Chicago | 1 | All Maps | STV","players":[{"user_id":105,"name":"ColonelKermit","steam_id":76561198318215660,"connected_time":263000000000,"state":"active","ping":55},{"user_id":64,"name":"The Horselords and Animal Gods","steam_id":76561197975094050,"connected_time":1587000000000,"state":"active","ping":104},{"user_id":21,"name":"Adam (Cursed Confetti Creature)","steam_id":76561198317690197,"connected_time":5427000000000,"state":"active","ping":42},{"user_id":95,"name":"1994MazdaMiata","steam_id":76561198202211436,"connected_time":749000000000,"state":"active","ping":79},{"user_id":72,"name":"Giggles™","steam_id":76561198058708019,"connected_time":998000000000,"state":"active","ping":58},{"user_id":51,"name":"Kero","steam_id":76561198343231436,"connected_time":3012000000000,"state":"active","ping":59},{"user_id":9,"name":"daffodil","steam_id":76561198049480053,"connected_time":5472000000000,"state":"active","ping":56},{"user_id":75,"name":"Dandelion","steam_id":76561199245365821,"connected_time":969000000000,"state":"active","ping":51},{"user_id":13,"name":"Ejaculation Zach","steam_id":76561198203765200,"connected_time":5443000000000,"state":"active","ping":60},{"user_id":69,"name":"Goober","steam_id":76561198988863807,"connected_time":1248000000000,"state":"active","ping":77},{"user_id":101,"name":"Ehttri","steam_id":76561198170138667,"connected_time":517000000000,"state":"active","ping":80},{"user_id":56,"name":"I.C.","steam_id":76561198049256017,"connected_time":1841000000000,"state":"active","ping":80},{"user_id":44,"name":"Lia_Rein","steam_id":76561198151569597,"connected_time":4085000000000,"state":"active","ping":138},{"user_id":57,"name":"Mixomin","steam_id":76561198295061570,"connected_time":1815000000000,"state":"active","ping":50},{"user_id":19,"name":"TallBit","steam_id":76561199059748976,"connected_time":5435000000000,"state":"active","ping":50},{"user_id":22,"name":"AYAYA!!!","steam_id":76561198992102180,"connected_time":5426000000000,"state":"active","ping":47},{"user_id":104,"name":"Anthid","steam_id":76561198074493797,"connected_time":468000000000,"state":"active","ping":74},{"user_id":33,"name":"Tito","steam_id":76561198041702529,"connected_time":5397000000000,"state":"active","ping":87},{"user_id":25,"name":"dog","steam_id":76561198263873491,"connected_time":5413000000000,"state":"active","ping":44},{"user_id":58,"name":"rat eater","steam_id":76561199216874750,"connected_time":1776000000000,"state":"active","ping":63},{"user_id":28,"name":"Bow_","steam_id":76561198109608134,"connected_time":5409000000000,"state":"active","ping":80},{"user_id":29,"name":"The Poop Dealer","steam_id":76561198141198352,"connected_time":5409000000000,"state":"active","ping":46},{"user_id":43,"name":"επιλέγω","steam_id":76561198076639682,"connected_time":4115000000000,"state":"active","ping":67},{"user_id":55,"name":"Sheku \u003c3 Gegay","steam_id":76561198066426161,"connected_time":2012000000000,"state":"active","ping":59}]},{"server_id":106,"name":"Uncletopia | Chicago | 2 | All Maps","name_short":"chi-2","host":"chi-1.us.uncletopia.com","port":27025,"enabled":true,"region":"us-central","cc":"us","latitude":41.881832,"longitude":-87.62318,"reserved":0,"last_update":"0001-01-01T00:00:00Z","name_a2s":"Uncletopia | Chicago | 2 | All Maps","protocol":17,"map":"cp_dustbowl","folder":"tf","game":"Team Fortress","app_id":440,"player_count":24,"max_players":24,"Bots":0,"server_type":"Dedicated","server_os":"Linux","password":true,"vac":true,"version":"7882260","steam_id":85568392924469985,"keywords":["cp","nocrits","nodmgspread","uncletopia"],"game_id":440,"stv_port":27026,"stv_name":"Uncletopia | Chicago | 2 | All Maps | STV","players":[{"user_id":84,"name":"Javaris Jamar Javarison-Lamar","steam_id":76561198146951387,"connected_time":885000000000,"state":"active","ping":75},{"user_id":4,"name":"vv","steam_id":76561198134813102,"connected_time":5348000000000,"state":"active","ping":43},{"user_id":40,"name":"FrostStorm","steam_id":76561198142685151,"connected_time":4040000000000,"state":"active","ping":69},{"user_id":94,"name":"Take the L","steam_id":76561198379223875,"connected_time":201000000000,"state":"active","ping":60},{"user_id":33,"name":"Vanilla :3","steam_id":76561199106847859,"connected_time":4485000000000,"state":"active","ping":60},{"user_id":41,"name":"RyInc","steam_id":76561198874261643,"connected_time":4038000000000,"state":"active","ping":44},{"user_id":98,"name":"Puuung","steam_id":76561199186072324,"connected_time":62000000000,"state":"active","ping":55},{"user_id":77,"name":"Armoreddude","steam_id":76561198058739073,"connected_time":1025000000000,"state":"active","ping":45},{"user_id":100,"name":"vera","steam_id":76561198318851246,"connected_time":39000000000,"state":"active","ping":105},{"user_id":95,"name":"ameritech","steam_id":76561198064769089,"connected_time":194000000000,"state":"active","ping":76},{"user_id":71,"name":"caption cool","steam_id":76561197990612056,"connected_time":1497000000000,"state":"active","ping":45},{"user_id":96,"name":"StevieNicholai","steam_id":76561198327310266,"connected_time":112000000000,"state":"active","ping":52},{"user_id":97,"name":"MintyPawz","steam_id":76561198111430103,"connected_time":100000000000,"state":"active","ping":87},{"user_id":67,"name":"izzydex","steam_id":76561199101531034,"connected_time":1680000000000,"state":"active","ping":63},{"user_id":78,"name":"kite","steam_id":76561198346516392,"connected_time":1023000000000,"state":"active","ping":69},{"user_id":81,"name":"DrunkDuckwit","steam_id":76561198355829109,"connected_time":907000000000,"state":"active","ping":55},{"user_id":99,"name":"TheGrassMan (He/Him)","steam_id":76561198118984048,"connected_time":45000000000,"state":"active","ping":70},{"user_id":92,"name":"Wolfbone","steam_id":76561198797262334,"connected_time":645000000000,"state":"active","ping":90},{"user_id":75,"name":"blooddragonxxx","steam_id":76561199454809464,"connected_time":1082000000000,"state":"active","ping":58},{"user_id":89,"name":"Alva","steam_id":76561198023665618,"connected_time":756000000000,"state":"active","ping":74},{"user_id":53,"name":"rawrie","steam_id":76561198005371178,"connected_time":3215000000000,"state":"active","ping":64},{"user_id":83,"name":"glitch","steam_id":76561197979495589,"connected_time":898000000000,"state":"active","ping":70},{"user_id":90,"name":"Chillton","steam_id":76561198248304718,"connected_time":754000000000,"state":"active","ping":75},{"user_id":36,"name":"bomb bomb bomb","steam_id":76561198207881077,"connected_time":4389000000000,"state":"active","ping":89}]},{"server_id":402,"name":"Uncletopia | Chicago | 3 | All Maps","name_short":"chi-3","host":"chi-1.us.uncletopia.com","port":27035,"enabled":true,"region":"us-central","cc":"us","latitude":41.881832,"longitude":-87.62318,"reserved":0,"last_update":"0001-01-01T00:00:00Z","name_a2s":"Uncletopia | Chicago | 3 | All Maps","protocol":17,"map":"cp_process_final","folder":"tf","game":"Team Fortress","app_id":440,"player_count":23,"max_players":24,"Bots":0,"server_type":"Dedicated","server_os":"Linux","password":true,"vac":true,"version":"7882260","steam_id":85568392924515191,"keywords":["cp","nocrits","nodmgspread","uncletopia"],"game_id":440,"stv_port":27036,"stv_name":"Uncletopia | Chicago | 3 | All Maps | STV","players":[{"user_id":3,"name":"GeneralMike","steam_id":76561198065799430,"connected_time":5377000000000,"state":"active","ping":56},{"user_id":52,"name":"Ranger Plague","steam_id":76561198174647666,"connected_time":3563000000000,"state":"active","ping":86},{"user_id":70,"name":"insane jester","steam_id":76561198079609974,"connected_time":1386000000000,"state":"active","ping":110},{"user_id":6,"name":"wG deez","steam_id":76561198277163301,"connected_time":4920000000000,"state":"active","ping":64},{"user_id":55,"name":"Xx-CostcoShopper-xX","steam_id":76561198066429444,"connected_time":2942000000000,"state":"active","ping":63},{"user_id":77,"name":"quint","steam_id":76561198046797995,"connected_time":967000000000,"state":"active","ping":72},{"user_id":97,"name":"Superman123389","steam_id":76561198267472539,"connected_time":103000000000,"state":"active","ping":92},{"user_id":84,"name":"what","steam_id":76561198082336619,"connected_time":777000000000,"state":"active","ping":77},{"user_id":41,"name":"Oil (feat. Stevie Nicks)","steam_id":76561198398677744,"connected_time":4075000000000,"state":"active","ping":104},{"user_id":91,"name":"RaixaR","steam_id":76561198025289430,"connected_time":511000000000,"state":"active","ping":72},{"user_id":78,"name":"MajorGeneral","steam_id":76561198096725670,"connected_time":953000000000,"state":"active","ping":60},{"user_id":95,"name":"C papi","steam_id":76561198027779564,"connected_time":136000000000,"state":"active","ping":53},{"user_id":75,"name":"Zoot","steam_id":76561198121944243,"connected_time":974000000000,"state":"active","ping":75},{"user_id":92,"name":"IPlayGamez","steam_id":76561198041387508,"connected_time":387000000000,"state":"active","ping":60},{"user_id":59,"name":"t","steam_id":76561198175988929,"connected_time":2446000000000,"state":"active","ping":67},{"user_id":22,"name":"gl1tchr","steam_id":76561198302661983,"connected_time":4655000000000,"state":"active","ping":77},{"user_id":93,"name":"[S]Mr. X [No Monitor]","steam_id":76561197963746035,"connected_time":323000000000,"state":"active","ping":137},{"user_id":69,"name":"Oh no","steam_id":76561198123441203,"connected_time":1419000000000,"state":"active","ping":78},{"user_id":51,"name":"Acro Banwagon","steam_id":76561198092451804,"connected_time":3637000000000,"state":"active","ping":72},{"user_id":82,"name":"Pongallow","steam_id":76561198146876078,"connected_time":895000000000,"state":"active","ping":52},{"user_id":73,"name":"Purchase your tracks today","steam_id":76561198084422657,"connected_time":985000000000,"state":"active","ping":89},{"user_id":90,"name":"NoSignal","steam_id":76561198094723903,"connected_time":591000000000,"state":"active","ping":60},{"user_id":87,"name":"NoNignal","steam_id":76561198336927982,"connected_time":696000000000,"state":"active","ping":89}]},{"server_id":403,"name":"Uncletopia | Chicago | 4 | All Maps","name_short":"chi-4","host":"chi-1.us.uncletopia.com","port":27045,"enabled":true,"region":"us-central","cc":"us","latitude":41.881832,"longitude":-87.62318,"reserved":0,"last_update":"0001-01-01T00:00:00Z","name_a2s":"Uncletopia | Chicago | 4 | All Maps","protocol":17,"map":"pl_borneo","folder":"tf","game":"Team Fortress","app_id":440,"player_count":24,"max_players":24,"Bots":0,"server_type":"Dedicated","server_os":"Linux","password":true,"vac":true,"version":"7882260","steam_id":85568392924515193,"keywords":["nocrits","nodmgspread","payload","uncletopia"],"game_id":440,"stv_port":27046,"stv_name":"Uncletopia | Chicago | 4 | All Maps | STV","players":[{"user_id":58,"name":"Maverick","steam_id":76561198322829814,"connected_time":2013000000000,"state":"active","ping":84},{"user_id":7,"name":"Gh0w0st","steam_id":76561199471261226,"connected_time":4224000000000,"state":"active","ping":80},{"user_id":61,"name":"Slippin' Jimmy","steam_id":76561198875469297,"connected_time":2003000000000,"state":"active","ping":52},{"user_id":9,"name":"Wang of Wall St","steam_id":76561198047460598,"connected_time":4124000000000,"state":"active","ping":72},{"user_id":41,"name":"Dzhoshua","steam_id":76561198071915251,"connected_time":3514000000000,"state":"active","ping":67},{"user_id":62,"name":"ElZeto","steam_id":76561198252322622,"connected_time":1997000000000,"state":"active","ping":115},{"user_id":80,"name":"blossom","steam_id":76561198042735130,"connected_time":1083000000000,"state":"active","ping":106},{"user_id":76,"name":"thecal","steam_id":76561198307893384,"connected_time":1139000000000,"state":"active","ping":51},{"user_id":78,"name":"Dr. Dick","steam_id":76561198138011922,"connected_time":1099000000000,"state":"active","ping":71},{"user_id":84,"name":"zzz","steam_id":76561198143727547,"connected_time":821000000000,"state":"active","ping":93},{"user_id":22,"name":"vay hek big naturals","steam_id":76561198183889254,"connected_time":3914000000000,"state":"active","ping":55},{"user_id":79,"name":"Roberto Del Fuego","steam_id":76561198043458554,"connected_time":1096000000000,"state":"active","ping":50},{"user_id":82,"name":"Ġ1 ♦ Synth","steam_id":76561198058660228,"connected_time":1048000000000,"state":"active","ping":60},{"user_id":48,"name":"Bobby Baccalieri","steam_id":76561198059535856,"connected_time":3251000000000,"state":"active","ping":86},{"user_id":88,"name":"Boinker!","steam_id":76561198272961376,"connected_time":201000000000,"state":"active","ping":79},{"user_id":77,"name":"birbmanminty","steam_id":76561199159145275,"connected_time":1108000000000,"state":"active","ping":111},{"user_id":63,"name":"G-G-G-GAMERSHOT","steam_id":76561198798980951,"connected_time":1933000000000,"state":"active","ping":56},{"user_id":89,"name":"3ggsalad3","steam_id":76561199386969191,"connected_time":128000000000,"state":"active","ping":54},{"user_id":70,"name":"SleepyJackdaw","steam_id":76561198053520098,"connected_time":1624000000000,"state":"active","ping":46},{"user_id":81,"name":"Mr Happy","steam_id":76561198067689328,"connected_time":1075000000000,"state":"active","ping":54},{"user_id":60,"name":"Jill Stingray","steam_id":76561198074209737,"connected_time":2013000000000,"state":"active","ping":64},{"user_id":83,"name":"WarMace","steam_id":76561198395937853,"connected_time":859000000000,"state":"active","ping":70},{"user_id":87,"name":"jimmyfnaf172198yay","steam_id":76561198311446636,"connected_time":353000000000,"state":"active","ping":65},{"user_id":74,"name":"Puke Skyfucker","steam_id":76561198012846213,"connected_time":1323000000000,"state":"active","ping":71}]},{"server_id":36,"name":"Uncletopia | Chicago | 5 | All Maps","name_short":"chi-5","host":"chi-2.us.uncletopia.com","port":27015,"enabled":true,"region":"us-central","cc":"us","latitude":41.881832,"longitude":-87.62318,"reserved":0,"last_update":"0001-01-01T00:00:00Z","name_a2s":"Uncletopia | Chicago | 5 | All Maps","protocol":17,"map":"cp_process_final","folder":"tf","game":"Team Fortress","app_id":440,"player_count":24,"max_players":24,"Bots":0,"server_type":"Dedicated","server_os":"Linux","password":true,"vac":true,"version":"7882260","steam_id":85568392924866362,"keywords":["cp","nocrits","nodmgspread","uncletopia"],"game_id":440,"stv_port":27016,"stv_name":"Uncletopia | Chicago | 5 | All Maps | STV","players":[{"user_id":67,"name":"Robin","steam_id":76561198121165149,"connected_time":970000000000,"state":"active","ping":40},{"user_id":58,"name":"FredDurst2007YT","steam_id":76561198070923665,"connected_time":1147000000000,"state":"active","ping":76},{"user_id":49,"name":"korean thresh","steam_id":76561198125261443,"connected_time":2229000000000,"state":"active","ping":106},{"user_id":60,"name":"Seico Bass","steam_id":76561198123498500,"connected_time":1124000000000,"state":"active","ping":86},{"user_id":73,"name":"FiddyFoMike","steam_id":76561198057072581,"connected_time":724000000000,"state":"active","ping":98},{"user_id":77,"name":"venellope von vangabond","steam_id":76561198813574552,"connected_time":353000000000,"state":"active","ping":65},{"user_id":74,"name":"Fredrick","steam_id":76561197981419964,"connected_time":645000000000,"state":"active","ping":59},{"user_id":80,"name":"Oneal","steam_id":76561198026564095,"connected_time":327000000000,"state":"active","ping":48},{"user_id":81,"name":"DrDanny","steam_id":76561198117043921,"connected_time":198000000000,"state":"active","ping":105},{"user_id":75,"name":"glonk","steam_id":76561198162544699,"connected_time":633000000000,"state":"active","ping":56},{"user_id":64,"name":"Kuwait Grips","steam_id":76561198292689973,"connected_time":1067000000000,"state":"active","ping":46},{"user_id":61,"name":"DFR Le4n!!!","steam_id":76561198045522596,"connected_time":1123000000000,"state":"active","ping":81},{"user_id":47,"name":"LukeLeal","steam_id":76561198049822995,"connected_time":2311000000000,"state":"active","ping":167},{"user_id":51,"name":"sansa musa","steam_id":76561198163723555,"connected_time":2125000000000,"state":"active","ping":60},{"user_id":83,"name":"NUt","steam_id":76561198031007966,"connected_time":108000000000,"state":"active","ping":75},{"user_id":57,"name":"Walkiing","steam_id":76561198074473413,"connected_time":1346000000000,"state":"active","ping":45},{"user_id":52,"name":"Worldstarhiphop Mike","steam_id":76561198053967778,"connected_time":1937000000000,"state":"active","ping":76},{"user_id":66,"name":"NewerCoke","steam_id":76561198042911847,"connected_time":1062000000000,"state":"active","ping":71},{"user_id":68,"name":"Taze","steam_id":76561198000708462,"connected_time":957000000000,"state":"active","ping":64},{"user_id":79,"name":"garfield","steam_id":76561198114119308,"connected_time":337000000000,"state":"active","ping":67},{"user_id":70,"name":"Maven (famous)","steam_id":76561198045517514,"connected_time":892000000000,"state":"active","ping":63},{"user_id":56,"name":"real","steam_id":76561199161322235,"connected_time":1356000000000,"state":"active","ping":60},{"user_id":36,"name":"Aryze #SaveTF2","steam_id":76561198119561581,"connected_time":3089000000000,"state":"active","ping":79},{"user_id":72,"name":"Scita","steam_id":76561198066861559,"connected_time":873000000000,"state":"active","ping":71}]},{"server_id":37,"name":"Uncletopia | Chicago | 6 | All Maps","name_short":"chi-6","host":"chi-2.us.uncletopia.com","port":27025,"enabled":true,"region":"us-central","cc":"us","latitude":41.881832,"longitude":-87.62318,"reserved":0,"last_update":"0001-01-01T00:00:00Z","name_a2s":"Uncletopia | Chicago | 6 | All Maps","protocol":17,"map":"koth_cascade","folder":"tf","game":"Team Fortress","app_id":440,"player_count":1,"max_players":24,"Bots":0,"server_type":"Dedicated","server_os":"Linux","password":true,"vac":true,"version":"7882260","steam_id":85568392924866363,"keywords":["cp","nocrits","nodmgspread","uncletopia"],"game_id":440,"stv_port":27026,"stv_name":"Uncletopia | Chicago | 6 | All Maps | STV","players":[{"user_id":21,"name":"drdoofus123","steam_id":76561198016826181,"connected_time":61000000000,"state":"active","ping":63}]},{"server_id":38,"name":"Uncletopia | Chicago | 7 | Stopwatch Beta","name_short":"chi-7","host":"chi-2.us.uncletopia.com","port":27035,"enabled":true,"region":"us-central","cc":"us","latitude":41.881832,"longitude":-87.62318,"reserved":0,"last_update":"0001-01-01T00:00:00Z","name_a2s":"Uncletopia | Chicago | 7 | Stopwatch Beta","protocol":17,"map":"pl_swiftwater_final1","folder":"tf","game":"Team Fortress","app_id":440,"player_count":1,"max_players":24,"Bots":0,"server_type":"Dedicated","server_os":"Linux","password":true,"vac":true,"version":"7882260","steam_id":85568392924866364,"keywords":["nocrits","nodmgspread","payload","uncletopia"],"game_id":440,"stv_port":27036,"stv_name":"Uncletopia | Chicago | 7 | Stopwatch Beta | STV","players":[{"user_id":9,"name":"wiederholdjackson8","steam_id":76561199482841986,"connected_time":471000000000,"state":"active","ping":62}]},{"server_id":39,"name":"Uncletopia | Chicago | 8 | Community","name_short":"chi-8","host":"chi-2.us.uncletopia.com","port":27045,"enabled":true,"region":"us-central","cc":"us","latitude":41.881832,"longitude":-87.62318,"reserved":0,"last_update":"0001-01-01T00:00:00Z","name_a2s":"Uncletopia | Chicago | 8 | Community","protocol":17,"map":"workshop/pl_divulgence_b4b.ugc2884808746","folder":"tf","game":"Team Fortress","app_id":440,"player_count":0,"max_players":24,"Bots":0,"server_type":"Dedicated","server_os":"Linux","password":true,"vac":true,"version":"7882260","steam_id":85568392924866365,"keywords":["nocrits","nodmgspread","payload","uncletopia"],"game_id":440,"stv_port":27046,"stv_name":"Uncletopia | Chicago | 8 | Community | STV","players":null},{"server_id":8,"name":"Uncletopia | Dallas | 1 | All Maps","name_short":"dal-1","host":"dal-1.us.uncletopia.com","port":27015,"enabled":true,"region":"us-central","cc":"us","latitude":32.779167,"longitude":-96.80889,"reserved":0,"last_update":"0001-01-01T00:00:00Z","name_a2s":"Uncletopia | Dallas | 1 | All Maps","protocol":17,"map":"pl_swiftwater_final1","folder":"tf","game":"Team Fortress","app_id":440,"player_count":24,"max_players":24,"Bots":0,"server_type":"Dedicated","server_os":"Linux","password":true,"vac":true,"version":"7882260","steam_id":85568392924469986,"keywords":["nocrits","nodmgspread","payload","uncletopia"],"game_id":440,"stv_port":27016,"stv_name":"Uncletopia | Dallas | 1 | All Maps | STV","players":[{"user_id":81,"name":"Krow","steam_id":76561198010392099,"connected_time":1297000000000,"state":"active","ping":49},{"user_id":55,"name":"Corbe","steam_id":76561198353893927,"connected_time":3000000000000,"state":"active","ping":61},{"user_id":86,"name":"ImnotAbot:(","steam_id":76561199475442611,"connected_time":947000000000,"state":"active","ping":89},{"user_id":90,"name":"Tankedmink5567","steam_id":76561199033029270,"connected_time":333000000000,"state":"active","ping":138},{"user_id":89,"name":"ROGUE-PLANET","steam_id":76561198116023052,"connected_time":340000000000,"state":"active","ping":67},{"user_id":52,"name":"go touch keyboard","steam_id":76561198197388678,"connected_time":3026000000000,"state":"active","ping":75},{"user_id":40,"name":"Darling","steam_id":76561198127525888,"connected_time":3972000000000,"state":"active","ping":51},{"user_id":76,"name":"DragonHunter994","steam_id":76561199076203907,"connected_time":1477000000000,"state":"active","ping":58},{"user_id":85,"name":"TechnoBear2099","steam_id":76561198238863596,"connected_time":1080000000000,"state":"active","ping":45},{"user_id":15,"name":"A Gamer [F2P]","steam_id":76561198138712892,"connected_time":4527000000000,"state":"active","ping":44},{"user_id":78,"name":"Rafl","steam_id":76561198055222756,"connected_time":1429000000000,"state":"active","ping":47},{"user_id":80,"name":"The Pope","steam_id":76561198313560302,"connected_time":1413000000000,"state":"active","ping":56},{"user_id":82,"name":"Danger McHazard","steam_id":76561198059451274,"connected_time":1280000000000,"state":"active","ping":75},{"user_id":41,"name":"*♥‧₊˚ Matches *♥‧₊","steam_id":76561198048925904,"connected_time":3626000000000,"state":"active","ping":83},{"user_id":92,"name":"FluttyPutty","steam_id":76561198218446556,"connected_time":185000000000,"state":"active","ping":64},{"user_id":73,"name":"big ol' buford","steam_id":76561198290675957,"connected_time":1958000000000,"state":"active","ping":44},{"user_id":53,"name":"Tying the knot","steam_id":76561198247794130,"connected_time":3024000000000,"state":"active","ping":64},{"user_id":61,"name":"Zan1024","steam_id":76561198348640969,"connected_time":2781000000000,"state":"active","ping":51},{"user_id":31,"name":"Snivy64","steam_id":76561198423445376,"connected_time":4375000000000,"state":"active","ping":69},{"user_id":75,"name":"austintacious","steam_id":76561198054118061,"connected_time":1794000000000,"state":"active","ping":74},{"user_id":34,"name":"Mediocre Gaming","steam_id":76561199230467980,"connected_time":4326000000000,"state":"active","ping":87},{"user_id":35,"name":"eccuC","steam_id":76561198034818632,"connected_time":4312000000000,"state":"active","ping":362},{"user_id":83,"name":"a delicate flower","steam_id":76561198030324164,"connected_time":1238000000000,"state":"active","ping":90},{"user_id":88,"name":"Zenn","steam_id":76561198032618254,"connected_time":432000000000,"state":"active","ping":111}]},{"server_id":108,"name":"Uncletopia | Dallas | 2 | All Maps","name_short":"dal-2","host":"dal-1.us.uncletopia.com","port":27025,"enabled":true,"region":"us-central","cc":"us","latitude":32.779167,"longitude":-96.80889,"reserved":0,"last_update":"0001-01-01T00:00:00Z","name_a2s":"Uncletopia | Dallas | 2 | All Maps","protocol":17,"map":"pl_frontier_final","folder":"tf","game":"Team Fortress","app_id":440,"player_count":24,"max_players":24,"Bots":0,"server_type":"Dedicated","server_os":"Linux","password":true,"vac":true,"version":"7882260","steam_id":85568392924469988,"keywords":["nocrits","nodmgspread","payload","uncletopia"],"game_id":440,"stv_port":27026,"stv_name":"Uncletopia | Dallas | 2 | All Maps | STV","players":[{"user_id":91,"name":"xZackAttack27x","steam_id":76561198035446639,"connected_time":71000000000,"state":"active","ping":40},{"user_id":4,"name":"Cinnifox","steam_id":76561198068773971,"connected_time":5097000000000,"state":"active","ping":74},{"user_id":89,"name":"?pengin","steam_id":76561198254236408,"connected_time":533000000000,"state":"active","ping":95},{"user_id":86,"name":"Dr Hernandez","steam_id":76561198064232988,"connected_time":631000000000,"state":"active","ping":142},{"user_id":48,"name":"ChottoAMinute","steam_id":76561198873157775,"connected_time":2671000000000,"state":"active","ping":39},{"user_id":90,"name":"Sagertooth","steam_id":76561198060863894,"connected_time":197000000000,"state":"active","ping":59},{"user_id":84,"name":"LordOfTheNoobs","steam_id":76561197962697523,"connected_time":943000000000,"state":"active","ping":66},{"user_id":56,"name":"\u003c blank \u003e","steam_id":76561198937717599,"connected_time":2405000000000,"state":"active","ping":37},{"user_id":22,"name":"Griddy","steam_id":76561199100342013,"connected_time":4829000000000,"state":"active","ping":77},{"user_id":16,"name":"Notation","steam_id":76561198119509319,"connected_time":4874000000000,"state":"active","ping":66},{"user_id":68,"name":"ExplosiveGamer21","steam_id":76561198132370955,"connected_time":1108000000000,"state":"active","ping":99},{"user_id":85,"name":"Portabello","steam_id":76561198092412930,"connected_time":919000000000,"state":"active","ping":75},{"user_id":74,"name":"Theus117 [ チルノ⑨]","steam_id":76561198108902928,"connected_time":1057000000000,"state":"active","ping":43},{"user_id":78,"name":"Yakul","steam_id":76561198100040013,"connected_time":1045000000000,"state":"active","ping":96},{"user_id":60,"name":"Cofi","steam_id":76561199026721822,"connected_time":1688000000000,"state":"active","ping":85},{"user_id":50,"name":"Goblin Merchant (50 OFF)","steam_id":76561199323707429,"connected_time":2665000000000,"state":"active","ping":124},{"user_id":77,"name":"Spag Hekki","steam_id":76561198207579353,"connected_time":1046000000000,"state":"active","ping":84},{"user_id":26,"name":"Drozz Misses Shots","steam_id":76561198072555204,"connected_time":4783000000000,"state":"active","ping":74},{"user_id":67,"name":"Frisbee","steam_id":76561197962808987,"connected_time":1247000000000,"state":"active","ping":77},{"user_id":61,"name":"FunGi","steam_id":76561198881418662,"connected_time":1686000000000,"state":"active","ping":83},{"user_id":79,"name":"The Dead Weight","steam_id":76561198056694098,"connected_time":1029000000000,"state":"active","ping":64},{"user_id":81,"name":"James","steam_id":76561198081313916,"connected_time":1000000000000,"state":"active","ping":78},{"user_id":54,"name":"Cedric","steam_id":76561198072090580,"connected_time":2429000000000,"state":"active","ping":103},{"user_id":88,"name":"Eviscerator","steam_id":76561197980073637,"connected_time":611000000000,"state":"active","ping":91}]},{"server_id":5,"name":"Uncletopia | Frankfurt | 1 | All Maps","name_short":"frk-1","host":"frk-1.de.uncletopia.com","port":27015,"enabled":true,"region":"eu","cc":"de","latitude":50.110924,"longitude":8.682127,"reserved":0,"last_update":"0001-01-01T00:00:00Z","name_a2s":"Uncletopia | Frankfurt | 1 | All Maps","protocol":17,"map":"cp_process_final","folder":"tf","game":"Team Fortress","app_id":440,"player_count":0,"max_players":24,"Bots":0,"server_type":"Dedicated","server_os":"Linux","password":true,"vac":true,"version":"7882260","steam_id":85568392924469989,"keywords":["cp","nocrits","nodmgspread","uncletopia"],"game_id":440,"stv_port":27016,"stv_name":"Uncletopia | Frankfurt | 1 | All Maps | STV","players":null},{"server_id":110,"name":"Uncletopia | Frankfurt | 2 | All Maps","name_short":"frk-2","host":"frk-1.de.uncletopia.com","port":27025,"enabled":true,"region":"eu","cc":"de","latitude":50.110924,"longitude":8.682127,"reserved":0,"last_update":"0001-01-01T00:00:00Z","name_a2s":"Uncletopia | Frankfurt | 2 | All Maps","protocol":17,"map":"koth_viaduct","folder":"tf","game":"Team Fortress","app_id":440,"player_count":0,"max_players":24,"Bots":0,"server_type":"Dedicated","server_os":"Linux","password":true,"vac":true,"version":"7882260","steam_id":85568392924469990,"keywords":["cp","nocrits","nodmgspread","uncletopia"],"game_id":440,"stv_port":27026,"stv_name":"Uncletopia | Frankfurt | 2 | All Maps | STV","players":null},{"server_id":308,"name":"Uncletopia | Frankfurt | 3 | All Maps","name_short":"frk-3","host":"frk-1.de.uncletopia.com","port":27035,"enabled":true,"region":"eu","cc":"de","latitude":50.110924,"longitude":8.682127,"reserved":0,"last_update":"0001-01-01T00:00:00Z","name_a2s":"Uncletopia | Frankfurt | 3 | All Maps","protocol":17,"map":"pl_snowycoast","folder":"tf","game":"Team Fortress","app_id":440,"player_count":0,"max_players":24,"Bots":0,"server_type":"Dedicated","server_os":"Linux","password":true,"vac":true,"version":"7882260","steam_id":85568392924504274,"keywords":["nocrits","nodmgspread","payload","uncletopia"],"game_id":440,"stv_port":27036,"stv_name":"Uncletopia | Frankfurt | 3 | All Maps | STV","players":null},{"server_id":309,"name":"Uncletopia | Frankfurt | 4 | All Maps","name_short":"frk-4","host":"frk-1.de.uncletopia.com","port":27045,"enabled":true,"region":"eu","cc":"de","latitude":50.110924,"longitude":8.682127,"reserved":0,"last_update":"0001-01-01T00:00:00Z","name_a2s":"Uncletopia | Frankfurt | 4 | All Maps","protocol":17,"map":"pl_badwater","folder":"tf","game":"Team Fortress","app_id":440,"player_count":0,"max_players":24,"Bots":0,"server_type":"Dedicated","server_os":"Linux","password":true,"vac":true,"version":"7882260","steam_id":85568392924504275,"keywords":["nocrits","nodmgspread","payload","uncletopia"],"game_id":440,"stv_port":27046,"stv_name":"Uncletopia | Frankfurt | 4 | All Maps | STV","players":null},{"server_id":310,"name":"Uncletopia | Frankfurt | 5 | All Maps","name_short":"frk-5","host":"frk-1.de.uncletopia.com","port":27055,"enabled":true,"region":"eu","cc":"de","latitude":50.110924,"longitude":8.682127,"reserved":0,"last_update":"0001-01-01T00:00:00Z","name_a2s":"Uncletopia | Frankfurt | 5 | All Maps","protocol":17,"map":"cp_mountainlab","folder":"tf","game":"Team Fortress","app_id":440,"player_count":0,"max_players":24,"Bots":0,"server_type":"Dedicated","server_os":"Linux","password":true,"vac":true,"version":"7882260","steam_id":85568392924504277,"keywords":["cp","nocrits","nodmgspread","uncletopia"],"game_id":440,"stv_port":27056,"stv_name":"Uncletopia | Frankfurt | 5 | All Maps | STV","players":null},{"server_id":311,"name":"Uncletopia | Frankfurt | 6 | All Maps","name_short":"frk-6","host":"frk-1.de.uncletopia.com","port":27065,"enabled":true,"region":"eu","cc":"de","latitude":50.110924,"longitude":8.682127,"reserved":0,"last_update":"0001-01-01T00:00:00Z","name_a2s":"Uncletopia | Frankfurt | 6 | All Maps","protocol":17,"map":"pl_badwater","folder":"tf","game":"Team Fortress","app_id":440,"player_count":0,"max_players":24,"Bots":0,"server_type":"Dedicated","server_os":"Linux","password":true,"vac":true,"version":"7882260","steam_id":85568392924504278,"keywords":["nocrits","nodmgspread","payload","uncletopia"],"game_id":440,"stv_port":27066,"stv_name":"Uncletopia | Frankfurt | 6 | All Maps | STV","players":null},{"server_id":23,"name":"Uncletopia | Frankfurt | 7 | Stopwatch Beta","name_short":"frk-7","host":"frk-1.de.uncletopia.com","port":27075,"enabled":true,"region":"eu","cc":"de","latitude":50.110924,"longitude":8.682127,"reserved":0,"last_update":"0001-01-01T00:00:00Z","name_a2s":"Uncletopia | Frankfurt | 7 | Stopwatch Beta","protocol":17,"map":"cp_dustbowl","folder":"tf","game":"Team Fortress","app_id":440,"player_count":0,"max_players":24,"Bots":0,"server_type":"Dedicated","server_os":"Linux","password":true,"vac":true,"version":"7882260","steam_id":85568392924742827,"keywords":["cp","nocrits","nodmgspread","uncletopia"],"game_id":440,"stv_port":27076,"stv_name":"Uncletopia | Frankfurt | 7 | Stopwatch Beta | STV","players":null},{"server_id":24,"name":"Uncletopia | Frankfurt | 8 | Community","name_short":"frk-8","host":"frk-1.de.uncletopia.com","port":27085,"enabled":true,"region":"eu","cc":"de","latitude":50.110924,"longitude":8.682127,"reserved":0,"last_update":"0001-01-01T00:00:00Z","name_a2s":"Uncletopia | Frankfurt | 8 | Community","protocol":17,"map":"koth_cascade","folder":"tf","game":"Team Fortress","app_id":440,"player_count":0,"max_players":24,"Bots":0,"server_type":"Dedicated","server_os":"Linux","password":true,"vac":true,"version":"7882260","steam_id":85568392924742828,"keywords":["cp","nocrits","nodmgspread","uncletopia"],"game_id":440,"stv_port":27086,"stv_name":"Uncletopia | Frankfurt | 8 | Community | STV","players":null},{"server_id":202,"name":"Uncletopia | Hong Kong | 1 | All Maps","name_short":"hgk-1","host":"hgk-1.hk.uncletopia.com","port":27015,"enabled":true,"region":"asia","cc":"hk","latitude":22.302711,"longitude":114.177216,"reserved":0,"last_update":"0001-01-01T00:00:00Z","name_a2s":"Uncletopia | Hong Kong | 1 | All Maps","protocol":17,"map":"koth_cascade","folder":"tf","game":"Team Fortress","app_id":440,"player_count":0,"max_players":24,"Bots":0,"server_type":"Dedicated","server_os":"Linux","password":true,"vac":true,"version":"7882260","steam_id":85568392924494504,"keywords":["cp","nocrits","nodmgspread","uncletopia"],"game_id":440,"stv_port":27016,"stv_name":"Uncletopia | Hong Kong | 1 | All Maps | STV","players":null},{"server_id":1,"name":"Uncletopia | Los Angeles | 1 | All Maps","name_short":"lax-1","host":"lax-1.us.uncletopia.com","port":27015,"enabled":true,"region":"us-west","cc":"us","latitude":33.94279,"longitude":-118.41004,"reserved":0,"last_update":"0001-01-01T00:00:00Z","name_a2s":"Uncletopia | Los Angeles | 1 | All Maps","protocol":17,"map":"pl_badwater","folder":"tf","game":"Team Fortress","app_id":440,"player_count":23,"max_players":24,"Bots":0,"server_type":"Dedicated","server_os":"Linux","password":true,"vac":true,"version":"7882260","steam_id":85568392924469991,"keywords":["nocrits","nodmgspread","payload","uncletopia"],"game_id":440,"stv_port":27016,"stv_name":"Uncletopia | Los Angeles | 1 | All Maps | STV","players":[{"user_id":43,"name":"AbsurdSiren","steam_id":76561199196666330,"connected_time":3749000000000,"state":"active","ping":106},{"user_id":51,"name":"Mugen","steam_id":76561198411174773,"connected_time":2976000000000,"state":"active","ping":44},{"user_id":61,"name":"Turtimos","steam_id":76561198093519137,"connected_time":2199000000000,"state":"active","ping":61},{"user_id":63,"name":"Give Me Chicken","steam_id":76561199376462977,"connected_time":2170000000000,"state":"active","ping":100},{"user_id":54,"name":"pac attack on the nintendo swit","steam_id":76561198206922028,"connected_time":2552000000000,"state":"active","ping":47},{"user_id":66,"name":"log","steam_id":76561198977633937,"connected_time":1719000000000,"state":"active","ping":100},{"user_id":38,"name":"Geight","steam_id":76561197991645292,"connected_time":4341000000000,"state":"active","ping":88},{"user_id":59,"name":"jayzak24","steam_id":76561198354267509,"connected_time":2210000000000,"state":"active","ping":46},{"user_id":72,"name":"BreadQuest","steam_id":76561198082425960,"connected_time":379000000000,"state":"active","ping":75},{"user_id":70,"name":"Slim Charles","steam_id":76561197981687895,"connected_time":678000000000,"state":"active","ping":59},{"user_id":69,"name":"Stapler","steam_id":76561198099295077,"connected_time":955000000000,"state":"active","ping":46},{"user_id":15,"name":"Platinum","steam_id":76561198052463484,"connected_time":5331000000000,"state":"active","ping":54},{"user_id":52,"name":"Wolf","steam_id":76561199059733640,"connected_time":2636000000000,"state":"active","ping":58},{"user_id":71,"name":"Ivy","steam_id":76561198208996573,"connected_time":592000000000,"state":"active","ping":53},{"user_id":35,"name":"Blankrq","steam_id":76561198261030763,"connected_time":4488000000000,"state":"active","ping":55},{"user_id":19,"name":"[DATS➡] Sugar Meowth","steam_id":76561197995251793,"connected_time":5301000000000,"state":"active","ping":61},{"user_id":53,"name":"Sir_Cheddar","steam_id":76561198132354554,"connected_time":2568000000000,"state":"active","ping":62},{"user_id":68,"name":"Imitation Caucasian","steam_id":76561198320536166,"connected_time":1202000000000,"state":"active","ping":67},{"user_id":73,"name":"Nugakku","steam_id":76561198082346219,"connected_time":36000000000,"state":"active","ping":59},{"user_id":62,"name":"Samercam","steam_id":76561198189403190,"connected_time":2192000000000,"state":"active","ping":90},{"user_id":40,"name":"Overmeme","steam_id":76561199455124144,"connected_time":4311000000000,"state":"active","ping":90},{"user_id":28,"name":"triph","steam_id":76561198067196509,"connected_time":5195000000000,"state":"active","ping":44},{"user_id":32,"name":"Ballista","steam_id":76561197983182562,"connected_time":4936000000000,"state":"active","ping":76}]},{"server_id":112,"name":"Uncletopia | Los Angeles | 2 | All Maps","name_short":"lax-2","host":"lax-1.us.uncletopia.com","port":27025,"enabled":true,"region":"us-west","cc":"us","latitude":33.94279,"longitude":-118.41004,"reserved":0,"last_update":"0001-01-01T00:00:00Z","name_a2s":"Uncletopia | Los Angeles | 2 | All Maps","protocol":17,"map":"cp_snakewater_final1","folder":"tf","game":"Team Fortress","app_id":440,"player_count":0,"max_players":24,"Bots":0,"server_type":"Dedicated","server_os":"Linux","password":true,"vac":true,"version":"7882260","steam_id":85568392924469992,"keywords":["cp","nocrits","nodmgspread","uncletopia"],"game_id":440,"stv_port":27026,"stv_name":"Uncletopia | Los Angeles | 2 | All Maps | STV","players":null},{"server_id":324,"name":"Uncletopia | Los Angeles | 3 | All Maps","name_short":"lax-3","host":"lax-1.us.uncletopia.com","port":27035,"enabled":true,"region":"us-west","cc":"us","latitude":33.94279,"longitude":-118.41004,"reserved":0,"last_update":"0001-01-01T00:00:00Z","name_a2s":"Uncletopia | Los Angeles | 3 | All Maps","protocol":17,"map":"pl_pier","folder":"tf","game":"Team Fortress","app_id":440,"player_count":24,"max_players":24,"Bots":0,"server_type":"Dedicated","server_os":"Linux","password":true,"vac":true,"version":"7882260","steam_id":85568392924510198,"keywords":["nocrits","nodmgspread","payload","uncletopia"],"game_id":440,"stv_port":27036,"stv_name":"Uncletopia | Los Angeles | 3 | All Maps | STV","players":[{"user_id":10,"name":"MS Paint Gamer","steam_id":76561198964527916,"connected_time":2570000000000,"state":"active","ping":70},{"user_id":43,"name":"viaodeegsm","steam_id":76561198025295263,"connected_time":1301000000000,"state":"active","ping":87},{"user_id":8,"name":"Your kinky Onee-san","steam_id":76561199146582356,"connected_time":2609000000000,"state":"active","ping":85},{"user_id":9,"name":"John Wick's puppy","steam_id":76561198064662875,"connected_time":2585000000000,"state":"active","ping":52},{"user_id":11,"name":"PirateJet","steam_id":76561198050858744,"connected_time":2563000000000,"state":"active","ping":56},{"user_id":12,"name":"Star","steam_id":76561198187728043,"connected_time":2524000000000,"state":"active","ping":50},{"user_id":40,"name":"Landlord","steam_id":76561198987913057,"connected_time":1624000000000,"state":"active","ping":65},{"user_id":19,"name":"awtem","steam_id":76561198083673187,"connected_time":2328000000000,"state":"active","ping":54},{"user_id":42,"name":"Maid 'n' China","steam_id":76561198423392976,"connected_time":1459000000000,"state":"active","ping":53},{"user_id":44,"name":"Truffles","steam_id":76561198095868800,"connected_time":962000000000,"state":"active","ping":99},{"user_id":39,"name":"momus","steam_id":76561198966979196,"connected_time":1825000000000,"state":"active","ping":52},{"user_id":20,"name":"STENDO_CLIP","steam_id":76561198059570167,"connected_time":2321000000000,"state":"active","ping":163},{"user_id":45,"name":"Dani","steam_id":76561198348012378,"connected_time":912000000000,"state":"active","ping":119},{"user_id":22,"name":"Brain Tumor","steam_id":76561198805526881,"connected_time":2301000000000,"state":"active","ping":131},{"user_id":54,"name":"Crusader","steam_id":76561198204260501,"connected_time":597000000000,"state":"active","ping":53},{"user_id":26,"name":"LeTonzy","steam_id":76561198005806699,"connected_time":2274000000000,"state":"active","ping":66},{"user_id":36,"name":"Ignition","steam_id":76561198857365735,"connected_time":2128000000000,"state":"active","ping":67},{"user_id":55,"name":"♥Cat in a Tub♥","steam_id":76561198170443243,"connected_time":578000000000,"state":"active","ping":51},{"user_id":31,"name":"[㏈] Bumpercars","steam_id":76561198061591743,"connected_time":2192000000000,"state":"active","ping":108},{"user_id":32,"name":"unlikelycure","steam_id":76561199174450788,"connected_time":2182000000000,"state":"active","ping":126},{"user_id":46,"name":"Perfume Department","steam_id":76561198128299594,"connected_time":911000000000,"state":"active","ping":64},{"user_id":37,"name":"Model CHP-3Y","steam_id":76561198107806145,"connected_time":2121000000000,"state":"active","ping":120},{"user_id":47,"name":"BorstchBag","steam_id":76561198155294045,"connected_time":895000000000,"state":"active","ping":98},{"user_id":35,"name":"Pah-Wraith Gul Dukat","steam_id":76561198033918106,"connected_time":2176000000000,"state":"active","ping":50}]},{"server_id":25,"name":"Uncletopia | Los Angeles | 4 | Stopwatch Beta","name_short":"lax-4","host":"lax-1.us.uncletopia.com","port":27045,"enabled":true,"region":"us-west","cc":"us","latitude":33.94279,"longitude":-118.41004,"reserved":0,"last_update":"0001-01-01T00:00:00Z","name_a2s":"Uncletopia | Los Angeles | 4 | Stopwatch Beta","protocol":17,"map":"cp_snakewater_final1","folder":"tf","game":"Team Fortress","app_id":440,"player_count":0,"max_players":24,"Bots":0,"server_type":"Dedicated","server_os":"Linux","password":true,"vac":true,"version":"7882260","steam_id":85568392924510199,"keywords":["cp","nocrits","nodmgspread","uncletopia"],"game_id":440,"stv_port":27046,"stv_name":"Uncletopia | Los Angeles | 4 | Stopwatch Beta | STV","players":null},{"server_id":11,"name":"Uncletopia | London | 1 | All Maps","name_short":"lon-1","host":"lon-1.uk.uncletopia.com","port":27015,"enabled":true,"region":"eu","cc":"gb","latitude":51.509865,"longitude":-0.118092,"reserved":0,"last_update":"0001-01-01T00:00:00Z","name_a2s":"Uncletopia | London | 1 | All Maps","protocol":17,"map":"pl_snowycoast","folder":"tf","game":"Team Fortress","app_id":440,"player_count":24,"max_players":24,"Bots":0,"server_type":"Dedicated","server_os":"Linux","password":true,"vac":true,"version":"7882260","steam_id":85568392924367362,"keywords":["nocrits","nodmgspread","payload","uncletopia"],"game_id":440,"stv_port":27016,"stv_name":"Uncletopia | London | 1 | All Maps | STV","players":[{"user_id":72,"name":"Blobbaz","steam_id":76561198031076278,"connected_time":1513000000000,"state":"active","ping":49},{"user_id":78,"name":"BuzzBees ❤","steam_id":76561198101502273,"connected_time":888000000000,"state":"active","ping":46},{"user_id":32,"name":"cinny","steam_id":76561198832112629,"connected_time":4408000000000,"state":"active","ping":88},{"user_id":6,"name":"gagalak","steam_id":76561198089979108,"connected_time":5433000000000,"state":"active","ping":97},{"user_id":64,"name":"Ap240","steam_id":76561198108670901,"connected_time":2177000000000,"state":"active","ping":125},{"user_id":54,"name":"CEO of Monkey Business","steam_id":76561197970114051,"connected_time":2992000000000,"state":"active","ping":43},{"user_id":82,"name":"cooler","steam_id":76561198143867628,"connected_time":644000000000,"state":"active","ping":47},{"user_id":70,"name":"Jackson News","steam_id":76561198401610939,"connected_time":1564000000000,"state":"active","ping":63},{"user_id":37,"name":"Cheshireycat","steam_id":76561198067204908,"connected_time":3856000000000,"state":"active","ping":59},{"user_id":75,"name":"KittyKate ❤","steam_id":76561198116340817,"connected_time":919000000000,"state":"active","ping":61},{"user_id":61,"name":"lil costco","steam_id":76561198043862737,"connected_time":2507000000000,"state":"active","ping":107},{"user_id":14,"name":"lettuce out of stock","steam_id":76561199401283123,"connected_time":5356000000000,"state":"active","ping":50},{"user_id":73,"name":"tired","steam_id":76561198046838168,"connected_time":1264000000000,"state":"active","ping":59},{"user_id":80,"name":"SHPC azzii","steam_id":76561198043939280,"connected_time":868000000000,"state":"active","ping":40},{"user_id":57,"name":"cooler bones","steam_id":76561199480942903,"connected_time":2671000000000,"state":"active","ping":73},{"user_id":84,"name":"Sambuca","steam_id":76561199233979726,"connected_time":154000000000,"state":"active","ping":95},{"user_id":47,"name":"ZackMcRizzl","steam_id":76561198062075870,"connected_time":3305000000000,"state":"active","ping":63},{"user_id":48,"name":"puck","steam_id":76561198121260981,"connected_time":3295000000000,"state":"active","ping":45},{"user_id":85,"name":"Proto-arc","steam_id":76561198012776747,"connected_time":36000000000,"state":"active","ping":56},{"user_id":65,"name":"DDUUCCKK","steam_id":76561198141953050,"connected_time":2085000000000,"state":"active","ping":52},{"user_id":66,"name":"bumblebrain","steam_id":76561198199117446,"connected_time":1838000000000,"state":"active","ping":51},{"user_id":71,"name":"King of Cope","steam_id":76561198083505031,"connected_time":1564000000000,"state":"active","ping":41},{"user_id":41,"name":"The Punch","steam_id":76561198212488780,"connected_time":3781000000000,"state":"active","ping":61}]},{"server_id":114,"name":"Uncletopia | London | 2 | All Maps","name_short":"lon-2","host":"lon-1.uk.uncletopia.com","port":27025,"enabled":true,"region":"eu","cc":"gb","latitude":51.509865,"longitude":-0.118092,"reserved":0,"last_update":"0001-01-01T00:00:00Z","name_a2s":"Uncletopia | London | 2 | All Maps","protocol":17,"map":"pl_swiftwater_final1","folder":"tf","game":"Team Fortress","app_id":440,"player_count":0,"max_players":24,"Bots":0,"server_type":"Dedicated","server_os":"Linux","password":true,"vac":true,"version":"7882260","steam_id":85568392924470941,"keywords":["nocrits","nodmgspread","payload","uncletopia"],"game_id":440,"stv_port":27026,"stv_name":"Uncletopia | London | 2 | All Maps | STV","players":null},{"server_id":320,"name":"Uncletopia | London | 3 | All Maps","name_short":"lon-3","host":"lon-1.uk.uncletopia.com","port":27035,"enabled":true,"region":"eu","cc":"gb","latitude":51.509865,"longitude":-0.118092,"reserved":0,"last_update":"0001-01-01T00:00:00Z","name_a2s":"Uncletopia | London | 3 | All Maps","protocol":17,"map":"koth_highpass","folder":"tf","game":"Team Fortress","app_id":440,"player_count":0,"max_players":24,"Bots":0,"server_type":"Dedicated","server_os":"Linux","password":true,"vac":true,"version":"7882260","steam_id":85568392924510192,"keywords":["cp","nocrits","nodmgspread","uncletopia"],"game_id":440,"stv_port":27036,"stv_name":"Uncletopia | London | 3 | All Maps | STV","players":null},{"server_id":321,"name":"Uncletopia | London | 4 | All Maps","name_short":"lon-4","host":"lon-1.uk.uncletopia.com","port":27045,"enabled":true,"region":"eu","cc":"gb","latitude":51.509865,"longitude":-0.118092,"reserved":0,"last_update":"0001-01-01T00:00:00Z","name_a2s":"Uncletopia | London | 4 | All Maps","protocol":17,"map":"pl_upward","folder":"tf","game":"Team Fortress","app_id":440,"player_count":0,"max_players":24,"Bots":0,"server_type":"Dedicated","server_os":"Linux","password":true,"vac":true,"version":"7882260","steam_id":85568392924510193,"keywords":["nocrits","nodmgspread","payload","uncletopia"],"game_id":440,"stv_port":27046,"stv_name":"Uncletopia | London | 4 | All Maps | STV","players":null},{"server_id":21,"name":"Uncletopia | London | 5 | All Maps","name_short":"lon-5","host":"lon-1.uk.uncletopia.com","port":27055,"enabled":true,"region":"eu","cc":"gb","latitude":51.509865,"longitude":-0.118092,"reserved":0,"last_update":"0001-01-01T00:00:00Z","name_a2s":"Uncletopia | London | 5 | All Maps","protocol":17,"map":"pl_frontier_final","folder":"tf","game":"Team Fortress","app_id":440,"player_count":0,"max_players":24,"Bots":0,"server_type":"Dedicated","server_os":"Linux","password":true,"vac":true,"version":"7882260","steam_id":85568392924742829,"keywords":["nocrits","nodmgspread","payload","uncletopia"],"game_id":440,"stv_port":27056,"stv_name":"Uncletopia | London | 5 | All Maps | STV","players":null},{"server_id":22,"name":"Uncletopia | London | 6 | All Maps","name_short":"lon-6","host":"lon-1.uk.uncletopia.com","port":27065,"enabled":true,"region":"eu","cc":"gb","latitude":51.509865,"longitude":-0.118092,"reserved":0,"last_update":"0001-01-01T00:00:00Z","name_a2s":"Uncletopia | London | 6 | All Maps","protocol":17,"map":"cp_altitude","folder":"tf","game":"Team Fortress","app_id":440,"player_count":0,"max_players":24,"Bots":0,"server_type":"Dedicated","server_os":"Linux","password":true,"vac":true,"version":"7882260","steam_id":85568392924742830,"keywords":["cp","nocrits","nodmgspread","uncletopia"],"game_id":440,"stv_port":27066,"stv_name":"Uncletopia | London | 6 | All Maps | STV","players":null},{"server_id":40,"name":"Uncletopia | London | 7 | No Payload","name_short":"lon-7","host":"lon-1.uk.uncletopia.com","port":27075,"enabled":true,"region":"eu","cc":"gb","latitude":51.509865,"longitude":-0.118092,"reserved":0,"last_update":"0001-01-01T00:00:00Z","name_a2s":"Uncletopia | London | 7 | No Payload","protocol":17,"map":"pl_pier","folder":"tf","game":"Team Fortress","app_id":440,"player_count":0,"max_players":24,"Bots":0,"server_type":"Dedicated","server_os":"Linux","password":true,"vac":true,"version":"7882260","steam_id":85568392924964314,"keywords":["nocrits","nodmgspread","payload","uncletopia"],"game_id":440,"stv_port":27076,"stv_name":"Uncletopia | London | 7 | No Payload | STV","players":null},{"server_id":41,"name":"Uncletopia | London | 8 | Community","name_short":"lon-8","host":"lon-1.uk.uncletopia.com","port":27085,"enabled":true,"region":"eu","cc":"gb","latitude":51.509865,"longitude":-0.118092,"reserved":0,"last_update":"0001-01-01T00:00:00Z","name_a2s":"Uncletopia | London | 8 | Community","protocol":17,"map":"pl_swiftwater_final1","folder":"tf","game":"Team Fortress","app_id":440,"player_count":0,"max_players":24,"Bots":0,"server_type":"Dedicated","server_os":"Linux","password":true,"vac":true,"version":"7882260","steam_id":85568392924964315,"keywords":["nocrits","nodmgspread","payload","uncletopia"],"game_id":440,"stv_port":27086,"stv_name":"Uncletopia | London | 8 | Community | STV","players":null},{"server_id":300,"name":"Uncletopia | Montréal | 1 | All Maps","name_short":"mtl-1","host":"mtl-1.ca.uncletopia.com","port":27015,"enabled":true,"region":"us-east","cc":"ca","latitude":45.50889,"longitude":-73.56167,"reserved":0,"last_update":"0001-01-01T00:00:00Z","name_a2s":"Uncletopia | Montréal | 1 | All Maps","protocol":17,"map":"koth_viaduct","folder":"tf","game":"Team Fortress","app_id":440,"player_count":0,"max_players":24,"Bots":0,"server_type":"Dedicated","server_os":"Linux","password":true,"vac":true,"version":"7882260","steam_id":85568392924500087,"keywords":["cp","nocrits","nodmgspread","uncletopia"],"game_id":440,"stv_port":27016,"stv_name":"Uncletopia | Montréal | 1 | All Maps | STV","players":null},{"server_id":301,"name":"Uncletopia | Montréal | 2 | All Maps","name_short":"mtl-2","host":"mtl-1.ca.uncletopia.com","port":27025,"enabled":true,"region":"us-east","cc":"ca","latitude":45.50889,"longitude":-73.56167,"reserved":0,"last_update":"0001-01-01T00:00:00Z","name_a2s":"Uncletopia | Montréal | 2 | All Maps","protocol":17,"map":"cp_sunshine","folder":"tf","game":"Team Fortress","app_id":440,"player_count":0,"max_players":24,"Bots":0,"server_type":"Dedicated","server_os":"Linux","password":true,"vac":true,"version":"7882260","steam_id":85568392924500088,"keywords":["cp","nocrits","nodmgspread","uncletopia"],"game_id":440,"stv_port":27026,"stv_name":"Uncletopia | Montréal | 2 | All Maps | STV","players":null},{"server_id":302,"name":"Uncletopia | Montréal | 3 | All Maps","name_short":"mtl-3","host":"mtl-1.ca.uncletopia.com","port":27035,"enabled":true,"region":"us-east","cc":"ca","latitude":45.50889,"longitude":-73.56167,"reserved":0,"last_update":"0001-01-01T00:00:00Z","name_a2s":"Uncletopia | Montréal | 3 | All Maps","protocol":17,"map":"pl_badwater","folder":"tf","game":"Team Fortress","app_id":440,"player_count":24,"max_players":24,"Bots":0,"server_type":"Dedicated","server_os":"Linux","password":true,"vac":true,"version":"7882260","steam_id":85568392924500089,"keywords":["nocrits","nodmgspread","payload","uncletopia"],"game_id":440,"stv_port":27036,"stv_name":"Uncletopia | Montréal | 3 | All Maps | STV","players":[{"user_id":78,"name":"Alexhcgarヅ","steam_id":76561198085706389,"connected_time":429000000000,"state":"active","ping":100},{"user_id":41,"name":"johcorn","steam_id":76561198983795255,"connected_time":2070000000000,"state":"active","ping":77},{"user_id":5,"name":"YesMargaret","steam_id":76561198127971751,"connected_time":3869000000000,"state":"active","ping":58},{"user_id":54,"name":"you forgot the sauce","steam_id":76561198387016713,"connected_time":1699000000000,"state":"active","ping":52},{"user_id":51,"name":"dr peppah chug!","steam_id":76561198068835693,"connected_time":1885000000000,"state":"active","ping":65},{"user_id":91,"name":"Diarrhea Gaming","steam_id":76561198090589784,"connected_time":14000000000,"state":"spawning","ping":73},{"user_id":77,"name":"DiscoTraveler","steam_id":76561199240168088,"connected_time":496000000000,"state":"active","ping":52},{"user_id":92,"name":"mashallah","steam_id":76561198075111427,"connected_time":4000000000,"state":"spawning","ping":53},{"user_id":69,"name":"neet","steam_id":76561197968115168,"connected_time":714000000000,"state":"active","ping":53},{"user_id":75,"name":"Eve","steam_id":76561198052472822,"connected_time":520000000000,"state":"active","ping":63},{"user_id":74,"name":"Kadrox","steam_id":76561199228653314,"connected_time":536000000000,"state":"active","ping":82},{"user_id":15,"name":"jack of all trades","steam_id":76561199198696635,"connected_time":3364000000000,"state":"active","ping":94},{"user_id":76,"name":"Rukh","steam_id":76561197999361315,"connected_time":520000000000,"state":"active","ping":112},{"user_id":38,"name":"Byte The Protogen","steam_id":76561199229871383,"connected_time":2272000000000,"state":"active","ping":122},{"user_id":79,"name":"MondoDong","steam_id":76561197991400109,"connected_time":418000000000,"state":"active","ping":60},{"user_id":80,"name":"Za Zombie","steam_id":76561198055545262,"connected_time":353000000000,"state":"active","ping":72},{"user_id":68,"name":"gideon nav my beloved","steam_id":76561198259092181,"connected_time":746000000000,"state":"active","ping":59},{"user_id":81,"name":"paiso","steam_id":76561198297775034,"connected_time":335000000000,"state":"active","ping":57},{"user_id":86,"name":"Alice in Rubberland","steam_id":76561198087328346,"connected_time":211000000000,"state":"active","ping":59},{"user_id":37,"name":"Sleggie","steam_id":76561198027878872,"connected_time":2340000000000,"state":"active","ping":49},{"user_id":83,"name":"Lesbian Chungus","steam_id":76561198055964295,"connected_time":313000000000,"state":"active","ping":55},{"user_id":87,"name":"Eternal Neckbeard","steam_id":76561198201862415,"connected_time":150000000000,"state":"active","ping":45},{"user_id":85,"name":"It's a Doggydog World","steam_id":76561198018232414,"connected_time":277000000000,"state":"active","ping":132},{"user_id":90,"name":"Rudy","steam_id":76561198013456828,"connected_time":41000000000,"state":"spawning","ping":74}]},{"server_id":303,"name":"Uncletopia | Montréal | 4 | No Payload","name_short":"mtl-4","host":"mtl-1.ca.uncletopia.com","port":27045,"enabled":true,"region":"us-east","cc":"ca","latitude":45.50889,"longitude":-73.56167,"reserved":0,"last_update":"0001-01-01T00:00:00Z","name_a2s":"Uncletopia | Montréal | 4 | No Payload","protocol":17,"map":"cp_altitude","folder":"tf","game":"Team Fortress","app_id":440,"player_count":0,"max_players":24,"Bots":0,"server_type":"Dedicated","server_os":"Linux","password":true,"vac":true,"version":"7882260","steam_id":85568392924500090,"keywords":["cp","nocrits","nodmgspread","uncletopia"],"game_id":440,"stv_port":27046,"stv_name":"Uncletopia | Montréal | 4 | No Payload | STV","players":null},{"server_id":13,"name":"Uncletopia | New York City | 1 | All Maps","name_short":"nyc-1","host":"nyc-1.us.uncletopia.com","port":27015,"enabled":true,"region":"us-east","cc":"us","latitude":40.73061,"longitude":-73.93524,"reserved":0,"last_update":"0001-01-01T00:00:00Z","name_a2s":"Uncletopia | New York City | 1 | All Maps","protocol":17,"map":"pl_pier","folder":"tf","game":"Team Fortress","app_id":440,"player_count":24,"max_players":24,"Bots":0,"server_type":"Dedicated","server_os":"Linux","password":true,"vac":true,"version":"7882260","steam_id":85568392924469993,"keywords":["nocrits","nodmgspread","payload","uncletopia"],"game_id":440,"stv_port":27016,"stv_name":"Uncletopia | New York City | 1 | All Maps | STV","players":[{"user_id":93,"name":"uzr","steam_id":76561198799343084,"connected_time":643000000000,"state":"active","ping":115},{"user_id":102,"name":"Hoofuyu","steam_id":76561199022142345,"connected_time":117000000000,"state":"active","ping":86},{"user_id":55,"name":"Sera","steam_id":76561197994547338,"connected_time":3350000000000,"state":"active","ping":50},{"user_id":97,"name":"Primal","steam_id":76561197983118203,"connected_time":208000000000,"state":"active","ping":92},{"user_id":62,"name":"J.G. Klaus","steam_id":76561198001111196,"connected_time":3285000000000,"state":"active","ping":85},{"user_id":75,"name":"abed","steam_id":76561198072856511,"connected_time":1862000000000,"state":"active","ping":83},{"user_id":82,"name":"Ghost Mountain","steam_id":76561198273383183,"connected_time":906000000000,"state":"active","ping":68},{"user_id":92,"name":"TheLunerSun","steam_id":76561199121623197,"connected_time":684000000000,"state":"active","ping":87},{"user_id":40,"name":"Voracious Puma","steam_id":76561197963621649,"connected_time":4445000000000,"state":"active","ping":73},{"user_id":87,"name":"cellogamer","steam_id":76561198016937098,"connected_time":790000000000,"state":"active","ping":51},{"user_id":100,"name":"smuffy","steam_id":76561198091459506,"connected_time":190000000000,"state":"active","ping":57},{"user_id":99,"name":"Grand Wizard Autismo","steam_id":76561198069834979,"connected_time":200000000000,"state":"active","ping":72},{"user_id":101,"name":"Sniper","steam_id":76561199482262282,"connected_time":147000000000,"state":"active","ping":70},{"user_id":88,"name":"vukdrako","steam_id":76561198818135010,"connected_time":787000000000,"state":"active","ping":137},{"user_id":94,"name":"Guil","steam_id":76561197993289176,"connected_time":598000000000,"state":"active","ping":69},{"user_id":67,"name":"popfulmail","steam_id":76561198865971290,"connected_time":2663000000000,"state":"active","ping":85},{"user_id":83,"name":"beatrix","steam_id":76561199057103062,"connected_time":870000000000,"state":"active","ping":107},{"user_id":34,"name":"Queso2469","steam_id":76561197993024580,"connected_time":4857000000000,"state":"active","ping":54},{"user_id":90,"name":"fug","steam_id":76561198043706112,"connected_time":734000000000,"state":"active","ping":43},{"user_id":103,"name":"aunt may kills Batman","steam_id":76561198300250162,"connected_time":113000000000,"state":"active","ping":51},{"user_id":104,"name":"cold spaghetti","steam_id":76561198983037944,"connected_time":72000000000,"state":"active","ping":72},{"user_id":105,"name":"Romo","steam_id":76561198243101572,"connected_time":69000000000,"state":"active","ping":88},{"user_id":70,"name":"BUNGACOWA","steam_id":76561198979176018,"connected_time":2178000000000,"state":"active","ping":86},{"user_id":95,"name":"Halibard","steam_id":76561198011239659,"connected_time":571000000000,"state":"active","ping":101}]},{"server_id":14,"name":"Uncletopia | New York City | 2 | All Maps","name_short":"nyc-2","host":"nyc-1.us.uncletopia.com","port":27025,"enabled":true,"region":"us-east","cc":"us","latitude":40.73061,"longitude":-73.93524,"reserved":0,"last_update":"0001-01-01T00:00:00Z","name_a2s":"Uncletopia | New York City | 2 | All Maps","protocol":17,"map":"pl_badwater","folder":"tf","game":"Team Fortress","app_id":440,"player_count":24,"max_players":24,"Bots":0,"server_type":"Dedicated","server_os":"Linux","password":true,"vac":true,"version":"7882260","steam_id":85568392924469994,"keywords":["nocrits","nodmgspread","payload","uncletopia"],"game_id":440,"stv_port":27026,"stv_name":"Uncletopia | New York City | 2 | All Maps | STV","players":[{"user_id":6,"name":"DBlackjack21","steam_id":76561198073241855,"connected_time":4705000000000,"state":"active","ping":139},{"user_id":5,"name":"Munchyjr","steam_id":76561198041498014,"connected_time":4752000000000,"state":"active","ping":45},{"user_id":7,"name":"Yams","steam_id":76561198068084541,"connected_time":4688000000000,"state":"active","ping":96},{"user_id":63,"name":"Jattiti","steam_id":76561199214217870,"connected_time":1555000000000,"state":"active","ping":68},{"user_id":64,"name":"Sergeant Joker #savetf2","steam_id":76561198854616604,"connected_time":1335000000000,"state":"active","ping":63},{"user_id":76,"name":"jamzine","steam_id":76561198186168293,"connected_time":420000000000,"state":"active","ping":57},{"user_id":74,"name":"Ian","steam_id":76561199078852180,"connected_time":531000000000,"state":"active","ping":68},{"user_id":73,"name":"evnobev","steam_id":76561198038966462,"connected_time":730000000000,"state":"active","ping":39},{"user_id":41,"name":"Chewbacca","steam_id":76561198041927925,"connected_time":3291000000000,"state":"active","ping":52},{"user_id":53,"name":"Sparky","steam_id":76561198114574421,"connected_time":2430000000000,"state":"active","ping":93},{"user_id":43,"name":"CheddarCake","steam_id":76561198061993725,"connected_time":3285000000000,"state":"active","ping":51},{"user_id":78,"name":"20 miles for a Quaalude","steam_id":76561198042579477,"connected_time":167000000000,"state":"active","ping":54},{"user_id":47,"name":"Futo","steam_id":76561198023185653,"connected_time":2913000000000,"state":"active","ping":119},{"user_id":18,"name":"bimbo blow up doll! \u003c3","steam_id":76561198959541006,"connected_time":4480000000000,"state":"active","ping":66},{"user_id":51,"name":"sooty","steam_id":76561198830243167,"connected_time":2509000000000,"state":"active","ping":64},{"user_id":20,"name":"Homosexual Warmachine","steam_id":76561198040425096,"connected_time":4472000000000,"state":"active","ping":77},{"user_id":66,"name":"ΛJΛX","steam_id":76561198142920141,"connected_time":1021000000000,"state":"active","ping":96},{"user_id":75,"name":"Falafel","steam_id":76561198111493042,"connected_time":435000000000,"state":"active","ping":162},{"user_id":48,"name":"-π- BakaD","steam_id":76561197960559169,"connected_time":2878000000000,"state":"active","ping":54},{"user_id":40,"name":"Doubting Dave","steam_id":76561198066410749,"connected_time":3783000000000,"state":"active","ping":148},{"user_id":71,"name":"g00bur","steam_id":76561197993622520,"connected_time":989000000000,"state":"active","ping":64},{"user_id":30,"name":"Synga","steam_id":76561198056831007,"connected_time":4365000000000,"state":"active","ping":116},{"user_id":69,"name":"bengineer","steam_id":76561198171912174,"connected_time":1018000000000,"state":"active","ping":116},{"user_id":58,"name":"SonicSteve","steam_id":76561198044714546,"connected_time":2187000000000,"state":"active","ping":82}]},{"server_id":15,"name":"Uncletopia | New York City | 3 | Stopwatch Beta","name_short":"nyc-3","host":"nyc-1.us.uncletopia.com","port":27035,"enabled":true,"region":"us-east","cc":"us","latitude":40.73061,"longitude":-73.93524,"reserved":0,"last_update":"0001-01-01T00:00:00Z","name_a2s":"Uncletopia | New York City | 3 | Stopwatch Beta","protocol":17,"map":"workshop/koth_ramjam_rc1.ugc459778887","folder":"tf","game":"Team Fortress","app_id":440,"player_count":7,"max_players":24,"Bots":0,"server_type":"Dedicated","server_os":"Linux","password":true,"vac":true,"version":"7882260","steam_id":85568392924742820,"keywords":["cp","nocrits","nodmgspread","uncletopia"],"game_id":440,"stv_port":27036,"stv_name":"Uncletopia | New York City | 3 | Stopwatch Beta | STV","players":[{"user_id":27,"name":"Belmore","steam_id":76561198009355231,"connected_time":849000000000,"state":"active","ping":115},{"user_id":28,"name":"Sentient Trash Can","steam_id":76561199438622491,"connected_time":781000000000,"state":"active","ping":118},{"user_id":10,"name":"Blake...","steam_id":76561198064090974,"connected_time":1503000000000,"state":"active","ping":82},{"user_id":13,"name":"Waaagh!","steam_id":76561197995317887,"connected_time":1301000000000,"state":"active","ping":58},{"user_id":25,"name":"Decot","steam_id":76561198042016967,"connected_time":931000000000,"state":"active","ping":81},{"user_id":18,"name":"Place_Holder Gaming","steam_id":76561198050961867,"connected_time":1166000000000,"state":"active","ping":82},{"user_id":30,"name":"༘ ⋆˚🎧Caffeine☕*˖°","steam_id":76561199259309294,"connected_time":653000000000,"state":"active","ping":71}]},{"server_id":16,"name":"Uncletopia | New York City | 4 | Community","name_short":"nyc-4","host":"nyc-1.us.uncletopia.com","port":27045,"enabled":true,"region":"us-east","cc":"us","latitude":40.73061,"longitude":-73.93524,"reserved":0,"last_update":"0001-01-01T00:00:00Z","name_a2s":"Uncletopia | New York City | 4 | Community","protocol":17,"map":"workshop/pl_cashworks_final1.ugc2904065412","folder":"tf","game":"Team Fortress","app_id":440,"player_count":24,"max_players":24,"Bots":0,"server_type":"Dedicated","server_os":"Linux","password":true,"vac":true,"version":"7882260","steam_id":85568392924742821,"keywords":["nocrits","nodmgspread","payload","uncletopia"],"game_id":440,"stv_port":27046,"stv_name":"Uncletopia | New York City | 4 | Community | STV","players":[{"user_id":52,"name":"Gruggle","steam_id":76561198835787063,"connected_time":398000000000,"state":"active","ping":58},{"user_id":31,"name":"Speedy","steam_id":76561198080761661,"connected_time":1652000000000,"state":"active","ping":61},{"user_id":6,"name":"BasedGreed | It'sOkayToBeWhite","steam_id":76561198065392356,"connected_time":2376000000000,"state":"active","ping":141},{"user_id":36,"name":"MattJettskie","steam_id":76561199229493583,"connected_time":854000000000,"state":"active","ping":97},{"user_id":8,"name":"oomper","steam_id":76561199189982701,"connected_time":2155000000000,"state":"active","ping":74},{"user_id":9,"name":"Cole Boye","steam_id":76561198282449106,"connected_time":2153000000000,"state":"active","ping":99},{"user_id":10,"name":"Pan The Sheep","steam_id":76561198817515534,"connected_time":2142000000000,"state":"active","ping":101},{"user_id":35,"name":"gabaghoulio","steam_id":76561198013650292,"connected_time":865000000000,"state":"active","ping":104},{"user_id":50,"name":"FWWM","steam_id":76561198387852168,"connected_time":444000000000,"state":"active","ping":83},{"user_id":47,"name":"Who","steam_id":76561198089813517,"connected_time":536000000000,"state":"active","ping":102},{"user_id":15,"name":"Astrozombeez","steam_id":76561198113754079,"connected_time":2039000000000,"state":"active","ping":87},{"user_id":48,"name":"JellyParrot","steam_id":76561199190990163,"connected_time":492000000000,"state":"active","ping":74},{"user_id":40,"name":"thememer","steam_id":76561199435896127,"connected_time":799000000000,"state":"active","ping":84},{"user_id":18,"name":"Dee Dee","steam_id":76561198238859416,"connected_time":1991000000000,"state":"active","ping":130},{"user_id":19,"name":"Etzan","steam_id":76561198026897084,"connected_time":1990000000000,"state":"active","ping":122},{"user_id":20,"name":"Belisarius","steam_id":76561198092316015,"connected_time":1977000000000,"state":"active","ping":90},{"user_id":21,"name":"LittleLeaf","steam_id":76561198047925893,"connected_time":1970000000000,"state":"active","ping":78},{"user_id":49,"name":"Mops","steam_id":76561198058213741,"connected_time":461000000000,"state":"active","ping":50},{"user_id":23,"name":"A Shiny Meat Bicycle","steam_id":76561198358757709,"connected_time":1914000000000,"state":"active","ping":95},{"user_id":30,"name":"SomeDragonDood","steam_id":76561199184030699,"connected_time":1736000000000,"state":"active","ping":120},{"user_id":32,"name":"Shades McKenzie","steam_id":76561198007051107,"connected_time":1164000000000,"state":"active","ping":109},{"user_id":51,"name":"wonka chonka","steam_id":76561198294595086,"connected_time":429000000000,"state":"active","ping":57},{"user_id":54,"name":"Vladimir Puddin","steam_id":76561198139674520,"connected_time":330000000000,"state":"active","ping":79},{"user_id":33,"name":"benevolent cannibal","steam_id":76561198071260549,"connected_time":1164000000000,"state":"active","ping":42}]},{"server_id":142,"name":"Uncletopia | São Paulo | 1 | All Maps","name_short":"sao-1","host":"sao-1.br.uncletopia.com","port":27015,"enabled":true,"region":"sa","cc":"br","latitude":-23.533773,"longitude":-46.62529,"reserved":0,"last_update":"0001-01-01T00:00:00Z","name_a2s":"Uncletopia | São Paulo | 1 | All Maps","protocol":17,"map":"koth_lakeside_final","folder":"tf","game":"Team Fortress","app_id":440,"player_count":0,"max_players":24,"Bots":0,"server_type":"Dedicated","server_os":"Linux","password":true,"vac":true,"version":"7882260","steam_id":85568392924469996,"keywords":["cp","nocrits","nodmgspread","uncletopia"],"game_id":440,"stv_port":27016,"stv_name":"Uncletopia | São Paulo | 1 | All Maps | STV","players":null},{"server_id":143,"name":"Uncletopia | São Paulo | 2 | All Maps","name_short":"sao-2","host":"sao-2.br.uncletopia.com","port":27015,"enabled":true,"region":"sa","cc":"br","latitude":-23.533773,"longitude":-46.62529,"reserved":0,"last_update":"0001-01-01T00:00:00Z","name_a2s":"Uncletopia | São Paulo | 2 | All Maps","protocol":17,"map":"pl_pier","folder":"tf","game":"Team Fortress","app_id":440,"player_count":0,"max_players":24,"Bots":0,"server_type":"Dedicated","server_os":"Linux","password":true,"vac":true,"version":"7882260","steam_id":85568392924485349,"keywords":["nocrits","nodmgspread","payload","uncletopia"],"game_id":440,"stv_port":27016,"stv_name":"Uncletopia | São Paulo | 2 | All Maps | STV","players":null},{"server_id":7,"name":"Uncletopia | Seattle | 1 | All Maps","name_short":"sea-1","host":"sea-1.us.uncletopia.com","port":27015,"enabled":true,"region":"us-west","cc":"us","latitude":47.608013,"longitude":-122.33517,"reserved":0,"last_update":"0001-01-01T00:00:00Z","name_a2s":"Uncletopia | Seattle | 1 | All Maps","protocol":17,"map":"pl_upward","folder":"tf","game":"Team Fortress","app_id":440,"player_count":24,"max_players":24,"Bots":0,"server_type":"Dedicated","server_os":"Linux","password":true,"vac":true,"version":"7882260","steam_id":85568392924469997,"keywords":["nocrits","nodmgspread","payload","uncletopia"],"game_id":440,"stv_port":27016,"stv_name":"Uncletopia | Seattle | 1 | All Maps | STV","players":[{"user_id":3,"name":"liliLovesUnicorns83","steam_id":76561199391478575,"connected_time":5458000000000,"state":"active","ping":81},{"user_id":112,"name":"rive","steam_id":76561198216487540,"connected_time":49000000000,"state":"active","ping":46},{"user_id":37,"name":"forest (girldick)","steam_id":76561198157960257,"connected_time":4738000000000,"state":"active","ping":51},{"user_id":102,"name":"Warlock","steam_id":76561199033164093,"connected_time":877000000000,"state":"active","ping":54},{"user_id":97,"name":"Fh","steam_id":76561198000903511,"connected_time":1704000000000,"state":"active","ping":74},{"user_id":111,"name":"Shotgun Faery","steam_id":76561198838248225,"connected_time":70000000000,"state":"active","ping":98},{"user_id":108,"name":"Finkly","steam_id":76561198049828110,"connected_time":113000000000,"state":"active","ping":43},{"user_id":109,"name":"BlitzB@t","steam_id":76561198299318000,"connected_time":103000000000,"state":"active","ping":65},{"user_id":96,"name":"Nolan","steam_id":76561198169648081,"connected_time":1769000000000,"state":"active","ping":100},{"user_id":17,"name":"Wacks","steam_id":76561198079476100,"connected_time":5232000000000,"state":"active","ping":80},{"user_id":88,"name":"Chmiken","steam_id":76561199041966499,"connected_time":2003000000000,"state":"active","ping":58},{"user_id":99,"name":"Saul Goodman","steam_id":76561198354289529,"connected_time":1534000000000,"state":"active","ping":97},{"user_id":98,"name":"Clagger","steam_id":76561198066701092,"connected_time":1631000000000,"state":"active","ping":44},{"user_id":55,"name":"Battery Acid Addict","steam_id":76561198439793697,"connected_time":3785000000000,"state":"active","ping":138},{"user_id":86,"name":"green bean","steam_id":76561198113099204,"connected_time":2134000000000,"state":"active","ping":53},{"user_id":104,"name":"❤ Ashley ❤","steam_id":76561198056428303,"connected_time":810000000000,"state":"active","ping":76},{"user_id":80,"name":"Meat","steam_id":76561198077788013,"connected_time":2213000000000,"state":"active","ping":59},{"user_id":100,"name":"HiFivr","steam_id":76561198285190162,"connected_time":1217000000000,"state":"active","ping":70},{"user_id":25,"name":"Dreysidel","steam_id":76561198056496183,"connected_time":5142000000000,"state":"active","ping":135},{"user_id":105,"name":"mooney","steam_id":76561199110622484,"connected_time":768000000000,"state":"active","ping":64},{"user_id":110,"name":"drevott74","steam_id":76561199262592779,"connected_time":102000000000,"state":"active","ping":113},{"user_id":79,"name":"ror!","steam_id":76561198021227843,"connected_time":2213000000000,"state":"active","ping":89},{"user_id":89,"name":"AceSea","steam_id":76561198851176490,"connected_time":1997000000000,"state":"active","ping":59},{"user_id":81,"name":"Artyom","steam_id":76561198152149679,"connected_time":2201000000000,"state":"active","ping":41}]},{"server_id":119,"name":"Uncletopia | Seattle | 2 | All Maps","name_short":"sea-2","host":"sea-1.us.uncletopia.com","port":27025,"enabled":true,"region":"us-west","cc":"us","latitude":47.608013,"longitude":-122.33517,"reserved":0,"last_update":"0001-01-01T00:00:00Z","name_a2s":"Uncletopia | Seattle | 2 | All Maps","protocol":17,"map":"cp_gravelpit","folder":"tf","game":"Team Fortress","app_id":440,"player_count":22,"max_players":24,"Bots":0,"server_type":"Dedicated","server_os":"Linux","password":true,"vac":true,"version":"7882260","steam_id":85568392924469998,"keywords":["cp","nocrits","nodmgspread","uncletopia"],"game_id":440,"stv_port":27026,"stv_name":"Uncletopia | Seattle | 2 | All Maps | STV","players":[{"user_id":11,"name":"Y2K","steam_id":76561199191855486,"connected_time":4301000000000,"state":"active","ping":47},{"user_id":12,"name":"misterspud","steam_id":76561198195306218,"connected_time":4281000000000,"state":"active","ping":90},{"user_id":94,"name":"BANGARANG","steam_id":76561198816597453,"connected_time":114000000000,"state":"active","ping":99},{"user_id":59,"name":"Ediot","steam_id":76561199349494096,"connected_time":2588000000000,"state":"active","ping":138},{"user_id":60,"name":"Seriously Bruh","steam_id":76561198070408485,"connected_time":2581000000000,"state":"active","ping":55},{"user_id":83,"name":"HideOnTate","steam_id":76561198209880837,"connected_time":1042000000000,"state":"active","ping":41},{"user_id":98,"name":"K2f","steam_id":76561198049600563,"connected_time":30000000000,"state":"connecting","ping":74},{"user_id":48,"name":"Feldspaten","steam_id":76561199122059102,"connected_time":3326000000000,"state":"active","ping":82},{"user_id":91,"name":"Mount Wannahockaloogie","steam_id":76561198924316615,"connected_time":567000000000,"state":"active","ping":132},{"user_id":73,"name":"Gavial the Invincible","steam_id":76561198348354629,"connected_time":1314000000000,"state":"active","ping":108},{"user_id":93,"name":"Snippykeegan","steam_id":76561198274529343,"connected_time":379000000000,"state":"active","ping":157},{"user_id":33,"name":"G. Howard Dee","steam_id":76561198058382812,"connected_time":4030000000000,"state":"active","ping":69},{"user_id":95,"name":"Agent86","steam_id":76561198046794593,"connected_time":48000000000,"state":"active","ping":111},{"user_id":82,"name":"็","steam_id":76561198067666595,"connected_time":1180000000000,"state":"active","ping":63},{"user_id":97,"name":"SneekiCheekiQbone","steam_id":76561198045077980,"connected_time":34000000000,"state":"active","ping":72},{"user_id":53,"name":"LoGrove","steam_id":76561197969305602,"connected_time":3171000000000,"state":"active","ping":119},{"user_id":90,"name":"SpiderLand","steam_id":76561198023820852,"connected_time":643000000000,"state":"active","ping":126},{"user_id":96,"name":"_normal","steam_id":76561198338505734,"connected_time":37000000000,"state":"active","ping":94},{"user_id":50,"name":"Ockulus","steam_id":76561199069638460,"connected_time":3298000000000,"state":"active","ping":83},{"user_id":84,"name":"Psych03","steam_id":76561198061753667,"connected_time":1020000000000,"state":"active","ping":78},{"user_id":87,"name":"Dimple #TF2Center","steam_id":76561198980324190,"connected_time":779000000000,"state":"active","ping":64},{"user_id":92,"name":"Lock'd","steam_id":76561198170108230,"connected_time":549000000000,"state":"active","ping":75}]},{"server_id":406,"name":"Uncletopia | Seattle | 3 | Stopwatch Beta","name_short":"sea-3","host":"sea-1.us.uncletopia.com","port":27035,"enabled":true,"region":"us-west","cc":"us","latitude":47.608013,"longitude":-122.33517,"reserved":0,"last_update":"0001-01-01T00:00:00Z","name_a2s":"Uncletopia | Seattle | 3 | Stopwatch Beta","protocol":17,"map":"workshop/koth_clearcut_b15.ugc2107050255","folder":"tf","game":"Team Fortress","app_id":440,"player_count":3,"max_players":24,"Bots":0,"server_type":"Dedicated","server_os":"Linux","password":true,"vac":true,"version":"7882260","steam_id":85568392924515217,"keywords":["cp","nocrits","nodmgspread","uncletopia"],"game_id":440,"stv_port":27036,"stv_name":"Uncletopia | Seattle | 3 | Stopwatch Beta | STV","players":[{"user_id":3,"name":"The Gremlin","steam_id":76561198419066993,"connected_time":1433000000000,"state":"active","ping":66},{"user_id":4,"name":"asm_ghost","steam_id":76561199205363547,"connected_time":1356000000000,"state":"active","ping":92},{"user_id":7,"name":"Nottawink","steam_id":76561198071248705,"connected_time":74000000000,"state":"active","ping":101}]},{"server_id":17,"name":"Uncletopia | San Francisco | 1 | All Maps","name_short":"sfo-1","host":"sfo-1.us.uncletopia.com","port":27015,"enabled":true,"region":"us-west","cc":"us","latitude":37.77397,"longitude":-122.4313,"reserved":0,"last_update":"0001-01-01T00:00:00Z","name_a2s":"Uncletopia | San Francisco | 1 | All Maps","protocol":17,"map":"cp_process_final","folder":"tf","game":"Team Fortress","app_id":440,"player_count":0,"max_players":24,"Bots":0,"server_type":"Dedicated","server_os":"Linux","password":true,"vac":true,"version":"7757534","steam_id":85568392924469999,"keywords":["cp","nocrits","nodmgspread","uncletopia"],"game_id":440,"stv_port":27016,"stv_name":"Uncletopia | San Francisco | 1 | All Maps | STV","players":null},{"server_id":18,"name":"Uncletopia | San Francisco | 2 | All Maps","name_short":"sfo-2","host":"sfo-1.us.uncletopia.com","port":27025,"enabled":true,"region":"us-west","cc":"us","latitude":37.77397,"longitude":-122.4313,"reserved":0,"last_update":"0001-01-01T00:00:00Z","name_a2s":"Uncletopia | San Francisco | 2 | All Maps","protocol":17,"map":"koth_highpass","folder":"tf","game":"Team Fortress","app_id":440,"player_count":0,"max_players":24,"Bots":0,"server_type":"Dedicated","server_os":"Linux","password":true,"vac":true,"version":"7757534","steam_id":85568392924470000,"keywords":["cp","nocrits","nodmgspread","uncletopia"],"game_id":440,"stv_port":27026,"stv_name":"Uncletopia | San Francisco | 2 | All Maps | STV","players":null},{"server_id":19,"name":"Uncletopia | San Francisco | 3 | Stopwatch Beta","name_short":"sfo-3","host":"sfo-1.us.uncletopia.com","port":27035,"enabled":true,"region":"us-west","cc":"us","latitude":37.77397,"longitude":-122.4313,"reserved":0,"last_update":"0001-01-01T00:00:00Z","name_a2s":"Uncletopia | San Francisco | 3 | Stopwatch Beta","protocol":17,"map":"koth_lakeside_final","folder":"tf","game":"Team Fortress","app_id":440,"player_count":0,"max_players":24,"Bots":0,"server_type":"Dedicated","server_os":"Linux","password":true,"vac":true,"version":"7757534","steam_id":85568392924742824,"keywords":["cp","nocrits","nodmgspread","uncletopia"],"game_id":440,"stv_port":27036,"stv_name":"Uncletopia | San Francisco | 3 | Stopwatch Beta | STV","players":null},{"server_id":20,"name":"Uncletopia | San Francisco | 4 | Community","name_short":"sfo-4","host":"sfo-1.us.uncletopia.com","port":27045,"enabled":true,"region":"us-west","cc":"us","latitude":37.77397,"longitude":-122.4313,"reserved":0,"last_update":"0001-01-01T00:00:00Z","name_a2s":"Uncletopia | San Francisco | 4 | Community","protocol":17,"map":"cp_altitude","folder":"tf","game":"Team Fortress","app_id":440,"player_count":0,"max_players":24,"Bots":0,"server_type":"Dedicated","server_os":"Linux","password":true,"vac":true,"version":"7757534","steam_id":85568392924742826,"keywords":["cp","nocrits","nodmgspread","uncletopia"],"game_id":440,"stv_port":27046,"stv_name":"Uncletopia | San Francisco | 4 | Community | STV","players":null},{"server_id":141,"name":"Uncletopia | Sydney | 1 | All Maps","name_short":"syd-1","host":"syd-1.au.uncletopia.com","port":27015,"enabled":true,"region":"au","cc":"au","latitude":-33.865143,"longitude":151.2099,"reserved":0,"last_update":"0001-01-01T00:00:00Z","name_a2s":"Uncletopia | Sydney | 1 | All Maps","protocol":17,"map":"cp_snakewater_final1","folder":"tf","game":"Team Fortress","app_id":440,"player_count":0,"max_players":24,"Bots":0,"server_type":"Dedicated","server_os":"Linux","password":true,"vac":true,"version":"7882260","steam_id":85568392924470001,"keywords":["cp","nocrits","nodmgspread","uncletopia"],"game_id":440,"stv_port":27016,"stv_name":"Uncletopia | Sydney | 1 | All Maps | STV","players":null},{"server_id":123,"name":"Uncletopia | Sydney | 2 | All Maps","name_short":"syd-2","host":"syd-1.au.uncletopia.com","port":27025,"enabled":true,"region":"au","cc":"au","latitude":-33.865143,"longitude":151.2099,"reserved":0,"last_update":"0001-01-01T00:00:00Z","name_a2s":"Uncletopia | Sydney | 2 | All Maps","protocol":17,"map":"pl_barnblitz","folder":"tf","game":"Team Fortress","app_id":440,"player_count":0,"max_players":24,"Bots":0,"server_type":"Dedicated","server_os":"Linux","password":true,"vac":true,"version":"7882260","steam_id":85568392924470002,"keywords":["nocrits","nodmgspread","payload","uncletopia"],"game_id":440,"stv_port":27026,"stv_name":"Uncletopia | Sydney | 2 | All Maps | STV","players":null},{"server_id":395,"name":"Uncletopia | Sydney | 3 | All Maps","name_short":"syd-3","host":"syd-1.au.uncletopia.com","port":27035,"enabled":true,"region":"au","cc":"au","latitude":-33.865143,"longitude":151.2099,"reserved":0,"last_update":"0001-01-01T00:00:00Z","name_a2s":"Uncletopia | Sydney | 3 | All Maps","protocol":17,"map":"pl_badwater","folder":"tf","game":"Team Fortress","app_id":440,"player_count":0,"max_players":24,"Bots":0,"server_type":"Dedicated","server_os":"Linux","password":true,"vac":true,"version":"7882260","steam_id":85568392925194467,"keywords":["nocrits","nodmgspread","payload","uncletopia"],"game_id":440,"stv_port":27036,"stv_name":"Uncletopia | Sydney | 3 | All Maps | STV","players":null},{"server_id":396,"name":"Uncletopia | Sydney | 4 | All Maps","name_short":"syd-4","host":"syd-1.au.uncletopia.com","port":27045,"enabled":true,"region":"au","cc":"au","latitude":-33.865143,"longitude":151.2099,"reserved":0,"last_update":"0001-01-01T00:00:00Z","name_a2s":"Uncletopia | Sydney | 4 | All Maps","protocol":17,"map":"cp_dustbowl","folder":"tf","game":"Team Fortress","app_id":440,"player_count":0,"max_players":24,"Bots":0,"server_type":"Dedicated","server_os":"Linux","password":true,"vac":true,"version":"7882260","steam_id":85568392925397958,"keywords":["cp","nocrits","nodmgspread","uncletopia"],"game_id":440,"stv_port":27046,"stv_name":"Uncletopia | Sydney | 4 | All Maps | STV","players":null},{"server_id":58,"name":"Uncletopia | Sydney | 5 | Stopwatch Beta","name_short":"syd-5","host":"syd-1.au.uncletopia.com","port":27055,"enabled":true,"region":"au","cc":"au","latitude":-33.865143,"longitude":151.2099,"reserved":0,"last_update":"0001-01-01T00:00:00Z","name_a2s":"Uncletopia | Sydney | 5 | Stopwatch Beta","protocol":17,"map":"cp_snakewater_final1","folder":"tf","game":"Team Fortress","app_id":440,"player_count":0,"max_players":24,"Bots":0,"server_type":"Dedicated","server_os":"Linux","password":true,"vac":true,"version":"7882260","steam_id":85568392925397959,"keywords":["cp","nocrits","nodmgspread","uncletopia"],"game_id":440,"stv_port":27056,"stv_name":"Uncletopia | Sydney | 5 | Stopwatch Beta | STV","players":null},{"server_id":59,"name":"Uncletopia | Sydney | 6 | Community","name_short":"syd-6","host":"syd-1.au.uncletopia.com","port":27065,"enabled":true,"region":"au","cc":"au","latitude":-33.865143,"longitude":151.2099,"reserved":0,"last_update":"0001-01-01T00:00:00Z","name_a2s":"Uncletopia | Sydney | 6 | Community","protocol":17,"map":"pl_snowycoast","folder":"tf","game":"Team Fortress","app_id":440,"player_count":0,"max_players":24,"Bots":0,"server_type":"Dedicated","server_os":"Linux","password":true,"vac":true,"version":"7882260","steam_id":85568392925397960,"keywords":["nocrits","nodmgspread","payload","uncletopia"],"game_id":440,"stv_port":27066,"stv_name":"Uncletopia | Sydney | 6 | Community | STV","players":null},{"server_id":49,"name":"Uncletopia | Warsaw | 1 | All Maps","name_short":"waw-1","host":"waw-1.pl.uncletopia.com","port":27015,"enabled":true,"region":"eu","cc":"pl","latitude":52.2297,"longitude":21.017532,"reserved":0,"last_update":"0001-01-01T00:00:00Z","name_a2s":"","protocol":0,"map":"","folder":"","game":"","app_id":0,"player_count":0,"max_players":0,"Bots":0,"server_type":"","server_os":"","password":false,"vac":false,"version":"","steam_id":0,"keywords":null,"game_id":0,"stv_port":0,"stv_name":"","players":null},{"server_id":50,"name":"Uncletopia | Warsaw | 2 | All Maps","name_short":"waw-2","host":"waw-1.pl.uncletopia.com","port":27025,"enabled":true,"region":"eu","cc":"pl","latitude":52.2297,"longitude":21.017532,"reserved":0,"last_update":"0001-01-01T00:00:00Z","name_a2s":"Uncletopia | Warsaw | 2 | All Maps","protocol":17,"map":"pl_swiftwater_final1","folder":"tf","game":"Team Fortress","app_id":440,"player_count":0,"max_players":24,"Bots":0,"server_type":"Dedicated","server_os":"Linux","password":true,"vac":true,"version":"7882260","steam_id":85568392925397851,"keywords":["nocrits","nodmgspread","payload","uncletopia"],"game_id":440,"stv_port":27026,"stv_name":"Uncletopia | Warsaw | 2 | All Maps | STV","players":null},{"server_id":51,"name":"Uncletopia | Warsaw | 3 | All Maps","name_short":"waw-3","host":"waw-1.pl.uncletopia.com","port":27035,"enabled":true,"region":"eu","cc":"pl","latitude":52.2297,"longitude":21.017532,"reserved":0,"last_update":"0001-01-01T00:00:00Z","name_a2s":"Uncletopia | Warsaw | 3 | All Maps","protocol":17,"map":"koth_viaduct","folder":"tf","game":"Team Fortress","app_id":440,"player_count":0,"max_players":24,"Bots":0,"server_type":"Dedicated","server_os":"Linux","password":true,"vac":true,"version":"7882260","steam_id":85568392925397852,"keywords":["cp","nocrits","nodmgspread","uncletopia"],"game_id":440,"stv_port":27036,"stv_name":"Uncletopia | Warsaw | 3 | All Maps | STV","players":null},{"server_id":52,"name":"Uncletopia | Warsaw | 4 | All Maps","name_short":"waw-4","host":"waw-1.pl.uncletopia.com","port":27045,"enabled":true,"region":"eu","cc":"pl","latitude":52.2297,"longitude":21.017532,"reserved":0,"last_update":"0001-01-01T00:00:00Z","name_a2s":"Uncletopia | Warsaw | 4 | All Maps","protocol":17,"map":"koth_highpass","folder":"tf","game":"Team Fortress","app_id":440,"player_count":0,"max_players":24,"Bots":0,"server_type":"Dedicated","server_os":"Linux","password":true,"vac":true,"version":"7882260","steam_id":85568392925397853,"keywords":["cp","nocrits","nodmgspread","uncletopia"],"game_id":440,"stv_port":27046,"stv_name":"Uncletopia | Warsaw | 4 | All Maps | STV","players":null},{"server_id":53,"name":"Uncletopia | Warsaw | 5 | Stopwatch Beta","name_short":"waw-5","host":"waw-1.pl.uncletopia.com","port":27055,"enabled":true,"region":"eu","cc":"pl","latitude":52.2297,"longitude":21.017532,"reserved":0,"last_update":"0001-01-01T00:00:00Z","name_a2s":"Uncletopia | Warsaw | 5 | Stopwatch Beta","protocol":17,"map":"cp_mountainlab","folder":"tf","game":"Team Fortress","app_id":440,"player_count":0,"max_players":24,"Bots":0,"server_type":"Dedicated","server_os":"Linux","password":true,"vac":true,"version":"7882260","steam_id":85568392925397854,"keywords":["cp","nocrits","nodmgspread","uncletopia"],"game_id":440,"stv_port":27056,"stv_name":"Uncletopia | Warsaw | 5 | Stopwatch Beta | STV","players":null},{"server_id":54,"name":"Uncletopia | Warsaw | 6 | Community","name_short":"waw-6","host":"waw-1.pl.uncletopia.com","port":27065,"enabled":true,"region":"eu","cc":"pl","latitude":52.2297,"longitude":21.017532,"reserved":0,"last_update":"0001-01-01T00:00:00Z","name_a2s":"Uncletopia | Warsaw | 6 | Community","protocol":17,"map":"koth_viaduct","folder":"tf","game":"Team Fortress","app_id":440,"player_count":0,"max_players":24,"Bots":0,"server_type":"Dedicated","server_os":"Linux","password":true,"vac":true,"version":"7882260","steam_id":85568392925397856,"keywords":["cp","nocrits","nodmgspread","uncletopia"],"game_id":440,"stv_port":27066,"stv_name":"Uncletopia | Warsaw | 6 | Community | STV","players":null}]}