{"status":true,"message":"","result":[{"server_id":9,"name":"Uncletopia | Atlanta | 1 | All Maps","name_short":"atl-1","host":"atl-1.us.uncletopia.com","port":27015,"enabled":true,"region":"us-east","cc":"us","latitude":33.753746,"longitude":-84.38633,"reserved":0,"last_update":"0001-01-01T00:00:00Z","name_a2s":"Uncletopia | Atlanta | 1 | All Maps","protocol":17,"map":"koth_suijin","folder":"tf","game":"Team Fortress","app_id":440,"player_count":24,"max_players":24,"Bots":0,"server_type":"Dedicated","server_os":"Linux","password":true,"vac":true,"version":"7757534","steam_id":85568392924469982,"keywords":["cp","nocrits","nodmgspread","uncletopia"],"game_id":440,"stv_port":27016,"stv_name":"Uncletopia | Atlanta | 1 | All Maps | STV","players":[{"user_id":409,"name":"Oddball","steam_id":76561198040440984,"connected_time":1705000000000,"state":"active","ping":78},{"user_id":382,"name":"Dennis Rodman","steam_id":76561198880396651,"connected_time":3214000000000,"state":"active","ping":87},{"user_id":364,"name":"quality_ch3ck","steam_id":76561198361132101,"connected_time":5784000000000,"state":"active","ping":87},{"user_id":420,"name":"Rye","steam_id":76561198071514966,"connected_time":918000000000,"state":"active","ping":87},{"user_id":350,"name":"joe","steam_id":76561198045781320,"connected_time":7255000000000,"state":"active","ping":66},{"user_id":437,"name":"ATL1 | deus sex","steam_id":76561198419509249,"connected_time":35000000000,"state":"spawning","ping":61},{"user_id":386,"name":"ATL1 | Lav4ie they/them","steam_id":76561198825997674,"connected_time":3172000000000,"state":"active","ping":50},{"user_id":435,"name":"shawcrow","steam_id":76561198998720161,"connected_time":205000000000,"state":"active","ping":47},{"user_id":433,"name":"Dr. Nobotnik","steam_id":76561198357339092,"connected_time":322000000000,"state":"active","ping":94},{"user_id":365,"name":"Speakeasy","steam_id":76561198134692556,"connected_time":5783000000000,"state":"active","ping":78},{"user_id":357,"name":"Save your wifi","steam_id":76561198286147372,"connected_time":6417000000000,"state":"active","ping":67},{"user_id":431,"name":"The Mater Bater","steam_id":76561198132710768,"connected_time":445000000000,"state":"active","ping":62},{"user_id":393,"name":"Saber","steam_id":76561198012624420,"connected_time":2610000000000,"state":"active","ping":122},{"user_id":425,"name":"PerpetuaForever","steam_id":76561198347444353,"connected_time":779000000000,"state":"active","ping":76},{"user_id":408,"name":"HARRY","steam_id":76561198842067238,"connected_time":1717000000000,"state":"active","ping":63},{"user_id":355,"name":"cola","steam_id":76561198374390458,"connected_time":6914000000000,"state":"active","ping":62},{"user_id":427,"name":"Your Local Jester","steam_id":76561199120223717,"connected_time":728000000000,"state":"active","ping":78},{"user_id":405,"name":"KOI BOY","steam_id":76561198402739250,"connected_time":2022000000000,"state":"active","ping":67},{"user_id":412,"name":"Spy_Is_Pye","steam_id":76561199439622967,"connected_time":1668000000000,"state":"active","ping":76},{"user_id":414,"name":"Bottom Trans Cowgirl","steam_id":76561198304239680,"connected_time":1643000000000,"state":"active","ping":113},{"user_id":366,"name":"evil wizard","steam_id":76561198131576005,"connected_time":5782000000000,"state":"active","ping":57},{"user_id":434,"name":"Quiggles","steam_id":76561199177247655,"connected_time":316000000000,"state":"active","ping":93},{"user_id":438,"name":"yeyoi","steam_id":76561198069821885,"connected_time":33000000000,"state":"active","ping":61},{"user_id":359,"name":"Pinhead Dipshit","steam_id":76561198320121171,"connected_time":6044000000000,"state":"active","ping":79}]},{"server_id":400,"name":"Uncletopia | Atlanta | 3 | Stopwatch Beta","name_short":"atl-3","host":"atl-1.us.uncletopia.com","port":27035,"enabled":true,"region":"us-east","cc":"us","latitude":33.753746,"longitude":-84.38633,"reserved":0,"last_update":"0001-01-01T00:00:00Z","name_a2s":"Uncletopia | Atlanta | 3 | Stopwatch Beta","protocol":17,"map":"pl_upward","folder":"tf","game":"Team Fortress","app_id":440,"player_count":0,"max_players":24,"Bots":0,"server_type":"Dedicated","server_os":"Linux","password":true,"vac":true,"version":"7757534","steam_id":85568392924515187,"keywords":["nocrits","nodmgspread","payload","uncletopia"],"game_id":440,"stv_port":27036,"stv_name":"Uncletopia | Atlanta | 3 | Stopwatch Beta | STV","players":null},{"server_id":401,"name":"Uncletopia | Atlanta | 4 | No Payload","name_short":"atl-4","host":"atl-1.us.uncletopia.com","port":27045,"enabled":true,"region":"us-east","cc":"us","latitude":33.753746,"longitude":-84.38633,"reserved":0,"last_update":"0001-01-01T00:00:00Z","name_a2s":"Uncletopia | Atlanta | 4 | No Payload","protocol":17,"map":"pl_pier","folder":"tf","game":"Team Fortress","app_id":440,"player_count":0,"max_players":24,"Bots":0,"server_type":"Dedicated","server_os":"Linux","password":true,"vac":true,"version":"7723704","steam_id":85568392924515188,"keywords":["nocrits","nodmgspread","payload","uncletopia"],"game_id":440,"stv_port":27046,"stv_name":"Uncletopia | Atlanta | 4 | No Payload | STV","players":null},{"server_id":2,"name":"Uncletopia | Chicago | 1 | All Maps","name_short":"chi-1","host":"chi-1.us.uncletopia.com","port":27015,"enabled":true,"region":"us-central","cc":"us","latitude":41.881832,"longitude":-87.62318,"reserved":0,"last_update":"0001-01-01T00:00:00Z","name_a2s":"Uncletopia | Chicago | 1 | All Maps","protocol":17,"map":"pl_upward","folder":"tf","game":"Team Fortress","app_id":440,"player_count":24,"max_players":24,"Bots":0,"server_type":"Dedicated","server_os":"Linux","password":true,"vac":true,"version":"7757534","steam_id":85568392924469984,"keywords":["nocrits","nodmgspread","payload","uncletopia"],"game_id":440,"stv_port":27016,"stv_name":"Uncletopia | Chicago | 1 | All Maps | STV","players":[{"user_id":471,"name":"Jacck916","steam_id":76561198176874157,"connected_time":1386000000000,"state":"active","ping":114},{"user_id":492,"name":"warrior","steam_id":76561198361999761,"connected_time":114000000000,"state":"active","ping":104},{"user_id":454,"name":"Username","steam_id":76561198855586261,"connected_time":3910000000000,"state":"active","ping":91},{"user_id":474,"name":"Moneybags'","steam_id":76561198146759413,"connected_time":1261000000000,"state":"active","ping":114},{"user_id":478,"name":"Kretim","steam_id":76561199204273483,"connected_time":706000000000,"state":"active","ping":65},{"user_id":493,"name":"Im High","steam_id":76561198049954886,"connected_time":90000000000,"state":"active","ping":66},{"user_id":491,"name":"bite of 87 (real NOT CLICKBAIT)","steam_id":76561198045832398,"connected_time":403000000000,"state":"active","ping":81},{"user_id":488,"name":"Snom","steam_id":76561198333827920,"connected_time":493000000000,"state":"active","ping":120},{"user_id":404,"name":"lancezatt","steam_id":76561199015378748,"connected_time":7943000000000,"state":"active","ping":151},{"user_id":388,"name":"blob","steam_id":76561198122375328,"connected_time":8978000000000,"state":"active","ping":63},{"user_id":485,"name":"bobby peanstalk","steam_id":76561198040495463,"connected_time":595000000000,"state":"active","ping":74},{"user_id":402,"name":"Gift_Card","steam_id":76561197995405617,"connected_time":7955000000000,"state":"active","ping":148},{"user_id":487,"name":"Menlymen","steam_id":76561198046508051,"connected_time":517000000000,"state":"active","ping":63},{"user_id":489,"name":"Jeremy","steam_id":76561198352333793,"connected_time":489000000000,"state":"active","ping":84},{"user_id":490,"name":"Final_MarioXD","steam_id":76561199184862419,"connected_time":444000000000,"state":"active","ping":102},{"user_id":395,"name":"caspian","steam_id":76561197985724357,"connected_time":8499000000000,"state":"active","ping":122},{"user_id":456,"name":"uniwu - BUFF THE SPEED","steam_id":76561198864421290,"connected_time":3909000000000,"state":"active","ping":57},{"user_id":482,"name":"EvilMrPotoo ÔΩ°‚óï‚Äø‚óïÔΩ°","steam_id":76561198012566870,"connected_time":674000000000,"state":"active","ping":67},{"user_id":483,"name":"sansa musa","steam_id":76561198163723555,"connected_time":673000000000,"state":"active","ping":63},{"user_id":494,"name":"The CEO of cement","steam_id":76561199107177460,"connected_time":75000000000,"state":"active","ping":100},{"user_id":450,"name":"capybara","steam_id":76561198798828328,"connected_time":4087000000000,"state":"active","ping":56},{"user_id":463,"name":"non_ai","steam_id":76561198270951938,"connected_time":2619000000000,"state":"active","ping":62},{"user_id":473,"name":"Lucy Lou!","steam_id":76561198078209088,"connected_time":1316000000000,"state":"active","ping":45},{"user_id":484,"name":"Ka Xin Yu","steam_id":76561198057116531,"connected_time":668000000000,"state":"active","ping":59}]},{"server_id":106,"name":"Uncletopia | Chicago | 2 | All Maps","name_short":"chi-2","host":"chi-1.us.uncletopia.com","port":27025,"enabled":true,"region":"us-central","cc":"us","latitude":41.881832,"longitude":-87.62318,"reserved":0,"last_update":"0001-01-01T00:00:00Z","name_a2s":"Uncletopia | Chicago | 2 | All Maps","protocol":17,"map":"pl_swiftwater_final1","folder":"tf","game":"Team Fortress","app_id":440,"player_count":24,"max_players":24,"Bots":0,"server_type":"Dedicated","server_os":"Linux","password":true,"vac":true,"version":"7757534","steam_id":85568392924469985,"keywords":["nocrits","nodmgspread","payload","uncletopia"],"game_id":440,"stv_port":27026,"stv_name":"Uncletopia | Chicago | 2 | All Maps | STV","players":[{"user_id":874,"name":"i should go","steam_id":76561198194614289,"connected_time":3374000000000,"state":"active","ping":52},{"user_id":904,"name":"Hooked","steam_id":76561198007302139,"connected_time":454000000000,"state":"active","ping":72},{"user_id":896,"name":"Godmode","steam_id":76561198076240365,"connected_time":1659000000000,"state":"active","ping":63},{"user_id":903,"name":"Qball","steam_id":76561198179016466,"connected_time":492000000000,"state":"active","ping":58},{"user_id":793,"name":"Minato_ok","steam_id":76561198128627902,"connected_time":7546000000000,"state":"active","ping":110},{"user_id":899,"name":"Gingoguy","steam_id":76561198088931297,"connected_time":944000000000,"state":"active","ping":52},{"user_id":905,"name":"Starman","steam_id":76561198030375684,"connected_time":225000000000,"state":"active","ping":94},{"user_id":897,"name":"Gheeotine","steam_id":76561198010181698,"connected_time":1634000000000,"state":"active","ping":89},{"user_id":882,"name":"trappy","steam_id":76561198402801140,"connected_time":2579000000000,"state":"active","ping":61},{"user_id":900,"name":"Oli B\u003eQS/BP/Bulk w/ 500+ keys","steam_id":76561198140316312,"connected_time":673000000000,"state":"active","ping":51},{"user_id":898,"name":"fish","steam_id":76561198054070811,"connected_time":1403000000000,"state":"active","ping":105},{"user_id":893,"name":"Critscare","steam_id":76561198087712508,"connected_time":2043000000000,"state":"active","ping":45},{"user_id":906,"name":"jpuck","steam_id":76561198025018960,"connected_time":214000000000,"state":"active","ping":77},{"user_id":883,"name":"Vladikr1","steam_id":76561198401495362,"connected_time":2574000000000,"state":"active","ping":58},{"user_id":895,"name":"Kitt(eh) ‚àë:3","steam_id":76561198110858518,"connected_time":1798000000000,"state":"active","ping":59},{"user_id":881,"name":"cringe","steam_id":76561198104086771,"connected_time":3083000000000,"state":"active","ping":104},{"user_id":866,"name":"Rappitor","steam_id":76561198105613110,"connected_time":4304000000000,"state":"active","ping":48},{"user_id":894,"name":"Tyrone","steam_id":76561198189429665,"connected_time":1966000000000,"state":"active","ping":75},{"user_id":871,"name":"‡∂û","steam_id":76561198027779564,"connected_time":3818000000000,"state":"active","ping":58},{"user_id":886,"name":"Harold","steam_id":76561198057317770,"connected_time":2505000000000,"state":"active","ping":89},{"user_id":876,"name":"Nexus","steam_id":76561198187929865,"connected_time":3319000000000,"state":"active","ping":70},{"user_id":889,"name":"Bliztank | RGL.gg","steam_id":76561198019252798,"connected_time":2446000000000,"state":"active","ping":61},{"user_id":878,"name":"Chrome Knight","steam_id":76561198851348871,"connected_time":3299000000000,"state":"active","ping":81},{"user_id":902,"name":"forklift circumcised","steam_id":76561198278756087,"connected_time":590000000000,"state":"active","ping":88}]},{"server_id":402,"name":"Uncletopia | Chicago | 3 | All Maps","name_short":"chi-3","host":"chi-1.us.uncletopia.com","port":27035,"enabled":true,"region":"us-central","cc":"us","latitude":41.881832,"longitude":-87.62318,"reserved":0,"last_update":"0001-01-01T00:00:00Z","name_a2s":"Uncletopia | Chicago | 3 | All Maps","protocol":17,"map":"pl_frontier_final","folder":"tf","game":"Team Fortress","app_id":440,"player_count":24,"max_players":24,"Bots":0,"server_type":"Dedicated","server_os":"Linux","password":true,"vac":true,"version":"7757534","steam_id":85568392924515191,"keywords":["nocrits","nodmgspread","payload","uncletopia"],"game_id":440,"stv_port":27036,"stv_name":"Uncletopia | Chicago | 3 | All Maps | STV","players":[{"user_id":479,"name":"Vinnydebs","steam_id":76561198047239714,"connected_time":1944000000000,"state":"active","ping":75},{"user_id":476,"name":"peepeeroni","steam_id":76561198382877812,"connected_time":1967000000000,"state":"active","ping":63},{"user_id":485,"name":"Snorty","steam_id":76561198114304454,"connected_time":1850000000000,"state":"active","ping":80},{"user_id":477,"name":"the real babytron","steam_id":76561197989627918,"connected_time":1957000000000,"state":"active","ping":85},{"user_id":496,"name":"nickname 123","steam_id":76561198080234033,"connected_time":1249000000000,"state":"active","ping":54},{"user_id":492,"name":"LJ PRODUCTIONS","steam_id":76561198061697475,"connected_time":1529000000000,"state":"active","ping":68},{"user_id":499,"name":"rocketspeed16","steam_id":76561198246227992,"connected_time":987000000000,"state":"active","ping":87},{"user_id":500,"name":"jon","steam_id":76561198065314212,"connected_time":952000000000,"state":"active","ping":92},{"user_id":475,"name":"Pep Seeman","steam_id":76561198038393007,"connected_time":2072000000000,"state":"active","ping":48},{"user_id":493,"name":"Predicta","steam_id":76561198017630616,"connected_time":1492000000000,"state":"active","ping":47},{"user_id":450,"name":"beethan","steam_id":76561198148199120,"connected_time":3863000000000,"state":"active","ping":91},{"user_id":501,"name":"Mason","steam_id":76561199057309626,"connected_time":839000000000,"state":"active","ping":85},{"user_id":498,"name":"76561199261365750","steam_id":76561199261365750,"connected_time":1078000000000,"state":"active","ping":70},{"user_id":467,"name":"JesusLovesYouYAY","steam_id":76561199146362676,"connected_time":2744000000000,"state":"active","ping":105},{"user_id":458,"name":"McMahonism","steam_id":76561198066138208,"connected_time":3539000000000,"state":"active","ping":56},{"user_id":481,"name":"Just a storm dick, sit down","steam_id":76561198404528521,"connected_time":1924000000000,"state":"active","ping":92},{"user_id":482,"name":"mr LEMON!","steam_id":76561198032566820,"connected_time":1920000000000,"state":"active","ping":52},{"user_id":456,"name":"Gustavo Fring","steam_id":76561198132807405,"connected_time":3558000000000,"state":"active","ping":94},{"user_id":505,"name":"Xx_PR3TTY_R4VE_G!R1_xX","steam_id":76561199059016425,"connected_time":308000000000,"state":"active","ping":54},{"user_id":487,"name":"TomTheF00l","steam_id":76561198829932650,"connected_time":1786000000000,"state":"active","ping":97},{"user_id":504,"name":"A Hard Boiled Egg","steam_id":76561197979078330,"connected_time":375000000000,"state":"active","ping":61},{"user_id":503,"name":"Fuzzy Toast","steam_id":76561198028067781,"connected_time":835000000000,"state":"active","ping":45},{"user_id":463,"name":"regular_consuelo","steam_id":76561198327831852,"connected_time":3053000000000,"state":"active","ping":81},{"user_id":489,"name":"anal fiend","steam_id":76561198026844952,"connected_time":1777000000000,"state":"active","ping":92}]},{"server_id":403,"name":"Uncletopia | Chicago | 4 | All Maps","name_short":"chi-4","host":"chi-1.us.uncletopia.com","port":27045,"enabled":true,"region":"us-central","cc":"us","latitude":41.881832,"longitude":-87.62318,"reserved":0,"last_update":"0001-01-01T00:00:00Z","name_a2s":"Uncletopia | Chicago | 4 | All Maps","protocol":17,"map":"pl_upward","folder":"tf","game":"Team Fortress","app_id":440,"player_count":24,"max_players":24,"Bots":0,"server_type":"Dedicated","server_os":"Linux","password":true,"vac":true,"version":"7757534","steam_id":85568392924515193,"keywords":["nocrits","nodmgspread","payload","uncletopia"],"game_id":440,"stv_port":27046,"stv_name":"Uncletopia | Chicago | 4 | All Maps | STV","players":[{"user_id":381,"name":"Calamant","steam_id":76561198054650483,"connected_time":7799000000000,"state":"active","ping":71},{"user_id":447,"name":"AAAAAAAAAAAAAAAAAAAAAAAAAAAAAAA","steam_id":76561198817866879,"connected_time":3736000000000,"state":"active","ping":77},{"user_id":433,"name":"coffee bagel","steam_id":76561198141198352,"connected_time":4851000000000,"state":"active","ping":46},{"user_id":488,"name":"Rudy","steam_id":76561198013456828,"connected_time":619000000000,"state":"active","ping":58},{"user_id":305,"name":"Daz","steam_id":76561198041431938,"connected_time":11288000000000,"state":"active","ping":75},{"user_id":490,"name":"rumes","steam_id":76561198349219467,"connected_time":575000000000,"state":"active","ping":90},{"user_id":457,"name":"timestew","steam_id":76561198367583372,"connected_time":3451000000000,"state":"active","ping":77},{"user_id":491,"name":"stardusttt","steam_id":76561198413930183,"connected_time":378000000000,"state":"active","ping":62},{"user_id":471,"name":"Hindmost","steam_id":76561199081837220,"connected_time":1689000000000,"state":"active","ping":131},{"user_id":478,"name":"YWN","steam_id":76561198001475833,"connected_time":1147000000000,"state":"active","ping":61},{"user_id":489,"name":"LilDreamer","steam_id":76561198804054102,"connected_time":616000000000,"state":"active","ping":49},{"user_id":484,"name":"Snorfledumpkins","steam_id":76561198017895993,"connected_time":887000000000,"state":"active","ping":64},{"user_id":470,"name":"Vaah","steam_id":76561197998614380,"connected_time":1777000000000,"state":"active","ping":78},{"user_id":403,"name":"the void king","steam_id":76561198411170395,"connected_time":6667000000000,"state":"active","ping":90},{"user_id":391,"name":"WhoIsFrosty","steam_id":76561198880588117,"connected_time":7308000000000,"state":"active","ping":60},{"user_id":485,"name":"lucaslane610","steam_id":76561198997885052,"connected_time":655000000000,"state":"active","ping":100},{"user_id":487,"name":"Jojoker","steam_id":76561198049833406,"connected_time":648000000000,"state":"active","ping":74},{"user_id":477,"name":"Printypro","steam_id":76561199063254804,"connected_time":1295000000000,"state":"active","ping":82},{"user_id":385,"name":"WarpdriveEngineer","steam_id":76561198073530973,"connected_time":7715000000000,"state":"active","ping":62},{"user_id":469,"name":"Marshy \u003e:3","steam_id":76561197999188035,"connected_time":1799000000000,"state":"active","ping":104},{"user_id":474,"name":"Copter_Boy","steam_id":76561198322921312,"connected_time":1637000000000,"state":"active","ping":70},{"user_id":438,"name":"Banes","steam_id":76561198083485876,"connected_time":4541000000000,"state":"active","ping":86},{"user_id":482,"name":"Aster","steam_id":76561198037920420,"connected_time":1004000000000,"state":"active","ping":228},{"user_id":483,"name":"TinyBandaid","steam_id":76561199118787289,"connected_time":1003000000000,"state":"active","ping":94}]},{"server_id":36,"name":"Uncletopia | Chicago | 5 | All Maps","name_short":"chi-5","host":"chi-2.us.uncletopia.com","port":27015,"enabled":true,"region":"us-central","cc":"us","latitude":41.881832,"longitude":-87.62318,"reserved":0,"last_update":"0001-01-01T00:00:00Z","name_a2s":"Uncletopia | Chicago | 5 | All Maps","protocol":17,"map":"pl_barnblitz","folder":"tf","game":"Team Fortress","app_id":440,"player_count":23,"max_players":24,"Bots":0,"server_type":"Dedicated","server_os":"Linux","password":true,"vac":true,"version":"7757534","steam_id":85568392924866362,"keywords":["nocrits","nodmgspread","payload","uncletopia"],"game_id":440,"stv_port":27016,"stv_name":"Uncletopia | Chicago | 5 | All Maps | STV","players":[{"user_id":565,"name":"agent P","steam_id":76561199251829030,"connected_time":2334000000000,"state":"active","ping":69},{"user_id":590,"name":"The destroyer of foreskin","steam_id":76561198135275966,"connected_time":720000000000,"state":"active","ping":75},{"user_id":596,"name":"taconuva","steam_id":76561198068105824,"connected_time":320000000000,"state":"active","ping":103},{"user_id":581,"name":"c64guy","steam_id":76561198023022744,"connected_time":1435000000000,"state":"active","ping":71},{"user_id":552,"name":"UsingXbox360Controller","steam_id":76561198258253304,"connected_time":2747000000000,"state":"active","ping":84},{"user_id":593,"name":"SlowCantReach","steam_id":76561198337146021,"connected_time":627000000000,"state":"active","ping":75},{"user_id":602,"name":"flora","steam_id":76561197994492154,"connected_time":52000000000,"state":"active","ping":165},{"user_id":597,"name":"miner","steam_id":76561198073035221,"connected_time":291000000000,"state":"active","ping":62},{"user_id":584,"name":"skooma addict","steam_id":76561198291044221,"connected_time":1216000000000,"state":"active","ping":70},{"user_id":582,"name":"lag","steam_id":76561197963872739,"connected_time":1401000000000,"state":"active","ping":91},{"user_id":562,"name":"Smet19","steam_id":76561198118455606,"connected_time":2539000000000,"state":"active","ping":74},{"user_id":585,"name":"Gragma","steam_id":76561198199341081,"connected_time":1205000000000,"state":"active","ping":55},{"user_id":553,"name":"Mr.Silver","steam_id":76561198156382508,"connected_time":2743000000000,"state":"active","ping":56},{"user_id":601,"name":"three three","steam_id":76561198177354155,"connected_time":72000000000,"state":"active","ping":47},{"user_id":599,"name":"lil-timmy","steam_id":76561198294307703,"connected_time":278000000000,"state":"active","ping":93},{"user_id":592,"name":"CRISPR","steam_id":76561198326220798,"connected_time":637000000000,"state":"active","ping":71},{"user_id":540,"name":"Olblue2u","steam_id":76561199130563247,"connected_time":4033000000000,"state":"active","ping":87},{"user_id":577,"name":"[12V] Marv","steam_id":76561198158638384,"connected_time":1540000000000,"state":"active","ping":69},{"user_id":542,"name":"crippling fumo addiction","steam_id":76561198115874625,"connected_time":3919000000000,"state":"active","ping":70},{"user_id":567,"name":"the binging of babish","steam_id":76561198062954683,"connected_time":2296000000000,"state":"active","ping":86},{"user_id":578,"name":"movement shooter enthusiast","steam_id":76561198841593464,"connected_time":1539000000000,"state":"active","ping":69},{"user_id":570,"name":"Relatable","steam_id":76561198441669772,"connected_time":1943000000000,"state":"active","ping":91},{"user_id":589,"name":"Go Go Gadget, Colonoscopy","steam_id":76561198986553109,"connected_time":792000000000,"state":"active","ping":58}]},{"server_id":37,"name":"Uncletopia | Chicago | 6 | All Maps","name_short":"chi-6","host":"chi-2.us.uncletopia.com","port":27025,"enabled":true,"region":"us-central","cc":"us","latitude":41.881832,"longitude":-87.62318,"reserved":0,"last_update":"0001-01-01T00:00:00Z","name_a2s":"Uncletopia | Chicago | 6 | All Maps","protocol":17,"map":"pl_badwater","folder":"tf","game":"Team Fortress","app_id":440,"player_count":24,"max_players":24,"Bots":0,"server_type":"Dedicated","server_os":"Linux","password":true,"vac":true,"version":"7757534","steam_id":85568392924866363,"keywords":["nocrits","nodmgspread","payload","uncletopia"],"game_id":440,"stv_port":27026,"stv_name":"Uncletopia | Chicago | 6 | All Maps | STV","players":[{"user_id":617,"name":"kairOs.fk","steam_id":76561197972421260,"connected_time":3385000000000,"state":"active","ping":61},{"user_id":639,"name":"ShitsandGiggles‚Ñ¢","steam_id":76561198058708019,"connected_time":1237000000000,"state":"active","ping":53},{"user_id":602,"name":"Also","steam_id":76561199033216399,"connected_time":4652000000000,"state":"active","ping":73},{"user_id":650,"name":"simplyhere141","steam_id":76561199204117948,"connected_time":674000000000,"state":"active","ping":64},{"user_id":624,"name":"Limasio","steam_id":76561198198176191,"connected_time":2744000000000,"state":"active","ping":67},{"user_id":640,"name":"Tony Bologna","steam_id":76561198147454271,"connected_time":1204000000000,"state":"active","ping":76},{"user_id":654,"name":"Moosepie","steam_id":76561199241155474,"connected_time":22000000000,"state":"active","ping":104},{"user_id":653,"name":"Majestic-A","steam_id":76561198988062101,"connected_time":186000000000,"state":"active","ping":83},{"user_id":616,"name":"matchstick","steam_id":76561198190100027,"connected_time":3489000000000,"state":"active","ping":60},{"user_id":651,"name":"tA.CHRONIC","steam_id":76561197960760990,"connected_time":406000000000,"state":"active","ping":52},{"user_id":626,"name":"Intruder","steam_id":76561198799578901,"connected_time":2691000000000,"state":"active","ping":154},{"user_id":631,"name":"you are loved","steam_id":76561198108524571,"connected_time":2215000000000,"state":"active","ping":73},{"user_id":587,"name":"Quatts","steam_id":76561198051482153,"connected_time":5067000000000,"state":"active","ping":62},{"user_id":589,"name":"Spazzls","steam_id":76561198075224361,"connected_time":5020000000000,"state":"active","ping":95},{"user_id":652,"name":"seann","steam_id":76561198354473513,"connected_time":209000000000,"state":"active","ping":47},{"user_id":590,"name":"hotline bling","steam_id":76561198984131011,"connected_time":5020000000000,"state":"active","ping":74},{"user_id":627,"name":"eefr","steam_id":76561198406252824,"connected_time":2650000000000,"state":"active","ping":92},{"user_id":592,"name":"barbara","steam_id":76561198072417792,"connected_time":5009000000000,"state":"active","ping":84},{"user_id":593,"name":"gherkin","steam_id":76561198083688737,"connected_time":5004000000000,"state":"active","ping":105},{"user_id":646,"name":"Sawmp monster","steam_id":76561198332529760,"connected_time":1002000000000,"state":"active","ping":53},{"user_id":636,"name":"dr peppah chug!","steam_id":76561198068835693,"connected_time":1897000000000,"state":"active","ping":83},{"user_id":645,"name":"Heropon","steam_id":76561198105224481,"connected_time":1125000000000,"state":"active","ping":84},{"user_id":620,"name":"Female Gamer","steam_id":76561199366482682,"connected_time":3161000000000,"state":"active","ping":106}]},{"server_id":38,"name":"Uncletopia | Chicago | 7 | Stopwatch Beta","name_short":"chi-7","host":"chi-2.us.uncletopia.com","port":27035,"enabled":true,"region":"us-central","cc":"us","latitude":41.881832,"longitude":-87.62318,"reserved":0,"last_update":"0001-01-01T00:00:00Z","name_a2s":"Uncletopia | Chicago | 7 | Stopwatch Beta","protocol":17,"map":"workshop/pl_badwater_pro_v12.ugc2142942074","folder":"tf","game":"Team Fortress","app_id":440,"player_count":0,"max_players":24,"Bots":0,"server_type":"Dedicated","server_os":"Linux","password":true,"vac":true,"version":"7757534","steam_id":85568392924866364,"keywords":["nocrits","nodmgspread","payload","uncletopia"],"game_id":440,"stv_port":27036,"stv_name":"Uncletopia | Chicago | 7 | Stopwatch Beta | STV","players":null},{"server_id":39,"name":"Uncletopia | Chicago | 8 | Community","name_short":"chi-8","host":"chi-2.us.uncletopia.com","port":27045,"enabled":true,"region":"us-central","cc":"us","latitude":41.881832,"longitude":-87.62318,"reserved":0,"last_update":"0001-01-01T00:00:00Z","name_a2s":"Uncletopia | Chicago | 8 | Community","protocol":17,"map":"workshop/cp_sulfur_rc2.ugc619869471","folder":"tf","game":"Team Fortress","app_id":440,"player_count":24,"max_players":24,"Bots":0,"server_type":"Dedicated","server_os":"Linux","password":true,"vac":true,"version":"7757534","steam_id":85568392924866365,"keywords":["cp","nocrits","nodmgspread","uncletopia"],"game_id":440,"stv_port":27046,"stv_name":"Uncletopia | Chicago | 8 | Community | STV","players":[{"user_id":169,"name":"Evolution","steam_id":76561198144767370,"connected_time":134000000000,"state":"active","ping":47},{"user_id":43,"name":"J.U.N.I.","steam_id":76561198269171463,"connected_time":7267000000000,"state":"active","ping":62},{"user_id":134,"name":"Unknown","steam_id":76561198192450663,"connected_time":2296000000000,"state":"active","ping":67},{"user_id":166,"name":"IsaacJon03","steam_id":76561199246649735,"connected_time":412000000000,"state":"active","ping":79},{"user_id":163,"name":"Barracuda","steam_id":76561198013022083,"connected_time":484000000000,"state":"active","ping":60},{"user_id":148,"name":"‚ú∞","steam_id":76561198146234744,"connected_time":1087000000000,"state":"active","ping":75},{"user_id":101,"name":"faye","steam_id":76561198044176988,"connected_time":4303000000000,"state":"active","ping":56},{"user_id":135,"name":"ASDF","steam_id":76561199086189834,"connected_time":2280000000000,"state":"active","ping":70},{"user_id":129,"name":"Zubats |TAOZ|","steam_id":76561198041819445,"connected_time":3111000000000,"state":"active","ping":56},{"user_id":151,"name":"Ozzyrockin","steam_id":76561198094899868,"connected_time":982000000000,"state":"active","ping":63},{"user_id":149,"name":"grant collins","steam_id":76561198016479886,"connected_time":1064000000000,"state":"active","ping":90},{"user_id":152,"name":"middd","steam_id":76561198072996397,"connected_time":950000000000,"state":"active","ping":56},{"user_id":138,"name":"Koi","steam_id":76561198064411172,"connected_time":2157000000000,"state":"active","ping":60},{"user_id":72,"name":"stuporvillian","steam_id":76561198083796225,"connected_time":5531000000000,"state":"active","ping":84},{"user_id":141,"name":"Stock Medic","steam_id":76561198065479730,"connected_time":2043000000000,"state":"active","ping":49},{"user_id":153,"name":"VidzCMC","steam_id":76561198848142973,"connected_time":944000000000,"state":"active","ping":56},{"user_id":112,"name":"kangaroo wife","steam_id":76561198040455711,"connected_time":3857000000000,"state":"active","ping":97},{"user_id":32,"name":"Bimba","steam_id":76561198006883248,"connected_time":7757000000000,"state":"active","ping":76},{"user_id":142,"name":"BowlzingShoes","steam_id":76561199127110073,"connected_time":1971000000000,"state":"active","ping":69},{"user_id":95,"name":"Ena","steam_id":76561198948701334,"connected_time":4673000000000,"state":"active","ping":74},{"user_id":96,"name":"ItsTrystan","steam_id":76561198354464649,"connected_time":4669000000000,"state":"active","ping":64},{"user_id":143,"name":"PootisLife","steam_id":76561198074400568,"connected_time":1970000000000,"state":"active","ping":92},{"user_id":144,"name":"SlimGrady","steam_id":76561198451231329,"connected_time":1945000000000,"state":"active","ping":75},{"user_id":157,"name":"bios","steam_id":76561198063737238,"connected_time":859000000000,"state":"active","ping":77}]},{"server_id":8,"name":"Uncletopia | Dallas | 1 | All Maps","name_short":"dal-1","host":"dal-1.us.uncletopia.com","port":27015,"enabled":true,"region":"us-central","cc":"us","latitude":32.779167,"longitude":-96.80889,"reserved":0,"last_update":"0001-01-01T00:00:00Z","name_a2s":"Uncletopia | Dallas | 1 | All Maps","protocol":17,"map":"pl_badwater","folder":"tf","game":"Team Fortress","app_id":440,"player_count":24,"max_players":24,"Bots":0,"server_type":"Dedicated","server_os":"Linux","password":true,"vac":true,"version":"7757534","steam_id":85568392924469986,"keywords":["nocrits","nodmgspread","payload","uncletopia"],"game_id":440,"stv_port":27016,"stv_name":"Uncletopia | Dallas | 1 | All Maps | STV","players":[{"user_id":533,"name":"Aquamarine","steam_id":76561198309923339,"connected_time":3615000000000,"state":"active","ping":53},{"user_id":573,"name":"todd","steam_id":76561198140689842,"connected_time":400000000000,"state":"active","ping":51},{"user_id":578,"name":"bladees saddest, realest verse","steam_id":76561198098099826,"connected_time":1000000000,"state":"spawning","ping":61},{"user_id":574,"name":"BatJet","steam_id":76561198147738441,"connected_time":388000000000,"state":"active","ping":87},{"user_id":576,"name":"AtomLao","steam_id":76561198886167680,"connected_time":153000000000,"state":"active","ping":62},{"user_id":539,"name":"Kirbothebrony","steam_id":76561198971911330,"connected_time":3505000000000,"state":"active","ping":65},{"user_id":575,"name":"ZodiacThundaga","steam_id":76561199025117814,"connected_time":383000000000,"state":"active","ping":88},{"user_id":572,"name":"901 Milk","steam_id":76561198332647911,"connected_time":404000000000,"state":"active","ping":102},{"user_id":577,"name":"Protoshake","steam_id":76561198840276176,"connected_time":45000000000,"state":"active","ping":49},{"user_id":547,"name":"mel","steam_id":76561198097124190,"connected_time":2504000000000,"state":"active","ping":51},{"user_id":531,"name":"teatimesukka","steam_id":76561198978749594,"connected_time":4405000000000,"state":"active","ping":45},{"user_id":568,"name":"aidenmc3","steam_id":76561198062209166,"connected_time":858000000000,"state":"active","ping":39},{"user_id":554,"name":"Hobbes","steam_id":76561198059652226,"connected_time":1974000000000,"state":"active","ping":73},{"user_id":570,"name":"Ballista","steam_id":76561197983182562,"connected_time":442000000000,"state":"active","ping":60},{"user_id":550,"name":"Caoticaos","steam_id":76561198114800227,"connected_time":2085000000000,"state":"active","ping":144},{"user_id":544,"name":"BamBam","steam_id":76561198063110026,"connected_time":3335000000000,"state":"active","ping":73},{"user_id":558,"name":"usasan","steam_id":76561198044654399,"connected_time":1767000000000,"state":"active","ping":80},{"user_id":452,"name":"Gelliterate","steam_id":76561198107233070,"connected_time":11180000000000,"state":"active","ping":48},{"user_id":555,"name":"Syrix","steam_id":76561198017328672,"connected_time":1944000000000,"state":"active","ping":58},{"user_id":569,"name":"[CCP] Key XI ÁøíËøëÂπ≥","steam_id":76561198825658971,"connected_time":600000000000,"state":"active","ping":75},{"user_id":556,"name":"fhish","steam_id":76561198064911344,"connected_time":1937000000000,"state":"active","ping":51},{"user_id":567,"name":"SDL","steam_id":76561198859719985,"connected_time":1214000000000,"state":"active","ping":67},{"user_id":482,"name":"Foomfa","steam_id":76561198007033616,"connected_time":8897000000000,"state":"active","ping":64},{"user_id":564,"name":"My Pet Polar Bear","steam_id":76561198052902058,"connected_time":1454000000000,"state":"active","ping":75}]},{"server_id":108,"name":"Uncletopia | Dallas | 2 | All Maps","name_short":"dal-2","host":"dal-1.us.uncletopia.com","port":27025,"enabled":true,"region":"us-central","cc":"us","latitude":32.779167,"longitude":-96.80889,"reserved":0,"last_update":"0001-01-01T00:00:00Z","name_a2s":"Uncletopia | Dallas | 2 | All Maps","protocol":17,"map":"koth_lakeside_final","folder":"tf","game":"Team Fortress","app_id":440,"player_count":9,"max_players":24,"Bots":0,"server_type":"Dedicated","server_os":"Linux","password":true,"vac":true,"version":"7757534","steam_id":85568392924469988,"keywords":["cp","nocrits","nodmgspread","uncletopia"],"game_id":440,"stv_port":27026,"stv_name":"Uncletopia | Dallas | 2 | All Maps | STV","players":[{"user_id":95,"name":"beccaisclever","steam_id":76561199248606212,"connected_time":429000000000,"state":"active","ping":160},{"user_id":93,"name":"dinomikk09","steam_id":76561198337514637,"connected_time":534000000000,"state":"active","ping":80},{"user_id":94,"name":"SuperEvilPasta","steam_id":76561198078258907,"connected_time":532000000000,"state":"active","ping":60},{"user_id":96,"name":"knowingzomboss","steam_id":76561198392555036,"connected_time":425000000000,"state":"active","ping":161},{"user_id":97,"name":"Dead Ringer Dan","steam_id":76561199440272639,"connected_time":408000000000,"state":"active","ping":63},{"user_id":102,"name":"lemony","steam_id":76561199158847498,"connected_time":200000000000,"state":"active","ping":88},{"user_id":104,"name":"goofy guy","steam_id":76561198947654861,"connected_time":116000000000,"state":"active","ping":46},{"user_id":106,"name":"veemdya yaymign :)","steam_id":76561199175434022,"connected_time":82000000000,"state":"active","ping":88},{"user_id":107,"name":"MudBug","steam_id":76561198334676366,"connected_time":67000000000,"state":"active","ping":37}]},{"server_id":5,"name":"Uncletopia | Frankfurt | 1 | All Maps","name_short":"frk-1","host":"frk-1.de.uncletopia.com","port":27015,"enabled":true,"region":"eu","cc":"de","latitude":50.110924,"longitude":8.682127,"reserved":0,"last_update":"0001-01-01T00:00:00Z","name_a2s":"Uncletopia | Frankfurt | 1 | All Maps","protocol":17,"map":"koth_viaduct","folder":"tf","game":"Team Fortress","app_id":440,"player_count":0,"max_players":24,"Bots":0,"server_type":"Dedicated","server_os":"Linux","password":true,"vac":true,"version":"7757534","steam_id":85568392924469989,"keywords":["cp","nocrits","nodmgspread","uncletopia"],"game_id":440,"stv_port":27016,"stv_name":"Uncletopia | Frankfurt | 1 | All Maps | STV","players":null},{"server_id":110,"name":"Uncletopia | Frankfurt | 2 | All Maps","name_short":"frk-2","host":"frk-1.de.uncletopia.com","port":27025,"enabled":true,"region":"eu","cc":"de","latitude":50.110924,"longitude":8.682127,"reserved":0,"last_update":"0001-01-01T00:00:00Z","name_a2s":"Uncletopia | Frankfurt | 2 | All Maps","protocol":17,"map":"pl_rumford_event","folder":"tf","game":"Team Fortress","app_id":440,"player_count":23,"max_players":24,"Bots":0,"server_type":"Dedicated","server_os":"Linux","password":true,"vac":true,"version":"7757534","steam_id":85568392924469990,"keywords":["nocrits","nodmgspread","payload","uncletopia"],"game_id":440,"stv_port":27026,"stv_name":"Uncletopia | Frankfurt | 2 | All Maps | STV","players":[{"user_id":686,"name":"joachym","steam_id":76561198428579761,"connected_time":904000000000,"state":"active","ping":57},{"user_id":687,"name":"Whurlpuul üåÄ","steam_id":76561198028340642,"connected_time":851000000000,"state":"active","ping":61},{"user_id":688,"name":"DocTwoEight","steam_id":76561198153488940,"connected_time":849000000000,"state":"active","ping":75},{"user_id":689,"name":"weresharks","steam_id":76561198063922360,"connected_time":810000000000,"state":"active","ping":64},{"user_id":644,"name":"engie?","steam_id":76561198331852832,"connected_time":4799000000000,"state":"active","ping":76},{"user_id":690,"name":"Babki","steam_id":76561198035923056,"connected_time":569000000000,"state":"active","ping":88},{"user_id":692,"name":"pidgeonlord","steam_id":76561198297290160,"connected_time":541000000000,"state":"active","ping":64},{"user_id":695,"name":"hatsune mike","steam_id":76561198051582865,"connected_time":234000000000,"state":"active","ping":70},{"user_id":684,"name":"Tapet","steam_id":76561197998808674,"connected_time":1214000000000,"state":"active","ping":61},{"user_id":647,"name":"–¢–æ—Ä—á","steam_id":76561198213991196,"connected_time":4662000000000,"state":"active","ping":100},{"user_id":559,"name":"vroom doom","steam_id":76561198192671475,"connected_time":11331000000000,"state":"active","ping":60},{"user_id":694,"name":"marsel","steam_id":76561198116168271,"connected_time":330000000000,"state":"active","ping":75},{"user_id":698,"name":"MerlinMelon","steam_id":76561198131601158,"connected_time":164000000000,"state":"active","ping":78},{"user_id":685,"name":"Hyperek","steam_id":76561198130797464,"connected_time":1190000000000,"state":"active","ping":71},{"user_id":697,"name":"THEJamiboi","steam_id":76561198034696965,"connected_time":195000000000,"state":"active","ping":76},{"user_id":702,"name":"akciq ‚Åß‚Åßrespect","steam_id":76561198390963456,"connected_time":1000000000,"state":"spawning","ping":74},{"user_id":701,"name":"GortÀö‚úß‚Çä","steam_id":76561198085248515,"connected_time":133000000000,"state":"active","ping":136},{"user_id":673,"name":"Cheesecake","steam_id":76561198808819694,"connected_time":2220000000000,"state":"active","ping":47},{"user_id":664,"name":"Choruptian","steam_id":76561198017686366,"connected_time":3584000000000,"state":"active","ping":60},{"user_id":660,"name":"Tsuruko","steam_id":76561198063618114,"connected_time":4062000000000,"state":"active","ping":60},{"user_id":635,"name":"First Order Stormtrooper","steam_id":76561198259620504,"connected_time":5429000000000,"state":"active","ping":54},{"user_id":651,"name":"Harpenden, Harpenden, Harpenden","steam_id":76561198118138546,"connected_time":4550000000000,"state":"active","ping":63},{"user_id":608,"name":"nytronytronytro","steam_id":76561198080496833,"connected_time":8015000000000,"state":"active","ping":88}]},{"server_id":308,"name":"Uncletopia | Frankfurt | 3 | All Maps","name_short":"frk-3","host":"frk-1.de.uncletopia.com","port":27035,"enabled":true,"region":"eu","cc":"de","latitude":50.110924,"longitude":8.682127,"reserved":0,"last_update":"0001-01-01T00:00:00Z","name_a2s":"Uncletopia | Frankfurt | 3 | All Maps","protocol":17,"map":"koth_lakeside_final","folder":"tf","game":"Team Fortress","app_id":440,"player_count":0,"max_players":24,"Bots":0,"server_type":"Dedicated","server_os":"Linux","password":true,"vac":true,"version":"7757534","steam_id":85568392924504274,"keywords":["cp","nocrits","nodmgspread","uncletopia"],"game_id":440,"stv_port":27036,"stv_name":"Uncletopia | Frankfurt | 3 | All Maps | STV","players":null},{"server_id":309,"name":"Uncletopia | Frankfurt | 4 | All Maps","name_short":"frk-4","host":"frk-1.de.uncletopia.com","port":27045,"enabled":true,"region":"eu","cc":"de","latitude":50.110924,"longitude":8.682127,"reserved":0,"last_update":"0001-01-01T00:00:00Z","name_a2s":"Uncletopia | Frankfurt | 4 | All Maps","protocol":17,"map":"cp_sunshine","folder":"tf","game":"Team Fortress","app_id":440,"player_count":0,"max_players":24,"Bots":0,"server_type":"Dedicated","server_os":"Linux","password":true,"vac":true,"version":"7757534","steam_id":85568392924504275,"keywords":["cp","nocrits","nodmgspread","uncletopia"],"game_id":440,"stv_port":27046,"stv_name":"Uncletopia | Frankfurt | 4 | All Maps | STV","players":null},{"server_id":310,"name":"Uncletopia | Frankfurt | 5 | All Maps","name_short":"frk-5","host":"frk-1.de.uncletopia.com","port":27055,"enabled":true,"region":"eu","cc":"de","latitude":50.110924,"longitude":8.682127,"reserved":0,"last_update":"0001-01-01T00:00:00Z","name_a2s":"Uncletopia | Frankfurt | 5 | All Maps","protocol":17,"map":"cp_sunshine","folder":"tf","game":"Team Fortress","app_id":440,"player_count":0,"max_players":24,"Bots":0,"server_type":"Dedicated","server_os":"Linux","password":true,"vac":true,"version":"7757534","steam_id":85568392924504277,"keywords":["cp","nocrits","nodmgspread","uncletopia"],"game_id":440,"stv_port":27056,"stv_name":"Uncletopia | Frankfurt | 5 | All Maps | STV","players":null},{"server_id":311,"name":"Uncletopia | Frankfurt | 6 | All Maps","name_short":"frk-6","host":"frk-1.de.uncletopia.com","port":27065,"enabled":true,"region":"eu","cc":"de","latitude":50.110924,"longitude":8.682127,"reserved":0,"last_update":"0001-01-01T00:00:00Z","name_a2s":"Uncletopia | Frankfurt | 6 | All Maps","protocol":17,"map":"cp_altitude","folder":"tf","game":"Team Fortress","app_id":440,"player_count":1,"max_players":24,"Bots":0,"server_type":"Dedicated","server_os":"Linux","password":true,"vac":true,"version":"7757534","steam_id":85568392924504278,"keywords":["cp","nocrits","nodmgspread","uncletopia"],"game_id":440,"stv_port":27066,"stv_name":"Uncletopia | Frankfurt | 6 | All Maps | STV","players":[{"user_id":855,"name":"GrimSnail","steam_id":76561198063319881,"connected_time":70000000000,"state":"active","ping":40}]},{"server_id":23,"name":"Uncletopia | Frankfurt | 7 | Stopwatch Beta","name_short":"frk-7","host":"frk-1.de.uncletopia.com","port":27075,"enabled":true,"region":"eu","cc":"de","latitude":50.110924,"longitude":8.682127,"reserved":0,"last_update":"0001-01-01T00:00:00Z","name_a2s":"Uncletopia | Frankfurt | 7 | Stopwatch Beta","protocol":17,"map":"koth_lakeside_final","folder":"tf","game":"Team Fortress","app_id":440,"player_count":0,"max_players":24,"Bots":0,"server_type":"Dedicated","server_os":"Linux","password":true,"vac":true,"version":"7757534","steam_id":85568392924742827,"keywords":["cp","nocrits","nodmgspread","uncletopia"],"game_id":440,"stv_port":27076,"stv_name":"Uncletopia | Frankfurt | 7 | Stopwatch Beta | STV","players":null},{"server_id":24,"name":"Uncletopia | Frankfurt | 8 | Community","name_short":"frk-8","host":"frk-1.de.uncletopia.com","port":27085,"enabled":true,"region":"eu","cc":"de","latitude":50.110924,"longitude":8.682127,"reserved":0,"last_update":"0001-01-01T00:00:00Z","name_a2s":"Uncletopia | Frankfurt | 8 | Community","protocol":17,"map":"workshop/koth_ramjam_rc1.ugc459778887","folder":"tf","game":"Team Fortress","app_id":440,"player_count":0,"max_players":24,"Bots":0,"server_type":"Dedicated","server_os":"Linux","password":true,"vac":true,"version":"7757534","steam_id":85568392924742828,"keywords":["cp","nocrits","nodmgspread","uncletopia"],"game_id":440,"stv_port":27086,"stv_name":"Uncletopia | Frankfurt | 8 | Community | STV","players":null},{"server_id":202,"name":"Uncletopia | Hong Kong | 1 | All Maps","name_short":"hgk-1","host":"hgk-1.hk.uncletopia.com","port":27015,"enabled":true,"region":"asia","cc":"hk","latitude":22.302711,"longitude":114.177216,"reserved":0,"last_update":"0001-01-01T00:00:00Z","name_a2s":"Uncletopia | Hong Kong | 1 | All Maps","protocol":17,"map":"pl_badwater","folder":"tf","game":"Team Fortress","app_id":440,"player_count":3,"max_players":24,"Bots":0,"server_type":"Dedicated","server_os":"Linux","password":true,"vac":true,"version":"7757534","steam_id":85568392924494504,"keywords":["nocrits","nodmgspread","payload","uncletopia"],"game_id":440,"stv_port":27016,"stv_name":"Uncletopia | Hong Kong | 1 | All Maps | STV","players":[{"user_id":41,"name":"ellz71","steam_id":76561199216074568,"connected_time":574000000000,"state":"active","ping":129},{"user_id":48,"name":"Mr. Smiggles","steam_id":76561199189835188,"connected_time":174000000000,"state":"active","ping":118},{"user_id":50,"name":"Jimi Hend-Rizz Excrements","steam_id":76561198826565047,"connected_time":62000000000,"state":"active","ping":90}]},{"server_id":1,"name":"Uncletopia | Los Angeles | 1 | All Maps","name_short":"lax-1","host":"lax-1.us.uncletopia.com","port":27015,"enabled":true,"region":"us-west","cc":"us","latitude":33.94279,"longitude":-118.41004,"reserved":0,"last_update":"0001-01-01T00:00:00Z","name_a2s":"Uncletopia | Los Angeles | 1 | All Maps","protocol":17,"map":"cp_altitude","folder":"tf","game":"Team Fortress","app_id":440,"player_count":24,"max_players":24,"Bots":0,"server_type":"Dedicated","server_os":"Linux","password":true,"vac":true,"version":"7757534","steam_id":85568392924469991,"keywords":["cp","nocrits","nodmgspread","uncletopia"],"game_id":440,"stv_port":27016,"stv_name":"Uncletopia | Los Angeles | 1 | All Maps | STV","players":[{"user_id":341,"name":"Bub","steam_id":76561198059791574,"connected_time":924000000000,"state":"active","ping":96},{"user_id":274,"name":"borzier","steam_id":76561198069190432,"connected_time":5175000000000,"state":"active","ping":118},{"user_id":342,"name":"Project Dusk","steam_id":76561198193521149,"connected_time":913000000000,"state":"active","ping":98},{"user_id":343,"name":"D-BOI The Scientist","steam_id":76561198875402129,"connected_time":903000000000,"state":"active","ping":66},{"user_id":357,"name":"Grungus","steam_id":76561198047700230,"connected_time":723000000000,"state":"active","ping":56},{"user_id":245,"name":"DeckofDragons","steam_id":76561198057398213,"connected_time":6821000000000,"state":"active","ping":82},{"user_id":359,"name":"Interrobang","steam_id":76561198385044529,"connected_time":609000000000,"state":"active","ping":95},{"user_id":347,"name":"jimbo","steam_id":76561198067867292,"connected_time":842000000000,"state":"active","ping":103},{"user_id":337,"name":"JustaTroll","steam_id":76561198351004116,"connected_time":1076000000000,"state":"active","ping":56},{"user_id":358,"name":"walrooos ‚úø","steam_id":76561198024521839,"connected_time":687000000000,"state":"active","ping":47},{"user_id":276,"name":"scratching post enjoyer","steam_id":76561198204169516,"connected_time":5170000000000,"state":"active","ping":77},{"user_id":346,"name":"crimson","steam_id":76561198018725934,"connected_time":866000000000,"state":"active","ping":59},{"user_id":362,"name":"Snooter","steam_id":76561198042435225,"connected_time":365000000000,"state":"active","ping":75},{"user_id":324,"name":"nzippy","steam_id":76561199048618678,"connected_time":2079000000000,"state":"active","ping":75},{"user_id":361,"name":"TheConchinator","steam_id":76561199388149092,"connected_time":557000000000,"state":"active","ping":114},{"user_id":320,"name":"Sewer","steam_id":76561198803732690,"connected_time":2553000000000,"state":"active","ping":56},{"user_id":338,"name":"Ecliptica","steam_id":76561198171951333,"connected_time":1068000000000,"state":"active","ping":121},{"user_id":289,"name":"SpottedRuby","steam_id":76561198871250632,"connected_time":4773000000000,"state":"active","ping":71},{"user_id":353,"name":"Pocket Sized Rocket Scientist","steam_id":76561198076065664,"connected_time":752000000000,"state":"active","ping":78},{"user_id":332,"name":"Schnitz(Lost my Glasses)","steam_id":76561198265484253,"connected_time":1460000000000,"state":"active","ping":58},{"user_id":354,"name":".9 lg","steam_id":76561198092238353,"connected_time":745000000000,"state":"active","ping":78},{"user_id":295,"name":"h20verdrive","steam_id":76561198115957085,"connected_time":4137000000000,"state":"active","ping":42},{"user_id":355,"name":"mechanicvirus","steam_id":76561198038161480,"connected_time":728000000000,"state":"active","ping":68},{"user_id":356,"name":"immonky","steam_id":76561198170080898,"connected_time":728000000000,"state":"active","ping":98}]},{"server_id":112,"name":"Uncletopia | Los Angeles | 2 | All Maps","name_short":"lax-2","host":"lax-1.us.uncletopia.com","port":27025,"enabled":true,"region":"us-west","cc":"us","latitude":33.94279,"longitude":-118.41004,"reserved":0,"last_update":"0001-01-01T00:00:00Z","name_a2s":"Uncletopia | Los Angeles | 2 | All Maps","protocol":17,"map":"koth_cascade","folder":"tf","game":"Team Fortress","app_id":440,"player_count":0,"max_players":24,"Bots":0,"server_type":"Dedicated","server_os":"Linux","password":true,"vac":true,"version":"7757534","steam_id":85568392924469992,"keywords":["cp","nocrits","nodmgspread","uncletopia"],"game_id":440,"stv_port":27026,"stv_name":"Uncletopia | Los Angeles | 2 | All Maps | STV","players":null},{"server_id":324,"name":"Uncletopia | Los Angeles | 3 | All Maps","name_short":"lax-3","host":"lax-1.us.uncletopia.com","port":27035,"enabled":true,"region":"us-west","cc":"us","latitude":33.94279,"longitude":-118.41004,"reserved":0,"last_update":"0001-01-01T00:00:00Z","name_a2s":"Uncletopia | Los Angeles | 3 | All Maps","protocol":17,"map":"pl_snowycoast","folder":"tf","game":"Team Fortress","app_id":440,"player_count":24,"max_players":24,"Bots":0,"server_type":"Dedicated","server_os":"Linux","password":true,"vac":true,"version":"7757534","steam_id":85568392924510198,"keywords":["nocrits","nodmgspread","payload","uncletopia"],"game_id":440,"stv_port":27036,"stv_name":"Uncletopia | Los Angeles | 3 | All Maps | STV","players":[{"user_id":71,"name":"Frogzilla","steam_id":76561198077657538,"connected_time":625000000000,"state":"active","ping":97},{"user_id":54,"name":"Murgatroyd","steam_id":76561198077350331,"connected_time":2071000000000,"state":"active","ping":70},{"user_id":18,"name":"Windows1800s","steam_id":76561198145093014,"connected_time":3584000000000,"state":"active","ping":49},{"user_id":61,"name":"nothowon","steam_id":76561198937601452,"connected_time":1374000000000,"state":"active","ping":111},{"user_id":20,"name":"S@ndvich","steam_id":76561198179706757,"connected_time":3580000000000,"state":"active","ping":59},{"user_id":21,"name":"Andreshatesmondays","steam_id":76561198889349797,"connected_time":3580000000000,"state":"active","ping":70},{"user_id":22,"name":"Syndicayte","steam_id":76561198809159075,"connected_time":3548000000000,"state":"active","ping":53},{"user_id":43,"name":"jungus","steam_id":76561198129862008,"connected_time":2379000000000,"state":"active","ping":51},{"user_id":60,"name":"BigHam","steam_id":76561198157249056,"connected_time":1444000000000,"state":"active","ping":113},{"user_id":72,"name":"Koyota","steam_id":76561198069878114,"connected_time":358000000000,"state":"active","ping":73},{"user_id":70,"name":"BionicApe","steam_id":76561198154637711,"connected_time":681000000000,"state":"active","ping":62},{"user_id":63,"name":"Jonatello","steam_id":76561198045699189,"connected_time":1073000000000,"state":"active","ping":78},{"user_id":41,"name":"Orson Welles Gaming","steam_id":76561198115821923,"connected_time":2657000000000,"state":"active","ping":86},{"user_id":58,"name":"Video game victim","steam_id":76561198308017082,"connected_time":1465000000000,"state":"active","ping":58},{"user_id":32,"name":"theTheSuzan","steam_id":76561198044181453,"connected_time":3183000000000,"state":"active","ping":121},{"user_id":46,"name":"cup","steam_id":76561198121245586,"connected_time":2256000000000,"state":"active","ping":81},{"user_id":68,"name":"beabadoobee","steam_id":76561198122177409,"connected_time":759000000000,"state":"active","ping":46},{"user_id":35,"name":"Comrade_Ariel","steam_id":76561198370028638,"connected_time":3099000000000,"state":"active","ping":52},{"user_id":57,"name":"yogi","steam_id":76561198067986753,"connected_time":1480000000000,"state":"active","ping":47},{"user_id":65,"name":"Stapler","steam_id":76561198099295077,"connected_time":987000000000,"state":"active","ping":60},{"user_id":49,"name":"weed lesbian","steam_id":76561198042263805,"connected_time":2203000000000,"state":"active","ping":77},{"user_id":66,"name":"MinusSoup918","steam_id":76561198060902773,"connected_time":985000000000,"state":"active","ping":70},{"user_id":67,"name":"Dog","steam_id":76561197979056451,"connected_time":957000000000,"state":"active","ping":78},{"user_id":52,"name":"truck freak [friend]","steam_id":76561198062712676,"connected_time":2167000000000,"state":"active","ping":72}]},{"server_id":25,"name":"Uncletopia | Los Angeles | 4 | Stopwatch Beta","name_short":"lax-4","host":"lax-1.us.uncletopia.com","port":27045,"enabled":true,"region":"us-west","cc":"us","latitude":33.94279,"longitude":-118.41004,"reserved":0,"last_update":"0001-01-01T00:00:00Z","name_a2s":"Uncletopia | Los Angeles | 4 | Stopwatch Beta","protocol":17,"map":"koth_viaduct","folder":"tf","game":"Team Fortress","app_id":440,"player_count":0,"max_players":24,"Bots":0,"server_type":"Dedicated","server_os":"Linux","password":true,"vac":true,"version":"7757534","steam_id":85568392924510199,"keywords":["cp","nocrits","nodmgspread","uncletopia"],"game_id":440,"stv_port":27046,"stv_name":"Uncletopia | Los Angeles | 4 | Stopwatch Beta | STV","players":null},{"server_id":11,"name":"Uncletopia | London | 1 | All Maps","name_short":"lon-1","host":"lon-1.uk.uncletopia.com","port":27015,"enabled":true,"region":"eu","cc":"gb","latitude":51.509865,"longitude":-0.118092,"reserved":0,"last_update":"0001-01-01T00:00:00Z","name_a2s":"Uncletopia | London | 1 | All Maps","protocol":17,"map":"pl_borneo","folder":"tf","game":"Team Fortress","app_id":440,"player_count":24,"max_players":24,"Bots":0,"server_type":"Dedicated","server_os":"Linux","password":true,"vac":true,"version":"7757534","steam_id":85568392924367362,"keywords":["nocrits","nodmgspread","payload","uncletopia"],"game_id":440,"stv_port":27016,"stv_name":"Uncletopia | London | 1 | All Maps | STV","players":[{"user_id":868,"name":"Bob","steam_id":76561198218200489,"connected_time":627000000000,"state":"active","ping":56},{"user_id":861,"name":"CactusFarms","steam_id":76561199009131802,"connected_time":1125000000000,"state":"active","ping":50},{"user_id":859,"name":"Vintage Violet","steam_id":76561199122876946,"connected_time":1195000000000,"state":"active","ping":161},{"user_id":872,"name":"Reast","steam_id":76561198022796927,"connected_time":87000000000,"state":"active","ping":89},{"user_id":850,"name":"Teffg","steam_id":76561198274386094,"connected_time":1518000000000,"state":"active","ping":90},{"user_id":786,"name":"Psyche","steam_id":76561198091662001,"connected_time":7256000000000,"state":"active","ping":61},{"user_id":849,"name":"Slowingbranch90","steam_id":76561199445875508,"connected_time":1667000000000,"state":"active","ping":150},{"user_id":854,"name":"Autoexec","steam_id":76561198155581421,"connected_time":1312000000000,"state":"active","ping":43},{"user_id":871,"name":"Shlongulator","steam_id":76561198149779201,"connected_time":193000000000,"state":"active","ping":57},{"user_id":825,"name":"RubyTheGothUnicorn","steam_id":76561198091772218,"connected_time":2911000000000,"state":"active","ping":67},{"user_id":820,"name":"Spam „Ç¥ „Ç¥","steam_id":76561198038118301,"connected_time":3682000000000,"state":"active","ping":84},{"user_id":851,"name":"sid","steam_id":76561198093613358,"connected_time":1418000000000,"state":"active","ping":107},{"user_id":857,"name":"nobody","steam_id":76561198180637374,"connected_time":1262000000000,"state":"active","ping":91},{"user_id":860,"name":"Zipplip","steam_id":76561198090476842,"connected_time":1180000000000,"state":"active","ping":151},{"user_id":873,"name":"Jyghc","steam_id":76561198405980575,"connected_time":68000000000,"state":"active","ping":65},{"user_id":835,"name":"œü suguse","steam_id":76561198344120559,"connected_time":2122000000000,"state":"active","ping":85},{"user_id":870,"name":"Soph","steam_id":76561198131688853,"connected_time":201000000000,"state":"active","ping":48},{"user_id":867,"name":"Bupster","steam_id":76561199077027065,"connected_time":870000000000,"state":"active","ping":77},{"user_id":863,"name":"ImplyDoodles","steam_id":76561199229483657,"connected_time":1060000000000,"state":"active","ping":65},{"user_id":869,"name":"EdSuedi","steam_id":76561199387956486,"connected_time":450000000000,"state":"active","ping":60},{"user_id":865,"name":"Superiumentarius","steam_id":76561198081642249,"connected_time":1004000000000,"state":"active","ping":71},{"user_id":841,"name":"Redante","steam_id":76561198023772081,"connected_time":2045000000000,"state":"active","ping":72},{"user_id":874,"name":"mimikeu uwu","steam_id":76561198797836599,"connected_time":60000000000,"state":"active","ping":71},{"user_id":842,"name":"Kurage","steam_id":76561198021221288,"connected_time":2044000000000,"state":"active","ping":71}]},{"server_id":114,"name":"Uncletopia | London | 2 | All Maps","name_short":"lon-2","host":"lon-1.uk.uncletopia.com","port":27025,"enabled":true,"region":"eu","cc":"gb","latitude":51.509865,"longitude":-0.118092,"reserved":0,"last_update":"0001-01-01T00:00:00Z","name_a2s":"Uncletopia | London | 2 | All Maps","protocol":17,"map":"koth_lakeside_final","folder":"tf","game":"Team Fortress","app_id":440,"player_count":0,"max_players":24,"Bots":0,"server_type":"Dedicated","server_os":"Linux","password":true,"vac":true,"version":"7757534","steam_id":85568392924470941,"keywords":["cp","nocrits","nodmgspread","uncletopia"],"game_id":440,"stv_port":27026,"stv_name":"Uncletopia | London | 2 | All Maps | STV","players":null},{"server_id":320,"name":"Uncletopia | London | 3 | All Maps","name_short":"lon-3","host":"lon-1.uk.uncletopia.com","port":27035,"enabled":true,"region":"eu","cc":"gb","latitude":51.509865,"longitude":-0.118092,"reserved":0,"last_update":"0001-01-01T00:00:00Z","name_a2s":"Uncletopia | London | 3 | All Maps","protocol":17,"map":"pl_pier","folder":"tf","game":"Team Fortress","app_id":440,"player_count":9,"max_players":24,"Bots":0,"server_type":"Dedicated","server_os":"Linux","password":true,"vac":true,"version":"7757534","steam_id":85568392924510192,"keywords":["nocrits","nodmgspread","payload","uncletopia"],"game_id":440,"stv_port":27036,"stv_name":"Uncletopia | London | 3 | All Maps | STV","players":[{"user_id":1031,"name":"Sakari","steam_id":76561197997811299,"connected_time":838000000000,"state":"active","ping":63},{"user_id":1032,"name":"DrunkHungarian","steam_id":76561198853346540,"connected_time":834000000000,"state":"active","ping":60},{"user_id":1037,"name":"Ganix","steam_id":76561199058610171,"connected_time":13000000000,"state":"spawning","ping":136},{"user_id":1022,"name":"BIGGEST MAC","steam_id":76561198847517098,"connected_time":1941000000000,"state":"active","ping":168},{"user_id":1023,"name":"Hypno_Flower","steam_id":76561199225893185,"connected_time":1904000000000,"state":"active","ping":51},{"user_id":1024,"name":"Speckle","steam_id":76561199194591435,"connected_time":1889000000000,"state":"active","ping":61},{"user_id":1027,"name":"Nickz","steam_id":76561198180396145,"connected_time":1546000000000,"state":"active","ping":99},{"user_id":1029,"name":"ARandomAustrian","steam_id":76561199208542398,"connected_time":1343000000000,"state":"active","ping":146},{"user_id":1030,"name":"ÀπFate's¬∑MarionetteÀº","steam_id":76561198034197381,"connected_time":1314000000000,"state":"active","ping":54}]},{"server_id":321,"name":"Uncletopia | London | 4 | All Maps","name_short":"lon-4","host":"lon-1.uk.uncletopia.com","port":27045,"enabled":true,"region":"eu","cc":"gb","latitude":51.509865,"longitude":-0.118092,"reserved":0,"last_update":"0001-01-01T00:00:00Z","name_a2s":"Uncletopia | London | 4 | All Maps","protocol":17,"map":"pl_borneo","folder":"tf","game":"Team Fortress","app_id":440,"player_count":17,"max_players":24,"Bots":0,"server_type":"Dedicated","server_os":"Linux","password":true,"vac":true,"version":"7757534","steam_id":85568392924510193,"keywords":["nocrits","nodmgspread","payload","uncletopia"],"game_id":440,"stv_port":27046,"stv_name":"Uncletopia | London | 4 | All Maps | STV","players":[{"user_id":696,"name":"sassy the sasquatch","steam_id":76561198844060342,"connected_time":1895000000000,"state":"spawning","ping":68},{"user_id":710,"name":"cum 2","steam_id":76561198010075638,"connected_time":238000000000,"state":"spawning","ping":112},{"user_id":707,"name":"Mur–°hila","steam_id":76561198819104188,"connected_time":623000000000,"state":"spawning","ping":118},{"user_id":672,"name":"BRIDGEBURNER420","steam_id":76561198183949987,"connected_time":3185000000000,"state":"spawning","ping":73},{"user_id":701,"name":"hungry little man","steam_id":76561199229110612,"connected_time":1263000000000,"state":"spawning","ping":62},{"user_id":568,"name":"cinny","steam_id":76561198832112629,"connected_time":11429000000000,"state":"spawning","ping":124},{"user_id":708,"name":"jaMie","steam_id":76561198170148783,"connected_time":574000000000,"state":"spawning","ping":62},{"user_id":704,"name":"MATLAB R2021b","steam_id":76561198053440695,"connected_time":901000000000,"state":"spawning","ping":69},{"user_id":702,"name":"Insain Bolt!","steam_id":76561198025687726,"connected_time":1121000000000,"state":"spawning","ping":72},{"user_id":634,"name":"Johnny Cockroach","steam_id":76561198049648277,"connected_time":8774000000000,"state":"spawning","ping":133},{"user_id":698,"name":"El Presidente","steam_id":76561198059580460,"connected_time":1865000000000,"state":"spawning","ping":111},{"user_id":578,"name":"'M'","steam_id":76561197985151052,"connected_time":11123000000000,"state":"spawning","ping":90},{"user_id":711,"name":"zmutowany","steam_id":76561198053946887,"connected_time":201000000000,"state":"spawning","ping":114},{"user_id":675,"name":"steakman10","steam_id":76561198152584691,"connected_time":3110000000000,"state":"spawning","ping":105},{"user_id":666,"name":"Athomix","steam_id":76561198170108402,"connected_time":3789000000000,"state":"spawning","ping":105},{"user_id":659,"name":"Dee","steam_id":76561198257836694,"connected_time":5897000000000,"state":"spawning","ping":73},{"user_id":697,"name":"Blade the vampire (bisexual)","steam_id":76561198074097655,"connected_time":1886000000000,"state":"spawning","ping":59}]},{"server_id":21,"name":"Uncletopia | London | 5 | All Maps","name_short":"lon-5","host":"lon-1.uk.uncletopia.com","port":27055,"enabled":true,"region":"eu","cc":"gb","latitude":51.509865,"longitude":-0.118092,"reserved":0,"last_update":"0001-01-01T00:00:00Z","name_a2s":"Uncletopia | London | 5 | All Maps","protocol":17,"map":"koth_lakeside_final","folder":"tf","game":"Team Fortress","app_id":440,"player_count":0,"max_players":24,"Bots":0,"server_type":"Dedicated","server_os":"Linux","password":true,"vac":true,"version":"7757534","steam_id":85568392924742829,"keywords":["cp","nocrits","nodmgspread","uncletopia"],"game_id":440,"stv_port":27056,"stv_name":"Uncletopia | London | 5 | All Maps | STV","players":null},{"server_id":22,"name":"Uncletopia | London | 6 | All Maps","name_short":"lon-6","host":"lon-1.uk.uncletopia.com","port":27065,"enabled":true,"region":"eu","cc":"gb","latitude":51.509865,"longitude":-0.118092,"reserved":0,"last_update":"0001-01-01T00:00:00Z","name_a2s":"Uncletopia | London | 6 | All Maps","protocol":17,"map":"koth_highpass","folder":"tf","game":"Team Fortress","app_id":440,"player_count":0,"max_players":24,"Bots":0,"server_type":"Dedicated","server_os":"Linux","password":true,"vac":true,"version":"7757534","steam_id":85568392924742830,"keywords":["cp","nocrits","nodmgspread","uncletopia"],"game_id":440,"stv_port":27066,"stv_name":"Uncletopia | London | 6 | All Maps | STV","players":null},{"server_id":40,"name":"Uncletopia | London | 7 | No Payload","name_short":"lon-7","host":"lon-1.uk.uncletopia.com","port":27075,"enabled":true,"region":"eu","cc":"gb","latitude":51.509865,"longitude":-0.118092,"reserved":0,"last_update":"0001-01-01T00:00:00Z","name_a2s":"Uncletopia | London | 7 | No Payload","protocol":17,"map":"koth_lazarus","folder":"tf","game":"Team Fortress","app_id":440,"player_count":0,"max_players":24,"Bots":0,"server_type":"Dedicated","server_os":"Linux","password":true,"vac":true,"version":"7757534","steam_id":85568392924964314,"keywords":["cp","nocrits","nodmgspread","uncletopia"],"game_id":440,"stv_port":27076,"stv_name":"Uncletopia | London | 7 | No Payload | STV","players":null},{"server_id":41,"name":"Uncletopia | London | 8 | Community","name_short":"lon-8","host":"lon-1.uk.uncletopia.com","port":27085,"enabled":true,"region":"eu","cc":"gb","latitude":51.509865,"longitude":-0.118092,"reserved":0,"last_update":"0001-01-01T00:00:00Z","name_a2s":"Uncletopia | London | 8 | Community","protocol":17,"map":"workshop/koth_ashville_final.ugc2130459942","folder":"tf","game":"Team Fortress","app_id":440,"player_count":0,"max_players":24,"Bots":0,"server_type":"Dedicated","server_os":"Linux","password":true,"vac":true,"version":"7757534","steam_id":85568392924964315,"keywords":["cp","nocrits","nodmgspread","uncletopia"],"game_id":440,"stv_port":27086,"stv_name":"Uncletopia | London | 8 | Community | STV","players":null},{"server_id":300,"name":"Uncletopia | Montr√©al | 1 | All Maps","name_short":"mtl-1","host":"mtl-1.ca.uncletopia.com","port":27015,"enabled":true,"region":"us-east","cc":"ca","latitude":45.50889,"longitude":-73.56167,"reserved":0,"last_update":"0001-01-01T00:00:00Z","name_a2s":"Uncletopia | Montr√©al | 1 | All Maps","protocol":17,"map":"pl_pier","folder":"tf","game":"Team Fortress","app_id":440,"player_count":23,"max_players":24,"Bots":0,"server_type":"Dedicated","server_os":"Linux","password":true,"vac":true,"version":"7757534","steam_id":85568392924500087,"keywords":["nocrits","nodmgspread","payload","uncletopia"],"game_id":440,"stv_port":27016,"stv_name":"Uncletopia | Montr√©al | 1 | All Maps | STV","players":[{"user_id":90,"name":"heywaitasecond","steam_id":76561199064548292,"connected_time":121000000000,"state":"active","ping":71},{"user_id":61,"name":"deaf","steam_id":76561199468024286,"connected_time":2016000000000,"state":"active","ping":86},{"user_id":68,"name":"TH-1","steam_id":76561197993467034,"connected_time":1116000000000,"state":"active","ping":61},{"user_id":91,"name":"nalezinik","steam_id":76561198030026119,"connected_time":99000000000,"state":"active","ping":68},{"user_id":12,"name":"KrashBoomBang","steam_id":76561199002978777,"connected_time":6020000000000,"state":"active","ping":58},{"user_id":21,"name":"Juan Pablo Gonzalez 2022","steam_id":76561199197961413,"connected_time":5021000000000,"state":"active","ping":69},{"user_id":81,"name":"dicksnip","steam_id":76561198356515396,"connected_time":534000000000,"state":"active","ping":106},{"user_id":92,"name":"heimdall","steam_id":76561198069380992,"connected_time":22000000000,"state":"active","ping":107},{"user_id":74,"name":"cp_powerhouse TF2","steam_id":76561198283687382,"connected_time":762000000000,"state":"active","ping":98},{"user_id":82,"name":"TheTrashMann","steam_id":76561199174242639,"connected_time":472000000000,"state":"active","ping":96},{"user_id":25,"name":"Yayifications","steam_id":76561198066227208,"connected_time":4548000000000,"state":"active","ping":60},{"user_id":63,"name":"squishy","steam_id":76561198015034116,"connected_time":2013000000000,"state":"active","ping":62},{"user_id":64,"name":"Johnny Lawrence #JohnnyMaxxing","steam_id":76561199367141671,"connected_time":1970000000000,"state":"active","ping":60},{"user_id":83,"name":"[chef] iron","steam_id":76561197970888616,"connected_time":458000000000,"state":"active","ping":60},{"user_id":79,"name":"Whitescreen enhancer","steam_id":76561198055419763,"connected_time":565000000000,"state":"active","ping":72},{"user_id":30,"name":"REALLINUSJEWTIP.","steam_id":76561198056647983,"connected_time":4413000000000,"state":"active","ping":48},{"user_id":31,"name":"hatsune mike","steam_id":76561198065575472,"connected_time":4409000000000,"state":"active","ping":57},{"user_id":71,"name":"IggyYT","steam_id":76561198317980567,"connected_time":988000000000,"state":"active","ping":86},{"user_id":88,"name":"Anonymous_Cletus_TTV","steam_id":76561198243740340,"connected_time":228000000000,"state":"active","ping":68},{"user_id":67,"name":"you forgot the sauce","steam_id":76561198387016713,"connected_time":1160000000000,"state":"active","ping":51},{"user_id":47,"name":"FX","steam_id":76561198096889040,"connected_time":3662000000000,"state":"active","ping":33},{"user_id":58,"name":"The Drunk Clown","steam_id":76561197986850426,"connected_time":2450000000000,"state":"active","ping":46},{"user_id":85,"name":"B/S/SuperBoof","steam_id":76561197992030936,"connected_time":360000000000,"state":"active","ping":56}]},{"server_id":301,"name":"Uncletopia | Montr√©al | 2 | All Maps","name_short":"mtl-2","host":"mtl-1.ca.uncletopia.com","port":27025,"enabled":true,"region":"us-east","cc":"ca","latitude":45.50889,"longitude":-73.56167,"reserved":0,"last_update":"0001-01-01T00:00:00Z","name_a2s":"Uncletopia | Montr√©al | 2 | All Maps","protocol":17,"map":"koth_cascade","folder":"tf","game":"Team Fortress","app_id":440,"player_count":0,"max_players":24,"Bots":0,"server_type":"Dedicated","server_os":"Linux","password":true,"vac":true,"version":"7757534","steam_id":85568392924500088,"keywords":["cp","nocrits","nodmgspread","uncletopia"],"game_id":440,"stv_port":27026,"stv_name":"Uncletopia | Montr√©al | 2 | All Maps | STV","players":null},{"server_id":302,"name":"Uncletopia | Montr√©al | 3 | All Maps","name_short":"mtl-3","host":"mtl-1.ca.uncletopia.com","port":27035,"enabled":true,"region":"us-east","cc":"ca","latitude":45.50889,"longitude":-73.56167,"reserved":0,"last_update":"0001-01-01T00:00:00Z","name_a2s":"Uncletopia | Montr√©al | 3 | All Maps","protocol":17,"map":"pl_frontier_final","folder":"tf","game":"Team Fortress","app_id":440,"player_count":0,"max_players":24,"Bots":0,"server_type":"Dedicated","server_os":"Linux","password":true,"vac":true,"version":"7757534","steam_id":85568392924500089,"keywords":["nocrits","nodmgspread","payload","uncletopia"],"game_id":440,"stv_port":27036,"stv_name":"Uncletopia | Montr√©al | 3 | All Maps | STV","players":null},{"server_id":303,"name":"Uncletopia | Montr√©al | 4 | No Payload","name_short":"mtl-4","host":"mtl-1.ca.uncletopia.com","port":27045,"enabled":true,"region":"us-east","cc":"ca","latitude":45.50889,"longitude":-73.56167,"reserved":0,"last_update":"0001-01-01T00:00:00Z","name_a2s":"Uncletopia | Montr√©al | 4 | No Payload","protocol":17,"map":"koth_lakeside_final","folder":"tf","game":"Team Fortress","app_id":440,"player_count":0,"max_players":24,"Bots":0,"server_type":"Dedicated","server_os":"Linux","password":true,"vac":true,"version":"7757534","steam_id":85568392924500090,"keywords":["cp","nocrits","nodmgspread","uncletopia"],"game_id":440,"stv_port":27046,"stv_name":"Uncletopia | Montr√©al | 4 | No Payload | STV","players":null},{"server_id":13,"name":"Uncletopia | New York City | 1 | All Maps","name_short":"nyc-1","host":"nyc-1.us.uncletopia.com","port":27015,"enabled":true,"region":"us-east","cc":"us","latitude":40.73061,"longitude":-73.93524,"reserved":0,"last_update":"0001-01-01T00:00:00Z","name_a2s":"Uncletopia | New York City | 1 | All Maps","protocol":17,"map":"pl_thundermountain","folder":"tf","game":"Team Fortress","app_id":440,"player_count":24,"max_players":24,"Bots":0,"server_type":"Dedicated","server_os":"Linux","password":true,"vac":true,"version":"7757534","steam_id":85568392924469993,"keywords":["nocrits","nodmgspread","payload","uncletopia"],"game_id":440,"stv_port":27016,"stv_name":"Uncletopia | New York City | 1 | All Maps | STV","players":[{"user_id":494,"name":"Gaia The Fierce Knight","steam_id":76561199044162625,"connected_time":7708000000000,"state":"active","ping":60},{"user_id":584,"name":"AFloatingShoppinList","steam_id":76561198300216562,"connected_time":565000000000,"state":"active","ping":47},{"user_id":585,"name":"Merach","steam_id":76561197994544587,"connected_time":494000000000,"state":"active","ping":90},{"user_id":586,"name":"Kosmonot","steam_id":76561198225342992,"connected_time":364000000000,"state":"active","ping":85},{"user_id":583,"name":"Morbi","steam_id":76561198126853838,"connected_time":721000000000,"state":"active","ping":55},{"user_id":542,"name":"ArcanianArcher","steam_id":76561198088445076,"connected_time":4754000000000,"state":"active","ping":71},{"user_id":565,"name":"ThatOneDegenerate","steam_id":76561198129058934,"connected_time":2206000000000,"state":"active","ping":99},{"user_id":556,"name":"Silver","steam_id":76561198019024940,"connected_time":2566000000000,"state":"active","ping":101},{"user_id":566,"name":"EyeShooter","steam_id":76561199467210147,"connected_time":2189000000000,"state":"active","ping":97},{"user_id":546,"name":"N0T@TR@P","steam_id":76561198323432636,"connected_time":4271000000000,"state":"active","ping":85},{"user_id":581,"name":"catboy phroliax","steam_id":76561198207075529,"connected_time":1126000000000,"state":"active","ping":74},{"user_id":523,"name":"forgy","steam_id":76561198273428784,"connected_time":5774000000000,"state":"active","ping":73},{"user_id":575,"name":"rainingmudkips","steam_id":76561198018010854,"connected_time":1483000000000,"state":"active","ping":72},{"user_id":571,"name":"pETER gRIFFIN","steam_id":76561198079393512,"connected_time":1548000000000,"state":"active","ping":58},{"user_id":582,"name":"PizzaPasta","steam_id":76561199125109082,"connected_time":1011000000000,"state":"active","ping":73},{"user_id":580,"name":"ADHDking","steam_id":76561198116099017,"connected_time":1423000000000,"state":"active","ping":45},{"user_id":498,"name":"Wahooka","steam_id":76561197962240925,"connected_time":7670000000000,"state":"active","ping":59},{"user_id":536,"name":"ExoTheFlyingFish","steam_id":76561198034388243,"connected_time":5102000000000,"state":"active","ping":45},{"user_id":513,"name":"Duncan","steam_id":76561198197527126,"connected_time":6634000000000,"state":"active","ping":145},{"user_id":499,"name":"Loopsdaloop","steam_id":76561198081177509,"connected_time":7664000000000,"state":"active","ping":109},{"user_id":514,"name":"he_who_grills","steam_id":76561198039626676,"connected_time":6629000000000,"state":"active","ping":66},{"user_id":550,"name":"Not a lolicon","steam_id":76561198843961343,"connected_time":4166000000000,"state":"active","ping":144},{"user_id":568,"name":"Jupiter Jazz","steam_id":76561198870349289,"connected_time":1947000000000,"state":"active","ping":81}]},{"server_id":14,"name":"Uncletopia | New York City | 2 | All Maps","name_short":"nyc-2","host":"nyc-1.us.uncletopia.com","port":27025,"enabled":true,"region":"us-east","cc":"us","latitude":40.73061,"longitude":-73.93524,"reserved":0,"last_update":"0001-01-01T00:00:00Z","name_a2s":"Uncletopia | New York City | 2 | All Maps","protocol":17,"map":"cp_sunshine","folder":"tf","game":"Team Fortress","app_id":440,"player_count":24,"max_players":24,"Bots":0,"server_type":"Dedicated","server_os":"Linux","password":true,"vac":true,"version":"7757534","steam_id":85568392924469994,"keywords":["cp","nocrits","nodmgspread","uncletopia"],"game_id":440,"stv_port":27026,"stv_name":"Uncletopia | New York City | 2 | All Maps | STV","players":[{"user_id":369,"name":"Slazzer","steam_id":76561198404351844,"connected_time":3737000000000,"state":"active","ping":56},{"user_id":392,"name":"cylinder","steam_id":76561197995609787,"connected_time":1398000000000,"state":"active","ping":60},{"user_id":394,"name":"Fatality","steam_id":76561198210908515,"connected_time":1382000000000,"state":"active","ping":79},{"user_id":402,"name":"Sour Idiot","steam_id":76561198138185255,"connected_time":1109000000000,"state":"active","ping":104},{"user_id":310,"name":"layabout","steam_id":76561198130892117,"connected_time":6391000000000,"state":"active","ping":63},{"user_id":395,"name":"Bee","steam_id":76561198074681324,"connected_time":1286000000000,"state":"active","ping":45},{"user_id":393,"name":"flat (nijika fan)","steam_id":76561199004120059,"connected_time":1389000000000,"state":"active","ping":75},{"user_id":407,"name":"ndvr","steam_id":76561199379200102,"connected_time":77000000000,"state":"active","ping":41},{"user_id":329,"name":"Funny Skeleton Man","steam_id":76561198264262564,"connected_time":5633000000000,"state":"active","ping":72},{"user_id":396,"name":"Wilhelmktx","steam_id":76561198158102295,"connected_time":1270000000000,"state":"active","ping":91},{"user_id":384,"name":"liquid bread","steam_id":76561198012441419,"connected_time":2118000000000,"state":"active","ping":60},{"user_id":399,"name":"Dontavious Von Pringle Dingle I","steam_id":76561199285074344,"connected_time":1196000000000,"state":"active","ping":76},{"user_id":397,"name":"Razz","steam_id":76561198158027533,"connected_time":1269000000000,"state":"active","ping":71},{"user_id":398,"name":"M249 | Spectre","steam_id":76561198118334485,"connected_time":1243000000000,"state":"active","ping":81},{"user_id":389,"name":"MaxTgaX","steam_id":76561198046287539,"connected_time":1727000000000,"state":"active","ping":68},{"user_id":405,"name":"GreenApples","steam_id":76561198120559543,"connected_time":184000000000,"state":"active","ping":113},{"user_id":360,"name":"[ibb‚Ñ¢]Shadow20X6-ENGI","steam_id":76561198019292755,"connected_time":4573000000000,"state":"active","ping":128},{"user_id":403,"name":"NehocSllim","steam_id":76561199246153865,"connected_time":1081000000000,"state":"active","ping":70},{"user_id":368,"name":"SublunarFox","steam_id":76561198886387474,"connected_time":3798000000000,"state":"active","ping":59},{"user_id":404,"name":"The Incredible Fem Boy","steam_id":76561198355754259,"connected_time":299000000000,"state":"active","ping":65},{"user_id":391,"name":"Jona2180","steam_id":76561198807012900,"connected_time":1603000000000,"state":"active","ping":292},{"user_id":406,"name":"bobbyreinman2009","steam_id":76561198804763186,"connected_time":178000000000,"state":"active","ping":45},{"user_id":378,"name":"Wang of Wall St","steam_id":76561198047460598,"connected_time":2901000000000,"state":"active","ping":56},{"user_id":401,"name":"pencilneck","steam_id":76561198865971290,"connected_time":1169000000000,"state":"active","ping":90}]},{"server_id":15,"name":"Uncletopia | New York City | 3 | Stopwatch Beta","name_short":"nyc-3","host":"nyc-1.us.uncletopia.com","port":27035,"enabled":true,"region":"us-east","cc":"us","latitude":40.73061,"longitude":-73.93524,"reserved":0,"last_update":"0001-01-01T00:00:00Z","name_a2s":"Uncletopia | New York City | 3 | Stopwatch Beta","protocol":17,"map":"workshop/koth_bagel_rc5.ugc2514036946","folder":"tf","game":"Team Fortress","app_id":440,"player_count":8,"max_players":24,"Bots":0,"server_type":"Dedicated","server_os":"Linux","password":true,"vac":true,"version":"7757534","steam_id":85568392924742820,"keywords":["cp","nocrits","nodmgspread","uncletopia"],"game_id":440,"stv_port":27036,"stv_name":"Uncletopia | New York City | 3 | Stopwatch Beta | STV","players":[{"user_id":25,"name":"pulseywulsey","steam_id":76561198119301545,"connected_time":1548000000000,"state":"active","ping":41},{"user_id":26,"name":"karmabon","steam_id":76561199000970008,"connected_time":1542000000000,"state":"active","ping":51},{"user_id":27,"name":"BAKU","steam_id":76561198985720207,"connected_time":1538000000000,"state":"active","ping":56},{"user_id":29,"name":"TEXAN DREAM","steam_id":76561198119067958,"connected_time":972000000000,"state":"active","ping":102},{"user_id":33,"name":"posionscorpion","steam_id":76561198115350334,"connected_time":374000000000,"state":"active","ping":100},{"user_id":34,"name":"thetrueeeveethefrist","steam_id":76561198875867686,"connected_time":370000000000,"state":"active","ping":105},{"user_id":35,"name":"thebestman982","steam_id":76561199001698710,"connected_time":166000000000,"state":"active","ping":88},{"user_id":36,"name":"ILOVELIZZOS3190","steam_id":76561199102293508,"connected_time":126000000000,"state":"active","ping":40}]},{"server_id":16,"name":"Uncletopia | New York City | 4 | Community","name_short":"nyc-4","host":"nyc-1.us.uncletopia.com","port":27045,"enabled":true,"region":"us-east","cc":"us","latitude":40.73061,"longitude":-73.93524,"reserved":0,"last_update":"0001-01-01T00:00:00Z","name_a2s":"Uncletopia | New York City | 4 | Community","protocol":17,"map":"workshop/rd_asteroid_redux_b1.ugc2154902912","folder":"tf","game":"Team Fortress","app_id":440,"player_count":21,"max_players":24,"Bots":0,"server_type":"Dedicated","server_os":"Linux","password":true,"vac":true,"version":"7757534","steam_id":85568392924742821,"keywords":["beta","nocrits","nodmgspread","rd","uncletopia"],"game_id":440,"stv_port":27046,"stv_name":"Uncletopia | New York City | 4 | Community | STV","players":[{"user_id":60,"name":"Fate Gay/Sex","steam_id":76561198026827492,"connected_time":1736000000000,"state":"active","ping":68},{"user_id":63,"name":"remarK","steam_id":76561198868375800,"connected_time":1342000000000,"state":"active","ping":85},{"user_id":94,"name":"Gram Tokers Count Doinkula","steam_id":76561198112811565,"connected_time":38000000000,"state":"active","ping":54},{"user_id":87,"name":"Viking Seagull","steam_id":76561198806994127,"connected_time":371000000000,"state":"active","ping":73},{"user_id":69,"name":"Jitters","steam_id":76561198078898336,"connected_time":1100000000000,"state":"active","ping":70},{"user_id":88,"name":"Laelaps","steam_id":76561198100061416,"connected_time":129000000000,"state":"active","ping":47},{"user_id":24,"name":"BoyOHBoy","steam_id":76561198364754109,"connected_time":4173000000000,"state":"active","ping":72},{"user_id":85,"name":"womthedom","steam_id":76561198088768287,"connected_time":486000000000,"state":"active","ping":85},{"user_id":65,"name":"Murks542","steam_id":76561199038994224,"connected_time":1184000000000,"state":"active","ping":67},{"user_id":86,"name":"Nightfall","steam_id":76561198169718867,"connected_time":430000000000,"state":"active","ping":121},{"user_id":89,"name":"A Pair of Candy Canes","steam_id":76561198052239472,"connected_time":93000000000,"state":"active","ping":125},{"user_id":90,"name":"Aqudarius","steam_id":76561198091584204,"connected_time":92000000000,"state":"active","ping":77},{"user_id":91,"name":"Christopher Moltisanti","steam_id":76561198134215373,"connected_time":65000000000,"state":"active","ping":49},{"user_id":93,"name":"A.J. Soprano","steam_id":76561199017523403,"connected_time":47000000000,"state":"active","ping":65},{"user_id":38,"name":"Venezia","steam_id":76561197994107407,"connected_time":3173000000000,"state":"active","ping":54},{"user_id":95,"name":"Amish Robot","steam_id":76561198041156065,"connected_time":20000000000,"state":"spawning","ping":165},{"user_id":41,"name":"Emata","steam_id":76561198020321209,"connected_time":3115000000000,"state":"active","ping":58},{"user_id":42,"name":"Bad News Panda","steam_id":76561197993327110,"connected_time":3114000000000,"state":"active","ping":45},{"user_id":56,"name":"Sumio Kouhai","steam_id":76561197993888339,"connected_time":2016000000000,"state":"active","ping":60},{"user_id":46,"name":"Etyrnal","steam_id":76561198025637787,"connected_time":2905000000000,"state":"active","ping":107},{"user_id":47,"name":"Jackerbot","steam_id":76561198155154702,"connected_time":2892000000000,"state":"active","ping":94}]},{"server_id":142,"name":"Uncletopia | S√£o Paulo | 1 | All Maps","name_short":"sao-1","host":"sao-1.br.uncletopia.com","port":27015,"enabled":true,"region":"sa","cc":"br","latitude":-23.533773,"longitude":-46.62529,"reserved":0,"last_update":"0001-01-01T00:00:00Z","name_a2s":"Uncletopia | S√£o Paulo | 1 | All Maps","protocol":17,"map":"koth_viaduct","folder":"tf","game":"Team Fortress","app_id":440,"player_count":0,"max_players":24,"Bots":0,"server_type":"Dedicated","server_os":"Linux","password":true,"vac":true,"version":"7757534","steam_id":85568392924469996,"keywords":["cp","nocrits","nodmgspread","uncletopia"],"game_id":440,"stv_port":27016,"stv_name":"Uncletopia | S√£o Paulo | 1 | All Maps | STV","players":null},{"server_id":143,"name":"Uncletopia | S√£o Paulo | 2 | All Maps","name_short":"sao-2","host":"sao-2.br.uncletopia.com","port":27015,"enabled":true,"region":"sa","cc":"br","latitude":-23.533773,"longitude":-46.62529,"reserved":0,"last_update":"0001-01-01T00:00:00Z","name_a2s":"Uncletopia | S√£o Paulo | 2 | All Maps","protocol":17,"map":"koth_highpass","folder":"tf","game":"Team Fortress","app_id":440,"player_count":0,"max_players":24,"Bots":0,"server_type":"Dedicated","server_os":"Linux","password":true,"vac":true,"version":"7757534","steam_id":85568392924485349,"keywords":["cp","nocrits","nodmgspread","uncletopia"],"game_id":440,"stv_port":27016,"stv_name":"Uncletopia | S√£o Paulo | 2 | All Maps | STV","players":null},{"server_id":7,"name":"Uncletopia | Seattle | 1 | All Maps","name_short":"sea-1","host":"sea-1.us.uncletopia.com","port":27015,"enabled":true,"region":"us-west","cc":"us","latitude":47.608013,"longitude":-122.33517,"reserved":0,"last_update":"0001-01-01T00:00:00Z","name_a2s":"Uncletopia | Seattle | 1 | All Maps","protocol":17,"map":"pl_borneo","folder":"tf","game":"Team Fortress","app_id":440,"player_count":24,"max_players":24,"Bots":0,"server_type":"Dedicated","server_os":"Linux","password":true,"vac":true,"version":"7757534","steam_id":85568392924469997,"keywords":["nocrits","nodmgspread","payload","uncletopia"],"game_id":440,"stv_port":27016,"stv_name":"Uncletopia | Seattle | 1 | All Maps | STV","players":[{"user_id":349,"name":"ryghehn","steam_id":76561198195359229,"connected_time":1261000000000,"state":"active","ping":41},{"user_id":357,"name":"DORATHEEXPLORER","steam_id":76561198124773931,"connected_time":836000000000,"state":"active","ping":86},{"user_id":367,"name":"discord kitten","steam_id":76561198210322871,"connected_time":655000000000,"state":"active","ping":75},{"user_id":268,"name":"ZEKKER","steam_id":76561197967968980,"connected_time":8392000000000,"state":"active","ping":51},{"user_id":368,"name":"Julien","steam_id":76561199389584938,"connected_time":562000000000,"state":"active","ping":39},{"user_id":350,"name":"Tungsten","steam_id":76561198312854342,"connected_time":1191000000000,"state":"active","ping":70},{"user_id":336,"name":"Danny Fentanyl","steam_id":76561197970791798,"connected_time":2472000000000,"state":"active","ping":37},{"user_id":335,"name":"soup","steam_id":76561198043209046,"connected_time":2491000000000,"state":"active","ping":76},{"user_id":351,"name":"Soft Fuzzy Horse","steam_id":76561198005777544,"connected_time":1171000000000,"state":"active","ping":79},{"user_id":322,"name":"Bendidy","steam_id":76561198041964300,"connected_time":3180000000000,"state":"active","ping":78},{"user_id":341,"name":"pizzalover_2014","steam_id":76561198870649125,"connected_time":2017000000000,"state":"active","ping":83},{"user_id":339,"name":"Mr.Thirteen","steam_id":76561198047468836,"connected_time":2044000000000,"state":"active","ping":68},{"user_id":340,"name":"squid game","steam_id":76561199248960166,"connected_time":2040000000000,"state":"active","ping":45},{"user_id":354,"name":"Nekogaming1500","steam_id":76561198979123816,"connected_time":962000000000,"state":"active","ping":56},{"user_id":365,"name":"Arsonist Goose","steam_id":76561198147441830,"connected_time":753000000000,"state":"active","ping":73},{"user_id":347,"name":"mub","steam_id":76561197961943948,"connected_time":1414000000000,"state":"active","ping":46},{"user_id":356,"name":"Crake","steam_id":76561198001959071,"connected_time":849000000000,"state":"active","ping":58},{"user_id":224,"name":"Oomitch","steam_id":76561198071702759,"connected_time":11674000000000,"state":"active","ping":57},{"user_id":293,"name":"SparksKitsune","steam_id":76561198066890691,"connected_time":6387000000000,"state":"active","ping":95},{"user_id":330,"name":"Fh","steam_id":76561198000903511,"connected_time":2866000000000,"state":"active","ping":62},{"user_id":352,"name":"Fawful's Minion","steam_id":76561198090120779,"connected_time":1148000000000,"state":"active","ping":79},{"user_id":360,"name":"Lonestar827","steam_id":76561198035533639,"connected_time":792000000000,"state":"active","ping":57},{"user_id":338,"name":"AAAAHHHHHHH","steam_id":76561198099464769,"connected_time":2348000000000,"state":"active","ping":77},{"user_id":333,"name":"Liphyr","steam_id":76561199098432932,"connected_time":2537000000000,"state":"active","ping":89}]},{"server_id":119,"name":"Uncletopia | Seattle | 2 | All Maps","name_short":"sea-2","host":"sea-1.us.uncletopia.com","port":27025,"enabled":true,"region":"us-west","cc":"us","latitude":47.608013,"longitude":-122.33517,"reserved":0,"last_update":"0001-01-01T00:00:00Z","name_a2s":"Uncletopia | Seattle | 2 | All Maps","protocol":17,"map":"pl_frontier_final","folder":"tf","game":"Team Fortress","app_id":440,"player_count":24,"max_players":24,"Bots":0,"server_type":"Dedicated","server_os":"Linux","password":true,"vac":true,"version":"7757534","steam_id":85568392924469998,"keywords":["nocrits","nodmgspread","payload","uncletopia"],"game_id":440,"stv_port":27026,"stv_name":"Uncletopia | Seattle | 2 | All Maps | STV","players":[{"user_id":454,"name":"Mike Hawk","steam_id":76561198045053326,"connected_time":343000000000,"state":"active","ping":63},{"user_id":437,"name":"MrLeftTurn","steam_id":76561198856743969,"connected_time":1933000000000,"state":"active","ping":86},{"user_id":446,"name":"Billbob","steam_id":76561199217386849,"connected_time":1186000000000,"state":"active","ping":86},{"user_id":387,"name":"Elias","steam_id":76561198106431732,"connected_time":5576000000000,"state":"active","ping":103},{"user_id":447,"name":"Sean","steam_id":76561199367470003,"connected_time":792000000000,"state":"active","ping":94},{"user_id":438,"name":"‚ù§ Ashley ‚ù§","steam_id":76561198056428303,"connected_time":1913000000000,"state":"active","ping":75},{"user_id":431,"name":"chanoc","steam_id":76561198026734746,"connected_time":2438000000000,"state":"active","ping":72},{"user_id":425,"name":"bobtheninjaman","steam_id":76561198066424544,"connected_time":2716000000000,"state":"active","ping":90},{"user_id":448,"name":"kingofTOAST","steam_id":76561198079994110,"connected_time":615000000000,"state":"active","ping":81},{"user_id":451,"name":"Porytal","steam_id":76561198306101889,"connected_time":530000000000,"state":"active","ping":50},{"user_id":443,"name":"Jailbreak","steam_id":76561198802085218,"connected_time":1623000000000,"state":"active","ping":101},{"user_id":445,"name":"Toastedtoast222","steam_id":76561198120756409,"connected_time":1591000000000,"state":"active","ping":58},{"user_id":440,"name":"TheNerdyPirate","steam_id":76561198185806923,"connected_time":1873000000000,"state":"active","ping":144},{"user_id":403,"name":"Esteboss","steam_id":76561198027967265,"connected_time":4431000000000,"state":"active","ping":71},{"user_id":449,"name":"Mouth Tea","steam_id":76561198285054047,"connected_time":558000000000,"state":"active","ping":81},{"user_id":453,"name":"howdy","steam_id":76561198042941628,"connected_time":518000000000,"state":"active","ping":76},{"user_id":432,"name":"Lakue","steam_id":76561198047993241,"connected_time":2399000000000,"state":"active","ping":64},{"user_id":377,"name":"Marzbee115","steam_id":76561198095821025,"connected_time":6245000000000,"state":"active","ping":74},{"user_id":404,"name":"Sir Nope (TSS)","steam_id":76561198035935649,"connected_time":4176000000000,"state":"active","ping":84},{"user_id":455,"name":"Ironlenny","steam_id":76561197977278066,"connected_time":57000000000,"state":"active","ping":62},{"user_id":422,"name":"KJ","steam_id":76561199019869692,"connected_time":2972000000000,"state":"active","ping":93},{"user_id":363,"name":"jawnymac","steam_id":76561198179529599,"connected_time":7232000000000,"state":"active","ping":68},{"user_id":442,"name":"(1)Elias","steam_id":76561198031295139,"connected_time":1849000000000,"state":"active","ping":55},{"user_id":361,"name":"dumbeeon","steam_id":76561198059351874,"connected_time":7274000000000,"state":"active","ping":84}]},{"server_id":406,"name":"Uncletopia | Seattle | 3 | Stopwatch Beta","name_short":"sea-3","host":"sea-1.us.uncletopia.com","port":27035,"enabled":true,"region":"us-west","cc":"us","latitude":47.608013,"longitude":-122.33517,"reserved":0,"last_update":"0001-01-01T00:00:00Z","name_a2s":"Uncletopia | Seattle | 3 | Stopwatch Beta","protocol":17,"map":"workshop/pl_badwater_pro_v12.ugc2142942074","folder":"tf","game":"Team Fortress","app_id":440,"player_count":1,"max_players":24,"Bots":0,"server_type":"Dedicated","server_os":"Linux","password":true,"vac":true,"version":"7757534","steam_id":85568392924515217,"keywords":["nocrits","nodmgspread","payload","uncletopia"],"game_id":440,"stv_port":27036,"stv_name":"Uncletopia | Seattle | 3 | Stopwatch Beta | STV","players":[{"user_id":21,"name":"TaRiK","steam_id":76561198839880487,"connected_time":25000000000,"state":"spawning","ping":209}]},{"server_id":17,"name":"Uncletopia | San Francisco | 1 | All Maps","name_short":"sfo-1","host":"sfo-1.us.uncletopia.com","port":27015,"enabled":true,"region":"us-west","cc":"us","latitude":37.77397,"longitude":-122.4313,"reserved":0,"last_update":"0001-01-01T00:00:00Z","name_a2s":"Uncletopia | San Francisco | 1 | All Maps","protocol":17,"map":"koth_cascade","folder":"tf","game":"Team Fortress","app_id":440,"player_count":0,"max_players":24,"Bots":0,"server_type":"Dedicated","server_os":"Linux","password":true,"vac":true,"version":"7757534","steam_id":85568392924469999,"keywords":["cp","nocrits","nodmgspread","uncletopia"],"game_id":440,"stv_port":27016,"stv_name":"Uncletopia | San Francisco | 1 | All Maps | STV","players":null},{"server_id":18,"name":"Uncletopia | San Francisco | 2 | All Maps","name_short":"sfo-2","host":"sfo-1.us.uncletopia.com","port":27025,"enabled":true,"region":"us-west","cc":"us","latitude":37.77397,"longitude":-122.4313,"reserved":0,"last_update":"0001-01-01T00:00:00Z","name_a2s":"Uncletopia | San Francisco | 2 | All Maps","protocol":17,"map":"cp_mountainlab","folder":"tf","game":"Team Fortress","app_id":440,"player_count":0,"max_players":24,"Bots":0,"server_type":"Dedicated","server_os":"Linux","password":true,"vac":true,"version":"7757534","steam_id":85568392924470000,"keywords":["cp","nocrits","nodmgspread","uncletopia"],"game_id":440,"stv_port":27026,"stv_name":"Uncletopia | San Francisco | 2 | All Maps | STV","players":null},{"server_id":19,"name":"Uncletopia | San Francisco | 3 | Stopwatch Beta","name_short":"sfo-3","host":"sfo-1.us.uncletopia.com","port":27035,"enabled":true,"region":"us-west","cc":"us","latitude":37.77397,"longitude":-122.4313,"reserved":0,"last_update":"0001-01-01T00:00:00Z","name_a2s":"Uncletopia | San Francisco | 3 | Stopwatch Beta","protocol":17,"map":"koth_viaduct","folder":"tf","game":"Team Fortress","app_id":440,"player_count":0,"max_players":24,"Bots":0,"server_type":"Dedicated","server_os":"Linux","password":true,"vac":true,"version":"7757534","steam_id":85568392924742824,"keywords":["cp","nocrits","nodmgspread","uncletopia"],"game_id":440,"stv_port":27036,"stv_name":"Uncletopia | San Francisco | 3 | Stopwatch Beta | STV","players":null},{"server_id":20,"name":"Uncletopia | San Francisco | 4 | Community","name_short":"sfo-4","host":"sfo-1.us.uncletopia.com","port":27045,"enabled":true,"region":"us-west","cc":"us","latitude":37.77397,"longitude":-122.4313,"reserved":0,"last_update":"0001-01-01T00:00:00Z","name_a2s":"Uncletopia | San Francisco | 4 | Community","protocol":17,"map":"workshop/koth_synthetic_rc6a.ugc1549817316","folder":"tf","game":"Team Fortress","app_id":440,"player_count":2,"max_players":24,"Bots":0,"server_type":"Dedicated","server_os":"Linux","password":true,"vac":true,"version":"7757534","steam_id":85568392924742826,"keywords":["cp","nocrits","nodmgspread","uncletopia"],"game_id":440,"stv_port":27046,"stv_name":"Uncletopia | San Francisco | 4 | Community | STV","players":[{"user_id":17,"name":"smug251","steam_id":76561199240419529,"connected_time":296000000000,"state":"active","ping":84},{"user_id":16,"name":"TomFoolery2","steam_id":76561199467732341,"connected_time":695000000000,"state":"active","ping":80}]},{"server_id":141,"name":"Uncletopia | Sydney | 1 | All Maps","name_short":"syd-1","host":"syd-1.au.uncletopia.com","port":27015,"enabled":true,"region":"au","cc":"au","latitude":-33.865143,"longitude":151.2099,"reserved":0,"last_update":"0001-01-01T00:00:00Z","name_a2s":"Uncletopia | Sydney | 1 | All Maps","protocol":17,"map":"pl_upward","folder":"tf","game":"Team Fortress","app_id":440,"player_count":0,"max_players":24,"Bots":0,"server_type":"Dedicated","server_os":"Linux","password":true,"vac":true,"version":"7757534","steam_id":85568392924470001,"keywords":["nocrits","nodmgspread","payload","uncletopia"],"game_id":440,"stv_port":27016,"stv_name":"Uncletopia | Sydney | 1 | All Maps | STV","players":null},{"server_id":123,"name":"Uncletopia | Sydney | 2 | All Maps","name_short":"syd-2","host":"syd-1.au.uncletopia.com","port":27025,"enabled":true,"region":"au","cc":"au","latitude":-33.865143,"longitude":151.2099,"reserved":0,"last_update":"0001-01-01T00:00:00Z","name_a2s":"Uncletopia | Sydney | 2 | All Maps","protocol":17,"map":"koth_viaduct","folder":"tf","game":"Team Fortress","app_id":440,"player_count":6,"max_players":24,"Bots":0,"server_type":"Dedicated","server_os":"Linux","password":true,"vac":true,"version":"7757534","steam_id":85568392924470002,"keywords":["cp","nocrits","nodmgspread","uncletopia"],"game_id":440,"stv_port":27026,"stv_name":"Uncletopia | Sydney | 2 | All Maps | STV","players":[{"user_id":87,"name":"lolwhat","steam_id":76561199387628765,"connected_time":1664000000000,"state":"active","ping":176},{"user_id":89,"name":"fire14_legend2","steam_id":76561199367274853,"connected_time":1655000000000,"state":"active","ping":308},{"user_id":91,"name":"Lord Oink","steam_id":76561198125237921,"connected_time":80000000000,"state":"active","ping":38},{"user_id":92,"name":"CareBear","steam_id":76561198152496674,"connected_time":37000000000,"state":"active","ping":96},{"user_id":93,"name":"Jontohil2","steam_id":76561198114091810,"connected_time":33000000000,"state":"connecting","ping":0},{"user_id":94,"name":"No Scrubs","steam_id":76561197969619053,"connected_time":28000000000,"state":"active","ping":62}]},{"server_id":395,"name":"Uncletopia | Sydney | 3 | All Maps","name_short":"syd-3","host":"syd-1.au.uncletopia.com","port":27035,"enabled":true,"region":"au","cc":"au","latitude":-33.865143,"longitude":151.2099,"reserved":0,"last_update":"0001-01-01T00:00:00Z","name_a2s":"Uncletopia | Sydney | 3 | All Maps","protocol":17,"map":"cp_dustbowl","folder":"tf","game":"Team Fortress","app_id":440,"player_count":18,"max_players":24,"Bots":0,"server_type":"Dedicated","server_os":"Linux","password":true,"vac":true,"version":"7757534","steam_id":85568392925194467,"keywords":["cp","nocrits","nodmgspread","uncletopia"],"game_id":440,"stv_port":27036,"stv_name":"Uncletopia | Sydney | 3 | All Maps | STV","players":[{"user_id":23,"name":"Piyo.","steam_id":76561197985114373,"connected_time":4197000000000,"state":"active","ping":69},{"user_id":94,"name":"mufat","steam_id":76561199205514309,"connected_time":136000000000,"state":"active","ping":135},{"user_id":79,"name":"jcoll444","steam_id":76561198143025380,"connected_time":1130000000000,"state":"active","ping":56},{"user_id":89,"name":"Mouse Balls","steam_id":76561199037470627,"connected_time":598000000000,"state":"active","ping":102},{"user_id":56,"name":"jamysun","steam_id":76561199467018404,"connected_time":2030000000000,"state":"active","ping":54},{"user_id":87,"name":"Salty Dog","steam_id":76561198038713921,"connected_time":816000000000,"state":"active","ping":55},{"user_id":30,"name":"Mr.Deathclaw","steam_id":76561198025419320,"connected_time":3735000000000,"state":"active","ping":44},{"user_id":52,"name":"Pickled Cow","steam_id":76561198292517991,"connected_time":2333000000000,"state":"active","ping":44},{"user_id":85,"name":"Mugsy","steam_id":76561198136889235,"connected_time":920000000000,"state":"active","ping":75},{"user_id":57,"name":"doctor morbin' (real)","steam_id":76561199365241695,"connected_time":2027000000000,"state":"active","ping":117},{"user_id":73,"name":"KillerBlow","steam_id":76561198930232832,"connected_time":1570000000000,"state":"active","ping":83},{"user_id":91,"name":"Jambi","steam_id":76561198310550094,"connected_time":424000000000,"state":"active","ping":54},{"user_id":78,"name":"dumbvent","steam_id":76561198190062810,"connected_time":1207000000000,"state":"active","ping":68},{"user_id":92,"name":"Damo","steam_id":76561199191963461,"connected_time":319000000000,"state":"active","ping":44},{"user_id":65,"name":"Vaconcovat","steam_id":76561198024284041,"connected_time":1806000000000,"state":"active","ping":63},{"user_id":93,"name":"Pan","steam_id":76561198219567051,"connected_time":291000000000,"state":"active","ping":43},{"user_id":95,"name":"eu spellcaster #spellcasting","steam_id":76561198836003115,"connected_time":94000000000,"state":"active","ping":60},{"user_id":70,"name":"01001110 01101111","steam_id":76561198290288735,"connected_time":1746000000000,"state":"active","ping":62}]},{"server_id":396,"name":"Uncletopia | Sydney | 4 | All Maps","name_short":"syd-4","host":"syd-1.au.uncletopia.com","port":27045,"enabled":true,"region":"au","cc":"au","latitude":-33.865143,"longitude":151.2099,"reserved":0,"last_update":"0001-01-01T00:00:00Z","name_a2s":"Uncletopia | Sydney | 4 | All Maps","protocol":17,"map":"cp_process_final","folder":"tf","game":"Team Fortress","app_id":440,"player_count":0,"max_players":24,"Bots":0,"server_type":"Dedicated","server_os":"Linux","password":true,"vac":true,"version":"7757534","steam_id":85568392925397958,"keywords":["cp","nocrits","nodmgspread","uncletopia"],"game_id":440,"stv_port":27046,"stv_name":"Uncletopia | Sydney | 4 | All Maps | STV","players":null},{"server_id":58,"name":"Uncletopia | Sydney | 5 | Stopwatch Beta","name_short":"syd-5","host":"syd-1.au.uncletopia.com","port":27055,"enabled":true,"region":"au","cc":"au","latitude":-33.865143,"longitude":151.2099,"reserved":0,"last_update":"0001-01-01T00:00:00Z","name_a2s":"Uncletopia | Sydney | 5 | Stopwatch Beta","protocol":17,"map":"pl_barnblitz","folder":"tf","game":"Team Fortress","app_id":440,"player_count":0,"max_players":24,"Bots":0,"server_type":"Dedicated","server_os":"Linux","password":true,"vac":true,"version":"7757534","steam_id":85568392925397959,"keywords":["nocrits","nodmgspread","payload","uncletopia"],"game_id":440,"stv_port":27056,"stv_name":"Uncletopia | Sydney | 5 | Stopwatch Beta | STV","players":null},{"server_id":59,"name":"Uncletopia | Sydney | 6 | Community","name_short":"syd-6","host":"syd-1.au.uncletopia.com","port":27065,"enabled":true,"region":"au","cc":"au","latitude":-33.865143,"longitude":151.2099,"reserved":0,"last_update":"0001-01-01T00:00:00Z","name_a2s":"Uncletopia | Sydney | 6 | Community","protocol":17,"map":"workshop/koth_ashville_final.ugc2130459942","folder":"tf","game":"Team Fortress","app_id":440,"player_count":0,"max_players":24,"Bots":0,"server_type":"Dedicated","server_os":"Linux","password":true,"vac":true,"version":"7757534","steam_id":85568392925397960,"keywords":["cp","nocrits","nodmgspread","uncletopia"],"game_id":440,"stv_port":27066,"stv_name":"Uncletopia | Sydney | 6 | Community | STV","players":null},{"server_id":49,"name":"Uncletopia | Warsaw | 1 | All Maps","name_short":"waw-1","host":"waw-1.pl.uncletopia.com","port":27015,"enabled":true,"region":"eu","cc":"pl","latitude":52.2297,"longitude":21.017532,"reserved":0,"last_update":"0001-01-01T00:00:00Z","name_a2s":"","protocol":0,"map":"","folder":"","game":"","app_id":0,"player_count":0,"max_players":0,"Bots":0,"server_type":"","server_os":"","password":false,"vac":false,"version":"","steam_id":0,"keywords":null,"game_id":0,"stv_port":0,"stv_name":"","players":null},{"server_id":50,"name":"Uncletopia | Warsaw | 2 | All Maps","name_short":"waw-2","host":"waw-1.pl.uncletopia.com","port":27025,"enabled":true,"region":"eu","cc":"pl","latitude":52.2297,"longitude":21.017532,"reserved":0,"last_update":"0001-01-01T00:00:00Z","name_a2s":"Uncletopia | Warsaw | 2 | All Maps","protocol":17,"map":"koth_viaduct","folder":"tf","game":"Team Fortress","app_id":440,"player_count":0,"max_players":24,"Bots":0,"server_type":"Dedicated","server_os":"Linux","password":true,"vac":true,"version":"7757534","steam_id":85568392925397851,"keywords":["cp","nocrits","nodmgspread","uncletopia"],"game_id":440,"stv_port":27026,"stv_name":"Uncletopia | Warsaw | 2 | All Maps | STV","players":null},{"server_id":51,"name":"Uncletopia | Warsaw | 3 | All Maps","name_short":"waw-3","host":"waw-1.pl.uncletopia.com","port":27035,"enabled":true,"region":"eu","cc":"pl","latitude":52.2297,"longitude":21.017532,"reserved":0,"last_update":"0001-01-01T00:00:00Z","name_a2s":"Uncletopia | Warsaw | 3 | All Maps","protocol":17,"map":"koth_highpass","folder":"tf","game":"Team Fortress","app_id":440,"player_count":0,"max_players":24,"Bots":0,"server_type":"Dedicated","server_os":"Linux","password":true,"vac":true,"version":"7757534","steam_id":85568392925397852,"keywords":["cp","nocrits","nodmgspread","uncletopia"],"game_id":440,"stv_port":27036,"stv_name":"Uncletopia | Warsaw | 3 | All Maps | STV","players":null},{"server_id":52,"name":"Uncletopia | Warsaw | 4 | All Maps","name_short":"waw-4","host":"waw-1.pl.uncletopia.com","port":27045,"enabled":true,"region":"eu","cc":"pl","latitude":52.2297,"longitude":21.017532,"reserved":0,"last_update":"0001-01-01T00:00:00Z","name_a2s":"Uncletopia | Warsaw | 4 | All Maps","protocol":17,"map":"pl_frontier_final","folder":"tf","game":"Team Fortress","app_id":440,"player_count":0,"max_players":24,"Bots":0,"server_type":"Dedicated","server_os":"Linux","password":true,"vac":true,"version":"7757534","steam_id":85568392925397853,"keywords":["nocrits","nodmgspread","payload","uncletopia"],"game_id":440,"stv_port":27046,"stv_name":"Uncletopia | Warsaw | 4 | All Maps | STV","players":null},{"server_id":53,"name":"Uncletopia | Warsaw | 5 | Stopwatch Beta","name_short":"waw-5","host":"waw-1.pl.uncletopia.com","port":27055,"enabled":true,"region":"eu","cc":"pl","latitude":52.2297,"longitude":21.017532,"reserved":0,"last_update":"0001-01-01T00:00:00Z","name_a2s":"Uncletopia | Warsaw | 5 | Stopwatch Beta","protocol":17,"map":"pl_upward","folder":"tf","game":"Team Fortress","app_id":440,"player_count":0,"max_players":24,"Bots":0,"server_type":"Dedicated","server_os":"Linux","password":true,"vac":true,"version":"7757534","steam_id":85568392925397854,"keywords":["nocrits","nodmgspread","payload","uncletopia"],"game_id":440,"stv_port":27056,"stv_name":"Uncletopia | Warsaw | 5 | Stopwatch Beta | STV","players":null},{"server_id":54,"name":"Uncletopia | Warsaw | 6 | Community","name_short":"waw-6","host":"waw-1.pl.uncletopia.com","port":27065,"enabled":true,"region":"eu","cc":"pl","latitude":52.2297,"longitude":21.017532,"reserved":0,"last_update":"0001-01-01T00:00:00Z","name_a2s":"Uncletopia | Warsaw | 6 | Community","protocol":17,"map":"workshop/koth_synthetic_rc6a.ugc1549817316","folder":"tf","game":"Team Fortress","app_id":440,"player_count":0,"max_players":24,"Bots":0,"server_type":"Dedicated","server_os":"Linux","password":true,"vac":true,"version":"7757534","steam_id":85568392925397856,"keywords":["cp","nocrits","nodmgspread","uncletopia"],"game_id":440,"stv_port":27066,"stv_name":"Uncletopia | Warsaw | 6 | Community | STV","players":null}]}