{"status":true,"message":"","result":[{"server_id":9,"name":"Uncletopia | Atlanta | 1 | All Maps","name_short":"atl-1","host":"atl-1.us.uncletopia.com","port":27015,"enabled":true,"region":"us-east","cc":"us","latitude":33.753746,"longitude":-84.38633,"reserved":0,"last_update":"0001-01-01T00:00:00Z","name_a2s":"Uncletopia | Atlanta | 1 | All Maps","protocol":17,"map":"koth_cascade","folder":"tf","game":"Team Fortress","app_id":440,"player_count":24,"max_players":24,"Bots":0,"server_type":"Dedicated","server_os":"Linux","password":true,"vac":true,"version":"7742253","steam_id":85568392924469982,"keywords":["cp","nocrits","nodmgspread","uncletopia"],"game_id":440,"stv_port":27016,"stv_name":"Uncletopia | Atlanta | 1 | All Maps | STV","players":[{"user_id":252,"name":"cirkuu","steam_id":76561198053465042,"connected_time":521000000000,"state":"active","ping":67},{"user_id":244,"name":"tj3002rocks","steam_id":76561199017921546,"connected_time":1076000000000,"state":"active","ping":82},{"user_id":168,"name":"dzcreeper","steam_id":76561198072250723,"connected_time":9011000000000,"state":"active","ping":130},{"user_id":249,"name":"The_Stomach_Stone_Surgeon","steam_id":76561198044643725,"connected_time":839000000000,"state":"active","ping":36},{"user_id":185,"name":"War","steam_id":76561198837141652,"connected_time":8231000000000,"state":"active","ping":110},{"user_id":209,"name":"Vanguard","steam_id":76561198044844135,"connected_time":4615000000000,"state":"active","ping":68},{"user_id":254,"name":"sweaterfan","steam_id":76561199389567214,"connected_time":417000000000,"state":"active","ping":59},{"user_id":261,"name":"orangj","steam_id":76561198026604607,"connected_time":122000000000,"state":"active","ping":57},{"user_id":259,"name":"0","steam_id":76561197961095970,"connected_time":126000000000,"state":"active","ping":73},{"user_id":260,"name":"kingofsoup4168","steam_id":76561198968162492,"connected_time":126000000000,"state":"active","ping":70},{"user_id":263,"name":"Ch4n","steam_id":76561198797670090,"connected_time":85000000000,"state":"active","ping":57},{"user_id":257,"name":"merry trapmas","steam_id":76561198402801140,"connected_time":137000000000,"state":"active","ping":104},{"user_id":214,"name":"tavorraX0","steam_id":76561198042465206,"connected_time":3983000000000,"state":"active","ping":120},{"user_id":227,"name":"Dreamzapp","steam_id":76561199084936632,"connected_time":2872000000000,"state":"active","ping":118},{"user_id":246,"name":"Yuhh","steam_id":76561199112894955,"connected_time":1060000000000,"state":"active","ping":159},{"user_id":238,"name":"pinglefingle","steam_id":76561198216580197,"connected_time":2292000000000,"state":"active","ping":82},{"user_id":175,"name":"daemon","steam_id":76561198001541433,"connected_time":8952000000000,"state":"active","ping":75},{"user_id":180,"name":"--_Cook_--","steam_id":76561198080855748,"connected_time":8853000000000,"state":"active","ping":60},{"user_id":250,"name":"saywhat_","steam_id":76561198088191503,"connected_time":747000000000,"state":"active","ping":61},{"user_id":248,"name":"NoShen","steam_id":76561198147434663,"connected_time":890000000000,"state":"active","ping":49},{"user_id":228,"name":"Ducking Mad","steam_id":76561198023126167,"connected_time":2846000000000,"state":"active","ping":77},{"user_id":86,"name":"tell me about it","steam_id":76561198277799227,"connected_time":18208000000000,"state":"active","ping":61},{"user_id":184,"name":"Jesus Of Suburbia","steam_id":76561198941700660,"connected_time":8372000000000,"state":"active","ping":61},{"user_id":207,"name":"DNA_Fox","steam_id":76561198101501757,"connected_time":5202000000000,"state":"active","ping":86}]},{"server_id":400,"name":"Uncletopia | Atlanta | 3 | Stopwatch Beta","name_short":"atl-3","host":"atl-1.us.uncletopia.com","port":27035,"enabled":true,"region":"us-east","cc":"us","latitude":33.753746,"longitude":-84.38633,"reserved":0,"last_update":"0001-01-01T00:00:00Z","name_a2s":"Uncletopia | Atlanta | 3 | Stopwatch Beta","protocol":17,"map":"workshop/pl_badwater_pro_v12.ugc2142942074","folder":"tf","game":"Team Fortress","app_id":440,"player_count":0,"max_players":24,"Bots":0,"server_type":"Dedicated","server_os":"Linux","password":true,"vac":true,"version":"7742253","steam_id":85568392924515187,"keywords":["nocrits","nodmgspread","payload","uncletopia"],"game_id":440,"stv_port":27036,"stv_name":"Uncletopia | Atlanta | 3 | Stopwatch Beta | STV","players":null},{"server_id":401,"name":"Uncletopia | Atlanta | 4 | No Payload","name_short":"atl-4","host":"atl-1.us.uncletopia.com","port":27045,"enabled":true,"region":"us-east","cc":"us","latitude":33.753746,"longitude":-84.38633,"reserved":0,"last_update":"0001-01-01T00:00:00Z","name_a2s":"Uncletopia | Atlanta | 4 | No Payload","protocol":17,"map":"koth_brazil","folder":"tf","game":"Team Fortress","app_id":440,"player_count":0,"max_players":24,"Bots":0,"server_type":"Dedicated","server_os":"Linux","password":true,"vac":true,"version":"7723704","steam_id":85568392924515188,"keywords":["cp","nocrits","nodmgspread","uncletopia"],"game_id":440,"stv_port":27046,"stv_name":"Uncletopia | Atlanta | 4 | No Payload | STV","players":null},{"server_id":2,"name":"Uncletopia | Chicago | 1 | All Maps","name_short":"chi-1","host":"chi-1.us.uncletopia.com","port":27015,"enabled":true,"region":"us-central","cc":"us","latitude":41.881832,"longitude":-87.62318,"reserved":0,"last_update":"0001-01-01T00:00:00Z","name_a2s":"Uncletopia | Chicago | 1 | All Maps","protocol":17,"map":"cp_sunshine","folder":"tf","game":"Team Fortress","app_id":440,"player_count":0,"max_players":24,"Bots":0,"server_type":"Dedicated","server_os":"Linux","password":true,"vac":true,"version":"7742253","steam_id":85568392924469984,"keywords":["cp","nocrits","nodmgspread","uncletopia"],"game_id":440,"stv_port":27016,"stv_name":"Uncletopia | Chicago | 1 | All Maps | STV","players":null},{"server_id":106,"name":"Uncletopia | Chicago | 2 | All Maps","name_short":"chi-2","host":"chi-1.us.uncletopia.com","port":27025,"enabled":true,"region":"us-central","cc":"us","latitude":41.881832,"longitude":-87.62318,"reserved":0,"last_update":"0001-01-01T00:00:00Z","name_a2s":"Uncletopia | Chicago | 2 | All Maps","protocol":17,"map":"pl_frontier_final","folder":"tf","game":"Team Fortress","app_id":440,"player_count":5,"max_players":24,"Bots":0,"server_type":"Dedicated","server_os":"Linux","password":true,"vac":true,"version":"7742253","steam_id":85568392924469985,"keywords":["nocrits","nodmgspread","payload","uncletopia"],"game_id":440,"stv_port":27026,"stv_name":"Uncletopia | Chicago | 2 | All Maps | STV","players":[{"user_id":262,"name":"sonic1394","steam_id":76561198054636788,"connected_time":5118000000000,"state":"active","ping":66},{"user_id":277,"name":"Genius Meme","steam_id":76561198162911254,"connected_time":4649000000000,"state":"active","ping":100},{"user_id":274,"name":"Sharmat","steam_id":76561198103492042,"connected_time":4986000000000,"state":"active","ping":53},{"user_id":220,"name":"Yeshie the Dragon Layer","steam_id":76561198080214214,"connected_time":8716000000000,"state":"active","ping":34},{"user_id":279,"name":"Ngsterson","steam_id":76561198162108154,"connected_time":4385000000000,"state":"active","ping":90}]},{"server_id":402,"name":"Uncletopia | Chicago | 3 | All Maps","name_short":"chi-3","host":"chi-1.us.uncletopia.com","port":27035,"enabled":true,"region":"us-central","cc":"us","latitude":41.881832,"longitude":-87.62318,"reserved":0,"last_update":"0001-01-01T00:00:00Z","name_a2s":"Uncletopia | Chicago | 3 | All Maps","protocol":17,"map":"cp_steel","folder":"tf","game":"Team Fortress","app_id":440,"player_count":24,"max_players":24,"Bots":0,"server_type":"Dedicated","server_os":"Linux","password":true,"vac":true,"version":"7742253","steam_id":85568392924515191,"keywords":["cp","nocrits","nodmgspread","uncletopia"],"game_id":440,"stv_port":27036,"stv_name":"Uncletopia | Chicago | 3 | All Maps | STV","players":[{"user_id":320,"name":"peachy","steam_id":76561198026664629,"connected_time":1115000000000,"state":"active","ping":60},{"user_id":291,"name":"Nexus","steam_id":76561198156374282,"connected_time":2063000000000,"state":"active","ping":66},{"user_id":340,"name":"WoodsRunner","steam_id":76561198121812870,"connected_time":347000000000,"state":"active","ping":59},{"user_id":345,"name":"Huge","steam_id":76561199030987614,"connected_time":136000000000,"state":"active","ping":79},{"user_id":346,"name":"Sir Galahad","steam_id":76561198195999859,"connected_time":75000000000,"state":"active","ping":97},{"user_id":318,"name":"RawLawson","steam_id":76561198398752800,"connected_time":1176000000000,"state":"active","ping":86},{"user_id":285,"name":"Brendan","steam_id":76561198041079914,"connected_time":3365000000000,"state":"active","ping":72},{"user_id":289,"name":"chicken","steam_id":76561198148106437,"connected_time":2120000000000,"state":"active","ping":101},{"user_id":341,"name":"Fat Frog","steam_id":76561198378164234,"connected_time":331000000000,"state":"active","ping":75},{"user_id":332,"name":"Jelqing Table","steam_id":76561198051373750,"connected_time":689000000000,"state":"active","ping":69},{"user_id":321,"name":"victordead121","steam_id":76561199180843121,"connected_time":1113000000000,"state":"active","ping":111},{"user_id":294,"name":"DrNubber","steam_id":76561199117434435,"connected_time":2015000000000,"state":"active","ping":103},{"user_id":322,"name":"SpiderString","steam_id":76561198092409181,"connected_time":1096000000000,"state":"active","ping":100},{"user_id":284,"name":"coffee bagel","steam_id":76561198141198352,"connected_time":3425000000000,"state":"active","ping":45},{"user_id":337,"name":"Mouth Tea","steam_id":76561198285054047,"connected_time":437000000000,"state":"active","ping":80},{"user_id":315,"name":"Kleine","steam_id":76561198042556857,"connected_time":1355000000000,"state":"active","ping":56},{"user_id":259,"name":"Faraday","steam_id":76561198089928357,"connected_time":5241000000000,"state":"active","ping":56},{"user_id":323,"name":"CheeseCake488","steam_id":76561199407617942,"connected_time":1059000000000,"state":"active","ping":120},{"user_id":342,"name":"toastman","steam_id":76561198207073088,"connected_time":327000000000,"state":"active","ping":66},{"user_id":324,"name":"BrotherGrowly","steam_id":76561198086663043,"connected_time":1029000000000,"state":"active","ping":89},{"user_id":301,"name":"GOATBOYWINTER","steam_id":76561199384918606,"connected_time":1727000000000,"state":"active","ping":60},{"user_id":331,"name":"Antwan","steam_id":76561198246200638,"connected_time":718000000000,"state":"active","ping":73},{"user_id":343,"name":"aaron","steam_id":76561198308883028,"connected_time":312000000000,"state":"active","ping":102},{"user_id":344,"name":"Elias","steam_id":76561198106431732,"connected_time":281000000000,"state":"active","ping":102}]},{"server_id":403,"name":"Uncletopia | Chicago | 4 | All Maps","name_short":"chi-4","host":"chi-1.us.uncletopia.com","port":27045,"enabled":true,"region":"us-central","cc":"us","latitude":41.881832,"longitude":-87.62318,"reserved":0,"last_update":"0001-01-01T00:00:00Z","name_a2s":"Uncletopia | Chicago | 4 | All Maps","protocol":17,"map":"pl_borneo","folder":"tf","game":"Team Fortress","app_id":440,"player_count":0,"max_players":24,"Bots":0,"server_type":"Dedicated","server_os":"Linux","password":true,"vac":true,"version":"7742253","steam_id":85568392924515193,"keywords":["nocrits","nodmgspread","payload","uncletopia"],"game_id":440,"stv_port":27046,"stv_name":"Uncletopia | Chicago | 4 | All Maps | STV","players":null},{"server_id":36,"name":"Uncletopia | Chicago | 5 | All Maps","name_short":"chi-5","host":"chi-2.us.uncletopia.com","port":27015,"enabled":true,"region":"us-central","cc":"us","latitude":41.881832,"longitude":-87.62318,"reserved":0,"last_update":"0001-01-01T00:00:00Z","name_a2s":"Uncletopia | Chicago | 5 | All Maps","protocol":17,"map":"koth_lakeside_final","folder":"tf","game":"Team Fortress","app_id":440,"player_count":0,"max_players":24,"Bots":0,"server_type":"Dedicated","server_os":"Linux","password":true,"vac":true,"version":"7742253","steam_id":85568392924866362,"keywords":["cp","nocrits","nodmgspread","uncletopia"],"game_id":440,"stv_port":27016,"stv_name":"Uncletopia | Chicago | 5 | All Maps | STV","players":null},{"server_id":37,"name":"Uncletopia | Chicago | 6 | All Maps","name_short":"chi-6","host":"chi-2.us.uncletopia.com","port":27025,"enabled":true,"region":"us-central","cc":"us","latitude":41.881832,"longitude":-87.62318,"reserved":0,"last_update":"0001-01-01T00:00:00Z","name_a2s":"Uncletopia | Chicago | 6 | All Maps","protocol":17,"map":"pl_badwater","folder":"tf","game":"Team Fortress","app_id":440,"player_count":24,"max_players":24,"Bots":0,"server_type":"Dedicated","server_os":"Linux","password":true,"vac":true,"version":"7742253","steam_id":85568392924866363,"keywords":["nocrits","nodmgspread","payload","uncletopia"],"game_id":440,"stv_port":27026,"stv_name":"Uncletopia | Chicago | 6 | All Maps | STV","players":[{"user_id":222,"name":"gtec229","steam_id":76561198026589960,"connected_time":920000000000,"state":"active","ping":45},{"user_id":233,"name":"Bromley","steam_id":76561197992298657,"connected_time":291000000000,"state":"active","ping":76},{"user_id":235,"name":"grape juice -rng","steam_id":76561198093829623,"connected_time":227000000000,"state":"active","ping":82},{"user_id":217,"name":"Barple Bapkins","steam_id":76561198146096076,"connected_time":1030000000000,"state":"active","ping":75},{"user_id":158,"name":"catface","steam_id":76561198096347625,"connected_time":4356000000000,"state":"active","ping":74},{"user_id":167,"name":"Michiru Kagemori","steam_id":76561198257241799,"connected_time":4079000000000,"state":"active","ping":60},{"user_id":234,"name":"dash23™","steam_id":76561198314951185,"connected_time":262000000000,"state":"active","ping":101},{"user_id":230,"name":"fawkspipsi","steam_id":76561198159345179,"connected_time":590000000000,"state":"active","ping":90},{"user_id":236,"name":"golia","steam_id":76561198000264266,"connected_time":214000000000,"state":"active","ping":96},{"user_id":164,"name":"the 99","steam_id":76561198139802458,"connected_time":4219000000000,"state":"active","ping":76},{"user_id":231,"name":"Skadewsh","steam_id":76561198102772209,"connected_time":581000000000,"state":"active","ping":60},{"user_id":160,"name":"lepel","steam_id":76561198021224745,"connected_time":4319000000000,"state":"active","ping":58},{"user_id":228,"name":"Psychosis","steam_id":76561198078659070,"connected_time":670000000000,"state":"active","ping":68},{"user_id":224,"name":"TripleB","steam_id":76561198157440709,"connected_time":847000000000,"state":"active","ping":105},{"user_id":237,"name":"deer (real)","steam_id":76561198071218569,"connected_time":200000000000,"state":"active","ping":104},{"user_id":225,"name":"zxbzzc","steam_id":76561198391370697,"connected_time":778000000000,"state":"active","ping":108},{"user_id":211,"name":"็You got Killed by --\u003e","steam_id":76561198039763676,"connected_time":1411000000000,"state":"active","ping":64},{"user_id":238,"name":"Alley_YAMBO","steam_id":76561198055651850,"connected_time":172000000000,"state":"active","ping":102},{"user_id":226,"name":"itsudatte","steam_id":76561198048992536,"connected_time":746000000000,"state":"active","ping":74},{"user_id":227,"name":"kizu","steam_id":76561198012414439,"connected_time":734000000000,"state":"active","ping":84},{"user_id":239,"name":"Biggest Dude In Town 4U","steam_id":76561198070281464,"connected_time":165000000000,"state":"active","ping":135},{"user_id":229,"name":"Red Man","steam_id":76561198293333566,"connected_time":600000000000,"state":"active","ping":62},{"user_id":202,"name":"SSBM Pelican","steam_id":76561198040697907,"connected_time":2199000000000,"state":"active","ping":76},{"user_id":241,"name":"Dill","steam_id":76561197985091914,"connected_time":88000000000,"state":"active","ping":62}]},{"server_id":38,"name":"Uncletopia | Chicago | 7 | Stopwatch Beta","name_short":"chi-7","host":"chi-2.us.uncletopia.com","port":27035,"enabled":true,"region":"us-central","cc":"us","latitude":41.881832,"longitude":-87.62318,"reserved":0,"last_update":"0001-01-01T00:00:00Z","name_a2s":"Uncletopia | Chicago | 7 | Stopwatch Beta","protocol":17,"map":"cp_altitude","folder":"tf","game":"Team Fortress","app_id":440,"player_count":0,"max_players":24,"Bots":0,"server_type":"Dedicated","server_os":"Linux","password":true,"vac":true,"version":"7742253","steam_id":85568392924866364,"keywords":["cp","nocrits","nodmgspread","uncletopia"],"game_id":440,"stv_port":27036,"stv_name":"Uncletopia | Chicago | 7 | Stopwatch Beta | STV","players":null},{"server_id":39,"name":"Uncletopia | Chicago | 8 | Community","name_short":"chi-8","host":"chi-2.us.uncletopia.com","port":27045,"enabled":true,"region":"us-central","cc":"us","latitude":41.881832,"longitude":-87.62318,"reserved":0,"last_update":"0001-01-01T00:00:00Z","name_a2s":"Uncletopia | Chicago | 8 | Community","protocol":17,"map":"workshop/koth_synthetic_rc6a.ugc1549817316","folder":"tf","game":"Team Fortress","app_id":440,"player_count":0,"max_players":24,"Bots":0,"server_type":"Dedicated","server_os":"Linux","password":true,"vac":true,"version":"7742253","steam_id":85568392924866365,"keywords":["cp","nocrits","nodmgspread","uncletopia"],"game_id":440,"stv_port":27046,"stv_name":"Uncletopia | Chicago | 8 | Community | STV","players":null},{"server_id":8,"name":"Uncletopia | Dallas | 1 | All Maps","name_short":"dal-1","host":"dal-1.us.uncletopia.com","port":27015,"enabled":true,"region":"us-central","cc":"us","latitude":32.779167,"longitude":-96.80889,"reserved":0,"last_update":"0001-01-01T00:00:00Z","name_a2s":"Uncletopia | Dallas | 1 | All Maps","protocol":17,"map":"pl_snowycoast","folder":"tf","game":"Team Fortress","app_id":440,"player_count":0,"max_players":24,"Bots":0,"server_type":"Dedicated","server_os":"Linux","password":true,"vac":true,"version":"7742253","steam_id":85568392924469986,"keywords":["nocrits","nodmgspread","payload","uncletopia"],"game_id":440,"stv_port":27016,"stv_name":"Uncletopia | Dallas | 1 | All Maps | STV","players":null},{"server_id":108,"name":"Uncletopia | Dallas | 2 | All Maps","name_short":"dal-2","host":"dal-1.us.uncletopia.com","port":27025,"enabled":true,"region":"us-central","cc":"us","latitude":32.779167,"longitude":-96.80889,"reserved":0,"last_update":"0001-01-01T00:00:00Z","name_a2s":"Uncletopia | Dallas | 2 | All Maps","protocol":17,"map":"koth_cascade","folder":"tf","game":"Team Fortress","app_id":440,"player_count":0,"max_players":24,"Bots":0,"server_type":"Dedicated","server_os":"Linux","password":true,"vac":true,"version":"7742253","steam_id":85568392924469988,"keywords":["cp","nocrits","nodmgspread","uncletopia"],"game_id":440,"stv_port":27026,"stv_name":"Uncletopia | Dallas | 2 | All Maps | STV","players":null},{"server_id":5,"name":"Uncletopia | Frankfurt | 1 | All Maps","name_short":"frk-1","host":"frk-1.de.uncletopia.com","port":27015,"enabled":true,"region":"eu","cc":"de","latitude":50.110924,"longitude":8.682127,"reserved":0,"last_update":"0001-01-01T00:00:00Z","name_a2s":"Uncletopia | Frankfurt | 1 | All Maps","protocol":17,"map":"pl_upward","folder":"tf","game":"Team Fortress","app_id":440,"player_count":0,"max_players":24,"Bots":0,"server_type":"Dedicated","server_os":"Linux","password":true,"vac":true,"version":"7742253","steam_id":85568392924469989,"keywords":["nocrits","nodmgspread","payload","uncletopia"],"game_id":440,"stv_port":27016,"stv_name":"Uncletopia | Frankfurt | 1 | All Maps | STV","players":null},{"server_id":110,"name":"Uncletopia | Frankfurt | 2 | All Maps","name_short":"frk-2","host":"frk-1.de.uncletopia.com","port":27025,"enabled":true,"region":"eu","cc":"de","latitude":50.110924,"longitude":8.682127,"reserved":0,"last_update":"0001-01-01T00:00:00Z","name_a2s":"Uncletopia | Frankfurt | 2 | All Maps","protocol":17,"map":"pl_upward","folder":"tf","game":"Team Fortress","app_id":440,"player_count":0,"max_players":24,"Bots":0,"server_type":"Dedicated","server_os":"Linux","password":true,"vac":true,"version":"7742253","steam_id":85568392924469990,"keywords":["nocrits","nodmgspread","payload","uncletopia"],"game_id":440,"stv_port":27026,"stv_name":"Uncletopia | Frankfurt | 2 | All Maps | STV","players":null},{"server_id":308,"name":"Uncletopia | Frankfurt | 3 | All Maps","name_short":"frk-3","host":"frk-1.de.uncletopia.com","port":27035,"enabled":true,"region":"eu","cc":"de","latitude":50.110924,"longitude":8.682127,"reserved":0,"last_update":"0001-01-01T00:00:00Z","name_a2s":"Uncletopia | Frankfurt | 3 | All Maps","protocol":17,"map":"koth_viaduct","folder":"tf","game":"Team Fortress","app_id":440,"player_count":1,"max_players":24,"Bots":0,"server_type":"Dedicated","server_os":"Linux","password":true,"vac":true,"version":"7742253","steam_id":85568392924504274,"keywords":["cp","nocrits","nodmgspread","uncletopia"],"game_id":440,"stv_port":27036,"stv_name":"Uncletopia | Frankfurt | 3 | All Maps | STV","players":[{"user_id":3,"name":"15264743527","steam_id":76561199445995754,"connected_time":159000000000,"state":"active","ping":362}]},{"server_id":309,"name":"Uncletopia | Frankfurt | 4 | All Maps","name_short":"frk-4","host":"frk-1.de.uncletopia.com","port":27045,"enabled":true,"region":"eu","cc":"de","latitude":50.110924,"longitude":8.682127,"reserved":0,"last_update":"0001-01-01T00:00:00Z","name_a2s":"Uncletopia | Frankfurt | 4 | All Maps","protocol":17,"map":"pl_frontier_final","folder":"tf","game":"Team Fortress","app_id":440,"player_count":0,"max_players":24,"Bots":0,"server_type":"Dedicated","server_os":"Linux","password":true,"vac":true,"version":"7742253","steam_id":85568392924504275,"keywords":["nocrits","nodmgspread","payload","uncletopia"],"game_id":440,"stv_port":27046,"stv_name":"Uncletopia | Frankfurt | 4 | All Maps | STV","players":null},{"server_id":310,"name":"Uncletopia | Frankfurt | 5 | All Maps","name_short":"frk-5","host":"frk-1.de.uncletopia.com","port":27055,"enabled":true,"region":"eu","cc":"de","latitude":50.110924,"longitude":8.682127,"reserved":0,"last_update":"0001-01-01T00:00:00Z","name_a2s":"Uncletopia | Frankfurt | 5 | All Maps","protocol":17,"map":"cp_sunshine","folder":"tf","game":"Team Fortress","app_id":440,"player_count":0,"max_players":24,"Bots":0,"server_type":"Dedicated","server_os":"Linux","password":true,"vac":true,"version":"7742253","steam_id":85568392924504277,"keywords":["cp","nocrits","nodmgspread","uncletopia"],"game_id":440,"stv_port":27056,"stv_name":"Uncletopia | Frankfurt | 5 | All Maps | STV","players":null},{"server_id":311,"name":"Uncletopia | Frankfurt | 6 | All Maps","name_short":"frk-6","host":"frk-1.de.uncletopia.com","port":27065,"enabled":true,"region":"eu","cc":"de","latitude":50.110924,"longitude":8.682127,"reserved":0,"last_update":"0001-01-01T00:00:00Z","name_a2s":"Uncletopia | Frankfurt | 6 | All Maps","protocol":17,"map":"pl_frontier_final","folder":"tf","game":"Team Fortress","app_id":440,"player_count":0,"max_players":24,"Bots":0,"server_type":"Dedicated","server_os":"Linux","password":true,"vac":true,"version":"7742253","steam_id":85568392924504278,"keywords":["nocrits","nodmgspread","payload","uncletopia"],"game_id":440,"stv_port":27066,"stv_name":"Uncletopia | Frankfurt | 6 | All Maps | STV","players":null},{"server_id":23,"name":"Uncletopia | Frankfurt | 7 | Stopwatch Beta","name_short":"frk-7","host":"frk-1.de.uncletopia.com","port":27075,"enabled":true,"region":"eu","cc":"de","latitude":50.110924,"longitude":8.682127,"reserved":0,"last_update":"0001-01-01T00:00:00Z","name_a2s":"Uncletopia | Frankfurt | 7 | Stopwatch Beta","protocol":17,"map":"koth_lakeside_final","folder":"tf","game":"Team Fortress","app_id":440,"player_count":0,"max_players":24,"Bots":0,"server_type":"Dedicated","server_os":"Linux","password":true,"vac":true,"version":"7742253","steam_id":85568392924742827,"keywords":["cp","nocrits","nodmgspread","uncletopia"],"game_id":440,"stv_port":27076,"stv_name":"Uncletopia | Frankfurt | 7 | Stopwatch Beta | STV","players":null},{"server_id":24,"name":"Uncletopia | Frankfurt | 8 | Community","name_short":"frk-8","host":"frk-1.de.uncletopia.com","port":27085,"enabled":true,"region":"eu","cc":"de","latitude":50.110924,"longitude":8.682127,"reserved":0,"last_update":"0001-01-01T00:00:00Z","name_a2s":"Uncletopia | Frankfurt | 8 | Community","protocol":17,"map":"pl_pier","folder":"tf","game":"Team Fortress","app_id":440,"player_count":0,"max_players":24,"Bots":0,"server_type":"Dedicated","server_os":"Linux","password":true,"vac":true,"version":"7742253","steam_id":85568392924742828,"keywords":["nocrits","nodmgspread","payload","uncletopia"],"game_id":440,"stv_port":27086,"stv_name":"Uncletopia | Frankfurt | 8 | Community | STV","players":null},{"server_id":202,"name":"Uncletopia | Hong Kong | 1 | All Maps","name_short":"hgk-1","host":"hgk-1.hk.uncletopia.com","port":27015,"enabled":true,"region":"asia","cc":"hk","latitude":22.302711,"longitude":114.177216,"reserved":0,"last_update":"0001-01-01T00:00:00Z","name_a2s":"Uncletopia | Hong Kong | 1 | All Maps","protocol":17,"map":"pl_upward","folder":"tf","game":"Team Fortress","app_id":440,"player_count":24,"max_players":24,"Bots":0,"server_type":"Dedicated","server_os":"Linux","password":true,"vac":true,"version":"7742253","steam_id":85568392924494504,"keywords":["nocrits","nodmgspread","payload","uncletopia"],"game_id":440,"stv_port":27016,"stv_name":"Uncletopia | Hong Kong | 1 | All Maps | STV","players":[{"user_id":155,"name":"+","steam_id":76561198121311286,"connected_time":2852000000000,"state":"active","ping":85},{"user_id":176,"name":"Half measure","steam_id":76561199135173894,"connected_time":220000000000,"state":"active","ping":90},{"user_id":139,"name":"The Piss Man","steam_id":76561198136685157,"connected_time":4715000000000,"state":"active","ping":57},{"user_id":141,"name":"Medi","steam_id":76561198447470800,"connected_time":4710000000000,"state":"active","ping":76},{"user_id":117,"name":"ogey","steam_id":76561198074339034,"connected_time":7239000000000,"state":"active","ping":75},{"user_id":162,"name":"Corhix","steam_id":76561198968706355,"connected_time":1861000000000,"state":"active","ping":40},{"user_id":171,"name":"piyoko no english","steam_id":76561198088403016,"connected_time":1393000000000,"state":"active","ping":92},{"user_id":43,"name":"lilla laxum","steam_id":76561198230213828,"connected_time":14151000000000,"state":"active","ping":64},{"user_id":154,"name":"uptriste","steam_id":76561198158666692,"connected_time":3044000000000,"state":"active","ping":37},{"user_id":96,"name":"Shades on Goggles","steam_id":76561198406067629,"connected_time":9720000000000,"state":"active","ping":57},{"user_id":177,"name":"mmmmmmmmmmmmmmmmmmmmmmmmmmmmmph","steam_id":76561198400698408,"connected_time":155000000000,"state":"active","ping":79},{"user_id":120,"name":"Kiyomi","steam_id":76561198240627872,"connected_time":6044000000000,"state":"active","ping":51},{"user_id":172,"name":"Lud","steam_id":76561198828840546,"connected_time":1193000000000,"state":"active","ping":73},{"user_id":145,"name":"Skullman (can't speak in casual","steam_id":76561199143660601,"connected_time":4547000000000,"state":"active","ping":66},{"user_id":156,"name":"Telekhine","steam_id":76561198387120618,"connected_time":2747000000000,"state":"active","ping":70},{"user_id":170,"name":"変態の神","steam_id":76561199017344476,"connected_time":1486000000000,"state":"active","ping":105},{"user_id":161,"name":"Windmill","steam_id":76561199230997986,"connected_time":1900000000000,"state":"active","ping":80},{"user_id":164,"name":"Cá Tháng 4","steam_id":76561198047162026,"connected_time":1860000000000,"state":"active","ping":69},{"user_id":175,"name":"cjjakeypaul","steam_id":76561199126245431,"connected_time":531000000000,"state":"active","ping":69},{"user_id":123,"name":"Male Detected!","steam_id":76561199082459598,"connected_time":5714000000000,"state":"active","ping":73},{"user_id":78,"name":"ogey (real)","steam_id":76561198061628689,"connected_time":11737000000000,"state":"active","ping":58},{"user_id":165,"name":"Wakka Wakka!","steam_id":76561198339657566,"connected_time":1856000000000,"state":"active","ping":76},{"user_id":152,"name":"mikkusu","steam_id":76561198306574432,"connected_time":3338000000000,"state":"active","ping":81},{"user_id":94,"name":"LOLGAL","steam_id":76561198347418251,"connected_time":9735000000000,"state":"active","ping":69}]},{"server_id":1,"name":"Uncletopia | Los Angeles | 1 | All Maps","name_short":"lax-1","host":"lax-1.us.uncletopia.com","port":27015,"enabled":true,"region":"us-west","cc":"us","latitude":33.94279,"longitude":-118.41004,"reserved":0,"last_update":"0001-01-01T00:00:00Z","name_a2s":"Uncletopia | Los Angeles | 1 | All Maps","protocol":17,"map":"cp_sunshine","folder":"tf","game":"Team Fortress","app_id":440,"player_count":0,"max_players":24,"Bots":0,"server_type":"Dedicated","server_os":"Linux","password":true,"vac":true,"version":"7742253","steam_id":85568392924469991,"keywords":["cp","nocrits","nodmgspread","uncletopia"],"game_id":440,"stv_port":27016,"stv_name":"Uncletopia | Los Angeles | 1 | All Maps | STV","players":null},{"server_id":112,"name":"Uncletopia | Los Angeles | 2 | All Maps","name_short":"lax-2","host":"lax-1.us.uncletopia.com","port":27025,"enabled":true,"region":"us-west","cc":"us","latitude":33.94279,"longitude":-118.41004,"reserved":0,"last_update":"0001-01-01T00:00:00Z","name_a2s":"Uncletopia | Los Angeles | 2 | All Maps","protocol":17,"map":"pl_borneo","folder":"tf","game":"Team Fortress","app_id":440,"player_count":13,"max_players":24,"Bots":0,"server_type":"Dedicated","server_os":"Linux","password":true,"vac":true,"version":"7742253","steam_id":85568392924469992,"keywords":["nocrits","nodmgspread","payload","uncletopia"],"game_id":440,"stv_port":27026,"stv_name":"Uncletopia | Los Angeles | 2 | All Maps | STV","players":[{"user_id":331,"name":"Facepalm","steam_id":76561198001935226,"connected_time":161000000000,"state":"active","ping":58},{"user_id":316,"name":"soccer_alex9","steam_id":76561198110024344,"connected_time":1264000000000,"state":"active","ping":67},{"user_id":332,"name":"jboi","steam_id":76561198967909005,"connected_time":129000000000,"state":"active","ping":79},{"user_id":335,"name":"Mr. Jenkins","steam_id":76561198078233200,"connected_time":37000000000,"state":"spawning","ping":81},{"user_id":327,"name":"zEtriaN","steam_id":76561198150137369,"connected_time":385000000000,"state":"active","ping":44},{"user_id":239,"name":"Sunkenthree51","steam_id":76561198300781307,"connected_time":6066000000000,"state":"active","ping":92},{"user_id":334,"name":"Sabaman55","steam_id":76561198212267979,"connected_time":97000000000,"state":"active","ping":94},{"user_id":329,"name":"Earth","steam_id":76561198108908550,"connected_time":246000000000,"state":"active","ping":61},{"user_id":253,"name":"THE NUT","steam_id":76561198067813626,"connected_time":5192000000000,"state":"active","ping":66},{"user_id":324,"name":"Magitrex","steam_id":76561199088811754,"connected_time":746000000000,"state":"active","ping":76},{"user_id":330,"name":"vanilacraft23","steam_id":76561198410774848,"connected_time":213000000000,"state":"active","ping":181},{"user_id":323,"name":"CatBerryLemonade","steam_id":76561198120932314,"connected_time":1068000000000,"state":"active","ping":109},{"user_id":322,"name":"Achy_Blitz","steam_id":76561198090433209,"connected_time":1122000000000,"state":"active","ping":112}]},{"server_id":324,"name":"Uncletopia | Los Angeles | 3 | All Maps","name_short":"lax-3","host":"lax-1.us.uncletopia.com","port":27035,"enabled":true,"region":"us-west","cc":"us","latitude":33.94279,"longitude":-118.41004,"reserved":0,"last_update":"0001-01-01T00:00:00Z","name_a2s":"Uncletopia | Los Angeles | 3 | All Maps","protocol":17,"map":"cp_sunshine","folder":"tf","game":"Team Fortress","app_id":440,"player_count":0,"max_players":24,"Bots":0,"server_type":"Dedicated","server_os":"Linux","password":true,"vac":true,"version":"7742253","steam_id":85568392924510198,"keywords":["cp","nocrits","nodmgspread","uncletopia"],"game_id":440,"stv_port":27036,"stv_name":"Uncletopia | Los Angeles | 3 | All Maps | STV","players":null},{"server_id":25,"name":"Uncletopia | Los Angeles | 4 | Stopwatch Beta","name_short":"lax-4","host":"lax-1.us.uncletopia.com","port":27045,"enabled":true,"region":"us-west","cc":"us","latitude":33.94279,"longitude":-118.41004,"reserved":0,"last_update":"0001-01-01T00:00:00Z","name_a2s":"Uncletopia | Los Angeles | 4 | Stopwatch Beta","protocol":17,"map":"cp_process_final","folder":"tf","game":"Team Fortress","app_id":440,"player_count":0,"max_players":24,"Bots":0,"server_type":"Dedicated","server_os":"Linux","password":true,"vac":true,"version":"7742253","steam_id":85568392924510199,"keywords":["cp","nocrits","nodmgspread","uncletopia"],"game_id":440,"stv_port":27046,"stv_name":"Uncletopia | Los Angeles | 4 | Stopwatch Beta | STV","players":null},{"server_id":11,"name":"Uncletopia | London | 1 | All Maps","name_short":"lon-1","host":"lon-1.uk.uncletopia.com","port":27015,"enabled":true,"region":"eu","cc":"gb","latitude":51.509865,"longitude":-0.118092,"reserved":0,"last_update":"0001-01-01T00:00:00Z","name_a2s":"Uncletopia | London | 1 | All Maps","protocol":17,"map":"koth_viaduct","folder":"tf","game":"Team Fortress","app_id":440,"player_count":24,"max_players":24,"Bots":0,"server_type":"Dedicated","server_os":"Linux","password":true,"vac":true,"version":"7742253","steam_id":85568392924367362,"keywords":["cp","nocrits","nodmgspread","uncletopia"],"game_id":440,"stv_port":27016,"stv_name":"Uncletopia | London | 1 | All Maps | STV","players":[{"user_id":34,"name":"TR","steam_id":76561198427532990,"connected_time":1104000000000,"state":"active","ping":90},{"user_id":48,"name":"Martoro","steam_id":76561199022278314,"connected_time":462000000000,"state":"active","ping":58},{"user_id":9,"name":"weed fairy","steam_id":76561197998843096,"connected_time":3059000000000,"state":"active","ping":79},{"user_id":37,"name":"GregerUlander","steam_id":76561198152375055,"connected_time":974000000000,"state":"active","ping":77},{"user_id":11,"name":"yeldad","steam_id":76561198447264153,"connected_time":2966000000000,"state":"active","ping":109},{"user_id":12,"name":"Perci","steam_id":76561198097789669,"connected_time":2953000000000,"state":"active","ping":74},{"user_id":13,"name":"Grand Wizard","steam_id":76561199414716848,"connected_time":2804000000000,"state":"active","ping":75},{"user_id":16,"name":"Andreus","steam_id":76561199403926001,"connected_time":2477000000000,"state":"active","ping":79},{"user_id":53,"name":"MooK","steam_id":76561198361784169,"connected_time":185000000000,"state":"active","ping":83},{"user_id":54,"name":"mega giga payload hater!","steam_id":76561198039727616,"connected_time":132000000000,"state":"active","ping":144},{"user_id":55,"name":"sush","steam_id":76561198377672176,"connected_time":124000000000,"state":"active","ping":75},{"user_id":25,"name":"germanhamburgers96","steam_id":76561198044189114,"connected_time":1710000000000,"state":"active","ping":65},{"user_id":56,"name":"Murk Wahlberg","steam_id":76561198131467867,"connected_time":113000000000,"state":"active","ping":175},{"user_id":50,"name":"Cat","steam_id":76561198344276348,"connected_time":441000000000,"state":"active","ping":86},{"user_id":28,"name":"Xayir","steam_id":76561198079566786,"connected_time":1493000000000,"state":"active","ping":69},{"user_id":31,"name":"KaeinN27","steam_id":76561199433598069,"connected_time":1272000000000,"state":"active","ping":124},{"user_id":32,"name":"Guuuuy","steam_id":76561197970893597,"connected_time":1205000000000,"state":"active","ping":62},{"user_id":52,"name":"2004 Kanye","steam_id":76561198189000841,"connected_time":227000000000,"state":"active","ping":97},{"user_id":51,"name":"wordrc","steam_id":76561198418788895,"connected_time":238000000000,"state":"active","ping":73},{"user_id":47,"name":"MONKEYBOYXD","steam_id":76561198156224952,"connected_time":503000000000,"state":"active","ping":47},{"user_id":57,"name":"Мисье. Лошадка","steam_id":76561198063246279,"connected_time":106000000000,"state":"active","ping":109},{"user_id":45,"name":"Fearless76","steam_id":76561198331329777,"connected_time":682000000000,"state":"active","ping":72},{"user_id":42,"name":"Thor2008","steam_id":76561197983048776,"connected_time":806000000000,"state":"active","ping":68},{"user_id":46,"name":"Reefer Man","steam_id":76561198148190507,"connected_time":657000000000,"state":"active","ping":67}]},{"server_id":114,"name":"Uncletopia | London | 2 | All Maps","name_short":"lon-2","host":"lon-1.uk.uncletopia.com","port":27025,"enabled":true,"region":"eu","cc":"gb","latitude":51.509865,"longitude":-0.118092,"reserved":0,"last_update":"0001-01-01T00:00:00Z","name_a2s":"Uncletopia | London | 2 | All Maps","protocol":17,"map":"cp_altitude","folder":"tf","game":"Team Fortress","app_id":440,"player_count":0,"max_players":24,"Bots":0,"server_type":"Dedicated","server_os":"Linux","password":true,"vac":true,"version":"7742253","steam_id":85568392924470941,"keywords":["cp","nocrits","nodmgspread","uncletopia"],"game_id":440,"stv_port":27026,"stv_name":"Uncletopia | London | 2 | All Maps | STV","players":null},{"server_id":320,"name":"Uncletopia | London | 3 | All Maps","name_short":"lon-3","host":"lon-1.uk.uncletopia.com","port":27035,"enabled":true,"region":"eu","cc":"gb","latitude":51.509865,"longitude":-0.118092,"reserved":0,"last_update":"0001-01-01T00:00:00Z","name_a2s":"Uncletopia | London | 3 | All Maps","protocol":17,"map":"cp_mountainlab","folder":"tf","game":"Team Fortress","app_id":440,"player_count":0,"max_players":24,"Bots":0,"server_type":"Dedicated","server_os":"Linux","password":true,"vac":true,"version":"7742253","steam_id":85568392924510192,"keywords":["cp","nocrits","nodmgspread","uncletopia"],"game_id":440,"stv_port":27036,"stv_name":"Uncletopia | London | 3 | All Maps | STV","players":null},{"server_id":321,"name":"Uncletopia | London | 4 | All Maps","name_short":"lon-4","host":"lon-1.uk.uncletopia.com","port":27045,"enabled":true,"region":"eu","cc":"gb","latitude":51.509865,"longitude":-0.118092,"reserved":0,"last_update":"0001-01-01T00:00:00Z","name_a2s":"Uncletopia | London | 4 | All Maps","protocol":17,"map":"pl_borneo","folder":"tf","game":"Team Fortress","app_id":440,"player_count":0,"max_players":24,"Bots":0,"server_type":"Dedicated","server_os":"Linux","password":true,"vac":true,"version":"7742253","steam_id":85568392924510193,"keywords":["nocrits","nodmgspread","payload","uncletopia"],"game_id":440,"stv_port":27046,"stv_name":"Uncletopia | London | 4 | All Maps | STV","players":null},{"server_id":21,"name":"Uncletopia | London | 5 | All Maps","name_short":"lon-5","host":"lon-1.uk.uncletopia.com","port":27055,"enabled":true,"region":"eu","cc":"gb","latitude":51.509865,"longitude":-0.118092,"reserved":0,"last_update":"0001-01-01T00:00:00Z","name_a2s":"Uncletopia | London | 5 | All Maps","protocol":17,"map":"cp_sunshine","folder":"tf","game":"Team Fortress","app_id":440,"player_count":0,"max_players":24,"Bots":0,"server_type":"Dedicated","server_os":"Linux","password":true,"vac":true,"version":"7742253","steam_id":85568392924742829,"keywords":["cp","nocrits","nodmgspread","uncletopia"],"game_id":440,"stv_port":27056,"stv_name":"Uncletopia | London | 5 | All Maps | STV","players":null},{"server_id":22,"name":"Uncletopia | London | 6 | All Maps","name_short":"lon-6","host":"lon-1.uk.uncletopia.com","port":27065,"enabled":true,"region":"eu","cc":"gb","latitude":51.509865,"longitude":-0.118092,"reserved":0,"last_update":"0001-01-01T00:00:00Z","name_a2s":"Uncletopia | London | 6 | All Maps","protocol":17,"map":"pl_badwater","folder":"tf","game":"Team Fortress","app_id":440,"player_count":0,"max_players":24,"Bots":0,"server_type":"Dedicated","server_os":"Linux","password":true,"vac":true,"version":"7742253","steam_id":85568392924742830,"keywords":["nocrits","nodmgspread","payload","uncletopia"],"game_id":440,"stv_port":27066,"stv_name":"Uncletopia | London | 6 | All Maps | STV","players":null},{"server_id":40,"name":"Uncletopia | London | 7 | No Payload","name_short":"lon-7","host":"lon-1.uk.uncletopia.com","port":27075,"enabled":true,"region":"eu","cc":"gb","latitude":51.509865,"longitude":-0.118092,"reserved":0,"last_update":"0001-01-01T00:00:00Z","name_a2s":"Uncletopia | London | 7 | No Payload","protocol":17,"map":"pl_borneo","folder":"tf","game":"Team Fortress","app_id":440,"player_count":0,"max_players":24,"Bots":0,"server_type":"Dedicated","server_os":"Linux","password":true,"vac":true,"version":"7742253","steam_id":85568392924964314,"keywords":["nocrits","nodmgspread","payload","uncletopia"],"game_id":440,"stv_port":27076,"stv_name":"Uncletopia | London | 7 | No Payload | STV","players":null},{"server_id":41,"name":"Uncletopia | London | 8 | Community","name_short":"lon-8","host":"lon-1.uk.uncletopia.com","port":27085,"enabled":true,"region":"eu","cc":"gb","latitude":51.509865,"longitude":-0.118092,"reserved":0,"last_update":"0001-01-01T00:00:00Z","name_a2s":"Uncletopia | London | 8 | Community","protocol":17,"map":"cp_process_final","folder":"tf","game":"Team Fortress","app_id":440,"player_count":0,"max_players":24,"Bots":0,"server_type":"Dedicated","server_os":"Linux","password":true,"vac":true,"version":"7742253","steam_id":85568392924964315,"keywords":["cp","nocrits","nodmgspread","uncletopia"],"game_id":440,"stv_port":27086,"stv_name":"Uncletopia | London | 8 | Community | STV","players":null},{"server_id":300,"name":"Uncletopia | Montréal | 1 | All Maps","name_short":"mtl-1","host":"mtl-1.ca.uncletopia.com","port":27015,"enabled":true,"region":"us-east","cc":"ca","latitude":45.50889,"longitude":-73.56167,"reserved":0,"last_update":"0001-01-01T00:00:00Z","name_a2s":"Uncletopia | Montréal | 1 | All Maps","protocol":17,"map":"koth_viaduct","folder":"tf","game":"Team Fortress","app_id":440,"player_count":0,"max_players":24,"Bots":0,"server_type":"Dedicated","server_os":"Linux","password":true,"vac":true,"version":"7742253","steam_id":85568392924500087,"keywords":["cp","nocrits","nodmgspread","uncletopia"],"game_id":440,"stv_port":27016,"stv_name":"Uncletopia | Montréal | 1 | All Maps | STV","players":null},{"server_id":301,"name":"Uncletopia | Montréal | 2 | All Maps","name_short":"mtl-2","host":"mtl-1.ca.uncletopia.com","port":27025,"enabled":true,"region":"us-east","cc":"ca","latitude":45.50889,"longitude":-73.56167,"reserved":0,"last_update":"0001-01-01T00:00:00Z","name_a2s":"Uncletopia | Montréal | 2 | All Maps","protocol":17,"map":"koth_lakeside_final","folder":"tf","game":"Team Fortress","app_id":440,"player_count":0,"max_players":24,"Bots":0,"server_type":"Dedicated","server_os":"Linux","password":true,"vac":true,"version":"7742253","steam_id":85568392924500088,"keywords":["cp","nocrits","nodmgspread","uncletopia"],"game_id":440,"stv_port":27026,"stv_name":"Uncletopia | Montréal | 2 | All Maps | STV","players":null},{"server_id":302,"name":"Uncletopia | Montréal | 3 | All Maps","name_short":"mtl-3","host":"mtl-1.ca.uncletopia.com","port":27035,"enabled":true,"region":"us-east","cc":"ca","latitude":45.50889,"longitude":-73.56167,"reserved":0,"last_update":"0001-01-01T00:00:00Z","name_a2s":"Uncletopia | Montréal | 3 | All Maps","protocol":17,"map":"pl_badwater","folder":"tf","game":"Team Fortress","app_id":440,"player_count":0,"max_players":24,"Bots":0,"server_type":"Dedicated","server_os":"Linux","password":true,"vac":true,"version":"7742253","steam_id":85568392924500089,"keywords":["nocrits","nodmgspread","payload","uncletopia"],"game_id":440,"stv_port":27036,"stv_name":"Uncletopia | Montréal | 3 | All Maps | STV","players":null},{"server_id":303,"name":"Uncletopia | Montréal | 4 | No Payload","name_short":"mtl-4","host":"mtl-1.ca.uncletopia.com","port":27045,"enabled":true,"region":"us-east","cc":"ca","latitude":45.50889,"longitude":-73.56167,"reserved":0,"last_update":"0001-01-01T00:00:00Z","name_a2s":"Uncletopia | Montréal | 4 | No Payload","protocol":17,"map":"koth_highpass","folder":"tf","game":"Team Fortress","app_id":440,"player_count":0,"max_players":24,"Bots":0,"server_type":"Dedicated","server_os":"Linux","password":true,"vac":true,"version":"7742253","steam_id":85568392924500090,"keywords":["cp","nocrits","nodmgspread","uncletopia"],"game_id":440,"stv_port":27046,"stv_name":"Uncletopia | Montréal | 4 | No Payload | STV","players":null},{"server_id":13,"name":"Uncletopia | New York City | 1 | All Maps","name_short":"nyc-1","host":"nyc-1.us.uncletopia.com","port":27015,"enabled":true,"region":"us-east","cc":"us","latitude":40.73061,"longitude":-73.93524,"reserved":0,"last_update":"0001-01-01T00:00:00Z","name_a2s":"Uncletopia | New York City | 1 | All Maps","protocol":17,"map":"koth_cascade","folder":"tf","game":"Team Fortress","app_id":440,"player_count":0,"max_players":24,"Bots":0,"server_type":"Dedicated","server_os":"Linux","password":true,"vac":true,"version":"7742253","steam_id":85568392924469993,"keywords":["cp","nocrits","nodmgspread","uncletopia"],"game_id":440,"stv_port":27016,"stv_name":"Uncletopia | New York City | 1 | All Maps | STV","players":null},{"server_id":14,"name":"Uncletopia | New York City | 2 | All Maps","name_short":"nyc-2","host":"nyc-1.us.uncletopia.com","port":27025,"enabled":true,"region":"us-east","cc":"us","latitude":40.73061,"longitude":-73.93524,"reserved":0,"last_update":"0001-01-01T00:00:00Z","name_a2s":"Uncletopia | New York City | 2 | All Maps","protocol":17,"map":"pl_badwater","folder":"tf","game":"Team Fortress","app_id":440,"player_count":4,"max_players":24,"Bots":0,"server_type":"Dedicated","server_os":"Linux","password":true,"vac":true,"version":"7742253","steam_id":85568392924469994,"keywords":["nocrits","nodmgspread","payload","uncletopia"],"game_id":440,"stv_port":27026,"stv_name":"Uncletopia | New York City | 2 | All Maps | STV","players":[{"user_id":284,"name":"Chorizo Joe","steam_id":76561199230035279,"connected_time":803000000000,"state":"active","ping":59},{"user_id":285,"name":"Monolate","steam_id":76561199081379410,"connected_time":500000000000,"state":"active","ping":68},{"user_id":286,"name":"nox","steam_id":76561198054390505,"connected_time":468000000000,"state":"active","ping":60},{"user_id":275,"name":"tntmanbook","steam_id":76561199199630272,"connected_time":2157000000000,"state":"active","ping":36}]},{"server_id":15,"name":"Uncletopia | New York City | 3 | Stopwatch Beta","name_short":"nyc-3","host":"nyc-1.us.uncletopia.com","port":27035,"enabled":true,"region":"us-east","cc":"us","latitude":40.73061,"longitude":-73.93524,"reserved":0,"last_update":"0001-01-01T00:00:00Z","name_a2s":"Uncletopia | New York City | 3 | Stopwatch Beta","protocol":17,"map":"workshop/pl_vigil_rc9.ugc1266210012","folder":"tf","game":"Team Fortress","app_id":440,"player_count":0,"max_players":24,"Bots":0,"server_type":"Dedicated","server_os":"Linux","password":true,"vac":true,"version":"7742253","steam_id":85568392924742820,"keywords":["nocrits","nodmgspread","payload","uncletopia"],"game_id":440,"stv_port":27036,"stv_name":"Uncletopia | New York City | 3 | Stopwatch Beta | STV","players":null},{"server_id":16,"name":"Uncletopia | New York City | 4 | Community","name_short":"nyc-4","host":"nyc-1.us.uncletopia.com","port":27045,"enabled":true,"region":"us-east","cc":"us","latitude":40.73061,"longitude":-73.93524,"reserved":0,"last_update":"0001-01-01T00:00:00Z","name_a2s":"Uncletopia | New York City | 4 | Community","protocol":17,"map":"workshop/koth_synthetic_rc6a.ugc1549817316","folder":"tf","game":"Team Fortress","app_id":440,"player_count":0,"max_players":24,"Bots":0,"server_type":"Dedicated","server_os":"Linux","password":true,"vac":true,"version":"7742253","steam_id":85568392924742821,"keywords":["cp","nocrits","nodmgspread","uncletopia"],"game_id":440,"stv_port":27046,"stv_name":"Uncletopia | New York City | 4 | Community | STV","players":null},{"server_id":142,"name":"Uncletopia | São Paulo | 1 | All Maps","name_short":"sao-1","host":"sao-1.br.uncletopia.com","port":27015,"enabled":true,"region":"sa","cc":"br","latitude":-23.533773,"longitude":-46.62529,"reserved":0,"last_update":"0001-01-01T00:00:00Z","name_a2s":"Uncletopia | São Paulo | 1 | All Maps","protocol":17,"map":"cp_process_final","folder":"tf","game":"Team Fortress","app_id":440,"player_count":0,"max_players":24,"Bots":0,"server_type":"Dedicated","server_os":"Linux","password":true,"vac":true,"version":"7742253","steam_id":85568392924469996,"keywords":["cp","nocrits","nodmgspread","uncletopia"],"game_id":440,"stv_port":27016,"stv_name":"Uncletopia | São Paulo | 1 | All Maps | STV","players":null},{"server_id":143,"name":"Uncletopia | São Paulo | 2 | All Maps","name_short":"sao-2","host":"sao-2.br.uncletopia.com","port":27015,"enabled":true,"region":"sa","cc":"br","latitude":-23.533773,"longitude":-46.62529,"reserved":0,"last_update":"0001-01-01T00:00:00Z","name_a2s":"Uncletopia | São Paulo | 2 | All Maps","protocol":17,"map":"cp_process_final","folder":"tf","game":"Team Fortress","app_id":440,"player_count":0,"max_players":24,"Bots":0,"server_type":"Dedicated","server_os":"Linux","password":true,"vac":true,"version":"7742253","steam_id":85568392924485349,"keywords":["cp","nocrits","nodmgspread","uncletopia"],"game_id":440,"stv_port":27016,"stv_name":"Uncletopia | São Paulo | 2 | All Maps | STV","players":null},{"server_id":7,"name":"Uncletopia | Seattle | 1 | All Maps","name_short":"sea-1","host":"sea-1.us.uncletopia.com","port":27015,"enabled":true,"region":"us-west","cc":"us","latitude":47.608013,"longitude":-122.33517,"reserved":0,"last_update":"0001-01-01T00:00:00Z","name_a2s":"Uncletopia | Seattle | 1 | All Maps","protocol":17,"map":"pl_upward","folder":"tf","game":"Team Fortress","app_id":440,"player_count":24,"max_players":24,"Bots":0,"server_type":"Dedicated","server_os":"Linux","password":true,"vac":true,"version":"7742253","steam_id":85568392924469997,"keywords":["nocrits","nodmgspread","payload","uncletopia"],"game_id":440,"stv_port":27016,"stv_name":"Uncletopia | Seattle | 1 | All Maps | STV","players":[{"user_id":260,"name":"gorlab","steam_id":76561198025089694,"connected_time":4258000000000,"state":"active","ping":60},{"user_id":283,"name":"Saggle","steam_id":76561198056075147,"connected_time":1981000000000,"state":"active","ping":187},{"user_id":290,"name":"Ayyyy","steam_id":76561198121729211,"connected_time":814000000000,"state":"active","ping":79},{"user_id":252,"name":"P=9Florist","steam_id":76561198009121060,"connected_time":5508000000000,"state":"active","ping":49},{"user_id":213,"name":"Violet K.","steam_id":76561198062963842,"connected_time":9699000000000,"state":"active","ping":66},{"user_id":288,"name":"Mr Bones","steam_id":76561198148667535,"connected_time":858000000000,"state":"active","ping":49},{"user_id":291,"name":"Soft Fuzzy Horse","steam_id":76561198005777544,"connected_time":776000000000,"state":"active","ping":81},{"user_id":272,"name":"Tom","steam_id":76561198070630154,"connected_time":3727000000000,"state":"active","ping":78},{"user_id":243,"name":"Arsonist Goose","steam_id":76561198147441830,"connected_time":6426000000000,"state":"active","ping":75},{"user_id":237,"name":"Ayayahuasca","steam_id":76561199002906056,"connected_time":6877000000000,"state":"active","ping":56},{"user_id":278,"name":"Madrox Who?","steam_id":76561197988859134,"connected_time":2721000000000,"state":"active","ping":121},{"user_id":292,"name":"0xFUL","steam_id":76561198081684676,"connected_time":595000000000,"state":"active","ping":63},{"user_id":193,"name":"Level 99 Mudcrab","steam_id":76561198077452771,"connected_time":11489000000000,"state":"active","ping":60},{"user_id":273,"name":"soup","steam_id":76561198043209046,"connected_time":3685000000000,"state":"active","ping":78},{"user_id":281,"name":"p=9rorytherednosedreindeer","steam_id":76561198065825165,"connected_time":2307000000000,"state":"active","ping":93},{"user_id":286,"name":"fragadelphia","steam_id":76561198066116363,"connected_time":1592000000000,"state":"active","ping":54},{"user_id":268,"name":"resh","steam_id":76561198239598834,"connected_time":3738000000000,"state":"active","ping":128},{"user_id":287,"name":"mega","steam_id":76561198089520959,"connected_time":907000000000,"state":"active","ping":95},{"user_id":271,"name":"ed","steam_id":76561198080475712,"connected_time":3733000000000,"state":"active","ping":70},{"user_id":244,"name":"Soap Man","steam_id":76561198000490235,"connected_time":6402000000000,"state":"active","ping":67},{"user_id":259,"name":"Google","steam_id":76561198857237473,"connected_time":4352000000000,"state":"active","ping":49},{"user_id":270,"name":"Sweets","steam_id":76561198998446307,"connected_time":3736000000000,"state":"active","ping":114},{"user_id":211,"name":"alaska thunderfuck","steam_id":76561198017030029,"connected_time":9842000000000,"state":"active","ping":72},{"user_id":275,"name":"p=9HIGHjorts","steam_id":76561199041179985,"connected_time":3448000000000,"state":"active","ping":62}]},{"server_id":119,"name":"Uncletopia | Seattle | 2 | All Maps","name_short":"sea-2","host":"sea-1.us.uncletopia.com","port":27025,"enabled":true,"region":"us-west","cc":"us","latitude":47.608013,"longitude":-122.33517,"reserved":0,"last_update":"0001-01-01T00:00:00Z","name_a2s":"Uncletopia | Seattle | 2 | All Maps","protocol":17,"map":"pl_swiftwater_final1","folder":"tf","game":"Team Fortress","app_id":440,"player_count":24,"max_players":24,"Bots":0,"server_type":"Dedicated","server_os":"Linux","password":true,"vac":true,"version":"7742253","steam_id":85568392924469998,"keywords":["nocrits","nodmgspread","payload","uncletopia"],"game_id":440,"stv_port":27026,"stv_name":"Uncletopia | Seattle | 2 | All Maps | STV","players":[{"user_id":341,"name":"2.jump.studio","steam_id":76561199098290495,"connected_time":183000000000,"state":"active","ping":48},{"user_id":179,"name":"Nolan","steam_id":76561198169648081,"connected_time":7935000000000,"state":"active","ping":91},{"user_id":340,"name":"The Big Stew","steam_id":76561198164279539,"connected_time":206000000000,"state":"active","ping":41},{"user_id":302,"name":"{907}DarkestFury","steam_id":76561198103662458,"connected_time":1597000000000,"state":"active","ping":73},{"user_id":342,"name":"The Ghast Hunter","steam_id":76561198092979473,"connected_time":179000000000,"state":"active","ping":52},{"user_id":317,"name":"gwy","steam_id":76561198277458653,"connected_time":894000000000,"state":"active","ping":44},{"user_id":343,"name":"profile name","steam_id":76561198032625036,"connected_time":154000000000,"state":"active","ping":58},{"user_id":344,"name":"Mom","steam_id":76561198207936000,"connected_time":153000000000,"state":"active","ping":75},{"user_id":347,"name":"33","steam_id":76561198894676484,"connected_time":14000000000,"state":"active","ping":127},{"user_id":324,"name":"TimeSnake","steam_id":76561198052098233,"connected_time":591000000000,"state":"active","ping":60},{"user_id":303,"name":"Cloruro","steam_id":76561198145999116,"connected_time":1575000000000,"state":"active","ping":95},{"user_id":304,"name":"Pokedroid745","steam_id":76561199223677348,"connected_time":1555000000000,"state":"active","ping":100},{"user_id":335,"name":"Jface1221","steam_id":76561198188082091,"connected_time":393000000000,"state":"active","ping":75},{"user_id":323,"name":"Narlax","steam_id":76561198852832741,"connected_time":600000000000,"state":"active","ping":40},{"user_id":325,"name":"mango","steam_id":76561198099941188,"connected_time":587000000000,"state":"active","ping":65},{"user_id":326,"name":"MR. MODE","steam_id":76561198046775352,"connected_time":585000000000,"state":"active","ping":63},{"user_id":327,"name":"Zebruh","steam_id":76561198128297356,"connected_time":536000000000,"state":"active","ping":60},{"user_id":266,"name":"Furious George","steam_id":76561198405111646,"connected_time":4698000000000,"state":"active","ping":60},{"user_id":346,"name":"☃️T-Virus","steam_id":76561198001963208,"connected_time":141000000000,"state":"active","ping":42},{"user_id":332,"name":"Chump-Action","steam_id":76561198025809566,"connected_time":412000000000,"state":"active","ping":51},{"user_id":333,"name":"Millie \u003c3","steam_id":76561198201894565,"connected_time":410000000000,"state":"active","ping":90},{"user_id":315,"name":"chompmastr","steam_id":76561199121805899,"connected_time":1010000000000,"state":"active","ping":50},{"user_id":294,"name":"tiggy","steam_id":76561198197643703,"connected_time":1972000000000,"state":"active","ping":49},{"user_id":337,"name":"Gibus Man","steam_id":76561198257241062,"connected_time":296000000000,"state":"active","ping":40}]},{"server_id":406,"name":"Uncletopia | Seattle | 3 | Stopwatch Beta","name_short":"sea-3","host":"sea-1.us.uncletopia.com","port":27035,"enabled":true,"region":"us-west","cc":"us","latitude":47.608013,"longitude":-122.33517,"reserved":0,"last_update":"0001-01-01T00:00:00Z","name_a2s":"Uncletopia | Seattle | 3 | Stopwatch Beta","protocol":17,"map":"pl_upward","folder":"tf","game":"Team Fortress","app_id":440,"player_count":1,"max_players":24,"Bots":0,"server_type":"Dedicated","server_os":"Linux","password":true,"vac":false,"version":"7742253","steam_id":0,"keywords":["nocrits","nodmgspread","payload","uncletopia"],"game_id":440,"stv_port":27036,"stv_name":"Uncletopia | Seattle | 3 | Stopwatch Beta | STV","players":[{"user_id":3,"name":"Mr.Thirteen","steam_id":76561198047468836,"connected_time":23000000000,"state":"active","ping":57}]},{"server_id":17,"name":"Uncletopia | San Francisco | 1 | All Maps","name_short":"sfo-1","host":"sfo-1.us.uncletopia.com","port":27015,"enabled":true,"region":"us-west","cc":"us","latitude":37.77397,"longitude":-122.4313,"reserved":0,"last_update":"0001-01-01T00:00:00Z","name_a2s":"Uncletopia | San Francisco | 1 | All Maps","protocol":17,"map":"koth_lakeside_final","folder":"tf","game":"Team Fortress","app_id":440,"player_count":24,"max_players":24,"Bots":0,"server_type":"Dedicated","server_os":"Linux","password":true,"vac":true,"version":"7742253","steam_id":85568392924469999,"keywords":["cp","nocrits","nodmgspread","uncletopia"],"game_id":440,"stv_port":27016,"stv_name":"Uncletopia | San Francisco | 1 | All Maps | STV","players":[{"user_id":254,"name":"ExplosiveGamer21","steam_id":76561198132370955,"connected_time":4221000000000,"state":"active","ping":80},{"user_id":263,"name":"xenosthelegend","steam_id":76561198212217429,"connected_time":3864000000000,"state":"active","ping":112},{"user_id":283,"name":"Smuggley","steam_id":76561198078130271,"connected_time":973000000000,"state":"active","ping":82},{"user_id":255,"name":"twitch.tv/Yoshi21 | TF2Pugs.com","steam_id":76561198002516729,"connected_time":4217000000000,"state":"active","ping":127},{"user_id":280,"name":"Rohan Kishibe","steam_id":76561199008392773,"connected_time":1219000000000,"state":"active","ping":196},{"user_id":270,"name":"High Cotton","steam_id":76561197998894854,"connected_time":2185000000000,"state":"active","ping":111},{"user_id":137,"name":"Dali","steam_id":76561198077593486,"connected_time":12396000000000,"state":"active","ping":66},{"user_id":245,"name":"Skreeb","steam_id":76561198086133143,"connected_time":5053000000000,"state":"active","ping":105},{"user_id":269,"name":"Akira","steam_id":76561198294601519,"connected_time":2200000000000,"state":"active","ping":59},{"user_id":281,"name":"big car","steam_id":76561198067082350,"connected_time":1143000000000,"state":"active","ping":56},{"user_id":257,"name":"nickell88","steam_id":76561198061661797,"connected_time":4204000000000,"state":"active","ping":136},{"user_id":285,"name":"wilson7*","steam_id":76561198109989416,"connected_time":552000000000,"state":"active","ping":45},{"user_id":247,"name":"YellowMonkey","steam_id":76561198859337534,"connected_time":5046000000000,"state":"active","ping":52},{"user_id":59,"name":"ena - d","steam_id":76561198072329335,"connected_time":19407000000000,"state":"active","ping":111},{"user_id":284,"name":"Psych03","steam_id":76561198061753667,"connected_time":696000000000,"state":"active","ping":57},{"user_id":243,"name":"Anthid","steam_id":76561198074493797,"connected_time":5343000000000,"state":"active","ping":72},{"user_id":268,"name":"13ricity","steam_id":76561198394291206,"connected_time":2271000000000,"state":"active","ping":123},{"user_id":250,"name":"AnOversizedBagel","steam_id":76561198220592943,"connected_time":4530000000000,"state":"active","ping":180},{"user_id":266,"name":"Algae","steam_id":76561198133069312,"connected_time":3390000000000,"state":"active","ping":139},{"user_id":260,"name":"PinkAndPathetic","steam_id":76561198047109016,"connected_time":4030000000000,"state":"active","ping":115},{"user_id":272,"name":"NubKat","steam_id":76561199132262158,"connected_time":2169000000000,"state":"active","ping":101},{"user_id":276,"name":"Zell Da Sheepy","steam_id":76561198978753666,"connected_time":1453000000000,"state":"active","ping":73},{"user_id":279,"name":"eryn 🗺","steam_id":76561198004433070,"connected_time":1250000000000,"state":"active","ping":90},{"user_id":244,"name":"welcome to PLAY of the week","steam_id":76561198045964573,"connected_time":5315000000000,"state":"active","ping":55}]},{"server_id":18,"name":"Uncletopia | San Francisco | 2 | All Maps","name_short":"sfo-2","host":"sfo-1.us.uncletopia.com","port":27025,"enabled":true,"region":"us-west","cc":"us","latitude":37.77397,"longitude":-122.4313,"reserved":0,"last_update":"0001-01-01T00:00:00Z","name_a2s":"Uncletopia | San Francisco | 2 | All Maps","protocol":17,"map":"cp_process_final","folder":"tf","game":"Team Fortress","app_id":440,"player_count":0,"max_players":24,"Bots":0,"server_type":"Dedicated","server_os":"Linux","password":true,"vac":true,"version":"7742253","steam_id":85568392924470000,"keywords":["cp","nocrits","nodmgspread","uncletopia"],"game_id":440,"stv_port":27026,"stv_name":"Uncletopia | San Francisco | 2 | All Maps | STV","players":null},{"server_id":19,"name":"Uncletopia | San Francisco | 3 | Stopwatch Beta","name_short":"sfo-3","host":"sfo-1.us.uncletopia.com","port":27035,"enabled":true,"region":"us-west","cc":"us","latitude":37.77397,"longitude":-122.4313,"reserved":0,"last_update":"0001-01-01T00:00:00Z","name_a2s":"Uncletopia | San Francisco | 3 | Stopwatch Beta","protocol":17,"map":"workshop/koth_ashville_final.ugc2130459942","folder":"tf","game":"Team Fortress","app_id":440,"player_count":0,"max_players":24,"Bots":0,"server_type":"Dedicated","server_os":"Linux","password":true,"vac":true,"version":"7742253","steam_id":85568392924742824,"keywords":["cp","nocrits","nodmgspread","uncletopia"],"game_id":440,"stv_port":27036,"stv_name":"Uncletopia | San Francisco | 3 | Stopwatch Beta | STV","players":null},{"server_id":20,"name":"Uncletopia | San Francisco | 4 | Community","name_short":"sfo-4","host":"sfo-1.us.uncletopia.com","port":27045,"enabled":true,"region":"us-west","cc":"us","latitude":37.77397,"longitude":-122.4313,"reserved":0,"last_update":"0001-01-01T00:00:00Z","name_a2s":"Uncletopia | San Francisco | 4 | Community","protocol":17,"map":"workshop/koth_ashville_final.ugc2130459942","folder":"tf","game":"Team Fortress","app_id":440,"player_count":3,"max_players":24,"Bots":0,"server_type":"Dedicated","server_os":"Linux","password":true,"vac":true,"version":"7742253","steam_id":85568392924742826,"keywords":["cp","nocrits","nodmgspread","uncletopia"],"game_id":440,"stv_port":27046,"stv_name":"Uncletopia | San Francisco | 4 | Community | STV","players":[{"user_id":133,"name":"󠀡󠀡","steam_id":76561198878940647,"connected_time":1468000000000,"state":"active","ping":45},{"user_id":128,"name":"KING GLIZZARD","steam_id":76561198831617384,"connected_time":7307000000000,"state":"active","ping":99},{"user_id":134,"name":"CrackedSanity","steam_id":76561198279841251,"connected_time":353000000000,"state":"active","ping":45}]},{"server_id":141,"name":"Uncletopia | Sydney | 1 | All Maps","name_short":"syd-1","host":"syd-1.au.uncletopia.com","port":27015,"enabled":true,"region":"au","cc":"au","latitude":-33.865143,"longitude":151.2099,"reserved":0,"last_update":"0001-01-01T00:00:00Z","name_a2s":"Uncletopia | Sydney | 1 | All Maps","protocol":17,"map":"cp_process_final","folder":"tf","game":"Team Fortress","app_id":440,"player_count":24,"max_players":24,"Bots":0,"server_type":"Dedicated","server_os":"Linux","password":true,"vac":true,"version":"7742253","steam_id":85568392924470001,"keywords":["cp","nocrits","nodmgspread","uncletopia"],"game_id":440,"stv_port":27016,"stv_name":"Uncletopia | Sydney | 1 | All Maps | STV","players":[{"user_id":177,"name":"Paradon YT","steam_id":76561198060176705,"connected_time":1701000000000,"state":"active","ping":105},{"user_id":156,"name":":)","steam_id":76561198025225448,"connected_time":2891000000000,"state":"active","ping":76},{"user_id":157,"name":"plaything","steam_id":76561198132937542,"connected_time":2890000000000,"state":"active","ping":65},{"user_id":198,"name":"enemy gamer","steam_id":76561198127848228,"connected_time":931000000000,"state":"active","ping":60},{"user_id":161,"name":"(◕‿◕✿)","steam_id":76561197972786509,"connected_time":2815000000000,"state":"active","ping":81},{"user_id":212,"name":"matt","steam_id":76561198080199351,"connected_time":472000000000,"state":"active","ping":55},{"user_id":178,"name":"duskdancer ♥","steam_id":76561198351034537,"connected_time":1578000000000,"state":"active","ping":53},{"user_id":194,"name":"DJ Ninja Lord","steam_id":76561198007673751,"connected_time":1088000000000,"state":"active","ping":48},{"user_id":176,"name":"Cat","steam_id":76561199262196710,"connected_time":1814000000000,"state":"active","ping":51},{"user_id":180,"name":"var","steam_id":76561198164892406,"connected_time":1549000000000,"state":"active","ping":63},{"user_id":216,"name":"APVC","steam_id":76561199090168813,"connected_time":323000000000,"state":"active","ping":48},{"user_id":209,"name":"Bamooxa","steam_id":76561198067160709,"connected_time":761000000000,"state":"active","ping":86},{"user_id":219,"name":"lapisss","steam_id":76561198828325267,"connected_time":120000000000,"state":"active","ping":69},{"user_id":184,"name":"billy loomis","steam_id":76561198032687714,"connected_time":1473000000000,"state":"active","ping":90},{"user_id":185,"name":"carrot monster","steam_id":76561199056025092,"connected_time":1417000000000,"state":"active","ping":33},{"user_id":213,"name":"yeezy","steam_id":76561198317072182,"connected_time":453000000000,"state":"active","ping":56},{"user_id":187,"name":"Pikachu14080","steam_id":76561198913290041,"connected_time":1387000000000,"state":"active","ping":88},{"user_id":191,"name":"no vc no c","steam_id":76561197989503095,"connected_time":1241000000000,"state":"active","ping":177},{"user_id":210,"name":"dagger","steam_id":76561198068130633,"connected_time":736000000000,"state":"active","ping":52},{"user_id":218,"name":"bla","steam_id":76561198119397414,"connected_time":254000000000,"state":"active","ping":58},{"user_id":202,"name":"Whomobile","steam_id":76561198005831324,"connected_time":878000000000,"state":"active","ping":86},{"user_id":203,"name":"Abraham Lincoln","steam_id":76561198095292515,"connected_time":856000000000,"state":"active","ping":59},{"user_id":204,"name":"Huski","steam_id":76561198108956967,"connected_time":823000000000,"state":"active","ping":63},{"user_id":215,"name":"Jim","steam_id":76561198866338513,"connected_time":421000000000,"state":"active","ping":95}]},{"server_id":123,"name":"Uncletopia | Sydney | 2 | All Maps","name_short":"syd-2","host":"syd-1.au.uncletopia.com","port":27025,"enabled":true,"region":"au","cc":"au","latitude":-33.865143,"longitude":151.2099,"reserved":0,"last_update":"0001-01-01T00:00:00Z","name_a2s":"Uncletopia | Sydney | 2 | All Maps","protocol":17,"map":"pl_upward","folder":"tf","game":"Team Fortress","app_id":440,"player_count":24,"max_players":24,"Bots":0,"server_type":"Dedicated","server_os":"Linux","password":true,"vac":true,"version":"7742253","steam_id":85568392924470002,"keywords":["nocrits","nodmgspread","payload","uncletopia"],"game_id":440,"stv_port":27026,"stv_name":"Uncletopia | Sydney | 2 | All Maps | STV","players":[{"user_id":300,"name":"sweet","steam_id":76561198075311236,"connected_time":771000000000,"state":"active","ping":59},{"user_id":293,"name":"rastaFROG730","steam_id":76561198058812647,"connected_time":1133000000000,"state":"active","ping":31},{"user_id":242,"name":"qionglu","steam_id":76561198421797441,"connected_time":3760000000000,"state":"active","ping":53},{"user_id":299,"name":"Pompadouraus","steam_id":76561198327530525,"connected_time":779000000000,"state":"active","ping":74},{"user_id":280,"name":"Gasoline","steam_id":76561198879023728,"connected_time":1899000000000,"state":"active","ping":68},{"user_id":287,"name":"CouldBeKarlos","steam_id":76561198956180767,"connected_time":1642000000000,"state":"active","ping":48},{"user_id":211,"name":"IamDinosaur","steam_id":76561198081540507,"connected_time":5152000000000,"state":"active","ping":70},{"user_id":295,"name":"Morc","steam_id":76561198244778782,"connected_time":903000000000,"state":"active","ping":50},{"user_id":296,"name":"Egg [F2P]","steam_id":76561198191266994,"connected_time":895000000000,"state":"active","ping":181},{"user_id":292,"name":"suitdummy22","steam_id":76561198042198744,"connected_time":1188000000000,"state":"active","ping":47},{"user_id":303,"name":"Atlas","steam_id":76561198069332870,"connected_time":722000000000,"state":"active","ping":45},{"user_id":302,"name":"krandlez` (Any/All)","steam_id":76561198044839726,"connected_time":727000000000,"state":"active","ping":33},{"user_id":212,"name":"SpazzticDwarf","steam_id":76561198861737121,"connected_time":5140000000000,"state":"active","ping":65},{"user_id":304,"name":"bhhhb","steam_id":76561199102724122,"connected_time":65000000000,"state":"active","ping":114},{"user_id":284,"name":"Marleynator","steam_id":76561198042517985,"connected_time":1777000000000,"state":"active","ping":74},{"user_id":291,"name":"Moldy","steam_id":76561198824771774,"connected_time":1286000000000,"state":"active","ping":49},{"user_id":286,"name":"nintendo 64","steam_id":76561198267552367,"connected_time":1659000000000,"state":"active","ping":76},{"user_id":214,"name":"Armapillow","steam_id":76561198060386357,"connected_time":5109000000000,"state":"active","ping":67},{"user_id":305,"name":"Maffle","steam_id":76561198085967626,"connected_time":17000000000,"state":"active","ping":56},{"user_id":255,"name":"Diavolo Diablo","steam_id":76561198166295333,"connected_time":3452000000000,"state":"active","ping":154},{"user_id":301,"name":"hawk","steam_id":76561198135164277,"connected_time":765000000000,"state":"active","ping":56},{"user_id":283,"name":"Wake'n'Bake'n'Make'n'Bacon","steam_id":76561198061960926,"connected_time":1876000000000,"state":"active","ping":94},{"user_id":263,"name":"Floppy","steam_id":76561198296769665,"connected_time":3101000000000,"state":"active","ping":73},{"user_id":276,"name":"mrgonzales123","steam_id":76561199052767588,"connected_time":2132000000000,"state":"active","ping":70}]},{"server_id":395,"name":"Uncletopia | Sydney | 3 | All Maps","name_short":"syd-3","host":"syd-1.au.uncletopia.com","port":27035,"enabled":true,"region":"au","cc":"au","latitude":-33.865143,"longitude":151.2099,"reserved":0,"last_update":"0001-01-01T00:00:00Z","name_a2s":"Uncletopia | Sydney | 3 | All Maps","protocol":17,"map":"cp_altitude","folder":"tf","game":"Team Fortress","app_id":440,"player_count":1,"max_players":24,"Bots":0,"server_type":"Dedicated","server_os":"Linux","password":true,"vac":true,"version":"7742253","steam_id":85568392925194467,"keywords":["cp","nocrits","nodmgspread","uncletopia"],"game_id":440,"stv_port":27036,"stv_name":"Uncletopia | Sydney | 3 | All Maps | STV","players":[{"user_id":18,"name":"canned tuna","steam_id":76561198420727269,"connected_time":140000000000,"state":"active","ping":371}]},{"server_id":396,"name":"Uncletopia | Sydney | 4 | All Maps","name_short":"syd-4","host":"syd-1.au.uncletopia.com","port":27045,"enabled":true,"region":"au","cc":"au","latitude":-33.865143,"longitude":151.2099,"reserved":0,"last_update":"0001-01-01T00:00:00Z","name_a2s":"Uncletopia | Sydney | 4 | All Maps","protocol":17,"map":"cp_mountainlab","folder":"tf","game":"Team Fortress","app_id":440,"player_count":0,"max_players":24,"Bots":0,"server_type":"Dedicated","server_os":"Linux","password":true,"vac":true,"version":"7742253","steam_id":85568392925397958,"keywords":["cp","nocrits","nodmgspread","uncletopia"],"game_id":440,"stv_port":27046,"stv_name":"Uncletopia | Sydney | 4 | All Maps | STV","players":null},{"server_id":58,"name":"Uncletopia | Sydney | 5 | Stopwatch Beta","name_short":"syd-5","host":"syd-1.au.uncletopia.com","port":27055,"enabled":true,"region":"au","cc":"au","latitude":-33.865143,"longitude":151.2099,"reserved":0,"last_update":"0001-01-01T00:00:00Z","name_a2s":"Uncletopia | Sydney | 5 | Stopwatch Beta","protocol":17,"map":"cp_snakewater_final1","folder":"tf","game":"Team Fortress","app_id":440,"player_count":0,"max_players":24,"Bots":0,"server_type":"Dedicated","server_os":"Linux","password":true,"vac":true,"version":"7742253","steam_id":85568392925397959,"keywords":["cp","nocrits","nodmgspread","uncletopia"],"game_id":440,"stv_port":27056,"stv_name":"Uncletopia | Sydney | 5 | Stopwatch Beta | STV","players":null},{"server_id":59,"name":"Uncletopia | Sydney | 6 | Community","name_short":"syd-6","host":"syd-1.au.uncletopia.com","port":27065,"enabled":true,"region":"au","cc":"au","latitude":-33.865143,"longitude":151.2099,"reserved":0,"last_update":"0001-01-01T00:00:00Z","name_a2s":"Uncletopia | Sydney | 6 | Community","protocol":17,"map":"workshop/koth_slaughter_rc1.ugc1712845210","folder":"tf","game":"Team Fortress","app_id":440,"player_count":0,"max_players":24,"Bots":0,"server_type":"Dedicated","server_os":"Linux","password":true,"vac":true,"version":"7742253","steam_id":85568392925397960,"keywords":["cp","nocrits","nodmgspread","uncletopia"],"game_id":440,"stv_port":27066,"stv_name":"Uncletopia | Sydney | 6 | Community | STV","players":null},{"server_id":49,"name":"Uncletopia | Warsaw | 1 | All Maps","name_short":"waw-1","host":"waw-1.pl.uncletopia.com","port":27015,"enabled":true,"region":"eu","cc":"pl","latitude":52.2297,"longitude":21.017532,"reserved":0,"last_update":"0001-01-01T00:00:00Z","name_a2s":"Uncletopia | Warsaw | 1 | All Maps","protocol":17,"map":"koth_lakeside_final","folder":"tf","game":"Team Fortress","app_id":440,"player_count":0,"max_players":24,"Bots":0,"server_type":"Dedicated","server_os":"Linux","password":true,"vac":true,"version":"7723704","steam_id":85568392925397850,"keywords":["cp","nocrits","nodmgspread","uncletopia"],"game_id":440,"stv_port":27016,"stv_name":"Uncletopia | Warsaw | 1 | All Maps | STV","players":null},{"server_id":50,"name":"Uncletopia | Warsaw | 2 | All Maps","name_short":"waw-2","host":"waw-1.pl.uncletopia.com","port":27025,"enabled":true,"region":"eu","cc":"pl","latitude":52.2297,"longitude":21.017532,"reserved":0,"last_update":"0001-01-01T00:00:00Z","name_a2s":"Uncletopia | Warsaw | 2 | All Maps","protocol":17,"map":"pl_frontier_final","folder":"tf","game":"Team Fortress","app_id":440,"player_count":0,"max_players":24,"Bots":0,"server_type":"Dedicated","server_os":"Linux","password":true,"vac":true,"version":"7742253","steam_id":85568392925397851,"keywords":["nocrits","nodmgspread","payload","uncletopia"],"game_id":440,"stv_port":27026,"stv_name":"Uncletopia | Warsaw | 2 | All Maps | STV","players":null},{"server_id":51,"name":"Uncletopia | Warsaw | 3 | All Maps","name_short":"waw-3","host":"waw-1.pl.uncletopia.com","port":27035,"enabled":true,"region":"eu","cc":"pl","latitude":52.2297,"longitude":21.017532,"reserved":0,"last_update":"0001-01-01T00:00:00Z","name_a2s":"Uncletopia | Warsaw | 3 | All Maps","protocol":17,"map":"pl_frontier_final","folder":"tf","game":"Team Fortress","app_id":440,"player_count":0,"max_players":24,"Bots":0,"server_type":"Dedicated","server_os":"Linux","password":true,"vac":true,"version":"7742253","steam_id":85568392925397852,"keywords":["nocrits","nodmgspread","payload","uncletopia"],"game_id":440,"stv_port":27036,"stv_name":"Uncletopia | Warsaw | 3 | All Maps | STV","players":null},{"server_id":52,"name":"Uncletopia | Warsaw | 4 | All Maps","name_short":"waw-4","host":"waw-1.pl.uncletopia.com","port":27045,"enabled":true,"region":"eu","cc":"pl","latitude":52.2297,"longitude":21.017532,"reserved":0,"last_update":"0001-01-01T00:00:00Z","name_a2s":"Uncletopia | Warsaw | 4 | All Maps","protocol":17,"map":"pl_swiftwater_final1","folder":"tf","game":"Team Fortress","app_id":440,"player_count":0,"max_players":24,"Bots":0,"server_type":"Dedicated","server_os":"Linux","password":true,"vac":true,"version":"7742253","steam_id":85568392925397853,"keywords":["nocrits","nodmgspread","payload","uncletopia"],"game_id":440,"stv_port":27046,"stv_name":"Uncletopia | Warsaw | 4 | All Maps | STV","players":null},{"server_id":53,"name":"Uncletopia | Warsaw | 5 | Stopwatch Beta","name_short":"waw-5","host":"waw-1.pl.uncletopia.com","port":27055,"enabled":true,"region":"eu","cc":"pl","latitude":52.2297,"longitude":21.017532,"reserved":0,"last_update":"0001-01-01T00:00:00Z","name_a2s":"Uncletopia | Warsaw | 5 | Stopwatch Beta","protocol":17,"map":"pl_pier","folder":"tf","game":"Team Fortress","app_id":440,"player_count":0,"max_players":24,"Bots":0,"server_type":"Dedicated","server_os":"Linux","password":true,"vac":true,"version":"7742253","steam_id":85568392925397854,"keywords":["nocrits","nodmgspread","payload","uncletopia"],"game_id":440,"stv_port":27056,"stv_name":"Uncletopia | Warsaw | 5 | Stopwatch Beta | STV","players":null},{"server_id":54,"name":"Uncletopia | Warsaw | 6 | Community","name_short":"waw-6","host":"waw-1.pl.uncletopia.com","port":27065,"enabled":true,"region":"eu","cc":"pl","latitude":52.2297,"longitude":21.017532,"reserved":0,"last_update":"0001-01-01T00:00:00Z","name_a2s":"Uncletopia | Warsaw | 6 | Community","protocol":17,"map":"cp_sunshine","folder":"tf","game":"Team Fortress","app_id":440,"player_count":0,"max_players":24,"Bots":0,"server_type":"Dedicated","server_os":"Linux","password":true,"vac":true,"version":"7742253","steam_id":85568392925397856,"keywords":["cp","nocrits","nodmgspread","uncletopia"],"game_id":440,"stv_port":27066,"stv_name":"Uncletopia | Warsaw | 6 | Community | STV","players":null}]}