{"status":true,"message":"","result":[{"server_id":0,"name_short":"","name":"Uncletopia | Chicago | 2 | All Maps","host":"","port":0,"enabled":false,"region":"","cc":"","latitude":0,"longitude":0,"reserved":0,"last_update":"0001-01-01T00:00:00Z","protocol":17,"map":"cp_altitude","folder":"tf","game":"Team Fortress","app_id":440,"player_count":0,"max_players":24,"Bots":0,"server_type":"Dedicated","server_os":"Linux","password":true,"vac":true,"version":"7961495","steam_id":85568392924469985,"keywords":["cp","nocrits","nodmgspread","uncletopia"],"edicts":[499,2048],"game_id":440,"stv_port":27026,"stv_name":"Uncletopia | Chicago | 2 | All Maps | STV","players":null},{"server_id":0,"name_short":"","name":"Uncletopia | Montréal | 2 | One Thousand Uncles","host":"","port":0,"enabled":false,"region":"","cc":"","latitude":0,"longitude":0,"reserved":0,"last_update":"0001-01-01T00:00:00Z","protocol":17,"map":"pl_barnblitz","folder":"tf","game":"Team Fortress","app_id":440,"player_count":0,"max_players":32,"Bots":0,"server_type":"Dedicated","server_os":"Linux","password":true,"vac":true,"version":"7961495","steam_id":85568392924500088,"keywords":["alltalk","danepve","increased_maxplayers","norespawntime","payload","uncletopia"],"edicts":[803,2048],"game_id":440,"stv_port":0,"stv_name":"","players":null},{"server_id":0,"name_short":"","name":"Uncletopia | Seattle | 3 | Stopwatch","host":"","port":0,"enabled":false,"region":"","cc":"","latitude":0,"longitude":0,"reserved":0,"last_update":"0001-01-01T00:00:00Z","protocol":17,"map":"koth_product_final","folder":"tf","game":"Team Fortress","app_id":440,"player_count":0,"max_players":24,"Bots":0,"server_type":"Dedicated","server_os":"Linux","password":true,"vac":true,"version":"7961495","steam_id":85568392924515217,"keywords":["cp","nocrits","nodmgspread","uncletopia"],"edicts":[354,2048],"game_id":440,"stv_port":27036,"stv_name":"Uncletopia | Seattle | 3 | Stopwatch | STV","players":null},{"server_id":0,"name_short":"","name":"Uncletopia | Frankfurt | 2 | All Maps","host":"","port":0,"enabled":false,"region":"","cc":"","latitude":0,"longitude":0,"reserved":0,"last_update":"0001-01-01T00:00:00Z","protocol":17,"map":"cp_mountainlab","folder":"tf","game":"Team Fortress","app_id":440,"player_count":0,"max_players":24,"Bots":0,"server_type":"Dedicated","server_os":"Linux","password":true,"vac":true,"version":"7961495","steam_id":85568392924469990,"keywords":["cp","nocrits","nodmgspread","uncletopia"],"edicts":[534,2048],"game_id":440,"stv_port":27026,"stv_name":"Uncletopia | Frankfurt | 2 | All Maps | STV","players":null},{"server_id":0,"name_short":"","name":"Uncletopia | Chicago | 6 | All Maps","host":"","port":0,"enabled":false,"region":"","cc":"","latitude":0,"longitude":0,"reserved":0,"last_update":"0001-01-01T00:00:00Z","protocol":17,"map":"cp_snakewater_final1","folder":"tf","game":"Team Fortress","app_id":440,"player_count":0,"max_players":24,"Bots":0,"server_type":"Dedicated","server_os":"Linux","password":true,"vac":true,"version":"7961495","steam_id":85568392924866363,"keywords":["cp","nocrits","nodmgspread","uncletopia"],"edicts":[634,2048],"game_id":440,"stv_port":27026,"stv_name":"Uncletopia | Chicago | 6 | All Maps | STV","players":null},{"server_id":0,"name_short":"","name":"Uncletopia | Atlanta | 2 | All Maps","host":"","port":0,"enabled":false,"region":"","cc":"","latitude":0,"longitude":0,"reserved":0,"last_update":"0001-01-01T00:00:00Z","protocol":17,"map":"koth_highpass","folder":"tf","game":"Team Fortress","app_id":440,"player_count":24,"max_players":24,"Bots":0,"server_type":"Dedicated","server_os":"Linux","password":true,"vac":true,"version":"7961495","steam_id":85568392924469983,"keywords":["cp","nocrits","nodmgspread","uncletopia"],"edicts":[747,2048],"game_id":440,"stv_port":27026,"stv_name":"Uncletopia | Atlanta | 2 | All Maps | STV","players":[{"user_id":495,"name":"Reverse Vaccuum","steam_id":76561199184902367,"connected_time":8084000000000,"state":"active","ping":63},{"user_id":494,"name":"Mr. Rascal","steam_id":76561197984362278,"connected_time":8178000000000,"state":"active","ping":97},{"user_id":588,"name":"Sunny","steam_id":76561198125892600,"connected_time":608000000000,"state":"active","ping":35},{"user_id":583,"name":"Yongle","steam_id":76561198068591156,"connected_time":800000000000,"state":"active","ping":72},{"user_id":562,"name":"Daisy Le Nerd","steam_id":76561198149350087,"connected_time":3495000000000,"state":"active","ping":170},{"user_id":590,"name":"femboy on hrt","steam_id":76561198204075083,"connected_time":496000000000,"state":"active","ping":66},{"user_id":563,"name":"Syndra's Futa Balls","steam_id":76561198058671296,"connected_time":3431000000000,"state":"active","ping":46},{"user_id":542,"name":"ryann","steam_id":76561198042996639,"connected_time":5656000000000,"state":"active","ping":82},{"user_id":557,"name":"DeckofDragons","steam_id":76561198057398213,"connected_time":4296000000000,"state":"active","ping":78},{"user_id":578,"name":"Brunch","steam_id":76561198045933938,"connected_time":1337000000000,"state":"active","ping":58},{"user_id":584,"name":"Caeso","steam_id":76561198075570341,"connected_time":667000000000,"state":"active","ping":76},{"user_id":580,"name":"Ahab Ishmael Ali","steam_id":76561198967076418,"connected_time":1311000000000,"state":"active","ping":85},{"user_id":546,"name":"Tay1Qr","steam_id":76561198082809935,"connected_time":5083000000000,"state":"active","ping":62},{"user_id":574,"name":"Bungus","steam_id":76561197984426574,"connected_time":1554000000000,"state":"active","ping":99},{"user_id":543,"name":"Richard","steam_id":76561198044115685,"connected_time":5415000000000,"state":"active","ping":76},{"user_id":575,"name":"wrongthink","steam_id":76561198830293087,"connected_time":1520000000000,"state":"active","ping":63},{"user_id":576,"name":"Fy","steam_id":76561199073450888,"connected_time":1405000000000,"state":"active","ping":118},{"user_id":593,"name":"who ate the cheese","steam_id":76561198275408467,"connected_time":224000000000,"state":"active","ping":54},{"user_id":591,"name":"Chalkaholic","steam_id":76561198880515038,"connected_time":431000000000,"state":"active","ping":118},{"user_id":586,"name":"tack","steam_id":76561198408477421,"connected_time":646000000000,"state":"active","ping":83},{"user_id":558,"name":"Cheesestyk","steam_id":76561197996812068,"connected_time":4269000000000,"state":"active","ping":111},{"user_id":351,"name":"king of hearts","steam_id":76561197987258132,"connected_time":21973000000000,"state":"active","ping":95},{"user_id":587,"name":"Yonaka","steam_id":76561198079658570,"connected_time":641000000000,"state":"active","ping":98},{"user_id":592,"name":"Synebon","steam_id":76561198135614126,"connected_time":376000000000,"state":"active","ping":55}]},{"server_id":0,"name_short":"","name":"Uncletopia | Dallas | 1 | All Maps","host":"","port":0,"enabled":false,"region":"","cc":"","latitude":0,"longitude":0,"reserved":0,"last_update":"0001-01-01T00:00:00Z","protocol":17,"map":"cp_mountainlab","folder":"tf","game":"Team Fortress","app_id":440,"player_count":22,"max_players":24,"Bots":0,"server_type":"Dedicated","server_os":"Linux","password":true,"vac":true,"version":"7961495","steam_id":85568392924469986,"keywords":["cp","nocrits","nodmgspread","uncletopia"],"edicts":[790,2048],"game_id":440,"stv_port":27016,"stv_name":"Uncletopia | Dallas | 1 | All Maps | STV","players":[{"user_id":683,"name":"Aero","steam_id":76561198856462128,"connected_time":50000000000,"state":"active","ping":78},{"user_id":681,"name":"Big Booger Bill","steam_id":76561198137856724,"connected_time":161000000000,"state":"active","ping":50},{"user_id":682,"name":"krebex","steam_id":76561198004660630,"connected_time":86000000000,"state":"active","ping":58},{"user_id":677,"name":"RedElite","steam_id":76561198264704905,"connected_time":555000000000,"state":"active","ping":91},{"user_id":656,"name":"Zerffyy","steam_id":76561199040346564,"connected_time":1415000000000,"state":"active","ping":51},{"user_id":678,"name":"kitr","steam_id":76561198142217308,"connected_time":551000000000,"state":"active","ping":69},{"user_id":669,"name":"Smoopy (slowed + reverbed)","steam_id":76561198068485493,"connected_time":912000000000,"state":"active","ping":44},{"user_id":655,"name":"AvapXia","steam_id":76561198147476096,"connected_time":1439000000000,"state":"active","ping":109},{"user_id":662,"name":"fish fingers","steam_id":76561199078516567,"connected_time":1207000000000,"state":"active","ping":110},{"user_id":631,"name":"jpeghuB","steam_id":76561198826739151,"connected_time":3345000000000,"state":"active","ping":61},{"user_id":659,"name":"Fryball","steam_id":76561199171025092,"connected_time":1375000000000,"state":"active","ping":96},{"user_id":680,"name":"johnny danger","steam_id":76561198059925499,"connected_time":485000000000,"state":"active","ping":68},{"user_id":665,"name":"kr1tsurf3r","steam_id":76561198076402476,"connected_time":987000000000,"state":"active","ping":93},{"user_id":684,"name":"rohan4018","steam_id":76561198012529779,"connected_time":39000000000,"state":"active","ping":97},{"user_id":671,"name":"Fireiy","steam_id":76561198013680427,"connected_time":890000000000,"state":"active","ping":108},{"user_id":672,"name":"Avenging Spirit","steam_id":76561198119572121,"connected_time":883000000000,"state":"active","ping":75},{"user_id":549,"name":"uhooter","steam_id":76561198007829078,"connected_time":10555000000000,"state":"active","ping":75},{"user_id":650,"name":"papersonic","steam_id":76561199052718021,"connected_time":1786000000000,"state":"active","ping":49},{"user_id":673,"name":"Saucy Boy","steam_id":76561198178332031,"connected_time":883000000000,"state":"active","ping":91},{"user_id":674,"name":"Druncle","steam_id":76561198956098725,"connected_time":837000000000,"state":"active","ping":68},{"user_id":651,"name":"BoomieMcBoomPants","steam_id":76561198144516828,"connected_time":1768000000000,"state":"active","ping":90},{"user_id":653,"name":"feed lips","steam_id":76561197971152439,"connected_time":1658000000000,"state":"active","ping":76}]},{"server_id":0,"name_short":"","name":"Uncletopia | San Francisco | 1 | All Maps","host":"","port":0,"enabled":false,"region":"","cc":"","latitude":0,"longitude":0,"reserved":0,"last_update":"0001-01-01T00:00:00Z","protocol":17,"map":"pl_upward","folder":"tf","game":"Team Fortress","app_id":440,"player_count":20,"max_players":24,"Bots":0,"server_type":"Dedicated","server_os":"Linux","password":true,"vac":true,"version":"7961495","steam_id":85568392924469999,"keywords":["nocrits","nodmgspread","payload","uncletopia"],"edicts":[890,2048],"game_id":440,"stv_port":27016,"stv_name":"Uncletopia | San Francisco | 1 | All Maps | STV","players":[{"user_id":176,"name":"IfYouCantHelium_Barium","steam_id":76561198071247102,"connected_time":492000000000,"state":"active","ping":111},{"user_id":167,"name":"Koffy","steam_id":76561198184386039,"connected_time":777000000000,"state":"active","ping":98},{"user_id":156,"name":"Your Dinosaurs","steam_id":76561198392670237,"connected_time":1251000000000,"state":"active","ping":51},{"user_id":169,"name":"Titar Industries","steam_id":76561198143078476,"connected_time":765000000000,"state":"active","ping":129},{"user_id":178,"name":"Tombolo","steam_id":76561198217746877,"connected_time":407000000000,"state":"active","ping":65},{"user_id":170,"name":"Livin' Like Larry","steam_id":76561198313360974,"connected_time":730000000000,"state":"active","ping":32},{"user_id":160,"name":"|ərsatz|","steam_id":76561198011583236,"connected_time":884000000000,"state":"active","ping":67},{"user_id":171,"name":"Foreign","steam_id":76561198206848004,"connected_time":709000000000,"state":"active","ping":56},{"user_id":177,"name":"slowdance","steam_id":76561198097427947,"connected_time":451000000000,"state":"active","ping":87},{"user_id":150,"name":"4-D Dream","steam_id":76561198072938403,"connected_time":2136000000000,"state":"active","ping":71},{"user_id":164,"name":"x","steam_id":76561198359634841,"connected_time":827000000000,"state":"active","ping":49},{"user_id":165,"name":"❤IDare","steam_id":76561198354655896,"connected_time":801000000000,"state":"active","ping":57},{"user_id":179,"name":"reverie","steam_id":76561198168158637,"connected_time":191000000000,"state":"active","ping":53},{"user_id":152,"name":"› We Are You.j2","steam_id":76561197995242200,"connected_time":1899000000000,"state":"active","ping":52},{"user_id":175,"name":"Factatac","steam_id":76561198176041003,"connected_time":567000000000,"state":"active","ping":61},{"user_id":180,"name":"short bus enthusiast","steam_id":76561198069380992,"connected_time":127000000000,"state":"active","ping":94},{"user_id":182,"name":"all out of mountain dew","steam_id":76561198121468734,"connected_time":97000000000,"state":"active","ping":68},{"user_id":183,"name":"The Horselords and Animal Gods","steam_id":76561197975094050,"connected_time":69000000000,"state":"active","ping":56},{"user_id":184,"name":"yoyo","steam_id":76561198285758098,"connected_time":35000000000,"state":"active","ping":64},{"user_id":149,"name":"dodecadron","steam_id":76561198027397222,"connected_time":2612000000000,"state":"active","ping":89}]},{"server_id":0,"name_short":"","name":"Uncletopia | San Francisco | 2 | All Maps","host":"","port":0,"enabled":false,"region":"","cc":"","latitude":0,"longitude":0,"reserved":0,"last_update":"0001-01-01T00:00:00Z","protocol":17,"map":"cp_mountainlab","folder":"tf","game":"Team Fortress","app_id":440,"player_count":0,"max_players":24,"Bots":0,"server_type":"Dedicated","server_os":"Linux","password":true,"vac":true,"version":"7961495","steam_id":85568392924470000,"keywords":["cp","nocrits","nodmgspread","uncletopia"],"edicts":[534,2048],"game_id":440,"stv_port":27026,"stv_name":"Uncletopia | San Francisco | 2 | All Maps | STV","players":null},{"server_id":0,"name_short":"","name":"Uncletopia | Sydney | 5 | Stopwatch","host":"","port":0,"enabled":false,"region":"","cc":"","latitude":0,"longitude":0,"reserved":0,"last_update":"0001-01-01T00:00:00Z","protocol":17,"map":"koth_product_final","folder":"tf","game":"Team Fortress","app_id":440,"player_count":0,"max_players":24,"Bots":0,"server_type":"Dedicated","server_os":"Linux","password":true,"vac":true,"version":"7961495","steam_id":85568392925397959,"keywords":["cp","nocrits","nodmgspread","uncletopia"],"edicts":[355,2048],"game_id":440,"stv_port":27056,"stv_name":"Uncletopia | Sydney | 5 | Stopwatch | STV","players":null},{"server_id":0,"name_short":"","name":"Uncletopia | Chicago | 8 | Community","host":"","port":0,"enabled":false,"region":"","cc":"","latitude":0,"longitude":0,"reserved":0,"last_update":"0001-01-01T00:00:00Z","protocol":17,"map":"koth_bagel_rc6","folder":"tf","game":"Team Fortress","app_id":440,"player_count":0,"max_players":24,"Bots":0,"server_type":"Dedicated","server_os":"Linux","password":true,"vac":true,"version":"7961495","steam_id":85568392924866365,"keywords":["cp","nocrits","nodmgspread","uncletopia"],"edicts":[598,2048],"game_id":440,"stv_port":27046,"stv_name":"Uncletopia | Chicago | 8 | Community | STV","players":null},{"server_id":0,"name_short":"","name":"Uncletopia | Seattle | 2 | All Maps","host":"","port":0,"enabled":false,"region":"","cc":"","latitude":0,"longitude":0,"reserved":0,"last_update":"0001-01-01T00:00:00Z","protocol":17,"map":"koth_lakeside_final","folder":"tf","game":"Team Fortress","app_id":440,"player_count":24,"max_players":24,"Bots":0,"server_type":"Dedicated","server_os":"Linux","password":true,"vac":true,"version":"7961495","steam_id":85568392924469998,"keywords":["cp","nocrits","nodmgspread","uncletopia"],"edicts":[574,2048],"game_id":440,"stv_port":27026,"stv_name":"Uncletopia | Seattle | 2 | All Maps | STV","players":[{"user_id":465,"name":"Arcane Flame","steam_id":76561198360024422,"connected_time":4102000000000,"state":"active","ping":86},{"user_id":508,"name":"mega","steam_id":76561198089520959,"connected_time":868000000000,"state":"active","ping":74},{"user_id":391,"name":"roger roger","steam_id":76561198130032444,"connected_time":8486000000000,"state":"active","ping":45},{"user_id":511,"name":"Elliot","steam_id":76561198052843856,"connected_time":449000000000,"state":"active","ping":116},{"user_id":473,"name":"Vibrantword3732","steam_id":76561198916638641,"connected_time":3589000000000,"state":"active","ping":59},{"user_id":488,"name":"moe","steam_id":76561198929586245,"connected_time":2700000000000,"state":"active","ping":66},{"user_id":494,"name":"mub","steam_id":76561197961943948,"connected_time":2052000000000,"state":"active","ping":42},{"user_id":475,"name":"Butterton","steam_id":76561198833286517,"connected_time":3532000000000,"state":"active","ping":90},{"user_id":510,"name":"Zebulon","steam_id":76561198025719753,"connected_time":838000000000,"state":"active","ping":41},{"user_id":495,"name":"Farseer Ulwithy","steam_id":76561197965179245,"connected_time":2032000000000,"state":"active","ping":77},{"user_id":505,"name":"Swee","steam_id":76561198998446307,"connected_time":1060000000000,"state":"active","ping":68},{"user_id":431,"name":"SnareString","steam_id":76561199082119457,"connected_time":6038000000000,"state":"active","ping":57},{"user_id":486,"name":"Cypress [ +/- ] ✔","steam_id":76561198067164431,"connected_time":2753000000000,"state":"active","ping":74},{"user_id":436,"name":"cream of the crop (hu/man)","steam_id":76561198268581959,"connected_time":5980000000000,"state":"active","ping":57},{"user_id":512,"name":"shitcock","steam_id":76561199407965593,"connected_time":26000000000,"state":"spawning","ping":80},{"user_id":484,"name":"rockar","steam_id":76561198154257166,"connected_time":2797000000000,"state":"active","ping":73},{"user_id":501,"name":"FidelGuevara","steam_id":76561198368296171,"connected_time":1712000000000,"state":"active","ping":88},{"user_id":507,"name":"quacks","steam_id":76561198077934343,"connected_time":892000000000,"state":"active","ping":90},{"user_id":469,"name":"SolarusD","steam_id":76561198029279861,"connected_time":3698000000000,"state":"active","ping":61},{"user_id":487,"name":"Ratchet55","steam_id":76561198208655521,"connected_time":2731000000000,"state":"active","ping":95},{"user_id":506,"name":"Link Tabula","steam_id":76561198066425818,"connected_time":937000000000,"state":"active","ping":84},{"user_id":498,"name":"Alcohol Hominid","steam_id":76561198320313950,"connected_time":1944000000000,"state":"active","ping":109},{"user_id":479,"name":"eatmysteel","steam_id":76561198976437527,"connected_time":3464000000000,"state":"active","ping":96},{"user_id":504,"name":"paws :3","steam_id":76561199371694361,"connected_time":1562000000000,"state":"active","ping":79}]},{"server_id":0,"name_short":"","name":"Uncletopia | San Francisco | 4 | Community","host":"","port":0,"enabled":false,"region":"","cc":"","latitude":0,"longitude":0,"reserved":0,"last_update":"0001-01-01T00:00:00Z","protocol":17,"map":"rd_asteroid_redux_b1","folder":"tf","game":"Team Fortress","app_id":440,"player_count":0,"max_players":24,"Bots":0,"server_type":"Dedicated","server_os":"Linux","password":true,"vac":true,"version":"7961495","steam_id":85568392924742826,"keywords":["beta","nocrits","nodmgspread","rd","uncletopia"],"edicts":[932,2048],"game_id":440,"stv_port":27046,"stv_name":"Uncletopia | San Francisco | 4 | Community | STV","players":null},{"server_id":0,"name_short":"","name":"Uncletopia | San Francisco | 3 | Stopwatch","host":"","port":0,"enabled":false,"region":"","cc":"","latitude":0,"longitude":0,"reserved":0,"last_update":"0001-01-01T00:00:00Z","protocol":17,"map":"pl_vigil_rc10","folder":"tf","game":"Team Fortress","app_id":440,"player_count":0,"max_players":24,"Bots":0,"server_type":"Dedicated","server_os":"Linux","password":true,"vac":true,"version":"7961495","steam_id":85568392924742824,"keywords":["nocrits","nodmgspread","payload","uncletopia"],"edicts":[960,2048],"game_id":440,"stv_port":27036,"stv_name":"Uncletopia | San Francisco | 3 | Stopwatch | STV","players":null},{"server_id":0,"name_short":"","name":"Uncletopia | Frankfurt | 4 | All Maps","host":"","port":0,"enabled":false,"region":"","cc":"","latitude":0,"longitude":0,"reserved":0,"last_update":"0001-01-01T00:00:00Z","protocol":17,"map":"koth_lakeside_final","folder":"tf","game":"Team Fortress","app_id":440,"player_count":0,"max_players":24,"Bots":0,"server_type":"Dedicated","server_os":"Linux","password":true,"vac":true,"version":"7961495","steam_id":85568392924504275,"keywords":["cp","nocrits","nodmgspread","uncletopia"],"edicts":[301,2048],"game_id":440,"stv_port":27046,"stv_name":"Uncletopia | Frankfurt | 4 | All Maps | STV","players":null},{"server_id":0,"name_short":"","name":"Uncletopia | Warsaw | 2 | One Thousand Uncles","host":"","port":0,"enabled":false,"region":"","cc":"","latitude":0,"longitude":0,"reserved":0,"last_update":"0001-01-01T00:00:00Z","protocol":17,"map":"pl_pier","folder":"tf","game":"Team Fortress","app_id":440,"player_count":0,"max_players":32,"Bots":0,"server_type":"Dedicated","server_os":"Linux","password":true,"vac":true,"version":"7961495","steam_id":85568392925397851,"keywords":["alltalk","danepve","increased_maxplayers","norespawntime","payload","uncletopia"],"edicts":[961,2048],"game_id":440,"stv_port":0,"stv_name":"","players":null},{"server_id":0,"name_short":"","name":"Uncletopia | São Paulo | 1 | All Maps","host":"","port":0,"enabled":false,"region":"","cc":"","latitude":0,"longitude":0,"reserved":0,"last_update":"0001-01-01T00:00:00Z","protocol":17,"map":"koth_viaduct","folder":"tf","game":"Team Fortress","app_id":440,"player_count":0,"max_players":24,"Bots":0,"server_type":"Dedicated","server_os":"Linux","password":true,"vac":true,"version":"7961495","steam_id":85568392924469996,"keywords":["cp","nocrits","nodmgspread","uncletopia"],"edicts":[217,2048],"game_id":440,"stv_port":27016,"stv_name":"Uncletopia | São Paulo | 1 | All Maps | STV","players":null},{"server_id":0,"name_short":"","name":"Uncletopia | Chicago | 7 | Stopwatch","host":"","port":0,"enabled":false,"region":"","cc":"","latitude":0,"longitude":0,"reserved":0,"last_update":"0001-01-01T00:00:00Z","protocol":17,"map":"koth_lakeside_final","folder":"tf","game":"Team Fortress","app_id":440,"player_count":0,"max_players":24,"Bots":0,"server_type":"Dedicated","server_os":"Linux","password":true,"vac":true,"version":"7961495","steam_id":85568392924866364,"keywords":["cp","nocrits","nodmgspread","uncletopia"],"edicts":[304,2048],"game_id":440,"stv_port":27036,"stv_name":"Uncletopia | Chicago | 7 | Stopwatch | STV","players":null},{"server_id":0,"name_short":"","name":"Uncletopia | Dallas | 4 | Community","host":"","port":0,"enabled":false,"region":"","cc":"","latitude":0,"longitude":0,"reserved":0,"last_update":"0001-01-01T00:00:00Z","protocol":17,"map":"pl_emerge_rc2","folder":"tf","game":"Team Fortress","app_id":440,"player_count":0,"max_players":24,"Bots":0,"server_type":"Dedicated","server_os":"Linux","password":true,"vac":true,"version":"7961495","steam_id":85568392924515220,"keywords":["nocrits","nodmgspread","payload","uncletopia"],"edicts":[779,2048],"game_id":440,"stv_port":27046,"stv_name":"Uncletopia | Dallas | 4 | Community | STV","players":null},{"server_id":0,"name_short":"","name":"Uncletopia | Los Angeles | 1 | All Maps","host":"","port":0,"enabled":false,"region":"","cc":"","latitude":0,"longitude":0,"reserved":0,"last_update":"0001-01-01T00:00:00Z","protocol":17,"map":"pl_pier","folder":"tf","game":"Team Fortress","app_id":440,"player_count":24,"max_players":24,"Bots":0,"server_type":"Dedicated","server_os":"Linux","password":true,"vac":true,"version":"7961495","steam_id":85568392924469991,"keywords":["nocrits","nodmgspread","payload","uncletopia"],"edicts":[1238,2048],"game_id":440,"stv_port":27016,"stv_name":"Uncletopia | Los Angeles | 1 | All Maps | STV","players":[{"user_id":150,"name":"Petpac","steam_id":76561198326941396,"connected_time":3491000000000,"state":"active","ping":51},{"user_id":177,"name":"Ralph Kramden (Slim Charles)","steam_id":76561197981687895,"connected_time":1801000000000,"state":"active","ping":55},{"user_id":168,"name":"TheChosenLucario","steam_id":76561198284112567,"connected_time":2758000000000,"state":"active","ping":66},{"user_id":172,"name":"rat","steam_id":76561198130412963,"connected_time":2155000000000,"state":"active","ping":82},{"user_id":156,"name":"Rank 1 Weezer Fan","steam_id":76561198317838400,"connected_time":3104000000000,"state":"active","ping":107},{"user_id":192,"name":"Khrono691","steam_id":76561198246227600,"connected_time":1210000000000,"state":"active","ping":58},{"user_id":157,"name":"TinyGayGuitar","steam_id":76561198130737316,"connected_time":3069000000000,"state":"active","ping":92},{"user_id":173,"name":"cringy","steam_id":76561198323000455,"connected_time":2071000000000,"state":"active","ping":50},{"user_id":219,"name":"ball wiggler","steam_id":76561198360660145,"connected_time":373000000000,"state":"active","ping":61},{"user_id":134,"name":"Shadovv","steam_id":76561198168693301,"connected_time":4141000000000,"state":"active","ping":79},{"user_id":218,"name":"Brah","steam_id":76561198265114467,"connected_time":492000000000,"state":"active","ping":143},{"user_id":160,"name":"Aim Assist isn't that strong","steam_id":76561198261546184,"connected_time":3025000000000,"state":"active","ping":71},{"user_id":136,"name":"Filtershakes","steam_id":76561197990484413,"connected_time":4129000000000,"state":"active","ping":146},{"user_id":161,"name":"Chimp of the year","steam_id":76561198114676855,"connected_time":2986000000000,"state":"active","ping":60},{"user_id":214,"name":"Ed","steam_id":76561198277792665,"connected_time":674000000000,"state":"active","ping":52},{"user_id":162,"name":"smallest orc","steam_id":76561198049223356,"connected_time":2974000000000,"state":"active","ping":61},{"user_id":125,"name":"HopeTheNeko","steam_id":76561199159285465,"connected_time":4720000000000,"state":"active","ping":53},{"user_id":152,"name":"Cloey","steam_id":76561199161591235,"connected_time":3283000000000,"state":"active","ping":97},{"user_id":108,"name":"Siix","steam_id":76561198144668063,"connected_time":7651000000000,"state":"active","ping":58},{"user_id":176,"name":"Floodlight","steam_id":76561198074195033,"connected_time":1969000000000,"state":"active","ping":128},{"user_id":215,"name":"EightySix","steam_id":76561198186678831,"connected_time":587000000000,"state":"active","ping":59},{"user_id":225,"name":"1000 Ping","steam_id":76561198098330939,"connected_time":26000000000,"state":"spawning","ping":90},{"user_id":110,"name":"Scrux","steam_id":76561198129763115,"connected_time":6840000000000,"state":"active","ping":56},{"user_id":167,"name":"Guc master","steam_id":76561198155934570,"connected_time":2822000000000,"state":"active","ping":72},{"user_id":183,"name":"FortniteJimmy2008","steam_id":76561198821567852,"connected_time":1575000000000,"state":"active","ping":53}]},{"server_id":0,"name_short":"","name":"Uncletopia | Chicago | 1 | All Maps","host":"","port":0,"enabled":false,"region":"","cc":"","latitude":0,"longitude":0,"reserved":0,"last_update":"0001-01-01T00:00:00Z","protocol":17,"map":"pl_badwater","folder":"tf","game":"Team Fortress","app_id":440,"player_count":24,"max_players":24,"Bots":0,"server_type":"Dedicated","server_os":"Linux","password":true,"vac":true,"version":"7961495","steam_id":85568392924469984,"keywords":["nocrits","nodmgspread","payload","uncletopia"],"edicts":[982,2048],"game_id":440,"stv_port":27016,"stv_name":"Uncletopia | Chicago | 1 | All Maps | STV","players":[{"user_id":772,"name":"zpalmtree","steam_id":76561198134307620,"connected_time":5614000000000,"state":"active","ping":71},{"user_id":815,"name":"OKLOLOM3","steam_id":76561199151881507,"connected_time":1839000000000,"state":"active","ping":51},{"user_id":824,"name":"Pika","steam_id":76561198080395122,"connected_time":1058000000000,"state":"active","ping":100},{"user_id":828,"name":"Zozbieta","steam_id":76561198010336265,"connected_time":418000000000,"state":"active","ping":92},{"user_id":814,"name":"subdromeda","steam_id":76561198884351860,"connected_time":2240000000000,"state":"active","ping":74},{"user_id":827,"name":"Hamlindigo Blue™","steam_id":76561198116337540,"connected_time":679000000000,"state":"active","ping":77},{"user_id":821,"name":"frank","steam_id":76561198137777483,"connected_time":1383000000000,"state":"active","ping":72},{"user_id":797,"name":"Sodsboy","steam_id":76561198030482006,"connected_time":3038000000000,"state":"active","ping":135},{"user_id":802,"name":"Luca!","steam_id":76561198137880777,"connected_time":2931000000000,"state":"active","ping":69},{"user_id":825,"name":"Kim Jong Un stan","steam_id":76561199139182003,"connected_time":948000000000,"state":"active","ping":60},{"user_id":826,"name":"zackyopacky","steam_id":76561198862802962,"connected_time":931000000000,"state":"active","ping":73},{"user_id":766,"name":"GUH","steam_id":76561199013202758,"connected_time":6205000000000,"state":"active","ping":92},{"user_id":758,"name":"Punks | Pride Month \u003c3","steam_id":76561199140940650,"connected_time":7075000000000,"state":"active","ping":54},{"user_id":792,"name":"Backshot Insurrectionist","steam_id":76561198067176829,"connected_time":3295000000000,"state":"active","ping":113},{"user_id":801,"name":"gale","steam_id":76561198250068972,"connected_time":2953000000000,"state":"active","ping":90},{"user_id":823,"name":"DARLIIIIIIIIIIIIIING","steam_id":76561198055082693,"connected_time":1102000000000,"state":"active","ping":87},{"user_id":830,"name":"Rambly Dambly","steam_id":76561198844496567,"connected_time":351000000000,"state":"active","ping":57},{"user_id":820,"name":"kikikikoboy","steam_id":76561198073380271,"connected_time":1636000000000,"state":"active","ping":77},{"user_id":818,"name":"ndvr (femboy (REAL))","steam_id":76561199379200102,"connected_time":1796000000000,"state":"active","ping":61},{"user_id":831,"name":"Artic_Ryuu","steam_id":76561198182194918,"connected_time":268000000000,"state":"active","ping":92},{"user_id":806,"name":"Blingo Bloingo","steam_id":76561198275250936,"connected_time":2815000000000,"state":"active","ping":83},{"user_id":761,"name":"shitass | pride \u003c3","steam_id":76561198210572481,"connected_time":7012000000000,"state":"active","ping":95},{"user_id":833,"name":"Boofenshmirtz","steam_id":76561198071649858,"connected_time":137000000000,"state":"active","ping":63},{"user_id":832,"name":"☑Juanaco is dead","steam_id":76561198029895630,"connected_time":250000000000,"state":"active","ping":77}]},{"server_id":0,"name_short":"","name":"Uncletopia | Atlanta | 1 | All Maps","host":"","port":0,"enabled":false,"region":"","cc":"","latitude":0,"longitude":0,"reserved":0,"last_update":"0001-01-01T00:00:00Z","protocol":17,"map":"koth_cascade","folder":"tf","game":"Team Fortress","app_id":440,"player_count":0,"max_players":24,"Bots":0,"server_type":"Dedicated","server_os":"Linux","password":true,"vac":true,"version":"7961495","steam_id":85568392924469982,"keywords":["cp","nocrits","nodmgspread","uncletopia"],"edicts":[544,2048],"game_id":440,"stv_port":27016,"stv_name":"Uncletopia | Atlanta | 1 | All Maps | STV","players":null},{"server_id":0,"name_short":"","name":"Uncletopia | Dallas | 2 | All Maps","host":"","port":0,"enabled":false,"region":"","cc":"","latitude":0,"longitude":0,"reserved":0,"last_update":"0001-01-01T00:00:00Z","protocol":17,"map":"pl_frontier_final","folder":"tf","game":"Team Fortress","app_id":440,"player_count":0,"max_players":24,"Bots":0,"server_type":"Dedicated","server_os":"Linux","password":true,"vac":true,"version":"7961495","steam_id":85568392924469988,"keywords":["nocrits","nodmgspread","payload","uncletopia"],"edicts":[744,2048],"game_id":440,"stv_port":27026,"stv_name":"Uncletopia | Dallas | 2 | All Maps | STV","players":null},{"server_id":0,"name_short":"","name":"Uncletopia | London | 3 | All Maps","host":"","port":0,"enabled":false,"region":"","cc":"","latitude":0,"longitude":0,"reserved":0,"last_update":"0001-01-01T00:00:00Z","protocol":17,"map":"pl_upward","folder":"tf","game":"Team Fortress","app_id":440,"player_count":6,"max_players":24,"Bots":0,"server_type":"Dedicated","server_os":"Linux","password":true,"vac":true,"version":"7961495","steam_id":85568392924510192,"keywords":["nocrits","nodmgspread","payload","uncletopia"],"edicts":[717,2048],"game_id":440,"stv_port":27036,"stv_name":"Uncletopia | London | 3 | All Maps | STV","players":[{"user_id":31,"name":"ramedlaV^^","steam_id":76561198074352339,"connected_time":553000000000,"state":"active","ping":60},{"user_id":4,"name":"CarbonPan","steam_id":76561198072169983,"connected_time":5984000000000,"state":"active","ping":104},{"user_id":33,"name":"jonbob","steam_id":76561197963506620,"connected_time":345000000000,"state":"active","ping":55},{"user_id":13,"name":"yuno appreciator","steam_id":76561198083286511,"connected_time":4323000000000,"state":"active","ping":40},{"user_id":30,"name":"Jotun","steam_id":76561199015161498,"connected_time":981000000000,"state":"active","ping":66},{"user_id":26,"name":"Beans","steam_id":76561199072101723,"connected_time":1291000000000,"state":"active","ping":93}]},{"server_id":0,"name_short":"","name":"Uncletopia | London | 1 | All Maps","host":"","port":0,"enabled":false,"region":"","cc":"","latitude":0,"longitude":0,"reserved":0,"last_update":"0001-01-01T00:00:00Z","protocol":17,"map":"koth_highpass","folder":"tf","game":"Team Fortress","app_id":440,"player_count":1,"max_players":24,"Bots":0,"server_type":"Dedicated","server_os":"Linux","password":true,"vac":true,"version":"7961495","steam_id":85568392924367362,"keywords":["cp","nocrits","nodmgspread","uncletopia"],"edicts":[424,2048],"game_id":440,"stv_port":27016,"stv_name":"Uncletopia | London | 1 | All Maps | STV","players":[{"user_id":3,"name":"Milca_11","steam_id":76561198848650365,"connected_time":154000000000,"state":"active","ping":66}]},{"server_id":0,"name_short":"","name":"Uncletopia | Warsaw | 3 | All Maps","host":"","port":0,"enabled":false,"region":"","cc":"","latitude":0,"longitude":0,"reserved":0,"last_update":"0001-01-01T00:00:00Z","protocol":17,"map":"pl_barnblitz","folder":"tf","game":"Team Fortress","app_id":440,"player_count":0,"max_players":24,"Bots":0,"server_type":"Dedicated","server_os":"Linux","password":true,"vac":true,"version":"7961495","steam_id":85568392925397852,"keywords":["nocrits","nodmgspread","payload","uncletopia"],"edicts":[805,2048],"game_id":440,"stv_port":27036,"stv_name":"Uncletopia | Warsaw | 3 | All Maps | STV","players":null},{"server_id":0,"name_short":"","name":"Uncletopia | New York City | 4 | Community","host":"","port":0,"enabled":false,"region":"","cc":"","latitude":0,"longitude":0,"reserved":0,"last_update":"0001-01-01T00:00:00Z","protocol":17,"map":"cp_villa_b19","folder":"tf","game":"Team Fortress","app_id":440,"player_count":0,"max_players":24,"Bots":0,"server_type":"Dedicated","server_os":"Linux","password":true,"vac":true,"version":"7961495","steam_id":85568392924742821,"keywords":["cp","nocrits","nodmgspread","uncletopia"],"edicts":[441,2048],"game_id":440,"stv_port":27046,"stv_name":"Uncletopia | New York City | 4 | Community | STV","players":null},{"server_id":0,"name_short":"","name":"Uncletopia | Chicago | 3 | All Maps","host":"","port":0,"enabled":false,"region":"","cc":"","latitude":0,"longitude":0,"reserved":0,"last_update":"0001-01-01T00:00:00Z","protocol":17,"map":"pl_snowycoast","folder":"tf","game":"Team Fortress","app_id":440,"player_count":18,"max_players":24,"Bots":0,"server_type":"Dedicated","server_os":"Linux","password":true,"vac":true,"version":"7961495","steam_id":85568392924515191,"keywords":["nocrits","nodmgspread","payload","uncletopia"],"edicts":[1068,2048],"game_id":440,"stv_port":27036,"stv_name":"Uncletopia | Chicago | 3 | All Maps | STV","players":[{"user_id":655,"name":"ninety9dragonfly","steam_id":76561198363406983,"connected_time":218000000000,"state":"active","ping":99},{"user_id":621,"name":"ifuruna","steam_id":76561199506882366,"connected_time":3833000000000,"state":"active","ping":130},{"user_id":616,"name":"TheBlue","steam_id":76561198363412851,"connected_time":4257000000000,"state":"active","ping":45},{"user_id":662,"name":"Kritzburgh","steam_id":76561198149466938,"connected_time":2000000000,"state":"spawning","ping":117},{"user_id":585,"name":"robot","steam_id":76561198018691308,"connected_time":6087000000000,"state":"active","ping":65},{"user_id":656,"name":"NotPurplehaze","steam_id":76561198220274631,"connected_time":200000000000,"state":"active","ping":80},{"user_id":650,"name":"Admiral Crumbs","steam_id":76561198108791583,"connected_time":2219000000000,"state":"active","ping":69},{"user_id":658,"name":"biermo","steam_id":76561198042656025,"connected_time":101000000000,"state":"active","ping":144},{"user_id":612,"name":"Big Yoshi #savetf2","steam_id":76561198009916036,"connected_time":4608000000000,"state":"active","ping":78},{"user_id":659,"name":"Stev","steam_id":76561198061516631,"connected_time":87000000000,"state":"active","ping":46},{"user_id":636,"name":"Yoshimelon","steam_id":76561198253054325,"connected_time":2845000000000,"state":"active","ping":66},{"user_id":660,"name":"Sniper's Kangaroo Wife","steam_id":76561198445837011,"connected_time":37000000000,"state":"active","ping":103},{"user_id":661,"name":"Shichinitzi","steam_id":76561198003833732,"connected_time":19000000000,"state":"active","ping":45},{"user_id":638,"name":"ellie","steam_id":76561198304600400,"connected_time":2819000000000,"state":"active","ping":52},{"user_id":547,"name":"ihave80hp","steam_id":76561199251621911,"connected_time":9255000000000,"state":"active","ping":84},{"user_id":649,"name":"pie","steam_id":76561198012945016,"connected_time":2284000000000,"state":"active","ping":58},{"user_id":603,"name":"Moonkey","steam_id":76561199013741389,"connected_time":5293000000000,"state":"active","ping":60},{"user_id":644,"name":"ÜberBurst inVinci","steam_id":76561198044470684,"connected_time":2602000000000,"state":"active","ping":64}]},{"server_id":0,"name_short":"","name":"Uncletopia | Chicago | 5 | All Maps","host":"","port":0,"enabled":false,"region":"","cc":"","latitude":0,"longitude":0,"reserved":0,"last_update":"0001-01-01T00:00:00Z","protocol":17,"map":"pl_swiftwater_final1","folder":"tf","game":"Team Fortress","app_id":440,"player_count":6,"max_players":24,"Bots":0,"server_type":"Dedicated","server_os":"Linux","password":true,"vac":true,"version":"7961495","steam_id":85568392924866362,"keywords":["nocrits","nodmgspread","payload","uncletopia"],"edicts":[933,2048],"game_id":440,"stv_port":27016,"stv_name":"Uncletopia | Chicago | 5 | All Maps | STV","players":[{"user_id":51,"name":"Cyani","steam_id":76561199122123500,"connected_time":2439000000000,"state":"active","ping":49},{"user_id":56,"name":"Berb","steam_id":76561198193911899,"connected_time":163000000000,"state":"active","ping":96},{"user_id":57,"name":"Sofronas","steam_id":76561198139518527,"connected_time":150000000000,"state":"active","ping":84},{"user_id":58,"name":"ThinkFed","steam_id":76561198091822018,"connected_time":106000000000,"state":"active","ping":71},{"user_id":47,"name":"Ядрён батон","steam_id":76561198978262040,"connected_time":3860000000000,"state":"active","ping":161},{"user_id":49,"name":"Caucasian Cockazoid","steam_id":76561198848362267,"connected_time":3419000000000,"state":"active","ping":49}]},{"server_id":0,"name_short":"","name":"Uncletopia | London | 2 | All Maps","host":"","port":0,"enabled":false,"region":"","cc":"","latitude":0,"longitude":0,"reserved":0,"last_update":"0001-01-01T00:00:00Z","protocol":17,"map":"cp_mountainlab","folder":"tf","game":"Team Fortress","app_id":440,"player_count":0,"max_players":24,"Bots":0,"server_type":"Dedicated","server_os":"Linux","password":true,"vac":true,"version":"7961495","steam_id":85568392924470941,"keywords":["cp","nocrits","nodmgspread","uncletopia"],"edicts":[533,2048],"game_id":440,"stv_port":27026,"stv_name":"Uncletopia | London | 2 | All Maps | STV","players":null},{"server_id":0,"name_short":"","name":"Uncletopia | London | 8 | Community","host":"","port":0,"enabled":false,"region":"","cc":"","latitude":0,"longitude":0,"reserved":0,"last_update":"0001-01-01T00:00:00Z","protocol":17,"map":"cp_propaganda_b18","folder":"tf","game":"Team Fortress","app_id":440,"player_count":0,"max_players":24,"Bots":0,"server_type":"Dedicated","server_os":"Linux","password":true,"vac":true,"version":"7961495","steam_id":85568392924964315,"keywords":["cp","nocrits","nodmgspread","uncletopia"],"edicts":[412,2048],"game_id":440,"stv_port":27086,"stv_name":"Uncletopia | London | 8 | Community | STV","players":null},{"server_id":0,"name_short":"","name":"Uncletopia | Frankfurt | 1 | All Maps","host":"","port":0,"enabled":false,"region":"","cc":"","latitude":0,"longitude":0,"reserved":0,"last_update":"0001-01-01T00:00:00Z","protocol":17,"map":"cp_snakewater_final1","folder":"tf","game":"Team Fortress","app_id":440,"player_count":0,"max_players":24,"Bots":0,"server_type":"Dedicated","server_os":"Linux","password":true,"vac":true,"version":"7961495","steam_id":85568392924469989,"keywords":["cp","nocrits","nodmgspread","uncletopia"],"edicts":[634,2048],"game_id":440,"stv_port":27016,"stv_name":"Uncletopia | Frankfurt | 1 | All Maps | STV","players":null},{"server_id":0,"name_short":"","name":"Uncletopia | New York City | 3 | Stopwatch","host":"","port":0,"enabled":false,"region":"","cc":"","latitude":0,"longitude":0,"reserved":0,"last_update":"0001-01-01T00:00:00Z","protocol":17,"map":"koth_product_final","folder":"tf","game":"Team Fortress","app_id":440,"player_count":0,"max_players":24,"Bots":0,"server_type":"Dedicated","server_os":"Linux","password":true,"vac":true,"version":"7961495","steam_id":85568392924742820,"keywords":["cp","nocrits","nodmgspread","uncletopia"],"edicts":[352,2048],"game_id":440,"stv_port":27036,"stv_name":"Uncletopia | New York City | 3 | Stopwatch | STV","players":null},{"server_id":0,"name_short":"","name":"Uncletopia | Frankfurt | 7 | Stopwatch","host":"","port":0,"enabled":false,"region":"","cc":"","latitude":0,"longitude":0,"reserved":0,"last_update":"0001-01-01T00:00:00Z","protocol":17,"map":"koth_highpass","folder":"tf","game":"Team Fortress","app_id":440,"player_count":0,"max_players":24,"Bots":0,"server_type":"Dedicated","server_os":"Linux","password":true,"vac":true,"version":"7961495","steam_id":85568392924742827,"keywords":["cp","nocrits","nodmgspread","uncletopia"],"edicts":[413,2048],"game_id":440,"stv_port":27076,"stv_name":"Uncletopia | Frankfurt | 7 | Stopwatch | STV","players":null},{"server_id":0,"name_short":"","name":"Uncletopia | Warsaw | 4 | All Maps","host":"","port":0,"enabled":false,"region":"","cc":"","latitude":0,"longitude":0,"reserved":0,"last_update":"0001-01-01T00:00:00Z","protocol":17,"map":"ctf_turbine","folder":"tf","game":"Team Fortress","app_id":440,"player_count":0,"max_players":24,"Bots":0,"server_type":"Dedicated","server_os":"Linux","password":true,"vac":true,"version":"7961495","steam_id":85568392925397853,"keywords":["ctf","nocrits","nodmgspread","uncletopia"],"edicts":[293,2048],"game_id":440,"stv_port":27046,"stv_name":"Uncletopia | Warsaw | 4 | All Maps | STV","players":null},{"server_id":0,"name_short":"","name":"Uncletopia | Sydney | 2 | All Maps","host":"","port":0,"enabled":false,"region":"","cc":"","latitude":0,"longitude":0,"reserved":0,"last_update":"0001-01-01T00:00:00Z","protocol":17,"map":"pl_upward","folder":"tf","game":"Team Fortress","app_id":440,"player_count":24,"max_players":24,"Bots":0,"server_type":"Dedicated","server_os":"Linux","password":true,"vac":true,"version":"7961495","steam_id":85568392924470002,"keywords":["nocrits","nodmgspread","payload","uncletopia"],"edicts":[951,2048],"game_id":440,"stv_port":27026,"stv_name":"Uncletopia | Sydney | 2 | All Maps | STV","players":[{"user_id":59,"name":"precious.","steam_id":76561198054804209,"connected_time":40000000000,"state":"active","ping":83},{"user_id":53,"name":"Svet","steam_id":76561198152210509,"connected_time":523000000000,"state":"active","ping":42},{"user_id":29,"name":"ZappinandZwoopin","steam_id":76561199202045028,"connected_time":2361000000000,"state":"active","ping":71},{"user_id":22,"name":"Chemist Warehouse","steam_id":76561198105156291,"connected_time":3188000000000,"state":"active","ping":58},{"user_id":23,"name":"--{Lemon}--","steam_id":76561198029267274,"connected_time":2977000000000,"state":"active","ping":59},{"user_id":34,"name":"Tsolis","steam_id":76561198013950614,"connected_time":1886000000000,"state":"active","ping":59},{"user_id":25,"name":"planet mountain dew","steam_id":76561199140213318,"connected_time":2901000000000,"state":"active","ping":41},{"user_id":45,"name":"Soir","steam_id":76561198027451831,"connected_time":930000000000,"state":"active","ping":82},{"user_id":54,"name":"Glenn Danzig","steam_id":76561198119834441,"connected_time":506000000000,"state":"active","ping":72},{"user_id":55,"name":"Sover blw.tf","steam_id":76561198136347837,"connected_time":505000000000,"state":"active","ping":173},{"user_id":58,"name":"FROYO weezer","steam_id":76561199439508788,"connected_time":167000000000,"state":"active","ping":67},{"user_id":38,"name":"Turret","steam_id":76561198054728921,"connected_time":1509000000000,"state":"active","ping":43},{"user_id":39,"name":"Chowdermonkey","steam_id":76561198990121068,"connected_time":1459000000000,"state":"active","ping":83},{"user_id":40,"name":"Coatsman","steam_id":76561198042846208,"connected_time":1435000000000,"state":"active","ping":59},{"user_id":41,"name":"Matocake","steam_id":76561198068564316,"connected_time":1319000000000,"state":"active","ping":51},{"user_id":56,"name":"Courier","steam_id":76561198080981482,"connected_time":452000000000,"state":"active","ping":36},{"user_id":43,"name":"Sharp","steam_id":76561199134395705,"connected_time":1149000000000,"state":"active","ping":59},{"user_id":44,"name":"akmon753","steam_id":76561199507989067,"connected_time":1049000000000,"state":"active","ping":73},{"user_id":46,"name":"Zort","steam_id":76561198056414289,"connected_time":869000000000,"state":"active","ping":70},{"user_id":47,"name":"Fresh Produce Gaming","steam_id":76561198358483352,"connected_time":868000000000,"state":"active","ping":56},{"user_id":48,"name":"Jason_2736","steam_id":76561199045984703,"connected_time":820000000000,"state":"active","ping":76},{"user_id":57,"name":"grieveous","steam_id":76561198038427562,"connected_time":169000000000,"state":"active","ping":52},{"user_id":50,"name":"ProficeTDF2","steam_id":76561198402700754,"connected_time":774000000000,"state":"active","ping":64},{"user_id":52,"name":"Jorg","steam_id":76561198003995787,"connected_time":638000000000,"state":"active","ping":118}]},{"server_id":0,"name_short":"","name":"Uncletopia | Seattle | 1 | All Maps","host":"","port":0,"enabled":false,"region":"","cc":"","latitude":0,"longitude":0,"reserved":0,"last_update":"0001-01-01T00:00:00Z","protocol":17,"map":"koth_nucleus","folder":"tf","game":"Team Fortress","app_id":440,"player_count":24,"max_players":24,"Bots":0,"server_type":"Dedicated","server_os":"Linux","password":true,"vac":true,"version":"7961495","steam_id":85568392924469997,"keywords":["cp","nocrits","nodmgspread","uncletopia"],"edicts":[542,2048],"game_id":440,"stv_port":27016,"stv_name":"Uncletopia | Seattle | 1 | All Maps | STV","players":[{"user_id":793,"name":"Klone","steam_id":76561198854485605,"connected_time":181000000000,"state":"active","ping":118},{"user_id":725,"name":"rat gets the cheese","steam_id":76561198031234032,"connected_time":6458000000000,"state":"active","ping":106},{"user_id":765,"name":"lavender","steam_id":76561199069518286,"connected_time":4724000000000,"state":"active","ping":66},{"user_id":722,"name":"Lord of the Locker Room","steam_id":76561199002906056,"connected_time":6689000000000,"state":"active","ping":45},{"user_id":786,"name":"frankie calories","steam_id":76561198071525893,"connected_time":1065000000000,"state":"active","ping":92},{"user_id":782,"name":"Brathic","steam_id":76561198966232163,"connected_time":1815000000000,"state":"active","ping":77},{"user_id":759,"name":"Wavelengths","steam_id":76561197997621320,"connected_time":5177000000000,"state":"active","ping":78},{"user_id":775,"name":"HotHead","steam_id":76561198138468982,"connected_time":2517000000000,"state":"active","ping":68},{"user_id":776,"name":"trackpad gaming | f2p","steam_id":76561198840414371,"connected_time":2512000000000,"state":"active","ping":50},{"user_id":784,"name":"fragadelphia","steam_id":76561198066116363,"connected_time":1417000000000,"state":"active","ping":45},{"user_id":755,"name":"Mii Guest C, From Wii Sports","steam_id":76561198197964803,"connected_time":5204000000000,"state":"active","ping":63},{"user_id":770,"name":"chimps and cough syrup","steam_id":76561198032625036,"connected_time":3328000000000,"state":"active","ping":48},{"user_id":720,"name":"soup","steam_id":76561198043209046,"connected_time":6975000000000,"state":"active","ping":77},{"user_id":790,"name":"Prinz","steam_id":76561198175476071,"connected_time":320000000000,"state":"active","ping":75},{"user_id":712,"name":"Igrium","steam_id":76561198119549811,"connected_time":7473000000000,"state":"active","ping":75},{"user_id":785,"name":"Squigzy_","steam_id":76561198061696667,"connected_time":1110000000000,"state":"active","ping":78},{"user_id":768,"name":"Henchie! ✧(˘◡˘๑ )","steam_id":76561198047567464,"connected_time":3827000000000,"state":"active","ping":91},{"user_id":791,"name":"bengineer","steam_id":76561198171912174,"connected_time":234000000000,"state":"active","ping":56},{"user_id":766,"name":"Houdini Cache","steam_id":76561198045506970,"connected_time":4389000000000,"state":"active","ping":44},{"user_id":789,"name":"gorlab","steam_id":76561198025089694,"connected_time":681000000000,"state":"active","ping":60},{"user_id":769,"name":"Arsonist Goose","steam_id":76561198147441830,"connected_time":3346000000000,"state":"active","ping":74},{"user_id":723,"name":"Lord Hater","steam_id":76561199158148782,"connected_time":6688000000000,"state":"active","ping":59},{"user_id":653,"name":"Nom Skirrett","steam_id":76561198014600788,"connected_time":11236000000000,"state":"active","ping":51},{"user_id":794,"name":"❤[S'more]❤","steam_id":76561198817361963,"connected_time":178000000000,"state":"active","ping":73}]},{"server_id":0,"name_short":"","name":"Uncletopia | Los Angeles | 4 | Stopwatch","host":"","port":0,"enabled":false,"region":"","cc":"","latitude":0,"longitude":0,"reserved":0,"last_update":"0001-01-01T00:00:00Z","protocol":17,"map":"cp_metalworks","folder":"tf","game":"Team Fortress","app_id":440,"player_count":0,"max_players":24,"Bots":0,"server_type":"Dedicated","server_os":"Linux","password":true,"vac":true,"version":"7961495","steam_id":85568392924510199,"keywords":["cp","nocrits","nodmgspread","uncletopia"],"edicts":[461,2048],"game_id":440,"stv_port":27046,"stv_name":"Uncletopia | Los Angeles | 4 | Stopwatch | STV","players":null},{"server_id":0,"name_short":"","name":"Uncletopia | Los Angeles | 3 | All Maps","host":"","port":0,"enabled":false,"region":"","cc":"","latitude":0,"longitude":0,"reserved":0,"last_update":"0001-01-01T00:00:00Z","protocol":17,"map":"plr_hightower","folder":"tf","game":"Team Fortress","app_id":440,"player_count":20,"max_players":24,"Bots":0,"server_type":"Dedicated","server_os":"Linux","password":true,"vac":true,"version":"7961495","steam_id":85568392924510198,"keywords":["nocrits","nodmgspread","payload","uncletopia"],"edicts":[981,2048],"game_id":440,"stv_port":27036,"stv_name":"Uncletopia | Los Angeles | 3 | All Maps | STV","players":[{"user_id":290,"name":"Steve Austin Enjoyer (they/them","steam_id":76561198094221648,"connected_time":53000000000,"state":"active","ping":115},{"user_id":285,"name":"Peppa Pig","steam_id":76561198147772879,"connected_time":675000000000,"state":"active","ping":45},{"user_id":253,"name":"TüCold","steam_id":76561198111278197,"connected_time":2305000000000,"state":"active","ping":59},{"user_id":254,"name":"heck","steam_id":76561198315694520,"connected_time":2287000000000,"state":"active","ping":46},{"user_id":136,"name":"Anstorner","steam_id":76561198274026015,"connected_time":6211000000000,"state":"active","ping":40},{"user_id":257,"name":"HOG RIDER","steam_id":76561198298589502,"connected_time":2108000000000,"state":"active","ping":45},{"user_id":281,"name":"Axelfreeze14","steam_id":76561198436383913,"connected_time":758000000000,"state":"active","ping":35},{"user_id":243,"name":"HeroOfTime","steam_id":76561199096218001,"connected_time":3316000000000,"state":"active","ping":55},{"user_id":263,"name":"Stinkfly","steam_id":76561198043953895,"connected_time":1577000000000,"state":"active","ping":52},{"user_id":291,"name":"Sevfront","steam_id":76561198249207818,"connected_time":1000000000,"state":"spawning","ping":61},{"user_id":280,"name":"Eden","steam_id":76561198081284664,"connected_time":915000000000,"state":"active","ping":54},{"user_id":274,"name":"Dr_Minty","steam_id":76561199043644449,"connected_time":1215000000000,"state":"active","ping":48},{"user_id":287,"name":"Rustys_Revenge","steam_id":76561198269414024,"connected_time":601000000000,"state":"active","ping":39},{"user_id":102,"name":"TacoMan4Life","steam_id":76561198832562728,"connected_time":9132000000000,"state":"active","ping":58},{"user_id":252,"name":"Borgor Boi","steam_id":76561199061388107,"connected_time":2349000000000,"state":"active","ping":69},{"user_id":269,"name":"Mr.Rogers","steam_id":76561198043878683,"connected_time":1442000000000,"state":"active","ping":67},{"user_id":289,"name":"Foxire","steam_id":76561198023974599,"connected_time":375000000000,"state":"active","ping":57},{"user_id":95,"name":"Humble Learner","steam_id":76561198066091050,"connected_time":9632000000000,"state":"active","ping":72},{"user_id":207,"name":"Dova","steam_id":76561198079481047,"connected_time":4433000000000,"state":"active","ping":47},{"user_id":94,"name":"lol","steam_id":76561198026491738,"connected_time":9644000000000,"state":"active","ping":74}]},{"server_id":0,"name_short":"","name":"Uncletopia | Frankfurt | 3 | All Maps","host":"","port":0,"enabled":false,"region":"","cc":"","latitude":0,"longitude":0,"reserved":0,"last_update":"0001-01-01T00:00:00Z","protocol":17,"map":"plr_pipeline","folder":"tf","game":"Team Fortress","app_id":440,"player_count":0,"max_players":24,"Bots":0,"server_type":"Dedicated","server_os":"Linux","password":true,"vac":true,"version":"7961495","steam_id":85568392924504274,"keywords":["nocrits","nodmgspread","payload","uncletopia"],"edicts":[933,2048],"game_id":440,"stv_port":27036,"stv_name":"Uncletopia | Frankfurt | 3 | All Maps | STV","players":null},{"server_id":0,"name_short":"","name":"Uncletopia | Sydney | 1 | All Maps","host":"","port":0,"enabled":false,"region":"","cc":"","latitude":0,"longitude":0,"reserved":0,"last_update":"0001-01-01T00:00:00Z","protocol":17,"map":"pl_frontier_final","folder":"tf","game":"Team Fortress","app_id":440,"player_count":1,"max_players":24,"Bots":0,"server_type":"Dedicated","server_os":"Linux","password":true,"vac":true,"version":"7961495","steam_id":85568392924470001,"keywords":["nocrits","nodmgspread","payload","uncletopia"],"edicts":[744,2048],"game_id":440,"stv_port":27016,"stv_name":"Uncletopia | Sydney | 1 | All Maps | STV","players":[{"user_id":28,"name":"Dawaj Polewaj!","steam_id":76561199090168813,"connected_time":1000000000,"state":"spawning","ping":36}]},{"server_id":0,"name_short":"","name":"Uncletopia | Sydney | 3 | All Maps","host":"","port":0,"enabled":false,"region":"","cc":"","latitude":0,"longitude":0,"reserved":0,"last_update":"0001-01-01T00:00:00Z","protocol":17,"map":"koth_brazil","folder":"tf","game":"Team Fortress","app_id":440,"player_count":0,"max_players":24,"Bots":0,"server_type":"Dedicated","server_os":"Linux","password":true,"vac":true,"version":"7961495","steam_id":85568392925194467,"keywords":["cp","nocrits","nodmgspread","uncletopia"],"edicts":[417,2048],"game_id":440,"stv_port":27036,"stv_name":"Uncletopia | Sydney | 3 | All Maps | STV","players":null},{"server_id":0,"name_short":"","name":"Uncletopia | Chicago | 4 | All Maps","host":"","port":0,"enabled":false,"region":"","cc":"","latitude":0,"longitude":0,"reserved":0,"last_update":"0001-01-01T00:00:00Z","protocol":17,"map":"pl_snowycoast","folder":"tf","game":"Team Fortress","app_id":440,"player_count":2,"max_players":24,"Bots":0,"server_type":"Dedicated","server_os":"Linux","password":true,"vac":true,"version":"7961495","steam_id":85568392924515193,"keywords":["nocrits","nodmgspread","payload","uncletopia"],"edicts":[883,2048],"game_id":440,"stv_port":27046,"stv_name":"Uncletopia | Chicago | 4 | All Maps | STV","players":[{"user_id":490,"name":"Draugluin","steam_id":76561199219965276,"connected_time":1429000000000,"state":"active","ping":133},{"user_id":501,"name":"mihaiandreiaura","steam_id":76561198930688023,"connected_time":244000000000,"state":"spawning","ping":163}]},{"server_id":0,"name_short":"","name":"Uncletopia | London | 6 | All Maps","host":"","port":0,"enabled":false,"region":"","cc":"","latitude":0,"longitude":0,"reserved":0,"last_update":"0001-01-01T00:00:00Z","protocol":17,"map":"pl_frontier_final","folder":"tf","game":"Team Fortress","app_id":440,"player_count":0,"max_players":24,"Bots":0,"server_type":"Dedicated","server_os":"Linux","password":true,"vac":true,"version":"7961495","steam_id":85568392924742830,"keywords":["nocrits","nodmgspread","payload","uncletopia"],"edicts":[744,2048],"game_id":440,"stv_port":27066,"stv_name":"Uncletopia | London | 6 | All Maps | STV","players":null},{"server_id":0,"name_short":"","name":"Uncletopia | London | 5 | All Maps","host":"","port":0,"enabled":false,"region":"","cc":"","latitude":0,"longitude":0,"reserved":0,"last_update":"0001-01-01T00:00:00Z","protocol":17,"map":"koth_suijin","folder":"tf","game":"Team Fortress","app_id":440,"player_count":0,"max_players":24,"Bots":0,"server_type":"Dedicated","server_os":"Linux","password":true,"vac":true,"version":"7961495","steam_id":85568392924742829,"keywords":["cp","nocrits","nodmgspread","uncletopia"],"edicts":[419,2048],"game_id":440,"stv_port":27056,"stv_name":"Uncletopia | London | 5 | All Maps | STV","players":null},{"server_id":0,"name_short":"","name":"Uncletopia | Frankfurt | 6 | All Maps","host":"","port":0,"enabled":false,"region":"","cc":"","latitude":0,"longitude":0,"reserved":0,"last_update":"0001-01-01T00:00:00Z","protocol":17,"map":"cp_steel","folder":"tf","game":"Team Fortress","app_id":440,"player_count":0,"max_players":24,"Bots":0,"server_type":"Dedicated","server_os":"Linux","password":true,"vac":true,"version":"7961495","steam_id":85568392924504278,"keywords":["cp","nocrits","nodmgspread","uncletopia"],"edicts":[837,2048],"game_id":440,"stv_port":27066,"stv_name":"Uncletopia | Frankfurt | 6 | All Maps | STV","players":null},{"server_id":0,"name_short":"","name":"Uncletopia | Montréal | 3 | One Thousand Uncles","host":"","port":0,"enabled":false,"region":"","cc":"","latitude":0,"longitude":0,"reserved":0,"last_update":"0001-01-01T00:00:00Z","protocol":17,"map":"cp_dustbowl","folder":"tf","game":"Team Fortress","app_id":440,"player_count":0,"max_players":32,"Bots":0,"server_type":"Dedicated","server_os":"Linux","password":true,"vac":true,"version":"7961495","steam_id":85568392924500089,"keywords":["alltalk","cp","danepve","increased_maxplayers","norespawntime","uncletopia"],"edicts":[736,2048],"game_id":440,"stv_port":0,"stv_name":"","players":null},{"server_id":0,"name_short":"","name":"Uncletopia | Atlanta | 3 | Stopwatch","host":"","port":0,"enabled":false,"region":"","cc":"","latitude":0,"longitude":0,"reserved":0,"last_update":"0001-01-01T00:00:00Z","protocol":17,"map":"pl_badwater_pro_v12","folder":"tf","game":"Team Fortress","app_id":440,"player_count":0,"max_players":24,"Bots":0,"server_type":"Dedicated","server_os":"Linux","password":true,"vac":true,"version":"7961495","steam_id":85568392924515187,"keywords":["nocrits","nodmgspread","payload","uncletopia"],"edicts":[713,2048],"game_id":440,"stv_port":27036,"stv_name":"Uncletopia | Atlanta | 3 | Stopwatch | STV","players":null},{"server_id":0,"name_short":"","name":"Uncletopia | Dallas | 3 | All Maps","host":"","port":0,"enabled":false,"region":"","cc":"","latitude":0,"longitude":0,"reserved":0,"last_update":"0001-01-01T00:00:00Z","protocol":17,"map":"koth_viaduct","folder":"tf","game":"Team Fortress","app_id":440,"player_count":0,"max_players":24,"Bots":0,"server_type":"Dedicated","server_os":"Linux","password":true,"vac":true,"version":"7961495","steam_id":85568392924515219,"keywords":["cp","nocrits","nodmgspread","uncletopia"],"edicts":[218,2048],"game_id":440,"stv_port":27036,"stv_name":"Uncletopia | Dallas | 3 | All Maps | STV","players":null},{"server_id":0,"name_short":"","name":"Uncletopia | London | 7 | Stopwatch","host":"","port":0,"enabled":false,"region":"","cc":"","latitude":0,"longitude":0,"reserved":0,"last_update":"0001-01-01T00:00:00Z","protocol":17,"map":"pl_swiftwater_final1","folder":"tf","game":"Team Fortress","app_id":440,"player_count":0,"max_players":24,"Bots":0,"server_type":"Dedicated","server_os":"Linux","password":true,"vac":true,"version":"7961495","steam_id":85568392924964314,"keywords":["nocrits","nodmgspread","payload","uncletopia"],"edicts":[902,2048],"game_id":440,"stv_port":27076,"stv_name":"Uncletopia | London | 7 | Stopwatch | STV","players":null},{"server_id":0,"name_short":"","name":"Uncletopia | Warsaw | 6 | Community","host":"","port":0,"enabled":false,"region":"","cc":"","latitude":0,"longitude":0,"reserved":0,"last_update":"0001-01-01T00:00:00Z","protocol":17,"map":"pl_highwood_b19","folder":"tf","game":"Team Fortress","app_id":440,"player_count":0,"max_players":24,"Bots":0,"server_type":"Dedicated","server_os":"Linux","password":true,"vac":true,"version":"7961495","steam_id":85568392925397856,"keywords":["nocrits","nodmgspread","payload","uncletopia"],"edicts":[709,2048],"game_id":440,"stv_port":27066,"stv_name":"Uncletopia | Warsaw | 6 | Community | STV","players":null},{"server_id":0,"name_short":"","name":"Uncletopia | Warsaw | 5 | Stopwatch","host":"","port":0,"enabled":false,"region":"","cc":"","latitude":0,"longitude":0,"reserved":0,"last_update":"0001-01-01T00:00:00Z","protocol":17,"map":"koth_clearcut_b15","folder":"tf","game":"Team Fortress","app_id":440,"player_count":0,"max_players":24,"Bots":0,"server_type":"Dedicated","server_os":"Linux","password":true,"vac":true,"version":"7961495","steam_id":85568392925397854,"keywords":["cp","nocrits","nodmgspread","uncletopia"],"edicts":[445,2048],"game_id":440,"stv_port":27056,"stv_name":"Uncletopia | Warsaw | 5 | Stopwatch | STV","players":null},{"server_id":0,"name_short":"","name":"Uncletopia | Sydney | 4 | All Maps","host":"","port":0,"enabled":false,"region":"","cc":"","latitude":0,"longitude":0,"reserved":0,"last_update":"0001-01-01T00:00:00Z","protocol":17,"map":"cp_standin_final","folder":"tf","game":"Team Fortress","app_id":440,"player_count":0,"max_players":24,"Bots":0,"server_type":"Dedicated","server_os":"Linux","password":true,"vac":true,"version":"7961495","steam_id":85568392925397958,"keywords":["cp","nocrits","nodmgspread","uncletopia"],"edicts":[426,2048],"game_id":440,"stv_port":27046,"stv_name":"Uncletopia | Sydney | 4 | All Maps | STV","players":null},{"server_id":0,"name_short":"","name":"Uncletopia | New York City | 1 | All Maps","host":"","port":0,"enabled":false,"region":"","cc":"","latitude":0,"longitude":0,"reserved":0,"last_update":"0001-01-01T00:00:00Z","protocol":17,"map":"cp_process_final","folder":"tf","game":"Team Fortress","app_id":440,"player_count":0,"max_players":24,"Bots":0,"server_type":"Dedicated","server_os":"Linux","password":true,"vac":true,"version":"7961495","steam_id":85568392924469993,"keywords":["cp","nocrits","nodmgspread","uncletopia"],"edicts":[537,2048],"game_id":440,"stv_port":27016,"stv_name":"Uncletopia | New York City | 1 | All Maps | STV","players":null},{"server_id":0,"name_short":"","name":"Uncletopia | London | 4 | All Maps","host":"","port":0,"enabled":false,"region":"","cc":"","latitude":0,"longitude":0,"reserved":0,"last_update":"0001-01-01T00:00:00Z","protocol":17,"map":"cp_dustbowl","folder":"tf","game":"Team Fortress","app_id":440,"player_count":0,"max_players":24,"Bots":0,"server_type":"Dedicated","server_os":"Linux","password":true,"vac":true,"version":"7961495","steam_id":85568392924510193,"keywords":["cp","nocrits","nodmgspread","uncletopia"],"edicts":[741,2048],"game_id":440,"stv_port":27046,"stv_name":"Uncletopia | London | 4 | All Maps | STV","players":null},{"server_id":0,"name_short":"","name":"Uncletopia | Warsaw | 1 | One Thousand Uncles","host":"","port":0,"enabled":false,"region":"","cc":"","latitude":0,"longitude":0,"reserved":0,"last_update":"0001-01-01T00:00:00Z","protocol":17,"map":"pl_pier","folder":"tf","game":"Team Fortress","app_id":440,"player_count":0,"max_players":32,"Bots":0,"server_type":"Dedicated","server_os":"Linux","password":true,"vac":true,"version":"7961495","steam_id":85568392925397850,"keywords":["alltalk","danepve","increased_maxplayers","norespawntime","payload","uncletopia"],"edicts":[962,2048],"game_id":440,"stv_port":0,"stv_name":"","players":null},{"server_id":0,"name_short":"","name":"Uncletopia | Sydney | 6 | Community","host":"","port":0,"enabled":false,"region":"","cc":"","latitude":0,"longitude":0,"reserved":0,"last_update":"0001-01-01T00:00:00Z","protocol":17,"map":"koth_soot_final1","folder":"tf","game":"Team Fortress","app_id":440,"player_count":0,"max_players":24,"Bots":0,"server_type":"Dedicated","server_os":"Linux","password":true,"vac":true,"version":"7961495","steam_id":85568392925397960,"keywords":["cp","nocrits","nodmgspread","uncletopia"],"edicts":[240,2048],"game_id":440,"stv_port":27066,"stv_name":"Uncletopia | Sydney | 6 | Community | STV","players":null},{"server_id":0,"name_short":"","name":"Uncletopia | Los Angeles | 2 | All Maps","host":"","port":0,"enabled":false,"region":"","cc":"","latitude":0,"longitude":0,"reserved":0,"last_update":"0001-01-01T00:00:00Z","protocol":17,"map":"koth_lazarus","folder":"tf","game":"Team Fortress","app_id":440,"player_count":0,"max_players":24,"Bots":0,"server_type":"Dedicated","server_os":"Linux","password":true,"vac":true,"version":"7961495","steam_id":85568392924469992,"keywords":["cp","nocrits","nodmgspread","uncletopia"],"edicts":[863,2048],"game_id":440,"stv_port":27026,"stv_name":"Uncletopia | Los Angeles | 2 | All Maps | STV","players":null},{"server_id":0,"name_short":"","name":"Uncletopia | Frankfurt | 5 | All Maps","host":"","port":0,"enabled":false,"region":"","cc":"","latitude":0,"longitude":0,"reserved":0,"last_update":"0001-01-01T00:00:00Z","protocol":17,"map":"ctf_landfall","folder":"tf","game":"Team Fortress","app_id":440,"player_count":0,"max_players":24,"Bots":0,"server_type":"Dedicated","server_os":"Linux","password":true,"vac":true,"version":"7961495","steam_id":85568392924504277,"keywords":["ctf","nocrits","nodmgspread","uncletopia"],"edicts":[522,2048],"game_id":440,"stv_port":27056,"stv_name":"Uncletopia | Frankfurt | 5 | All Maps | STV","players":null},{"server_id":0,"name_short":"","name":"Uncletopia | Frankfurt | 8 | Community","host":"","port":0,"enabled":false,"region":"","cc":"","latitude":0,"longitude":0,"reserved":0,"last_update":"0001-01-01T00:00:00Z","protocol":17,"map":"pl_stallberg_rc3","folder":"tf","game":"Team Fortress","app_id":440,"player_count":0,"max_players":24,"Bots":0,"server_type":"Dedicated","server_os":"Linux","password":true,"vac":true,"version":"7961495","steam_id":85568392924742828,"keywords":["nocrits","nodmgspread","payload","uncletopia"],"edicts":[614,2048],"game_id":440,"stv_port":27086,"stv_name":"Uncletopia | Frankfurt | 8 | Community | STV","players":null},{"server_id":0,"name_short":"","name":"Uncletopia | Montréal | 1 | One Thousand Uncles","host":"","port":0,"enabled":false,"region":"","cc":"","latitude":0,"longitude":0,"reserved":0,"last_update":"0001-01-01T00:00:00Z","protocol":17,"map":"pl_goldrush","folder":"tf","game":"Team Fortress","app_id":440,"player_count":0,"max_players":32,"Bots":0,"server_type":"Dedicated","server_os":"Linux","password":true,"vac":true,"version":"7961495","steam_id":85568392924500087,"keywords":["alltalk","danepve","increased_maxplayers","norespawntime","payload","uncletopia"],"edicts":[1133,2048],"game_id":440,"stv_port":0,"stv_name":"","players":null},{"server_id":0,"name_short":"","name":"Uncletopia | Atlanta | 4 | Community","host":"","port":0,"enabled":false,"region":"","cc":"","latitude":0,"longitude":0,"reserved":0,"last_update":"0001-01-01T00:00:00Z","protocol":17,"map":"koth_product_final","folder":"tf","game":"Team Fortress","app_id":440,"player_count":0,"max_players":24,"Bots":0,"server_type":"Dedicated","server_os":"Linux","password":true,"vac":true,"version":"7961495","steam_id":85568392924515188,"keywords":["cp","nocrits","nodmgspread","uncletopia"],"edicts":[352,2048],"game_id":440,"stv_port":27046,"stv_name":"Uncletopia | Atlanta | 4 | Community | STV","players":null},{"server_id":0,"name_short":"","name":"Uncletopia | São Paulo | 2 | Community","host":"","port":0,"enabled":false,"region":"","cc":"","latitude":0,"longitude":0,"reserved":0,"last_update":"0001-01-01T00:00:00Z","protocol":17,"map":"pl_jinn_rc2","folder":"tf","game":"Team Fortress","app_id":440,"player_count":0,"max_players":24,"Bots":0,"server_type":"Dedicated","server_os":"Linux","password":true,"vac":true,"version":"7961495","steam_id":85568392924485349,"keywords":["nocrits","nodmgspread","payload","uncletopia"],"edicts":[768,2048],"game_id":440,"stv_port":27016,"stv_name":"Uncletopia | São Paulo | 2 | Community | STV","players":null},{"server_id":0,"name_short":"","name":"Uncletopia | Hong Kong | 1 | All Maps","host":"","port":0,"enabled":false,"region":"","cc":"","latitude":0,"longitude":0,"reserved":0,"last_update":"0001-01-01T00:00:00Z","protocol":17,"map":"pl_upward","folder":"tf","game":"Team Fortress","app_id":440,"player_count":24,"max_players":24,"Bots":0,"server_type":"Dedicated","server_os":"Linux","password":true,"vac":true,"version":"7961495","steam_id":85568392924494504,"keywords":["nocrits","nodmgspread","payload","uncletopia"],"edicts":[885,2048],"game_id":440,"stv_port":27016,"stv_name":"Uncletopia | Hong Kong | 1 | All Maps | STV","players":[{"user_id":16,"name":"MS PowerPoint","steam_id":76561198369523192,"connected_time":9095000000000,"state":"active","ping":73},{"user_id":117,"name":"aLdousy","steam_id":76561198961693972,"connected_time":491000000000,"state":"active","ping":122},{"user_id":97,"name":"MonoBendy","steam_id":76561198169234066,"connected_time":2324000000000,"state":"active","ping":53},{"user_id":118,"name":"lorey","steam_id":76561199137927625,"connected_time":292000000000,"state":"active","ping":92},{"user_id":109,"name":"villy","steam_id":76561198169263597,"connected_time":1567000000000,"state":"active","ping":36},{"user_id":116,"name":"Law","steam_id":76561198136685157,"connected_time":642000000000,"state":"active","ping":63},{"user_id":91,"name":"a musian","steam_id":76561198152588681,"connected_time":2937000000000,"state":"active","ping":85},{"user_id":77,"name":"v1.","steam_id":76561198037571054,"connected_time":4277000000000,"state":"active","ping":40},{"user_id":96,"name":"fieds","steam_id":76561199033459509,"connected_time":2504000000000,"state":"active","ping":113},{"user_id":39,"name":"beepis","steam_id":76561198965473654,"connected_time":6060000000000,"state":"active","ping":72},{"user_id":92,"name":"LeMIckey Hater","steam_id":76561199219484527,"connected_time":2773000000000,"state":"active","ping":122},{"user_id":93,"name":"Falfarey","steam_id":76561198185402494,"connected_time":2761000000000,"state":"active","ping":93},{"user_id":98,"name":"water tastes good","steam_id":76561199375947670,"connected_time":2211000000000,"state":"active","ping":64},{"user_id":88,"name":"Telekhine","steam_id":76561198387120618,"connected_time":3149000000000,"state":"active","ping":60},{"user_id":99,"name":"E","steam_id":76561199173781370,"connected_time":2049000000000,"state":"active","ping":89},{"user_id":104,"name":"doctor morbin' (official)","steam_id":76561199365241695,"connected_time":1866000000000,"state":"active","ping":77},{"user_id":110,"name":"d6ze","steam_id":76561198318292720,"connected_time":1468000000000,"state":"active","ping":142},{"user_id":115,"name":"BURN PYGMALION!!!","steam_id":76561198074339034,"connected_time":678000000000,"state":"active","ping":75},{"user_id":123,"name":"Lady D.","steam_id":76561199225360457,"connected_time":108000000000,"state":"active","ping":67},{"user_id":107,"name":"zomafreakapon","steam_id":76561198043789187,"connected_time":1799000000000,"state":"active","ping":86},{"user_id":124,"name":"SAUL GOODMAN","steam_id":76561198976079956,"connected_time":26000000000,"state":"active","ping":71},{"user_id":125,"name":"Dr.Time_Consuming","steam_id":76561199238207915,"connected_time":22000000000,"state":"active","ping":265},{"user_id":112,"name":"daffy","steam_id":76561198356316337,"connected_time":1433000000000,"state":"active","ping":99},{"user_id":114,"name":"Xx_EpicTrickstabber_xX","steam_id":76561199024960087,"connected_time":1221000000000,"state":"active","ping":63}]},{"server_id":0,"name_short":"","name":"Uncletopia | New York City | 2 | All Maps","host":"","port":0,"enabled":false,"region":"","cc":"","latitude":0,"longitude":0,"reserved":0,"last_update":"0001-01-01T00:00:00Z","protocol":17,"map":"pl_upward","folder":"tf","game":"Team Fortress","app_id":440,"player_count":0,"max_players":24,"Bots":0,"server_type":"Dedicated","server_os":"Linux","password":true,"vac":true,"version":"7961495","steam_id":85568392924469994,"keywords":["nocrits","nodmgspread","payload","uncletopia"],"edicts":[659,2048],"game_id":440,"stv_port":27026,"stv_name":"Uncletopia | New York City | 2 | All Maps | STV","players":null}]}