{"status":true,"message":"","result":[{"server_id":2,"name":"Uncletopia | Chicago | 1 | All Maps","name_short":"chi-1","host":"chi-1.us.uncletopia.com","port":27015,"enabled":true,"region":"us-central","cc":"us","latitude":41.881832,"longitude":-87.62318,"reserved":0,"last_update":"0001-01-01T00:00:00Z","name_a2s":"Uncletopia | Chicago | 1 | All Maps","protocol":17,"map":"pl_upward","folder":"tf","game":"Team Fortress","app_id":440,"player_count":24,"max_players":24,"Bots":0,"server_type":"Dedicated","server_os":"Linux","password":true,"vac":true,"version":"7961495","steam_id":85568392924469984,"keywords":["nocrits","nodmgspread","payload","uncletopia"],"game_id":440,"stv_port":27016,"stv_name":"Uncletopia | Chicago | 1 | All Maps | STV","players":[{"user_id":51,"name":"Sammi June","steam_id":76561198117500991,"connected_time":2005000000000,"state":"active","ping":71},{"user_id":47,"name":"asbestos","steam_id":76561198079178866,"connected_time":2157000000000,"state":"active","ping":69},{"user_id":41,"name":"ThatGamingKiwi","steam_id":76561199170522237,"connected_time":2247000000000,"state":"active","ping":80},{"user_id":46,"name":"winrarFanatic","steam_id":76561198026538317,"connected_time":2159000000000,"state":"active","ping":59},{"user_id":69,"name":"Joker","steam_id":76561198341537452,"connected_time":915000000000,"state":"active","ping":74},{"user_id":11,"name":"Uung","steam_id":76561198183956731,"connected_time":2813000000000,"state":"active","ping":63},{"user_id":12,"name":"kite","steam_id":76561198346516392,"connected_time":2809000000000,"state":"active","ping":67},{"user_id":82,"name":"Anthid","steam_id":76561198074493797,"connected_time":209000000000,"state":"active","ping":61},{"user_id":53,"name":"Oopsie Daisy ❋","steam_id":76561198042144492,"connected_time":1851000000000,"state":"active","ping":72},{"user_id":70,"name":"kafkaesque","steam_id":76561198057076267,"connected_time":774000000000,"state":"active","ping":73},{"user_id":28,"name":"pandoRA","steam_id":76561198075490385,"connected_time":2704000000000,"state":"active","ping":99},{"user_id":55,"name":"Hob-Goblin Jim The IV","steam_id":76561199046650666,"connected_time":1817000000000,"state":"active","ping":58},{"user_id":42,"name":"[NAME-REDACTED]","steam_id":76561198035682975,"connected_time":2216000000000,"state":"active","ping":70},{"user_id":22,"name":"Celestial Bodies","steam_id":76561198212572955,"connected_time":2750000000000,"state":"active","ping":80},{"user_id":57,"name":"ThatOneKnight","steam_id":76561198388583650,"connected_time":1477000000000,"state":"active","ping":64},{"user_id":25,"name":"TheAlmightyG","steam_id":76561198235946096,"connected_time":2736000000000,"state":"active","ping":94},{"user_id":56,"name":"SoaringPhoenix","steam_id":76561198445103637,"connected_time":1543000000000,"state":"active","ping":50},{"user_id":68,"name":"Sentry Gun (American)","steam_id":76561198313770809,"connected_time":940000000000,"state":"active","ping":62},{"user_id":65,"name":"Cdesmondd","steam_id":76561198072774462,"connected_time":1115000000000,"state":"active","ping":64},{"user_id":75,"name":"Queen Gizzard","steam_id":76561198046568370,"connected_time":261000000000,"state":"active","ping":91},{"user_id":31,"name":"Jellojiggler","steam_id":76561198094320477,"connected_time":2692000000000,"state":"active","ping":78},{"user_id":81,"name":"Lia_Rein","steam_id":76561198151569597,"connected_time":255000000000,"state":"active","ping":150},{"user_id":37,"name":"Kattnesta","steam_id":76561198210927551,"connected_time":2514000000000,"state":"active","ping":55},{"user_id":48,"name":"Tarnation Bob","steam_id":76561198107382571,"connected_time":2157000000000,"state":"active","ping":130}]},{"server_id":106,"name":"Uncletopia | Chicago | 2 | All Maps","name_short":"chi-2","host":"chi-1.us.uncletopia.com","port":27025,"enabled":true,"region":"us-central","cc":"us","latitude":41.881832,"longitude":-87.62318,"reserved":0,"last_update":"0001-01-01T00:00:00Z","name_a2s":"Uncletopia | Chicago | 2 | All Maps","protocol":17,"map":"cp_mountainlab","folder":"tf","game":"Team Fortress","app_id":440,"player_count":11,"max_players":24,"Bots":0,"server_type":"Dedicated","server_os":"Linux","password":true,"vac":true,"version":"7961495","steam_id":85568392924469985,"keywords":["cp","nocrits","nodmgspread","uncletopia"],"game_id":440,"stv_port":27026,"stv_name":"Uncletopia | Chicago | 2 | All Maps | STV","players":[{"user_id":11,"name":"Six Piece Chicken McNobody","steam_id":76561198129848222,"connected_time":362000000000,"state":"active","ping":65},{"user_id":22,"name":"Hey","steam_id":76561198447517893,"connected_time":67000000000,"state":"active","ping":68},{"user_id":13,"name":"Saggy Haggis Balls","steam_id":76561198047845399,"connected_time":282000000000,"state":"active","ping":76},{"user_id":19,"name":"funny lil guy","steam_id":76561199094827794,"connected_time":149000000000,"state":"active","ping":45},{"user_id":17,"name":"Goose","steam_id":76561198147297077,"connected_time":176000000000,"state":"active","ping":68},{"user_id":23,"name":"CorsaireCruiser","steam_id":76561199471511497,"connected_time":63000000000,"state":"active","ping":101},{"user_id":24,"name":"pigfarmer.gov","steam_id":76561199071167548,"connected_time":57000000000,"state":"active","ping":58},{"user_id":25,"name":"I gotta fart really bad","steam_id":76561197986530028,"connected_time":42000000000,"state":"active","ping":86},{"user_id":26,"name":"ShadowBolt","steam_id":76561198061610985,"connected_time":36000000000,"state":"active","ping":91},{"user_id":27,"name":"tasty","steam_id":76561198083839061,"connected_time":21000000000,"state":"active","ping":42}]},{"server_id":402,"name":"Uncletopia | Chicago | 3 | All Maps","name_short":"chi-3","host":"chi-1.us.uncletopia.com","port":27035,"enabled":true,"region":"us-central","cc":"us","latitude":41.881832,"longitude":-87.62318,"reserved":0,"last_update":"0001-01-01T00:00:00Z","name_a2s":"Uncletopia | Chicago | 3 | All Maps","protocol":17,"map":"koth_cascade","folder":"tf","game":"Team Fortress","app_id":440,"player_count":24,"max_players":24,"Bots":0,"server_type":"Dedicated","server_os":"Linux","password":true,"vac":true,"version":"7961495","steam_id":85568392924515191,"keywords":["cp","nocrits","nodmgspread","uncletopia"],"game_id":440,"stv_port":27036,"stv_name":"Uncletopia | Chicago | 3 | All Maps | STV","players":[{"user_id":39,"name":"not_a_bot742","steam_id":76561199490243754,"connected_time":640000000000,"state":"active","ping":71},{"user_id":15,"name":"paper","steam_id":76561199075241499,"connected_time":1249000000000,"state":"active","ping":86},{"user_id":10,"name":"maS","steam_id":76561198033846407,"connected_time":1383000000000,"state":"active","ping":46},{"user_id":11,"name":"Fraglin","steam_id":76561198124964000,"connected_time":1370000000000,"state":"active","ping":74},{"user_id":12,"name":"FIREPOW #RTB","steam_id":76561198111259720,"connected_time":1335000000000,"state":"active","ping":61},{"user_id":16,"name":"apple2noob","steam_id":76561199048944120,"connected_time":1206000000000,"state":"active","ping":77},{"user_id":14,"name":"Yoshimelon","steam_id":76561198253054325,"connected_time":1283000000000,"state":"active","ping":60},{"user_id":17,"name":"JoJoJo","steam_id":76561198067153390,"connected_time":1161000000000,"state":"active","ping":52},{"user_id":18,"name":"JHLO","steam_id":76561198074359967,"connected_time":1157000000000,"state":"active","ping":81},{"user_id":19,"name":"DogSpoon","steam_id":76561198012485990,"connected_time":1148000000000,"state":"active","ping":59},{"user_id":20,"name":"The Sydney Sleeper Itself","steam_id":76561198180251763,"connected_time":1130000000000,"state":"active","ping":68},{"user_id":43,"name":"Fluffy","steam_id":76561198429285704,"connected_time":262000000000,"state":"active","ping":104},{"user_id":37,"name":"Mburesh","steam_id":76561198137460717,"connected_time":719000000000,"state":"active","ping":51},{"user_id":41,"name":"haadis55555","steam_id":76561199117504724,"connected_time":385000000000,"state":"active","ping":88},{"user_id":25,"name":"2JZ_","steam_id":76561198064027289,"connected_time":1029000000000,"state":"active","ping":76},{"user_id":26,"name":"Zaid","steam_id":76561199142840666,"connected_time":1021000000000,"state":"active","ping":154},{"user_id":27,"name":"caption cool","steam_id":76561197990612056,"connected_time":998000000000,"state":"active","ping":45},{"user_id":38,"name":"Oxygen Denier","steam_id":76561197986051713,"connected_time":719000000000,"state":"active","ping":77},{"user_id":29,"name":"Sigiferd","steam_id":76561198148788110,"connected_time":989000000000,"state":"active","ping":125},{"user_id":30,"name":"ryan","steam_id":76561198141875225,"connected_time":981000000000,"state":"active","ping":59},{"user_id":42,"name":"AtomicTEM","steam_id":76561198128579718,"connected_time":377000000000,"state":"active","ping":71},{"user_id":32,"name":"Flame","steam_id":76561198980132494,"connected_time":965000000000,"state":"active","ping":117},{"user_id":44,"name":"Craig Isonychia","steam_id":76561198272013678,"connected_time":84000000000,"state":"active","ping":72},{"user_id":34,"name":"Aeonspassed","steam_id":76561198014016451,"connected_time":939000000000,"state":"active","ping":52}]},{"server_id":403,"name":"Uncletopia | Chicago | 4 | All Maps","name_short":"chi-4","host":"chi-1.us.uncletopia.com","port":27045,"enabled":true,"region":"us-central","cc":"us","latitude":41.881832,"longitude":-87.62318,"reserved":0,"last_update":"0001-01-01T00:00:00Z","name_a2s":"Uncletopia | Chicago | 4 | All Maps","protocol":17,"map":"koth_badlands","folder":"tf","game":"Team Fortress","app_id":440,"player_count":24,"max_players":24,"Bots":0,"server_type":"Dedicated","server_os":"Linux","password":true,"vac":true,"version":"7961495","steam_id":85568392924515193,"keywords":["cp","nocrits","nodmgspread","uncletopia"],"game_id":440,"stv_port":27046,"stv_name":"Uncletopia | Chicago | 4 | All Maps | STV","players":[{"user_id":51,"name":"lilixdust","steam_id":76561199391478575,"connected_time":66000000000,"state":"active","ping":102},{"user_id":5,"name":"_SCOOBER_","steam_id":76561199239122502,"connected_time":1509000000000,"state":"active","ping":119},{"user_id":6,"name":"CharredSoup","steam_id":76561199184482525,"connected_time":1440000000000,"state":"active","ping":82},{"user_id":15,"name":"Cooki","steam_id":76561198051705314,"connected_time":826000000000,"state":"active","ping":73},{"user_id":14,"name":"jerma enthusiast","steam_id":76561198359466264,"connected_time":883000000000,"state":"active","ping":74},{"user_id":9,"name":"Garbunkle","steam_id":76561198389831507,"connected_time":1324000000000,"state":"active","ping":59},{"user_id":42,"name":"Lion","steam_id":76561198848879603,"connected_time":396000000000,"state":"active","ping":61},{"user_id":26,"name":"LARGE","steam_id":76561198124583948,"connected_time":672000000000,"state":"active","ping":82},{"user_id":18,"name":"daemon","steam_id":76561198001541433,"connected_time":749000000000,"state":"active","ping":46},{"user_id":43,"name":"Lightish Red","steam_id":76561198060879701,"connected_time":369000000000,"state":"active","ping":45},{"user_id":39,"name":"Halibard","steam_id":76561198011239659,"connected_time":510000000000,"state":"active","ping":68},{"user_id":38,"name":"Varveer","steam_id":76561198218897383,"connected_time":524000000000,"state":"active","ping":63},{"user_id":23,"name":"NPC","steam_id":76561198104086771,"connected_time":697000000000,"state":"active","ping":104},{"user_id":24,"name":"Big Iron Enjoyer","steam_id":76561199184115008,"connected_time":696000000000,"state":"active","ping":65},{"user_id":47,"name":"Satchamo","steam_id":76561198012968239,"connected_time":252000000000,"state":"active","ping":76},{"user_id":46,"name":"Ninten","steam_id":76561198131409710,"connected_time":266000000000,"state":"active","ping":63},{"user_id":41,"name":"shadowking","steam_id":76561199284698401,"connected_time":401000000000,"state":"active","ping":92},{"user_id":30,"name":"Stolid","steam_id":76561197998506423,"connected_time":652000000000,"state":"active","ping":89},{"user_id":31,"name":"walterfishing_17","steam_id":76561198976904099,"connected_time":649000000000,"state":"active","ping":79},{"user_id":49,"name":"ume_ybbuhc","steam_id":76561199482149729,"connected_time":141000000000,"state":"active","ping":69},{"user_id":33,"name":"[DATS➡] Sugar Meowth","steam_id":76561197995251793,"connected_time":631000000000,"state":"active","ping":91},{"user_id":35,"name":"Dreamzapp","steam_id":76561199084936632,"connected_time":599000000000,"state":"active","ping":117},{"user_id":36,"name":"Mank","steam_id":76561198189421005,"connected_time":598000000000,"state":"active","ping":57},{"user_id":44,"name":"Tat_Dead","steam_id":76561199048111391,"connected_time":360000000000,"state":"active","ping":102}]},{"server_id":36,"name":"Uncletopia | Chicago | 5 | All Maps","name_short":"chi-5","host":"chi-2.us.uncletopia.com","port":27015,"enabled":true,"region":"us-central","cc":"us","latitude":41.881832,"longitude":-87.62318,"reserved":0,"last_update":"0001-01-01T00:00:00Z","name_a2s":"Uncletopia | Chicago | 5 | All Maps","protocol":17,"map":"pl_frontier_final","folder":"tf","game":"Team Fortress","app_id":440,"player_count":26,"max_players":24,"Bots":0,"server_type":"Dedicated","server_os":"Linux","password":true,"vac":true,"version":"7961495","steam_id":85568392924866362,"keywords":["nocrits","nodmgspread","payload","uncletopia"],"game_id":440,"stv_port":27016,"stv_name":"Uncletopia | Chicago | 5 | All Maps | STV","players":[{"user_id":4,"name":"Tri-Dot","steam_id":76561199075186597,"connected_time":829000000000,"state":"active","ping":66},{"user_id":5,"name":"ShawnLmao","steam_id":76561198350691501,"connected_time":731000000000,"state":"active","ping":107},{"user_id":6,"name":"nhbiker","steam_id":76561198081277675,"connected_time":686000000000,"state":"active","ping":60},{"user_id":7,"name":"glankinator","steam_id":76561198354077256,"connected_time":545000000000,"state":"active","ping":46},{"user_id":8,"name":"Willem Dafoe","steam_id":76561198037453253,"connected_time":510000000000,"state":"active","ping":58},{"user_id":22,"name":"Ichibanprofen","steam_id":76561199192132061,"connected_time":235000000000,"state":"active","ping":97},{"user_id":10,"name":"Don Piccolo","steam_id":76561198118539302,"connected_time":408000000000,"state":"active","ping":86},{"user_id":12,"name":"Uwu Micster","steam_id":76561198843890616,"connected_time":326000000000,"state":"active","ping":77},{"user_id":13,"name":"Kretim","steam_id":76561199204273483,"connected_time":322000000000,"state":"active","ping":71},{"user_id":14,"name":"ozbulu|troutsupply.net","steam_id":76561198067176829,"connected_time":320000000000,"state":"active","ping":115},{"user_id":15,"name":"「Daws_Dudeguy」","steam_id":76561198205838645,"connected_time":316000000000,"state":"active","ping":78},{"user_id":16,"name":"Captian Wobbs","steam_id":76561198142884936,"connected_time":281000000000,"state":"active","ping":82},{"user_id":17,"name":"Pika","steam_id":76561198068063436,"connected_time":277000000000,"state":"active","ping":48},{"user_id":18,"name":"The Wise Guy","steam_id":76561198031080216,"connected_time":265000000000,"state":"active","ping":75},{"user_id":19,"name":"Meurik","steam_id":76561198078032795,"connected_time":243000000000,"state":"active","ping":179},{"user_id":20,"name":"crittr","steam_id":76561198014302068,"connected_time":242000000000,"state":"active","ping":70},{"user_id":21,"name":"nelly modelo","steam_id":76561198044875206,"connected_time":242000000000,"state":"active","ping":91},{"user_id":23,"name":"Burgerpocalypse","steam_id":76561198012453290,"connected_time":234000000000,"state":"active","ping":135},{"user_id":24,"name":"Epha","steam_id":76561198079379951,"connected_time":217000000000,"state":"active","ping":67},{"user_id":25,"name":"caliburny","steam_id":76561198025201844,"connected_time":195000000000,"state":"active","ping":65},{"user_id":26,"name":"The local hobo","steam_id":76561198289650060,"connected_time":183000000000,"state":"active","ping":85},{"user_id":27,"name":"Big Titty Wolf Girl","steam_id":76561198118559769,"connected_time":178000000000,"state":"active","ping":94},{"user_id":28,"name":"Hacky","steam_id":76561199001746800,"connected_time":174000000000,"state":"active","ping":142},{"user_id":29,"name":"Mr_Frosty","steam_id":76561199380389079,"connected_time":172000000000,"state":"active","ping":100},{"user_id":33,"name":"Mattie","steam_id":76561197967418271,"connected_time":130000000000,"state":"active","ping":70},{"user_id":36,"name":"kleboldtf2","steam_id":76561199489995216,"connected_time":16000000000,"state":"spawning","ping":104}]},{"server_id":37,"name":"Uncletopia | Chicago | 6 | All Maps","name_short":"chi-6","host":"chi-2.us.uncletopia.com","port":27025,"enabled":true,"region":"us-central","cc":"us","latitude":41.881832,"longitude":-87.62318,"reserved":0,"last_update":"0001-01-01T00:00:00Z","name_a2s":"Uncletopia | Chicago | 6 | All Maps","protocol":17,"map":"cp_snakewater_final1","folder":"tf","game":"Team Fortress","app_id":440,"player_count":0,"max_players":24,"Bots":0,"server_type":"Dedicated","server_os":"Linux","password":true,"vac":true,"version":"7961495","steam_id":85568392924866363,"keywords":["cp","nocrits","nodmgspread","uncletopia"],"game_id":440,"stv_port":27026,"stv_name":"Uncletopia | Chicago | 6 | All Maps | STV","players":null},{"server_id":38,"name":"Uncletopia | Chicago | 7 | Stopwatch Beta","name_short":"chi-7","host":"chi-2.us.uncletopia.com","port":27035,"enabled":true,"region":"us-central","cc":"us","latitude":41.881832,"longitude":-87.62318,"reserved":0,"last_update":"0001-01-01T00:00:00Z","name_a2s":"Uncletopia | Chicago | 7 | Stopwatch Beta","protocol":17,"map":"workshop/cp_process_f12.ugc2302948105","folder":"tf","game":"Team Fortress","app_id":440,"player_count":0,"max_players":24,"Bots":0,"server_type":"Dedicated","server_os":"Linux","password":true,"vac":true,"version":"7961495","steam_id":85568392924866364,"keywords":["cp","nocrits","nodmgspread","uncletopia"],"game_id":440,"stv_port":27036,"stv_name":"Uncletopia | Chicago | 7 | Stopwatch Beta | STV","players":null},{"server_id":39,"name":"Uncletopia | Chicago | 8 | Community","name_short":"chi-8","host":"chi-2.us.uncletopia.com","port":27045,"enabled":true,"region":"us-central","cc":"us","latitude":41.881832,"longitude":-87.62318,"reserved":0,"last_update":"0001-01-01T00:00:00Z","name_a2s":"Uncletopia | Chicago | 8 | Community","protocol":17,"map":"cp_snakewater_final1","folder":"tf","game":"Team Fortress","app_id":440,"player_count":0,"max_players":24,"Bots":0,"server_type":"Dedicated","server_os":"Linux","password":true,"vac":true,"version":"7961495","steam_id":85568392924866365,"keywords":["cp","nocrits","nodmgspread","uncletopia"],"game_id":440,"stv_port":27046,"stv_name":"Uncletopia | Chicago | 8 | Community | STV","players":null},{"server_id":8,"name":"Uncletopia | Dallas | 1 | All Maps","name_short":"dal-1","host":"dal-1.us.uncletopia.com","port":27015,"enabled":true,"region":"us-central","cc":"us","latitude":32.779167,"longitude":-96.80889,"reserved":0,"last_update":"0001-01-01T00:00:00Z","name_a2s":"Uncletopia | Dallas | 1 | All Maps","protocol":17,"map":"pl_upward","folder":"tf","game":"Team Fortress","app_id":440,"player_count":24,"max_players":24,"Bots":0,"server_type":"Dedicated","server_os":"Linux","password":true,"vac":true,"version":"7961495","steam_id":85568392924469986,"keywords":["nocrits","nodmgspread","payload","uncletopia"],"game_id":440,"stv_port":27016,"stv_name":"Uncletopia | Dallas | 1 | All Maps | STV","players":[{"user_id":62,"name":"GLG.Liz","steam_id":76561198021957956,"connected_time":97000000000,"state":"active","ping":37},{"user_id":57,"name":"EverythingZen","steam_id":76561198257384503,"connected_time":482000000000,"state":"active","ping":61},{"user_id":33,"name":"novu","steam_id":76561198886997024,"connected_time":2116000000000,"state":"active","ping":106},{"user_id":9,"name":"Mail Delivery","steam_id":76561198290046318,"connected_time":2618000000000,"state":"active","ping":60},{"user_id":54,"name":"Broken Cereal√","steam_id":76561198087489795,"connected_time":756000000000,"state":"active","ping":77},{"user_id":37,"name":"Huntpk","steam_id":76561198340591674,"connected_time":2067000000000,"state":"active","ping":67},{"user_id":61,"name":"Tomato","steam_id":76561197996472649,"connected_time":278000000000,"state":"active","ping":84},{"user_id":13,"name":"IlTrashPanda","steam_id":76561198447864095,"connected_time":2449000000000,"state":"active","ping":56},{"user_id":50,"name":"crispylego_","steam_id":76561199453679719,"connected_time":1203000000000,"state":"active","ping":130},{"user_id":60,"name":"Metacarfoe","steam_id":76561198236016496,"connected_time":391000000000,"state":"active","ping":59},{"user_id":16,"name":"DefaultKoala","steam_id":76561198059141147,"connected_time":2404000000000,"state":"active","ping":59},{"user_id":17,"name":"rice","steam_id":76561198119326733,"connected_time":2403000000000,"state":"active","ping":81},{"user_id":48,"name":"♂ I R O N ♂ M I K E ♂","steam_id":76561199405378993,"connected_time":1310000000000,"state":"active","ping":98},{"user_id":51,"name":"ElZeto","steam_id":76561198252322622,"connected_time":1171000000000,"state":"active","ping":92},{"user_id":55,"name":"Cardboardcoin","steam_id":76561199421284163,"connected_time":604000000000,"state":"active","ping":119},{"user_id":49,"name":"Chhaam","steam_id":76561198058508132,"connected_time":1303000000000,"state":"active","ping":74},{"user_id":58,"name":"AgentSly","steam_id":76561198071731311,"connected_time":416000000000,"state":"active","ping":110},{"user_id":24,"name":"Sableye","steam_id":76561198061247147,"connected_time":2341000000000,"state":"active","ping":74},{"user_id":44,"name":"Zorlovo","steam_id":76561198006443283,"connected_time":1430000000000,"state":"active","ping":72},{"user_id":35,"name":"[RЯ] ShibesGoneWow","steam_id":76561198036090516,"connected_time":2096000000000,"state":"active","ping":64},{"user_id":59,"name":"30-50 feral hogs","steam_id":76561198073587145,"connected_time":416000000000,"state":"active","ping":174},{"user_id":29,"name":"silly jester","steam_id":76561198079609974,"connected_time":2314000000000,"state":"active","ping":95},{"user_id":30,"name":"CrazyKermitRubes","steam_id":76561198009065204,"connected_time":2275000000000,"state":"active","ping":99},{"user_id":36,"name":"lexi","steam_id":76561198176299759,"connected_time":2096000000000,"state":"active","ping":109}]},{"server_id":108,"name":"Uncletopia | Dallas | 2 | All Maps","name_short":"dal-2","host":"dal-1.us.uncletopia.com","port":27025,"enabled":true,"region":"us-central","cc":"us","latitude":32.779167,"longitude":-96.80889,"reserved":0,"last_update":"0001-01-01T00:00:00Z","name_a2s":"Uncletopia | Dallas | 2 | All Maps","protocol":17,"map":"cp_mountainlab","folder":"tf","game":"Team Fortress","app_id":440,"player_count":0,"max_players":24,"Bots":0,"server_type":"Dedicated","server_os":"Linux","password":true,"vac":true,"version":"7961495","steam_id":85568392924469988,"keywords":["cp","nocrits","nodmgspread","uncletopia"],"game_id":440,"stv_port":27026,"stv_name":"Uncletopia | Dallas | 2 | All Maps | STV","players":null},{"server_id":5,"name":"Uncletopia | Frankfurt | 1 | All Maps","name_short":"frk-1","host":"frk-1.de.uncletopia.com","port":27015,"enabled":true,"region":"eu","cc":"de","latitude":50.110924,"longitude":8.682127,"reserved":0,"last_update":"0001-01-01T00:00:00Z","name_a2s":"Uncletopia | Frankfurt | 1 | All Maps","protocol":17,"map":"cp_altitude","folder":"tf","game":"Team Fortress","app_id":440,"player_count":0,"max_players":24,"Bots":0,"server_type":"Dedicated","server_os":"Linux","password":true,"vac":true,"version":"7961495","steam_id":85568392924469989,"keywords":["cp","nocrits","nodmgspread","uncletopia"],"game_id":440,"stv_port":27016,"stv_name":"Uncletopia | Frankfurt | 1 | All Maps | STV","players":null},{"server_id":110,"name":"Uncletopia | Frankfurt | 2 | All Maps","name_short":"frk-2","host":"frk-1.de.uncletopia.com","port":27025,"enabled":true,"region":"eu","cc":"de","latitude":50.110924,"longitude":8.682127,"reserved":0,"last_update":"0001-01-01T00:00:00Z","name_a2s":"Uncletopia | Frankfurt | 2 | All Maps","protocol":17,"map":"pl_borneo","folder":"tf","game":"Team Fortress","app_id":440,"player_count":0,"max_players":24,"Bots":0,"server_type":"Dedicated","server_os":"Linux","password":true,"vac":true,"version":"7961495","steam_id":85568392924469990,"keywords":["nocrits","nodmgspread","payload","uncletopia"],"game_id":440,"stv_port":27026,"stv_name":"Uncletopia | Frankfurt | 2 | All Maps | STV","players":null},{"server_id":308,"name":"Uncletopia | Frankfurt | 3 | All Maps","name_short":"frk-3","host":"frk-1.de.uncletopia.com","port":27035,"enabled":true,"region":"eu","cc":"de","latitude":50.110924,"longitude":8.682127,"reserved":0,"last_update":"0001-01-01T00:00:00Z","name_a2s":"Uncletopia | Frankfurt | 3 | All Maps","protocol":17,"map":"cp_mountainlab","folder":"tf","game":"Team Fortress","app_id":440,"player_count":0,"max_players":24,"Bots":0,"server_type":"Dedicated","server_os":"Linux","password":true,"vac":true,"version":"7961495","steam_id":85568392924504274,"keywords":["cp","nocrits","nodmgspread","uncletopia"],"game_id":440,"stv_port":27036,"stv_name":"Uncletopia | Frankfurt | 3 | All Maps | STV","players":null},{"server_id":309,"name":"Uncletopia | Frankfurt | 4 | All Maps","name_short":"frk-4","host":"frk-1.de.uncletopia.com","port":27045,"enabled":true,"region":"eu","cc":"de","latitude":50.110924,"longitude":8.682127,"reserved":0,"last_update":"0001-01-01T00:00:00Z","name_a2s":"Uncletopia | Frankfurt | 4 | All Maps","protocol":17,"map":"cp_process_final","folder":"tf","game":"Team Fortress","app_id":440,"player_count":0,"max_players":24,"Bots":0,"server_type":"Dedicated","server_os":"Linux","password":true,"vac":true,"version":"7961495","steam_id":85568392924504275,"keywords":["cp","nocrits","nodmgspread","uncletopia"],"game_id":440,"stv_port":27046,"stv_name":"Uncletopia | Frankfurt | 4 | All Maps | STV","players":null},{"server_id":310,"name":"Uncletopia | Frankfurt | 5 | All Maps","name_short":"frk-5","host":"frk-1.de.uncletopia.com","port":27055,"enabled":true,"region":"eu","cc":"de","latitude":50.110924,"longitude":8.682127,"reserved":0,"last_update":"0001-01-01T00:00:00Z","name_a2s":"Uncletopia | Frankfurt | 5 | All Maps","protocol":17,"map":"koth_viaduct","folder":"tf","game":"Team Fortress","app_id":440,"player_count":0,"max_players":24,"Bots":0,"server_type":"Dedicated","server_os":"Linux","password":true,"vac":true,"version":"7961495","steam_id":85568392924504277,"keywords":["cp","nocrits","nodmgspread","uncletopia"],"game_id":440,"stv_port":27056,"stv_name":"Uncletopia | Frankfurt | 5 | All Maps | STV","players":null},{"server_id":311,"name":"Uncletopia | Frankfurt | 6 | All Maps","name_short":"frk-6","host":"frk-1.de.uncletopia.com","port":27065,"enabled":true,"region":"eu","cc":"de","latitude":50.110924,"longitude":8.682127,"reserved":0,"last_update":"0001-01-01T00:00:00Z","name_a2s":"Uncletopia | Frankfurt | 6 | All Maps","protocol":17,"map":"pl_pier","folder":"tf","game":"Team Fortress","app_id":440,"player_count":0,"max_players":24,"Bots":0,"server_type":"Dedicated","server_os":"Linux","password":true,"vac":true,"version":"7961495","steam_id":85568392924504278,"keywords":["nocrits","nodmgspread","payload","uncletopia"],"game_id":440,"stv_port":27066,"stv_name":"Uncletopia | Frankfurt | 6 | All Maps | STV","players":null},{"server_id":23,"name":"Uncletopia | Frankfurt | 7 | Stopwatch Beta","name_short":"frk-7","host":"frk-1.de.uncletopia.com","port":27075,"enabled":true,"region":"eu","cc":"de","latitude":50.110924,"longitude":8.682127,"reserved":0,"last_update":"0001-01-01T00:00:00Z","name_a2s":"Uncletopia | Frankfurt | 7 | Stopwatch Beta","protocol":17,"map":"koth_cascade","folder":"tf","game":"Team Fortress","app_id":440,"player_count":0,"max_players":24,"Bots":0,"server_type":"Dedicated","server_os":"Linux","password":true,"vac":true,"version":"7961495","steam_id":85568392924742827,"keywords":["cp","nocrits","nodmgspread","uncletopia"],"game_id":440,"stv_port":27076,"stv_name":"Uncletopia | Frankfurt | 7 | Stopwatch Beta | STV","players":null},{"server_id":24,"name":"Uncletopia | Frankfurt | 8 | Community","name_short":"frk-8","host":"frk-1.de.uncletopia.com","port":27085,"enabled":true,"region":"eu","cc":"de","latitude":50.110924,"longitude":8.682127,"reserved":0,"last_update":"0001-01-01T00:00:00Z","name_a2s":"Uncletopia | Frankfurt | 8 | Community","protocol":17,"map":"cp_process_final","folder":"tf","game":"Team Fortress","app_id":440,"player_count":0,"max_players":24,"Bots":0,"server_type":"Dedicated","server_os":"Linux","password":true,"vac":true,"version":"7961495","steam_id":85568392924742828,"keywords":["cp","nocrits","nodmgspread","uncletopia"],"game_id":440,"stv_port":27086,"stv_name":"Uncletopia | Frankfurt | 8 | Community | STV","players":null},{"server_id":202,"name":"Uncletopia | Hong Kong | 1 | All Maps","name_short":"hgk-1","host":"hgk-1.hk.uncletopia.com","port":27015,"enabled":true,"region":"asia","cc":"hk","latitude":22.302711,"longitude":114.177216,"reserved":0,"last_update":"0001-01-01T00:00:00Z","name_a2s":"Uncletopia | Hong Kong | 1 | All Maps","protocol":17,"map":"cp_process_final","folder":"tf","game":"Team Fortress","app_id":440,"player_count":0,"max_players":24,"Bots":0,"server_type":"Dedicated","server_os":"Linux","password":true,"vac":true,"version":"7961495","steam_id":85568392924494504,"keywords":["cp","nocrits","nodmgspread","uncletopia"],"game_id":440,"stv_port":27016,"stv_name":"Uncletopia | Hong Kong | 1 | All Maps | STV","players":null},{"server_id":1,"name":"Uncletopia | Los Angeles | 1 | All Maps","name_short":"lax-1","host":"lax-1.us.uncletopia.com","port":27015,"enabled":true,"region":"us-west","cc":"us","latitude":33.94279,"longitude":-118.41004,"reserved":0,"last_update":"0001-01-01T00:00:00Z","name_a2s":"Uncletopia | Los Angeles | 1 | All Maps","protocol":17,"map":"cp_snakewater_final1","folder":"tf","game":"Team Fortress","app_id":440,"player_count":0,"max_players":24,"Bots":0,"server_type":"Dedicated","server_os":"Linux","password":true,"vac":true,"version":"7961495","steam_id":85568392924469991,"keywords":["cp","nocrits","nodmgspread","uncletopia"],"game_id":440,"stv_port":27016,"stv_name":"Uncletopia | Los Angeles | 1 | All Maps | STV","players":null},{"server_id":112,"name":"Uncletopia | Los Angeles | 2 | All Maps","name_short":"lax-2","host":"lax-1.us.uncletopia.com","port":27025,"enabled":true,"region":"us-west","cc":"us","latitude":33.94279,"longitude":-118.41004,"reserved":0,"last_update":"0001-01-01T00:00:00Z","name_a2s":"Uncletopia | Los Angeles | 2 | All Maps","protocol":17,"map":"pl_frontier_final","folder":"tf","game":"Team Fortress","app_id":440,"player_count":0,"max_players":24,"Bots":0,"server_type":"Dedicated","server_os":"Linux","password":true,"vac":true,"version":"7961495","steam_id":85568392924469992,"keywords":["nocrits","nodmgspread","payload","uncletopia"],"game_id":440,"stv_port":27026,"stv_name":"Uncletopia | Los Angeles | 2 | All Maps | STV","players":null},{"server_id":324,"name":"Uncletopia | Los Angeles | 3 | All Maps","name_short":"lax-3","host":"lax-1.us.uncletopia.com","port":27035,"enabled":true,"region":"us-west","cc":"us","latitude":33.94279,"longitude":-118.41004,"reserved":0,"last_update":"0001-01-01T00:00:00Z","name_a2s":"Uncletopia | Los Angeles | 3 | All Maps","protocol":17,"map":"koth_highpass","folder":"tf","game":"Team Fortress","app_id":440,"player_count":0,"max_players":24,"Bots":0,"server_type":"Dedicated","server_os":"Linux","password":true,"vac":true,"version":"7961495","steam_id":85568392924510198,"keywords":["cp","nocrits","nodmgspread","uncletopia"],"game_id":440,"stv_port":27036,"stv_name":"Uncletopia | Los Angeles | 3 | All Maps | STV","players":null},{"server_id":25,"name":"Uncletopia | Los Angeles | 4 | Stopwatch Beta","name_short":"lax-4","host":"lax-1.us.uncletopia.com","port":27045,"enabled":true,"region":"us-west","cc":"us","latitude":33.94279,"longitude":-118.41004,"reserved":0,"last_update":"0001-01-01T00:00:00Z","name_a2s":"Uncletopia | Los Angeles | 4 | Stopwatch Beta","protocol":17,"map":"pl_frontier_final","folder":"tf","game":"Team Fortress","app_id":440,"player_count":0,"max_players":24,"Bots":0,"server_type":"Dedicated","server_os":"Linux","password":true,"vac":true,"version":"7961495","steam_id":85568392924510199,"keywords":["nocrits","nodmgspread","payload","uncletopia"],"game_id":440,"stv_port":27046,"stv_name":"Uncletopia | Los Angeles | 4 | Stopwatch Beta | STV","players":null},{"server_id":11,"name":"Uncletopia | London | 1 | All Maps","name_short":"lon-1","host":"lon-1.uk.uncletopia.com","port":27015,"enabled":true,"region":"eu","cc":"gb","latitude":51.509865,"longitude":-0.118092,"reserved":0,"last_update":"0001-01-01T00:00:00Z","name_a2s":"Uncletopia | London | 1 | All Maps","protocol":17,"map":"pl_borneo","folder":"tf","game":"Team Fortress","app_id":440,"player_count":24,"max_players":24,"Bots":0,"server_type":"Dedicated","server_os":"Linux","password":true,"vac":true,"version":"7961495","steam_id":85568392924367362,"keywords":["nocrits","nodmgspread","payload","uncletopia"],"game_id":440,"stv_port":27016,"stv_name":"Uncletopia | London | 1 | All Maps | STV","players":[{"user_id":3,"name":"jakub","steam_id":76561198449852071,"connected_time":3041000000000,"state":"active","ping":43},{"user_id":8,"name":"sora","steam_id":76561198096547662,"connected_time":2975000000000,"state":"active","ping":49},{"user_id":43,"name":"Smokio","steam_id":76561198069650580,"connected_time":1266000000000,"state":"active","ping":90},{"user_id":40,"name":"MagPootis","steam_id":76561198157065778,"connected_time":1284000000000,"state":"active","ping":71},{"user_id":9,"name":"Toasted Toby","steam_id":76561198002139581,"connected_time":2974000000000,"state":"active","ping":66},{"user_id":13,"name":"Eidolon","steam_id":76561198043919565,"connected_time":2912000000000,"state":"active","ping":61},{"user_id":34,"name":"OhNoPhoton","steam_id":76561198119399146,"connected_time":1480000000000,"state":"active","ping":60},{"user_id":41,"name":"teddy","steam_id":76561198007436837,"connected_time":1278000000000,"state":"active","ping":38},{"user_id":42,"name":"VideoJames","steam_id":76561197970114051,"connected_time":1276000000000,"state":"active","ping":44},{"user_id":46,"name":"DaiDaiMu :3","steam_id":76561198052794823,"connected_time":323000000000,"state":"active","ping":77},{"user_id":16,"name":"beebo","steam_id":76561199120277007,"connected_time":2848000000000,"state":"active","ping":88},{"user_id":22,"name":"Sakari","steam_id":76561197997811299,"connected_time":2735000000000,"state":"active","ping":61},{"user_id":18,"name":"slippin jimmy","steam_id":76561198090788590,"connected_time":2760000000000,"state":"active","ping":33},{"user_id":20,"name":"Bobirulez","steam_id":76561198009125458,"connected_time":2752000000000,"state":"active","ping":72},{"user_id":21,"name":"Donutella","steam_id":76561198193972491,"connected_time":2736000000000,"state":"active","ping":34},{"user_id":23,"name":"The Nostalgia Critic","steam_id":76561198360395476,"connected_time":2718000000000,"state":"active","ping":32},{"user_id":24,"name":"gneeda","steam_id":76561198147249160,"connected_time":2692000000000,"state":"active","ping":107},{"user_id":45,"name":"margaret thatcher's girl power","steam_id":76561199401283123,"connected_time":929000000000,"state":"active","ping":48},{"user_id":27,"name":"bebeda blacked out","steam_id":76561198277943630,"connected_time":2628000000000,"state":"active","ping":73},{"user_id":29,"name":"Waltuh","steam_id":76561198079334270,"connected_time":2571000000000,"state":"active","ping":81},{"user_id":33,"name":"♥ Emma ♥","steam_id":76561198046796406,"connected_time":2104000000000,"state":"active","ping":45},{"user_id":38,"name":"Purps","steam_id":76561198053886680,"connected_time":1310000000000,"state":"active","ping":39},{"user_id":32,"name":"dinorno","steam_id":76561198146276830,"connected_time":2545000000000,"state":"active","ping":62},{"user_id":39,"name":"Will","steam_id":76561198117030753,"connected_time":1310000000000,"state":"active","ping":49}]},{"server_id":114,"name":"Uncletopia | London | 2 | All Maps","name_short":"lon-2","host":"lon-1.uk.uncletopia.com","port":27025,"enabled":true,"region":"eu","cc":"gb","latitude":51.509865,"longitude":-0.118092,"reserved":0,"last_update":"0001-01-01T00:00:00Z","name_a2s":"Uncletopia | London | 2 | All Maps","protocol":17,"map":"pl_badwater","folder":"tf","game":"Team Fortress","app_id":440,"player_count":25,"max_players":24,"Bots":0,"server_type":"Dedicated","server_os":"Linux","password":true,"vac":true,"version":"7961495","steam_id":85568392924470941,"keywords":["nocrits","nodmgspread","payload","uncletopia"],"game_id":440,"stv_port":27026,"stv_name":"Uncletopia | London | 2 | All Maps | STV","players":[{"user_id":10,"name":"Cosmetic brain","steam_id":76561198055936410,"connected_time":800000000000,"state":"active","ping":79},{"user_id":6,"name":"kyuta","steam_id":76561198382281653,"connected_time":1282000000000,"state":"active","ping":86},{"user_id":7,"name":"eckstra","steam_id":76561199474448245,"connected_time":1224000000000,"state":"active","ping":89},{"user_id":11,"name":"yuno appreciator","steam_id":76561198083286511,"connected_time":749000000000,"state":"active","ping":33},{"user_id":12,"name":"Engineer Gaming","steam_id":76561198840761529,"connected_time":728000000000,"state":"active","ping":157},{"user_id":13,"name":"Gustavo Fring","steam_id":76561198034769199,"connected_time":657000000000,"state":"active","ping":39},{"user_id":14,"name":"going bananas","steam_id":76561199480942903,"connected_time":526000000000,"state":"active","ping":75},{"user_id":15,"name":"♤︎ Cosmic","steam_id":76561198401639617,"connected_time":505000000000,"state":"active","ping":160},{"user_id":16,"name":"swagmaster9000","steam_id":76561198232259356,"connected_time":500000000000,"state":"active","ping":61},{"user_id":17,"name":"Doctor Marijuana","steam_id":76561198288289879,"connected_time":485000000000,"state":"active","ping":45},{"user_id":32,"name":"Silverkeys","steam_id":76561197986012496,"connected_time":279000000000,"state":"active","ping":120},{"user_id":19,"name":"Arii","steam_id":76561198138137939,"connected_time":424000000000,"state":"active","ping":49},{"user_id":20,"name":"DispenserComponent.tsx","steam_id":76561198303429751,"connected_time":421000000000,"state":"active","ping":46},{"user_id":21,"name":"Summer ♥","steam_id":76561198047723907,"connected_time":403000000000,"state":"active","ping":44},{"user_id":22,"name":"if i speak i'll be in trouble","steam_id":76561198055552635,"connected_time":374000000000,"state":"active","ping":58},{"user_id":23,"name":"ImFiNal","steam_id":76561198123148040,"connected_time":346000000000,"state":"active","ping":72},{"user_id":24,"name":"MACH9D0","steam_id":76561198113232344,"connected_time":336000000000,"state":"active","ping":77},{"user_id":27,"name":"C.H.E.R.E.P.","steam_id":76561198026938595,"connected_time":320000000000,"state":"active","ping":75},{"user_id":26,"name":"shankz","steam_id":76561198128803260,"connected_time":325000000000,"state":"active","ping":47},{"user_id":28,"name":"Fairchild Republic A-10 Thndrbl","steam_id":76561199038043360,"connected_time":310000000000,"state":"active","ping":138},{"user_id":29,"name":"String Girl","steam_id":76561198072719714,"connected_time":307000000000,"state":"active","ping":156},{"user_id":35,"name":"mer5277","steam_id":76561198192171041,"connected_time":218000000000,"state":"active","ping":1278},{"user_id":31,"name":"mineblast99","steam_id":76561199065648954,"connected_time":285000000000,"state":"active","ping":151},{"user_id":33,"name":"Sh3ba Spaniel","steam_id":76561198047412394,"connected_time":249000000000,"state":"active","ping":158},{"user_id":34,"name":"Crazy Cane","steam_id":76561198993941174,"connected_time":243000000000,"state":"active","ping":116}]},{"server_id":320,"name":"Uncletopia | London | 3 | All Maps","name_short":"lon-3","host":"lon-1.uk.uncletopia.com","port":27035,"enabled":true,"region":"eu","cc":"gb","latitude":51.509865,"longitude":-0.118092,"reserved":0,"last_update":"0001-01-01T00:00:00Z","name_a2s":"Uncletopia | London | 3 | All Maps","protocol":17,"map":"pl_barnblitz","folder":"tf","game":"Team Fortress","app_id":440,"player_count":0,"max_players":24,"Bots":0,"server_type":"Dedicated","server_os":"Linux","password":true,"vac":true,"version":"7961495","steam_id":85568392924510192,"keywords":["nocrits","nodmgspread","payload","uncletopia"],"game_id":440,"stv_port":27036,"stv_name":"Uncletopia | London | 3 | All Maps | STV","players":null},{"server_id":321,"name":"Uncletopia | London | 4 | All Maps","name_short":"lon-4","host":"lon-1.uk.uncletopia.com","port":27045,"enabled":true,"region":"eu","cc":"gb","latitude":51.509865,"longitude":-0.118092,"reserved":0,"last_update":"0001-01-01T00:00:00Z","name_a2s":"Uncletopia | London | 4 | All Maps","protocol":17,"map":"koth_cascade","folder":"tf","game":"Team Fortress","app_id":440,"player_count":0,"max_players":24,"Bots":0,"server_type":"Dedicated","server_os":"Linux","password":true,"vac":true,"version":"7961495","steam_id":85568392924510193,"keywords":["cp","nocrits","nodmgspread","uncletopia"],"game_id":440,"stv_port":27046,"stv_name":"Uncletopia | London | 4 | All Maps | STV","players":null},{"server_id":21,"name":"Uncletopia | London | 5 | All Maps","name_short":"lon-5","host":"lon-1.uk.uncletopia.com","port":27055,"enabled":true,"region":"eu","cc":"gb","latitude":51.509865,"longitude":-0.118092,"reserved":0,"last_update":"0001-01-01T00:00:00Z","name_a2s":"Uncletopia | London | 5 | All Maps","protocol":17,"map":"pl_snowycoast","folder":"tf","game":"Team Fortress","app_id":440,"player_count":0,"max_players":24,"Bots":0,"server_type":"Dedicated","server_os":"Linux","password":true,"vac":true,"version":"7961495","steam_id":85568392924742829,"keywords":["nocrits","nodmgspread","payload","uncletopia"],"game_id":440,"stv_port":27056,"stv_name":"Uncletopia | London | 5 | All Maps | STV","players":null},{"server_id":22,"name":"Uncletopia | London | 6 | All Maps","name_short":"lon-6","host":"lon-1.uk.uncletopia.com","port":27065,"enabled":true,"region":"eu","cc":"gb","latitude":51.509865,"longitude":-0.118092,"reserved":0,"last_update":"0001-01-01T00:00:00Z","name_a2s":"Uncletopia | London | 6 | All Maps","protocol":17,"map":"koth_lakeside_final","folder":"tf","game":"Team Fortress","app_id":440,"player_count":0,"max_players":24,"Bots":0,"server_type":"Dedicated","server_os":"Linux","password":true,"vac":true,"version":"7961495","steam_id":85568392924742830,"keywords":["cp","nocrits","nodmgspread","uncletopia"],"game_id":440,"stv_port":27066,"stv_name":"Uncletopia | London | 6 | All Maps | STV","players":null},{"server_id":40,"name":"Uncletopia | London | 7 | No Payload","name_short":"lon-7","host":"lon-1.uk.uncletopia.com","port":27075,"enabled":true,"region":"eu","cc":"gb","latitude":51.509865,"longitude":-0.118092,"reserved":0,"last_update":"0001-01-01T00:00:00Z","name_a2s":"Uncletopia | London | 7 | No Payload","protocol":17,"map":"pl_snowycoast","folder":"tf","game":"Team Fortress","app_id":440,"player_count":0,"max_players":24,"Bots":0,"server_type":"Dedicated","server_os":"Linux","password":true,"vac":true,"version":"7961495","steam_id":85568392924964314,"keywords":["nocrits","nodmgspread","payload","uncletopia"],"game_id":440,"stv_port":27076,"stv_name":"Uncletopia | London | 7 | No Payload | STV","players":null},{"server_id":41,"name":"Uncletopia | London | 8 | Community","name_short":"lon-8","host":"lon-1.uk.uncletopia.com","port":27085,"enabled":true,"region":"eu","cc":"gb","latitude":51.509865,"longitude":-0.118092,"reserved":0,"last_update":"0001-01-01T00:00:00Z","name_a2s":"Uncletopia | London | 8 | Community","protocol":17,"map":"koth_viaduct","folder":"tf","game":"Team Fortress","app_id":440,"player_count":0,"max_players":24,"Bots":0,"server_type":"Dedicated","server_os":"Linux","password":true,"vac":true,"version":"7961495","steam_id":85568392924964315,"keywords":["cp","nocrits","nodmgspread","uncletopia"],"game_id":440,"stv_port":27086,"stv_name":"Uncletopia | London | 8 | Community | STV","players":null},{"server_id":300,"name":"Uncletopia | Montréal | 1 | All Maps","name_short":"mtl-1","host":"mtl-1.ca.uncletopia.com","port":27015,"enabled":true,"region":"us-east","cc":"ca","latitude":45.50889,"longitude":-73.56167,"reserved":0,"last_update":"0001-01-01T00:00:00Z","name_a2s":"Uncletopia | Montréal | 1 | All Maps","protocol":17,"map":"koth_cascade","folder":"tf","game":"Team Fortress","app_id":440,"player_count":0,"max_players":24,"Bots":0,"server_type":"Dedicated","server_os":"Linux","password":true,"vac":true,"version":"7961495","steam_id":85568392924500087,"keywords":["cp","nocrits","nodmgspread","uncletopia"],"game_id":440,"stv_port":27016,"stv_name":"Uncletopia | Montréal | 1 | All Maps | STV","players":null},{"server_id":301,"name":"Uncletopia | Montréal | 2 | All Maps","name_short":"mtl-2","host":"mtl-1.ca.uncletopia.com","port":27025,"enabled":true,"region":"us-east","cc":"ca","latitude":45.50889,"longitude":-73.56167,"reserved":0,"last_update":"0001-01-01T00:00:00Z","name_a2s":"Uncletopia | Montréal | 2 | All Maps","protocol":17,"map":"pl_frontier_final","folder":"tf","game":"Team Fortress","app_id":440,"player_count":0,"max_players":24,"Bots":0,"server_type":"Dedicated","server_os":"Linux","password":true,"vac":true,"version":"7961495","steam_id":85568392924500088,"keywords":["nocrits","nodmgspread","payload","uncletopia"],"game_id":440,"stv_port":27026,"stv_name":"Uncletopia | Montréal | 2 | All Maps | STV","players":null},{"server_id":302,"name":"Uncletopia | Montréal | 3 | All Maps","name_short":"mtl-3","host":"mtl-1.ca.uncletopia.com","port":27035,"enabled":true,"region":"us-east","cc":"ca","latitude":45.50889,"longitude":-73.56167,"reserved":0,"last_update":"0001-01-01T00:00:00Z","name_a2s":"Uncletopia | Montréal | 3 | All Maps","protocol":17,"map":"koth_lakeside_final","folder":"tf","game":"Team Fortress","app_id":440,"player_count":1,"max_players":24,"Bots":0,"server_type":"Dedicated","server_os":"Linux","password":true,"vac":true,"version":"7961495","steam_id":85568392924500089,"keywords":["cp","nocrits","nodmgspread","uncletopia"],"game_id":440,"stv_port":27036,"stv_name":"Uncletopia | Montréal | 3 | All Maps | STV","players":[{"user_id":14,"name":"my forebrain is highly develope","steam_id":76561198016826181,"connected_time":463000000000,"state":"active","ping":76}]},{"server_id":303,"name":"Uncletopia | Montréal | 4 | No Payload","name_short":"mtl-4","host":"mtl-1.ca.uncletopia.com","port":27045,"enabled":true,"region":"us-east","cc":"ca","latitude":45.50889,"longitude":-73.56167,"reserved":0,"last_update":"0001-01-01T00:00:00Z","name_a2s":"Uncletopia | Montréal | 4 | No Payload","protocol":17,"map":"cp_mountainlab","folder":"tf","game":"Team Fortress","app_id":440,"player_count":0,"max_players":24,"Bots":0,"server_type":"Dedicated","server_os":"Linux","password":true,"vac":true,"version":"7961495","steam_id":85568392924500090,"keywords":["cp","nocrits","nodmgspread","uncletopia"],"game_id":440,"stv_port":27046,"stv_name":"Uncletopia | Montréal | 4 | No Payload | STV","players":null},{"server_id":13,"name":"Uncletopia | New York City | 1 | All Maps","name_short":"nyc-1","host":"nyc-1.us.uncletopia.com","port":27015,"enabled":true,"region":"us-east","cc":"us","latitude":40.73061,"longitude":-73.93524,"reserved":0,"last_update":"0001-01-01T00:00:00Z","name_a2s":"Uncletopia | New York City | 1 | All Maps","protocol":17,"map":"pl_rumford_event","folder":"tf","game":"Team Fortress","app_id":440,"player_count":24,"max_players":24,"Bots":0,"server_type":"Dedicated","server_os":"Linux","password":true,"vac":true,"version":"7961495","steam_id":85568392924469993,"keywords":["nocrits","nodmgspread","payload","uncletopia"],"game_id":440,"stv_port":27016,"stv_name":"Uncletopia | New York City | 1 | All Maps | STV","players":[{"user_id":40,"name":"Token Tomboi","steam_id":76561198103616457,"connected_time":2079000000000,"state":"active","ping":41},{"user_id":51,"name":"Eraserhead Baby","steam_id":76561198010968514,"connected_time":1111000000000,"state":"active","ping":105},{"user_id":5,"name":"Fresh0c0","steam_id":76561198271933283,"connected_time":2991000000000,"state":"active","ping":80},{"user_id":21,"name":"Periculosum PhD in Funny","steam_id":76561198123370914,"connected_time":2848000000000,"state":"active","ping":88},{"user_id":62,"name":"PileofPolygons","steam_id":76561199321343460,"connected_time":164000000000,"state":"active","ping":71},{"user_id":57,"name":"kiv","steam_id":76561198838223023,"connected_time":755000000000,"state":"active","ping":60},{"user_id":38,"name":"Ejaculation Zach","steam_id":76561198203765200,"connected_time":2277000000000,"state":"active","ping":75},{"user_id":39,"name":"Captain Dusk","steam_id":76561199093333752,"connected_time":2154000000000,"state":"active","ping":77},{"user_id":59,"name":"Parth Makeo","steam_id":76561198002516581,"connected_time":283000000000,"state":"active","ping":44},{"user_id":63,"name":"Toygar","steam_id":76561198023679830,"connected_time":152000000000,"state":"active","ping":61},{"user_id":65,"name":"Waveshift","steam_id":76561199030125662,"connected_time":145000000000,"state":"active","ping":74},{"user_id":61,"name":"Poi","steam_id":76561198176914898,"connected_time":175000000000,"state":"active","ping":89},{"user_id":58,"name":"yang","steam_id":76561198189889923,"connected_time":546000000000,"state":"active","ping":86},{"user_id":66,"name":"Conehead Pizza man","steam_id":76561198062223540,"connected_time":138000000000,"state":"active","ping":68},{"user_id":22,"name":"Mr. Meow II","steam_id":76561199476440897,"connected_time":2837000000000,"state":"active","ping":65},{"user_id":54,"name":"theghazinator","steam_id":76561198188027695,"connected_time":1098000000000,"state":"active","ping":62},{"user_id":24,"name":"Shuu","steam_id":76561199199180558,"connected_time":2826000000000,"state":"active","ping":36},{"user_id":34,"name":"Penis Chopper","steam_id":76561199016999537,"connected_time":2585000000000,"state":"active","ping":97},{"user_id":26,"name":"erf","steam_id":76561198078203677,"connected_time":2818000000000,"state":"active","ping":54},{"user_id":29,"name":"Hook, Line, and Sphincter","steam_id":76561198078207743,"connected_time":2806000000000,"state":"active","ping":42},{"user_id":55,"name":"AreYouMyMummy?","steam_id":76561197995101745,"connected_time":1092000000000,"state":"active","ping":73},{"user_id":31,"name":"run fast fall down","steam_id":76561198167207112,"connected_time":2803000000000,"state":"active","ping":91},{"user_id":32,"name":"Danny Phanny","steam_id":76561199123135608,"connected_time":2802000000000,"state":"active","ping":79},{"user_id":47,"name":"Talulah","steam_id":76561198348354629,"connected_time":1240000000000,"state":"active","ping":108}]},{"server_id":14,"name":"Uncletopia | New York City | 2 | All Maps","name_short":"nyc-2","host":"nyc-1.us.uncletopia.com","port":27025,"enabled":true,"region":"us-east","cc":"us","latitude":40.73061,"longitude":-73.93524,"reserved":0,"last_update":"0001-01-01T00:00:00Z","name_a2s":"Uncletopia | New York City | 2 | All Maps","protocol":17,"map":"pl_borneo","folder":"tf","game":"Team Fortress","app_id":440,"player_count":24,"max_players":24,"Bots":0,"server_type":"Dedicated","server_os":"Linux","password":true,"vac":true,"version":"7961495","steam_id":85568392924469994,"keywords":["nocrits","nodmgspread","payload","uncletopia"],"game_id":440,"stv_port":27026,"stv_name":"Uncletopia | New York City | 2 | All Maps | STV","players":[{"user_id":5,"name":"Olifont","steam_id":76561198141162919,"connected_time":2253000000000,"state":"active","ping":65},{"user_id":8,"name":"MeKaso TropStar","steam_id":76561199109895840,"connected_time":2046000000000,"state":"active","ping":53},{"user_id":13,"name":"Wild Ginger","steam_id":76561198099458157,"connected_time":1832000000000,"state":"active","ping":73},{"user_id":53,"name":"Zhong Xina","steam_id":76561198048157121,"connected_time":280000000000,"state":"active","ping":71},{"user_id":9,"name":"Tank Chili","steam_id":76561198161183031,"connected_time":1959000000000,"state":"active","ping":65},{"user_id":10,"name":"Heathcliff","steam_id":76561198044288534,"connected_time":1877000000000,"state":"active","ping":86},{"user_id":45,"name":"FunnyUsernameWow","steam_id":76561198324177635,"connected_time":770000000000,"state":"active","ping":45},{"user_id":48,"name":"DeepDive","steam_id":76561198140542184,"connected_time":724000000000,"state":"active","ping":45},{"user_id":57,"name":"saib","steam_id":76561198966980576,"connected_time":109000000000,"state":"active","ping":45},{"user_id":51,"name":"rosable ☆","steam_id":76561199164371592,"connected_time":283000000000,"state":"active","ping":70},{"user_id":16,"name":"Crit-A-Cola enjoyer","steam_id":76561199100884248,"connected_time":1793000000000,"state":"active","ping":127},{"user_id":17,"name":"Atomic Ursa","steam_id":76561198032246421,"connected_time":1784000000000,"state":"active","ping":65},{"user_id":41,"name":"∇TEARS","steam_id":76561198740347952,"connected_time":1169000000000,"state":"active","ping":63},{"user_id":19,"name":"beyond","steam_id":76561198051009126,"connected_time":1715000000000,"state":"active","ping":61},{"user_id":58,"name":"vastrobotmax","steam_id":76561198417110724,"connected_time":94000000000,"state":"active","ping":70},{"user_id":54,"name":"Jango","steam_id":76561198084589742,"connected_time":277000000000,"state":"active","ping":75},{"user_id":59,"name":"Just washed","steam_id":76561199030160932,"connected_time":72000000000,"state":"active","ping":75},{"user_id":60,"name":"ungr8t","steam_id":76561198063521721,"connected_time":26000000000,"state":"spawning","ping":101},{"user_id":25,"name":"Zhenaj","steam_id":76561199209016136,"connected_time":1658000000000,"state":"active","ping":60},{"user_id":52,"name":"sailor","steam_id":76561198091015050,"connected_time":282000000000,"state":"active","ping":65},{"user_id":47,"name":"Devoid","steam_id":76561198254039012,"connected_time":745000000000,"state":"active","ping":33},{"user_id":56,"name":":)","steam_id":76561198093921290,"connected_time":169000000000,"state":"active","ping":57},{"user_id":33,"name":"breathingtrees","steam_id":76561198118931690,"connected_time":1584000000000,"state":"active","ping":58},{"user_id":40,"name":"haraldＨＡＲＡＬＤ","steam_id":76561198116998970,"connected_time":1185000000000,"state":"active","ping":175}]},{"server_id":15,"name":"Uncletopia | New York City | 3 | Stopwatch Beta","name_short":"nyc-3","host":"nyc-1.us.uncletopia.com","port":27035,"enabled":true,"region":"us-east","cc":"us","latitude":40.73061,"longitude":-73.93524,"reserved":0,"last_update":"0001-01-01T00:00:00Z","name_a2s":"Uncletopia | New York City | 3 | Stopwatch Beta","protocol":17,"map":"koth_lakeside_final","folder":"tf","game":"Team Fortress","app_id":440,"player_count":0,"max_players":24,"Bots":0,"server_type":"Dedicated","server_os":"Linux","password":true,"vac":true,"version":"7961495","steam_id":85568392924742820,"keywords":["cp","nocrits","nodmgspread","uncletopia"],"game_id":440,"stv_port":27036,"stv_name":"Uncletopia | New York City | 3 | Stopwatch Beta | STV","players":null},{"server_id":16,"name":"Uncletopia | New York City | 4 | Community","name_short":"nyc-4","host":"nyc-1.us.uncletopia.com","port":27045,"enabled":true,"region":"us-east","cc":"us","latitude":40.73061,"longitude":-73.93524,"reserved":0,"last_update":"0001-01-01T00:00:00Z","name_a2s":"Uncletopia | New York City | 4 | Community","protocol":17,"map":"workshop/koth_trenchfoot_b1a.ugc731436616","folder":"tf","game":"Team Fortress","app_id":440,"player_count":24,"max_players":24,"Bots":0,"server_type":"Dedicated","server_os":"Linux","password":true,"vac":true,"version":"7961495","steam_id":85568392924742821,"keywords":["cp","nocrits","nodmgspread","uncletopia"],"game_id":440,"stv_port":27046,"stv_name":"Uncletopia | New York City | 4 | Community | STV","players":[{"user_id":4,"name":"The_Epic_Conclusion","steam_id":76561198084250179,"connected_time":2639000000000,"state":"active","ping":58},{"user_id":5,"name":"Broadway Rose","steam_id":76561198046083342,"connected_time":2605000000000,"state":"active","ping":42},{"user_id":41,"name":"fish","steam_id":76561199490136439,"connected_time":1181000000000,"state":"active","ping":33},{"user_id":52,"name":"Anti swag corporation","steam_id":76561199015453645,"connected_time":360000000000,"state":"active","ping":99},{"user_id":58,"name":"Your cousin Throckmorton","steam_id":76561198055430804,"connected_time":33000000000,"state":"active","ping":74},{"user_id":55,"name":"k3ramb1t","steam_id":76561198097880352,"connected_time":117000000000,"state":"active","ping":57},{"user_id":12,"name":"alset333","steam_id":76561198405345260,"connected_time":2147000000000,"state":"active","ping":44},{"user_id":13,"name":"sheep man shaun","steam_id":76561198994349483,"connected_time":2144000000000,"state":"active","ping":116},{"user_id":45,"name":"Squifyz","steam_id":76561199405650048,"connected_time":1152000000000,"state":"active","ping":133},{"user_id":43,"name":"DJ Absolute Garbage","steam_id":76561198068000747,"connected_time":1164000000000,"state":"active","ping":45},{"user_id":46,"name":"Cerabond","steam_id":76561199230915333,"connected_time":1150000000000,"state":"active","ping":68},{"user_id":17,"name":"Hyp3r #Savetf2","steam_id":76561198965043686,"connected_time":2002000000000,"state":"active","ping":146},{"user_id":34,"name":"Black Rose Oncore","steam_id":76561198040489960,"connected_time":1726000000000,"state":"active","ping":78},{"user_id":37,"name":"Lucille_Bluth","steam_id":76561198206133916,"connected_time":1554000000000,"state":"active","ping":71},{"user_id":50,"name":"SolmonFish","steam_id":76561198942169006,"connected_time":847000000000,"state":"active","ping":64},{"user_id":38,"name":"Lex","steam_id":76561198069948353,"connected_time":1553000000000,"state":"active","ping":96},{"user_id":57,"name":"heaviretta","steam_id":76561199403298146,"connected_time":76000000000,"state":"active","ping":130},{"user_id":27,"name":"Icepick","steam_id":76561198271932892,"connected_time":1853000000000,"state":"active","ping":64},{"user_id":28,"name":"Winter the Witchie","steam_id":76561198151971178,"connected_time":1847000000000,"state":"active","ping":70},{"user_id":29,"name":"Butters495","steam_id":76561197998689042,"connected_time":1843000000000,"state":"active","ping":69},{"user_id":39,"name":"jubattz","steam_id":76561198044874072,"connected_time":1433000000000,"state":"active","ping":72},{"user_id":31,"name":"eevee","steam_id":76561198447072392,"connected_time":1806000000000,"state":"active","ping":168},{"user_id":40,"name":"sleeperino","steam_id":76561198061504714,"connected_time":1250000000000,"state":"active","ping":58},{"user_id":33,"name":"your fwiend","steam_id":76561198154773643,"connected_time":1802000000000,"state":"active","ping":63}]},{"server_id":142,"name":"Uncletopia | São Paulo | 1 | All Maps","name_short":"sao-1","host":"sao-1.br.uncletopia.com","port":27015,"enabled":true,"region":"sa","cc":"br","latitude":-23.533773,"longitude":-46.62529,"reserved":0,"last_update":"0001-01-01T00:00:00Z","name_a2s":"Uncletopia | São Paulo | 1 | All Maps","protocol":17,"map":"pl_upward","folder":"tf","game":"Team Fortress","app_id":440,"player_count":0,"max_players":24,"Bots":0,"server_type":"Dedicated","server_os":"Linux","password":true,"vac":true,"version":"7961495","steam_id":85568392924469996,"keywords":["nocrits","nodmgspread","payload","uncletopia"],"game_id":440,"stv_port":27016,"stv_name":"Uncletopia | São Paulo | 1 | All Maps | STV","players":null},{"server_id":143,"name":"Uncletopia | São Paulo | 2 | All Maps","name_short":"sao-2","host":"sao-2.br.uncletopia.com","port":27015,"enabled":true,"region":"sa","cc":"br","latitude":-23.533773,"longitude":-46.62529,"reserved":0,"last_update":"0001-01-01T00:00:00Z","name_a2s":"Uncletopia | São Paulo | 2 | All Maps","protocol":17,"map":"koth_cascade","folder":"tf","game":"Team Fortress","app_id":440,"player_count":1,"max_players":24,"Bots":0,"server_type":"Dedicated","server_os":"Linux","password":true,"vac":true,"version":"7961495","steam_id":85568392924485349,"keywords":["cp","nocrits","nodmgspread","uncletopia"],"game_id":440,"stv_port":27016,"stv_name":"Uncletopia | São Paulo | 2 | All Maps | STV","players":[{"user_id":3,"name":"vacaloca25","steam_id":76561198082683352,"connected_time":92000000000,"state":"active","ping":68}]},{"server_id":7,"name":"Uncletopia | Seattle | 1 | All Maps","name_short":"sea-1","host":"sea-1.us.uncletopia.com","port":27015,"enabled":true,"region":"us-west","cc":"us","latitude":47.608013,"longitude":-122.33517,"reserved":0,"last_update":"0001-01-01T00:00:00Z","name_a2s":"Uncletopia | Seattle | 1 | All Maps","protocol":17,"map":"pl_pier","folder":"tf","game":"Team Fortress","app_id":440,"player_count":24,"max_players":24,"Bots":0,"server_type":"Dedicated","server_os":"Linux","password":true,"vac":true,"version":"7961495","steam_id":85568392924469997,"keywords":["nocrits","nodmgspread","payload","uncletopia"],"game_id":440,"stv_port":27016,"stv_name":"Uncletopia | Seattle | 1 | All Maps | STV","players":[{"user_id":3,"name":"Kc","steam_id":76561198210734407,"connected_time":2877000000000,"state":"active","ping":108},{"user_id":4,"name":"Vincent Van Bro","steam_id":76561197966919802,"connected_time":2843000000000,"state":"active","ping":58},{"user_id":50,"name":"Mocha Josie","steam_id":76561198066452726,"connected_time":1392000000000,"state":"active","ping":81},{"user_id":59,"name":"Thistle!","steam_id":76561198095281316,"connected_time":281000000000,"state":"active","ping":65},{"user_id":68,"name":"Lonely Friendless Gamer","steam_id":76561198046728155,"connected_time":39000000000,"state":"active","ping":90},{"user_id":53,"name":"NAWWWWWWWWWWW","steam_id":76561198878913441,"connected_time":794000000000,"state":"active","ping":65},{"user_id":13,"name":"Toaster","steam_id":76561198039891934,"connected_time":2653000000000,"state":"active","ping":71},{"user_id":61,"name":"ORANGE","steam_id":76561198000401769,"connected_time":228000000000,"state":"active","ping":48},{"user_id":63,"name":"pt","steam_id":76561198143023330,"connected_time":188000000000,"state":"active","ping":64},{"user_id":15,"name":"caberknight tf2  (f2p-ish)","steam_id":76561199273882768,"connected_time":2631000000000,"state":"active","ping":128},{"user_id":39,"name":"Boyofender","steam_id":76561198861735284,"connected_time":2383000000000,"state":"active","ping":74},{"user_id":52,"name":"HaphazardHazel","steam_id":76561198316812693,"connected_time":996000000000,"state":"active","ping":135},{"user_id":65,"name":"Dunski","steam_id":76561198440277329,"connected_time":163000000000,"state":"active","ping":64},{"user_id":62,"name":"PopcornBucketGames","steam_id":76561199089562026,"connected_time":215000000000,"state":"active","ping":53},{"user_id":22,"name":"2 Point Tom","steam_id":76561198087617008,"connected_time":2540000000000,"state":"active","ping":49},{"user_id":66,"name":"Bluedemon","steam_id":76561199212058684,"connected_time":161000000000,"state":"active","ping":94},{"user_id":67,"name":"Big Gazza","steam_id":76561199030963367,"connected_time":155000000000,"state":"active","ping":56},{"user_id":25,"name":"Sgt Autmn","steam_id":76561198072047939,"connected_time":2506000000000,"state":"active","ping":45},{"user_id":48,"name":"havarti gaming","steam_id":76561198069895678,"connected_time":1766000000000,"state":"active","ping":70},{"user_id":51,"name":"green bean","steam_id":76561198113099204,"connected_time":1169000000000,"state":"active","ping":61},{"user_id":45,"name":"FI LO","steam_id":76561198976530881,"connected_time":2060000000000,"state":"active","ping":75},{"user_id":40,"name":"Integral","steam_id":76561198158225481,"connected_time":2379000000000,"state":"active","ping":88},{"user_id":56,"name":"Polybius","steam_id":76561198072173048,"connected_time":495000000000,"state":"active","ping":60},{"user_id":37,"name":"bobbymcbobington","steam_id":76561199089411172,"connected_time":2447000000000,"state":"active","ping":166}]},{"server_id":119,"name":"Uncletopia | Seattle | 2 | All Maps","name_short":"sea-2","host":"sea-1.us.uncletopia.com","port":27025,"enabled":true,"region":"us-west","cc":"us","latitude":47.608013,"longitude":-122.33517,"reserved":0,"last_update":"0001-01-01T00:00:00Z","name_a2s":"Uncletopia | Seattle | 2 | All Maps","protocol":17,"map":"pl_badwater","folder":"tf","game":"Team Fortress","app_id":440,"player_count":24,"max_players":24,"Bots":0,"server_type":"Dedicated","server_os":"Linux","password":true,"vac":true,"version":"7961495","steam_id":85568392924469998,"keywords":["nocrits","nodmgspread","payload","uncletopia"],"game_id":440,"stv_port":27026,"stv_name":"Uncletopia | Seattle | 2 | All Maps | STV","players":[{"user_id":36,"name":"Rogue.Entelos","steam_id":76561198091611460,"connected_time":924000000000,"state":"active","ping":130},{"user_id":44,"name":"Punished Jeff (Drain Messiah)","steam_id":76561198304252584,"connected_time":257000000000,"state":"active","ping":68},{"user_id":41,"name":"worker","steam_id":76561198039608940,"connected_time":700000000000,"state":"active","ping":54},{"user_id":8,"name":"Null | Crack Clan","steam_id":76561198895762836,"connected_time":1645000000000,"state":"active","ping":86},{"user_id":45,"name":"BlazedBunny","steam_id":76561198243610560,"connected_time":186000000000,"state":"active","ping":70},{"user_id":38,"name":"Glass Joe","steam_id":76561198221704772,"connected_time":920000000000,"state":"active","ping":131},{"user_id":11,"name":"purple","steam_id":76561198835313122,"connected_time":1498000000000,"state":"active","ping":107},{"user_id":39,"name":"Petrivus","steam_id":76561198202152453,"connected_time":862000000000,"state":"active","ping":55},{"user_id":14,"name":"theosw","steam_id":76561198404878570,"connected_time":1465000000000,"state":"active","ping":134},{"user_id":29,"name":"2Alpha6","steam_id":76561197992690915,"connected_time":1175000000000,"state":"active","ping":67},{"user_id":17,"name":"JunJun Joestar","steam_id":76561199005167050,"connected_time":1376000000000,"state":"active","ping":152},{"user_id":18,"name":"Jankyo","steam_id":76561198083339492,"connected_time":1354000000000,"state":"active","ping":129},{"user_id":19,"name":"Jean Deere","steam_id":76561198105101309,"connected_time":1332000000000,"state":"active","ping":124},{"user_id":20,"name":"Monty","steam_id":76561197993567253,"connected_time":1306000000000,"state":"active","ping":46},{"user_id":43,"name":"Keamy","steam_id":76561199471434875,"connected_time":492000000000,"state":"active","ping":38},{"user_id":35,"name":"COOL master_9","steam_id":76561198073041151,"connected_time":1023000000000,"state":"active","ping":100},{"user_id":42,"name":"Dr. Karl, the AUS Science Guy","steam_id":76561198031278747,"connected_time":625000000000,"state":"active","ping":47},{"user_id":40,"name":"no vc no c","steam_id":76561197989503095,"connected_time":848000000000,"state":"active","ping":169},{"user_id":32,"name":"Mr defrost","steam_id":76561198322125657,"connected_time":1121000000000,"state":"active","ping":74},{"user_id":48,"name":"Mr. Mackey","steam_id":76561199077027954,"connected_time":131000000000,"state":"active","ping":72},{"user_id":27,"name":"Mr. Luggy","steam_id":76561198072723392,"connected_time":1190000000000,"state":"active","ping":86},{"user_id":46,"name":"magunyamu","steam_id":76561198823083676,"connected_time":186000000000,"state":"active","ping":84},{"user_id":30,"name":"Scut","steam_id":76561198973734291,"connected_time":1151000000000,"state":"active","ping":94},{"user_id":34,"name":"scrapheap","steam_id":76561198202407087,"connected_time":1045000000000,"state":"active","ping":125}]},{"server_id":406,"name":"Uncletopia | Seattle | 3 | Stopwatch Beta","name_short":"sea-3","host":"sea-1.us.uncletopia.com","port":27035,"enabled":true,"region":"us-west","cc":"us","latitude":47.608013,"longitude":-122.33517,"reserved":0,"last_update":"0001-01-01T00:00:00Z","name_a2s":"Uncletopia | Seattle | 3 | Stopwatch Beta","protocol":17,"map":"cp_mountainlab","folder":"tf","game":"Team Fortress","app_id":440,"player_count":0,"max_players":24,"Bots":0,"server_type":"Dedicated","server_os":"Linux","password":true,"vac":true,"version":"7961495","steam_id":85568392924515217,"keywords":["cp","nocrits","nodmgspread","uncletopia"],"game_id":440,"stv_port":27036,"stv_name":"Uncletopia | Seattle | 3 | Stopwatch Beta | STV","players":null},{"server_id":17,"name":"Uncletopia | San Francisco | 1 | All Maps","name_short":"sfo-1","host":"sfo-1.us.uncletopia.com","port":27015,"enabled":true,"region":"us-west","cc":"us","latitude":37.77397,"longitude":-122.4313,"reserved":0,"last_update":"0001-01-01T00:00:00Z","name_a2s":"Uncletopia | San Francisco | 1 | All Maps","protocol":17,"map":"pl_frontier_final","folder":"tf","game":"Team Fortress","app_id":440,"player_count":0,"max_players":24,"Bots":0,"server_type":"Dedicated","server_os":"Linux","password":true,"vac":true,"version":"7932396","steam_id":85568392924469999,"keywords":["nocrits","nodmgspread","payload","uncletopia"],"game_id":440,"stv_port":27016,"stv_name":"Uncletopia | San Francisco | 1 | All Maps | STV","players":null},{"server_id":18,"name":"Uncletopia | San Francisco | 2 | All Maps","name_short":"sfo-2","host":"sfo-1.us.uncletopia.com","port":27025,"enabled":true,"region":"us-west","cc":"us","latitude":37.77397,"longitude":-122.4313,"reserved":0,"last_update":"0001-01-01T00:00:00Z","name_a2s":"Uncletopia | San Francisco | 2 | All Maps","protocol":17,"map":"cp_snakewater_final1","folder":"tf","game":"Team Fortress","app_id":440,"player_count":0,"max_players":24,"Bots":0,"server_type":"Dedicated","server_os":"Linux","password":true,"vac":true,"version":"7932396","steam_id":85568392924470000,"keywords":["cp","nocrits","nodmgspread","uncletopia"],"game_id":440,"stv_port":27026,"stv_name":"Uncletopia | San Francisco | 2 | All Maps | STV","players":null},{"server_id":19,"name":"Uncletopia | San Francisco | 3 | Stopwatch Beta","name_short":"sfo-3","host":"sfo-1.us.uncletopia.com","port":27035,"enabled":true,"region":"us-west","cc":"us","latitude":37.77397,"longitude":-122.4313,"reserved":0,"last_update":"0001-01-01T00:00:00Z","name_a2s":"Uncletopia | San Francisco | 3 | Stopwatch Beta","protocol":17,"map":"koth_lakeside_final","folder":"tf","game":"Team Fortress","app_id":440,"player_count":0,"max_players":24,"Bots":0,"server_type":"Dedicated","server_os":"Linux","password":true,"vac":true,"version":"7932396","steam_id":85568392924742824,"keywords":["cp","nocrits","nodmgspread","uncletopia"],"game_id":440,"stv_port":27036,"stv_name":"Uncletopia | San Francisco | 3 | Stopwatch Beta | STV","players":null},{"server_id":20,"name":"Uncletopia | San Francisco | 4 | Community","name_short":"sfo-4","host":"sfo-1.us.uncletopia.com","port":27045,"enabled":true,"region":"us-west","cc":"us","latitude":37.77397,"longitude":-122.4313,"reserved":0,"last_update":"0001-01-01T00:00:00Z","name_a2s":"Uncletopia | San Francisco | 4 | Community","protocol":17,"map":"pl_borneo","folder":"tf","game":"Team Fortress","app_id":440,"player_count":0,"max_players":24,"Bots":0,"server_type":"Dedicated","server_os":"Linux","password":true,"vac":true,"version":"7932396","steam_id":85568392924742826,"keywords":["nocrits","nodmgspread","payload","uncletopia"],"game_id":440,"stv_port":27046,"stv_name":"Uncletopia | San Francisco | 4 | Community | STV","players":null},{"server_id":141,"name":"Uncletopia | Sydney | 1 | All Maps","name_short":"syd-1","host":"syd-1.au.uncletopia.com","port":27015,"enabled":true,"region":"au","cc":"au","latitude":-33.865143,"longitude":151.2099,"reserved":0,"last_update":"0001-01-01T00:00:00Z","name_a2s":"Uncletopia | Sydney | 1 | All Maps","protocol":17,"map":"pl_snowycoast","folder":"tf","game":"Team Fortress","app_id":440,"player_count":0,"max_players":24,"Bots":0,"server_type":"Dedicated","server_os":"Linux","password":true,"vac":true,"version":"7961495","steam_id":85568392924470001,"keywords":["nocrits","nodmgspread","payload","uncletopia"],"game_id":440,"stv_port":27016,"stv_name":"Uncletopia | Sydney | 1 | All Maps | STV","players":null},{"server_id":123,"name":"Uncletopia | Sydney | 2 | All Maps","name_short":"syd-2","host":"syd-1.au.uncletopia.com","port":27025,"enabled":true,"region":"au","cc":"au","latitude":-33.865143,"longitude":151.2099,"reserved":0,"last_update":"0001-01-01T00:00:00Z","name_a2s":"Uncletopia | Sydney | 2 | All Maps","protocol":17,"map":"koth_viaduct","folder":"tf","game":"Team Fortress","app_id":440,"player_count":0,"max_players":24,"Bots":0,"server_type":"Dedicated","server_os":"Linux","password":true,"vac":true,"version":"7961495","steam_id":85568392924470002,"keywords":["cp","nocrits","nodmgspread","uncletopia"],"game_id":440,"stv_port":27026,"stv_name":"Uncletopia | Sydney | 2 | All Maps | STV","players":null},{"server_id":395,"name":"Uncletopia | Sydney | 3 | All Maps","name_short":"syd-3","host":"syd-1.au.uncletopia.com","port":27035,"enabled":true,"region":"au","cc":"au","latitude":-33.865143,"longitude":151.2099,"reserved":0,"last_update":"0001-01-01T00:00:00Z","name_a2s":"Uncletopia | Sydney | 3 | All Maps","protocol":17,"map":"cp_dustbowl","folder":"tf","game":"Team Fortress","app_id":440,"player_count":0,"max_players":24,"Bots":0,"server_type":"Dedicated","server_os":"Linux","password":true,"vac":true,"version":"7961495","steam_id":85568392925194467,"keywords":["cp","nocrits","nodmgspread","uncletopia"],"game_id":440,"stv_port":27036,"stv_name":"Uncletopia | Sydney | 3 | All Maps | STV","players":null},{"server_id":396,"name":"Uncletopia | Sydney | 4 | All Maps","name_short":"syd-4","host":"syd-1.au.uncletopia.com","port":27045,"enabled":true,"region":"au","cc":"au","latitude":-33.865143,"longitude":151.2099,"reserved":0,"last_update":"0001-01-01T00:00:00Z","name_a2s":"Uncletopia | Sydney | 4 | All Maps","protocol":17,"map":"koth_cascade","folder":"tf","game":"Team Fortress","app_id":440,"player_count":0,"max_players":24,"Bots":0,"server_type":"Dedicated","server_os":"Linux","password":true,"vac":true,"version":"7961495","steam_id":85568392925397958,"keywords":["cp","nocrits","nodmgspread","uncletopia"],"game_id":440,"stv_port":27046,"stv_name":"Uncletopia | Sydney | 4 | All Maps | STV","players":null},{"server_id":58,"name":"Uncletopia | Sydney | 5 | Stopwatch Beta","name_short":"syd-5","host":"syd-1.au.uncletopia.com","port":27055,"enabled":true,"region":"au","cc":"au","latitude":-33.865143,"longitude":151.2099,"reserved":0,"last_update":"0001-01-01T00:00:00Z","name_a2s":"Uncletopia | Sydney | 5 | Stopwatch Beta","protocol":17,"map":"koth_viaduct","folder":"tf","game":"Team Fortress","app_id":440,"player_count":0,"max_players":24,"Bots":0,"server_type":"Dedicated","server_os":"Linux","password":true,"vac":true,"version":"7961495","steam_id":85568392925397959,"keywords":["cp","nocrits","nodmgspread","uncletopia"],"game_id":440,"stv_port":27056,"stv_name":"Uncletopia | Sydney | 5 | Stopwatch Beta | STV","players":null},{"server_id":59,"name":"Uncletopia | Sydney | 6 | Community","name_short":"syd-6","host":"syd-1.au.uncletopia.com","port":27065,"enabled":true,"region":"au","cc":"au","latitude":-33.865143,"longitude":151.2099,"reserved":0,"last_update":"0001-01-01T00:00:00Z","name_a2s":"Uncletopia | Sydney | 6 | Community","protocol":17,"map":"pl_barnblitz","folder":"tf","game":"Team Fortress","app_id":440,"player_count":0,"max_players":24,"Bots":0,"server_type":"Dedicated","server_os":"Linux","password":true,"vac":true,"version":"7961495","steam_id":85568392925397960,"keywords":["nocrits","nodmgspread","payload","uncletopia"],"game_id":440,"stv_port":27066,"stv_name":"Uncletopia | Sydney | 6 | Community | STV","players":null},{"server_id":49,"name":"Uncletopia | Warsaw | 1 | All Maps","name_short":"waw-1","host":"waw-1.pl.uncletopia.com","port":27015,"enabled":true,"region":"eu","cc":"pl","latitude":52.2297,"longitude":21.017532,"reserved":0,"last_update":"0001-01-01T00:00:00Z","name_a2s":"","protocol":0,"map":"","folder":"","game":"","app_id":0,"player_count":0,"max_players":0,"Bots":0,"server_type":"","server_os":"","password":false,"vac":false,"version":"","steam_id":0,"keywords":null,"game_id":0,"stv_port":0,"stv_name":"","players":null},{"server_id":50,"name":"Uncletopia | Warsaw | 2 | All Maps","name_short":"waw-2","host":"waw-1.pl.uncletopia.com","port":27025,"enabled":true,"region":"eu","cc":"pl","latitude":52.2297,"longitude":21.017532,"reserved":0,"last_update":"0001-01-01T00:00:00Z","name_a2s":"Uncletopia | Warsaw | 2 | All Maps","protocol":17,"map":"cp_mountainlab","folder":"tf","game":"Team Fortress","app_id":440,"player_count":0,"max_players":24,"Bots":0,"server_type":"Dedicated","server_os":"Linux","password":true,"vac":true,"version":"7961495","steam_id":85568392925397851,"keywords":["cp","nocrits","nodmgspread","uncletopia"],"game_id":440,"stv_port":27026,"stv_name":"Uncletopia | Warsaw | 2 | All Maps | STV","players":null},{"server_id":51,"name":"Uncletopia | Warsaw | 3 | All Maps","name_short":"waw-3","host":"waw-1.pl.uncletopia.com","port":27035,"enabled":true,"region":"eu","cc":"pl","latitude":52.2297,"longitude":21.017532,"reserved":0,"last_update":"0001-01-01T00:00:00Z","name_a2s":"Uncletopia | Warsaw | 3 | All Maps","protocol":17,"map":"pl_barnblitz","folder":"tf","game":"Team Fortress","app_id":440,"player_count":0,"max_players":24,"Bots":0,"server_type":"Dedicated","server_os":"Linux","password":true,"vac":true,"version":"7961495","steam_id":85568392925397852,"keywords":["nocrits","nodmgspread","payload","uncletopia"],"game_id":440,"stv_port":27036,"stv_name":"Uncletopia | Warsaw | 3 | All Maps | STV","players":null},{"server_id":52,"name":"Uncletopia | Warsaw | 4 | All Maps","name_short":"waw-4","host":"waw-1.pl.uncletopia.com","port":27045,"enabled":true,"region":"eu","cc":"pl","latitude":52.2297,"longitude":21.017532,"reserved":0,"last_update":"0001-01-01T00:00:00Z","name_a2s":"Uncletopia | Warsaw | 4 | All Maps","protocol":17,"map":"cp_dustbowl","folder":"tf","game":"Team Fortress","app_id":440,"player_count":1,"max_players":24,"Bots":0,"server_type":"Dedicated","server_os":"Linux","password":true,"vac":true,"version":"7961495","steam_id":85568392925397853,"keywords":["cp","nocrits","nodmgspread","uncletopia"],"game_id":440,"stv_port":27046,"stv_name":"Uncletopia | Warsaw | 4 | All Maps | STV","players":[{"user_id":3,"name":"Pain in a Box","steam_id":76561197990777173,"connected_time":41000000000,"state":"active","ping":63}]},{"server_id":53,"name":"Uncletopia | Warsaw | 5 | Stopwatch Beta","name_short":"waw-5","host":"waw-1.pl.uncletopia.com","port":27055,"enabled":true,"region":"eu","cc":"pl","latitude":52.2297,"longitude":21.017532,"reserved":0,"last_update":"0001-01-01T00:00:00Z","name_a2s":"Uncletopia | Warsaw | 5 | Stopwatch Beta","protocol":17,"map":"pl_snowycoast","folder":"tf","game":"Team Fortress","app_id":440,"player_count":0,"max_players":24,"Bots":0,"server_type":"Dedicated","server_os":"Linux","password":true,"vac":true,"version":"7961495","steam_id":85568392925397854,"keywords":["nocrits","nodmgspread","payload","uncletopia"],"game_id":440,"stv_port":27056,"stv_name":"Uncletopia | Warsaw | 5 | Stopwatch Beta | STV","players":null},{"server_id":54,"name":"Uncletopia | Warsaw | 6 | Community","name_short":"waw-6","host":"waw-1.pl.uncletopia.com","port":27065,"enabled":true,"region":"eu","cc":"pl","latitude":52.2297,"longitude":21.017532,"reserved":0,"last_update":"0001-01-01T00:00:00Z","name_a2s":"Uncletopia | Warsaw | 6 | Community","protocol":17,"map":"pl_borneo","folder":"tf","game":"Team Fortress","app_id":440,"player_count":0,"max_players":24,"Bots":0,"server_type":"Dedicated","server_os":"Linux","password":true,"vac":true,"version":"7961495","steam_id":85568392925397856,"keywords":["nocrits","nodmgspread","payload","uncletopia"],"game_id":440,"stv_port":27066,"stv_name":"Uncletopia | Warsaw | 6 | Community | STV","players":null}]}