{"status":true,"message":"","result":[{"server_id":9,"name":"Uncletopia | Atlanta | 1 | All Maps","name_short":"atl-1","host":"atl-1.us.uncletopia.com","port":27015,"enabled":true,"region":"us-east","cc":"us","latitude":33.753746,"longitude":-84.38633,"reserved":0,"last_update":"0001-01-01T00:00:00Z","name_a2s":"Uncletopia | Atlanta | 1 | All Maps","protocol":17,"map":"cp_snakewater_final1","folder":"tf","game":"Team Fortress","app_id":440,"player_count":24,"max_players":24,"Bots":0,"server_type":"Dedicated","server_os":"Linux","password":true,"vac":true,"version":"7757534","steam_id":85568392924469982,"keywords":["cp","nocrits","nodmgspread","uncletopia"],"game_id":440,"stv_port":27016,"stv_name":"Uncletopia | Atlanta | 1 | All Maps | STV","players":[{"user_id":295,"name":"Just PYE","steam_id":76561199439622967,"connected_time":2748000000000,"state":"active","ping":70},{"user_id":320,"name":"local dumb dumb","steam_id":76561198064710426,"connected_time":419000000000,"state":"active","ping":80},{"user_id":314,"name":"sam","steam_id":76561198217362968,"connected_time":834000000000,"state":"active","ping":81},{"user_id":161,"name":"FheeseWurger Insouptitty","steam_id":76561198130772096,"connected_time":12168000000000,"state":"active","ping":51},{"user_id":253,"name":"basil","steam_id":76561198075758026,"connected_time":5648000000000,"state":"active","ping":70},{"user_id":309,"name":"Dr. drippenstein","steam_id":76561198209380493,"connected_time":1006000000000,"state":"active","ping":62},{"user_id":317,"name":"‡∂û","steam_id":76561198032529704,"connected_time":540000000000,"state":"active","ping":88},{"user_id":302,"name":"floofy","steam_id":76561198389769098,"connected_time":1075000000000,"state":"active","ping":83},{"user_id":293,"name":"chubbbo","steam_id":76561198943598378,"connected_time":3014000000000,"state":"active","ping":44},{"user_id":299,"name":"the spy behind the healing (F2P","steam_id":76561198854070384,"connected_time":2363000000000,"state":"active","ping":112},{"user_id":313,"name":"Kirb Says Poyo","steam_id":76561198212823547,"connected_time":839000000000,"state":"active","ping":118},{"user_id":325,"name":"Quiggles","steam_id":76561199177247655,"connected_time":231000000000,"state":"active","ping":57},{"user_id":303,"name":"GKEmperor","steam_id":76561197995187011,"connected_time":1070000000000,"state":"active","ping":89},{"user_id":246,"name":"lukiepills","steam_id":76561199020587077,"connected_time":5930000000000,"state":"active","ping":65},{"user_id":308,"name":"hoot.","steam_id":76561198066876703,"connected_time":1031000000000,"state":"active","ping":77},{"user_id":300,"name":"Frost ‚ô•","steam_id":76561198168870617,"connected_time":1885000000000,"state":"active","ping":74},{"user_id":322,"name":"yomo","steam_id":76561198063175935,"connected_time":408000000000,"state":"active","ping":60},{"user_id":296,"name":"Bandi","steam_id":76561198432036026,"connected_time":2704000000000,"state":"active","ping":52},{"user_id":298,"name":"Dr.Zarann","steam_id":76561198163952958,"connected_time":2565000000000,"state":"active","ping":58},{"user_id":321,"name":"ATL1 | Crystron","steam_id":76561198880437428,"connected_time":408000000000,"state":"active","ping":86},{"user_id":297,"name":"I think I'm addicted to setting","steam_id":76561198133082665,"connected_time":2682000000000,"state":"active","ping":54},{"user_id":319,"name":"CreeperPiggy","steam_id":76561198203184918,"connected_time":476000000000,"state":"active","ping":70},{"user_id":257,"name":"andyiscolorless","steam_id":76561199239870921,"connected_time":5340000000000,"state":"active","ping":142},{"user_id":324,"name":"e0e0","steam_id":76561198293839750,"connected_time":394000000000,"state":"active","ping":57}]},{"server_id":104,"name":"Uncletopia | Atlanta | 2 | All Maps","name_short":"atl-2","host":"atl-1.us.uncletopia.com","port":27025,"enabled":true,"region":"us-east","cc":"us","latitude":33.753746,"longitude":-84.38633,"reserved":0,"last_update":"0001-01-01T00:00:00Z","name_a2s":"Uncletopia | Atlanta | 2 | All Maps","protocol":17,"map":"pl_borneo","folder":"tf","game":"Team Fortress","app_id":440,"player_count":24,"max_players":24,"Bots":0,"server_type":"Dedicated","server_os":"Linux","password":true,"vac":true,"version":"7757534","steam_id":85568392924469983,"keywords":["nocrits","nodmgspread","payload","uncletopia"],"game_id":440,"stv_port":27026,"stv_name":"Uncletopia | Atlanta | 2 | All Maps | STV","players":[{"user_id":432,"name":"skip","steam_id":76561199014240063,"connected_time":256000000000,"state":"active","ping":65},{"user_id":415,"name":"Ishy the Lagger","steam_id":76561198835943890,"connected_time":685000000000,"state":"active","ping":97},{"user_id":404,"name":"edilainepereirasilva01","steam_id":76561199467972167,"connected_time":1099000000000,"state":"active","ping":184},{"user_id":416,"name":"jar jar binks (real)","steam_id":76561199279583429,"connected_time":640000000000,"state":"active","ping":65},{"user_id":411,"name":"Kaluka","steam_id":76561198036861445,"connected_time":853000000000,"state":"active","ping":59},{"user_id":405,"name":"Misty Blu ‚úø","steam_id":76561198011442255,"connected_time":1093000000000,"state":"active","ping":104},{"user_id":407,"name":"amazing","steam_id":76561198386233160,"connected_time":971000000000,"state":"active","ping":86},{"user_id":417,"name":"JanitorsCloset","steam_id":76561198262603864,"connected_time":629000000000,"state":"active","ping":88},{"user_id":409,"name":"Weerk","steam_id":76561199209543551,"connected_time":951000000000,"state":"active","ping":70},{"user_id":418,"name":"dicksnip","steam_id":76561198356515396,"connected_time":617000000000,"state":"active","ping":95},{"user_id":419,"name":"thog","steam_id":76561198413125750,"connected_time":584000000000,"state":"active","ping":69},{"user_id":420,"name":"Psych03","steam_id":76561198061753667,"connected_time":583000000000,"state":"active","ping":106},{"user_id":421,"name":"roo the observer","steam_id":76561198120684348,"connected_time":496000000000,"state":"active","ping":66},{"user_id":422,"name":"M@verick","steam_id":76561198006363519,"connected_time":485000000000,"state":"active","ping":76},{"user_id":430,"name":"Pizzaguy108","steam_id":76561198972791353,"connected_time":290000000000,"state":"active","ping":88},{"user_id":424,"name":"case“Ø","steam_id":76561199206080182,"connected_time":460000000000,"state":"active","ping":75},{"user_id":425,"name":"|-HyperCube-|","steam_id":76561198167133597,"connected_time":416000000000,"state":"active","ping":81},{"user_id":426,"name":"careuwuy","steam_id":76561198077321435,"connected_time":414000000000,"state":"active","ping":61},{"user_id":402,"name":"hopeless","steam_id":76561198305056374,"connected_time":1428000000000,"state":"active","ping":73},{"user_id":390,"name":"‚Ç™TBC‚Ç™ LeeMon337","steam_id":76561198005781265,"connected_time":2969000000000,"state":"active","ping":108},{"user_id":429,"name":"uufyfuu","steam_id":76561198142787212,"connected_time":380000000000,"state":"active","ping":127},{"user_id":428,"name":"MeatShield 2000","steam_id":76561199375192850,"connected_time":390000000000,"state":"active","ping":120},{"user_id":342,"name":"Brown_Dream","steam_id":76561198975766145,"connected_time":6477000000000,"state":"active","ping":75},{"user_id":431,"name":"ib88","steam_id":76561198364967316,"connected_time":287000000000,"state":"active","ping":80}]},{"server_id":400,"name":"Uncletopia | Atlanta | 3 | Community","name_short":"atl-3","host":"atl-1.us.uncletopia.com","port":27035,"enabled":true,"region":"us-east","cc":"us","latitude":33.753746,"longitude":-84.38633,"reserved":0,"last_update":"0001-01-01T00:00:00Z","name_a2s":"Uncletopia | Atlanta | 3 | Community","protocol":17,"map":"workshop/cp_caldera_rc2.ugc2834196889","folder":"tf","game":"Team Fortress","app_id":440,"player_count":22,"max_players":24,"Bots":0,"server_type":"Dedicated","server_os":"Linux","password":true,"vac":true,"version":"7757534","steam_id":85568392924515187,"keywords":["cp","nocrits","nodmgspread","uncletopia"],"game_id":440,"stv_port":27036,"stv_name":"Uncletopia | Atlanta | 3 | Community | STV","players":[{"user_id":245,"name":"GoldenJalapeno","steam_id":76561198064949206,"connected_time":89000000000,"state":"active","ping":81},{"user_id":240,"name":"how do i girl???","steam_id":76561198050290565,"connected_time":246000000000,"state":"active","ping":73},{"user_id":206,"name":"Wiggee","steam_id":76561197972792989,"connected_time":1902000000000,"state":"active","ping":61},{"user_id":228,"name":"happy camper","steam_id":76561198209813328,"connected_time":724000000000,"state":"active","ping":63},{"user_id":224,"name":"Sergeant Joker #savetf2","steam_id":76561198854616604,"connected_time":1227000000000,"state":"active","ping":86},{"user_id":232,"name":"Wagemage","steam_id":76561198013625580,"connected_time":582000000000,"state":"active","ping":62},{"user_id":230,"name":"Huey","steam_id":76561198972816386,"connected_time":627000000000,"state":"active","ping":59},{"user_id":227,"name":"Orko (Third Degree Enjoyer)","steam_id":76561198162232131,"connected_time":978000000000,"state":"active","ping":84},{"user_id":210,"name":"The Chosen One","steam_id":76561199046984627,"connected_time":1631000000000,"state":"active","ping":71},{"user_id":211,"name":"The Pencil Cunts","steam_id":76561198272606252,"connected_time":1627000000000,"state":"active","ping":56},{"user_id":222,"name":"Nick the melon","steam_id":76561198798907871,"connected_time":1340000000000,"state":"active","ping":124},{"user_id":239,"name":"rxncxz","steam_id":76561199479646892,"connected_time":459000000000,"state":"active","ping":54},{"user_id":218,"name":"Dr. Neo Cortex","steam_id":76561198206522056,"connected_time":1456000000000,"state":"active","ping":150},{"user_id":241,"name":"joyboy","steam_id":76561198400381132,"connected_time":157000000000,"state":"active","ping":55},{"user_id":233,"name":"poseidon","steam_id":76561199085441984,"connected_time":576000000000,"state":"active","ping":83},{"user_id":234,"name":"tropis","steam_id":76561198067365603,"connected_time":530000000000,"state":"active","ping":59},{"user_id":216,"name":"Dr Ivo Robotnik","steam_id":76561198452727570,"connected_time":1524000000000,"state":"active","ping":145},{"user_id":236,"name":"PageBoiSkull","steam_id":76561198237353578,"connected_time":507000000000,"state":"active","ping":116},{"user_id":220,"name":"Mario Head","steam_id":76561198977666346,"connected_time":1408000000000,"state":"active","ping":152},{"user_id":246,"name":"Dr. Pleasant","steam_id":76561198111945101,"connected_time":37000000000,"state":"active","ping":100},{"user_id":223,"name":"Gravi","steam_id":76561198085728391,"connected_time":1268000000000,"state":"active","ping":89},{"user_id":244,"name":"Wild Zangoose","steam_id":76561198008137094,"connected_time":144000000000,"state":"active","ping":75}]},{"server_id":401,"name":"Uncletopia | Atlanta | 4 | No Payload","name_short":"atl-4","host":"atl-1.us.uncletopia.com","port":27045,"enabled":true,"region":"us-east","cc":"us","latitude":33.753746,"longitude":-84.38633,"reserved":0,"last_update":"0001-01-01T00:00:00Z","name_a2s":"","protocol":0,"map":"","folder":"","game":"","app_id":0,"player_count":0,"max_players":0,"Bots":0,"server_type":"","server_os":"","password":false,"vac":false,"version":"","steam_id":0,"keywords":null,"game_id":0,"stv_port":0,"stv_name":"","players":null},{"server_id":2,"name":"Uncletopia | Chicago | 1 | All Maps","name_short":"chi-1","host":"chi-1.us.uncletopia.com","port":27015,"enabled":true,"region":"us-central","cc":"us","latitude":41.881832,"longitude":-87.62318,"reserved":0,"last_update":"0001-01-01T00:00:00Z","name_a2s":"Uncletopia | Chicago | 1 | All Maps","protocol":17,"map":"pl_upward","folder":"tf","game":"Team Fortress","app_id":440,"player_count":23,"max_players":24,"Bots":0,"server_type":"Dedicated","server_os":"Linux","password":true,"vac":true,"version":"7757534","steam_id":85568392924469984,"keywords":["nocrits","nodmgspread","payload","uncletopia"],"game_id":440,"stv_port":27016,"stv_name":"Uncletopia | Chicago | 1 | All Maps | STV","players":[{"user_id":312,"name":"coodge","steam_id":76561198139080439,"connected_time":804000000000,"state":"active","ping":80},{"user_id":252,"name":"LemonPoppyMuffin","steam_id":76561198044813750,"connected_time":4678000000000,"state":"active","ping":73},{"user_id":154,"name":"Mike Charlie","steam_id":76561199470538309,"connected_time":12646000000000,"state":"active","ping":54},{"user_id":313,"name":"Ademar","steam_id":76561199391802581,"connected_time":803000000000,"state":"active","ping":50},{"user_id":308,"name":"Jimmy jam123","steam_id":76561199216003981,"connected_time":1190000000000,"state":"active","ping":74},{"user_id":315,"name":"k3nny11","steam_id":76561198182533757,"connected_time":731000000000,"state":"active","ping":67},{"user_id":310,"name":"Rusty","steam_id":76561198178868626,"connected_time":1043000000000,"state":"active","ping":112},{"user_id":258,"name":"Pawn Cushman","steam_id":76561198221635676,"connected_time":4330000000000,"state":"active","ping":68},{"user_id":278,"name":"PKBEAST_7","steam_id":76561198177136537,"connected_time":3162000000000,"state":"active","ping":88},{"user_id":301,"name":"Yam Jazzy Jim","steam_id":76561198000788950,"connected_time":1534000000000,"state":"active","ping":71},{"user_id":309,"name":"DeadlyDora","steam_id":76561198356453866,"connected_time":1161000000000,"state":"active","ping":76},{"user_id":297,"name":"Kohbold","steam_id":76561198996480140,"connected_time":1732000000000,"state":"active","ping":90},{"user_id":300,"name":"big ol' buford","steam_id":76561198290675957,"connected_time":1616000000000,"state":"active","ping":73},{"user_id":263,"name":".jpg","steam_id":76561198137237377,"connected_time":3820000000000,"state":"active","ping":67},{"user_id":293,"name":"Doomagedden","steam_id":76561198272589475,"connected_time":1884000000000,"state":"active","ping":82},{"user_id":302,"name":"Azuknow","steam_id":76561199229518180,"connected_time":1439000000000,"state":"active","ping":86},{"user_id":303,"name":"Windy Writer","steam_id":76561198048217633,"connected_time":1438000000000,"state":"active","ping":48},{"user_id":305,"name":"Medic","steam_id":76561199030987614,"connected_time":1274000000000,"state":"active","ping":91},{"user_id":299,"name":"Sir Galahad","steam_id":76561198195999859,"connected_time":1669000000000,"state":"active","ping":106},{"user_id":271,"name":"Garlic","steam_id":76561198207529047,"connected_time":3743000000000,"state":"active","ping":84},{"user_id":269,"name":"jaydn","steam_id":76561198086615208,"connected_time":3747000000000,"state":"active","ping":66},{"user_id":270,"name":"Onyiun","steam_id":76561199124107338,"connected_time":3745000000000,"state":"active","ping":79},{"user_id":311,"name":"MAXIMUM OVERDRIVE","steam_id":76561198113992547,"connected_time":846000000000,"state":"active","ping":104}]},{"server_id":106,"name":"Uncletopia | Chicago | 2 | All Maps","name_short":"chi-2","host":"chi-1.us.uncletopia.com","port":27025,"enabled":true,"region":"us-central","cc":"us","latitude":41.881832,"longitude":-87.62318,"reserved":0,"last_update":"0001-01-01T00:00:00Z","name_a2s":"Uncletopia | Chicago | 2 | All Maps","protocol":17,"map":"pl_upward","folder":"tf","game":"Team Fortress","app_id":440,"player_count":24,"max_players":24,"Bots":0,"server_type":"Dedicated","server_os":"Linux","password":true,"vac":true,"version":"7757534","steam_id":85568392924469985,"keywords":["nocrits","nodmgspread","payload","uncletopia"],"game_id":440,"stv_port":27026,"stv_name":"Uncletopia | Chicago | 2 | All Maps | STV","players":[{"user_id":512,"name":"SmoothDagger","steam_id":76561198011458161,"connected_time":1486000000000,"state":"active","ping":98},{"user_id":525,"name":"Nolan","steam_id":76561198169648081,"connected_time":417000000000,"state":"active","ping":74},{"user_id":502,"name":"Retro Phoenix","steam_id":76561198077176271,"connected_time":2194000000000,"state":"active","ping":60},{"user_id":505,"name":"Kingmako1099","steam_id":76561199266890323,"connected_time":1938000000000,"state":"active","ping":83},{"user_id":517,"name":"Ivan I","steam_id":76561198341781527,"connected_time":1131000000000,"state":"active","ping":84},{"user_id":434,"name":"CinnamonBoy","steam_id":76561198882330338,"connected_time":6160000000000,"state":"active","ping":70},{"user_id":518,"name":"Styx","steam_id":76561198158334494,"connected_time":1118000000000,"state":"active","ping":56},{"user_id":527,"name":"Smoky","steam_id":76561198041551259,"connected_time":214000000000,"state":"active","ping":70},{"user_id":523,"name":"no","steam_id":76561198248853140,"connected_time":560000000000,"state":"active","ping":50},{"user_id":524,"name":"Mug Moment Gaming","steam_id":76561198233098136,"connected_time":557000000000,"state":"active","ping":52},{"user_id":519,"name":"Owl Pacino","steam_id":76561197979970666,"connected_time":1108000000000,"state":"active","ping":57},{"user_id":463,"name":"Slazzer","steam_id":76561198404351844,"connected_time":4888000000000,"state":"active","ping":76},{"user_id":514,"name":"Jho-oh","steam_id":76561198062473436,"connected_time":1331000000000,"state":"active","ping":69},{"user_id":526,"name":"Kawi","steam_id":76561198099696751,"connected_time":410000000000,"state":"active","ping":113},{"user_id":494,"name":"Spyfall","steam_id":76561198081729993,"connected_time":2957000000000,"state":"active","ping":71},{"user_id":507,"name":"Motorbung87","steam_id":76561198976821898,"connected_time":1919000000000,"state":"active","ping":101},{"user_id":432,"name":"Doubting Dave","steam_id":76561198066410749,"connected_time":6312000000000,"state":"active","ping":79},{"user_id":504,"name":"doorlarkeded","steam_id":76561199439227968,"connected_time":1975000000000,"state":"active","ping":90},{"user_id":466,"name":"clancy","steam_id":76561199294116951,"connected_time":4813000000000,"state":"active","ping":133},{"user_id":508,"name":"C.A.S.S.I.E (real)","steam_id":76561199040892651,"connected_time":1906000000000,"state":"active","ping":60},{"user_id":521,"name":"Lilac","steam_id":76561198977523626,"connected_time":1025000000000,"state":"active","ping":70},{"user_id":470,"name":"Tamalito109","steam_id":76561198310531554,"connected_time":4736000000000,"state":"active","ping":97},{"user_id":510,"name":"3","steam_id":76561198116821551,"connected_time":1778000000000,"state":"active","ping":56},{"user_id":482,"name":"dbelow_","steam_id":76561198056148853,"connected_time":3497000000000,"state":"active","ping":62}]},{"server_id":402,"name":"Uncletopia | Chicago | 3 | All Maps","name_short":"chi-3","host":"chi-1.us.uncletopia.com","port":27035,"enabled":true,"region":"us-central","cc":"us","latitude":41.881832,"longitude":-87.62318,"reserved":0,"last_update":"0001-01-01T00:00:00Z","name_a2s":"Uncletopia | Chicago | 3 | All Maps","protocol":17,"map":"pl_upward","folder":"tf","game":"Team Fortress","app_id":440,"player_count":24,"max_players":24,"Bots":0,"server_type":"Dedicated","server_os":"Linux","password":true,"vac":true,"version":"7757534","steam_id":85568392924515191,"keywords":["nocrits","nodmgspread","payload","uncletopia"],"game_id":440,"stv_port":27036,"stv_name":"Uncletopia | Chicago | 3 | All Maps | STV","players":[{"user_id":350,"name":"TheSnipersHat","steam_id":76561198057684066,"connected_time":1972000000000,"state":"active","ping":54},{"user_id":327,"name":"TheGuyWhoPlays","steam_id":76561198277363002,"connected_time":3318000000000,"state":"active","ping":56},{"user_id":357,"name":"The local hobo","steam_id":76561198289650060,"connected_time":1783000000000,"state":"active","ping":77},{"user_id":358,"name":"Ping","steam_id":76561198072947773,"connected_time":1775000000000,"state":"active","ping":57},{"user_id":375,"name":"Opossum [she/they]","steam_id":76561198334764749,"connected_time":348000000000,"state":"active","ping":73},{"user_id":368,"name":"RiverEgg","steam_id":76561198888913405,"connected_time":633000000000,"state":"active","ping":53},{"user_id":360,"name":"Karma","steam_id":76561199112057184,"connected_time":1521000000000,"state":"active","ping":86},{"user_id":363,"name":"3ggsalad3","steam_id":76561199386969191,"connected_time":1130000000000,"state":"active","ping":45},{"user_id":347,"name":"Nomad","steam_id":76561198211891324,"connected_time":2090000000000,"state":"active","ping":63},{"user_id":323,"name":"MECHANISM MALE","steam_id":76561198855935442,"connected_time":3376000000000,"state":"active","ping":71},{"user_id":359,"name":"twitch.tv/firepow10","steam_id":76561198236505562,"connected_time":1650000000000,"state":"active","ping":84},{"user_id":268,"name":"Also Known As Assteeth","steam_id":76561198049837377,"connected_time":7234000000000,"state":"active","ping":50},{"user_id":374,"name":"Bon Gripper","steam_id":76561198090074621,"connected_time":441000000000,"state":"active","ping":56},{"user_id":369,"name":"JetZ","steam_id":76561199122488957,"connected_time":535000000000,"state":"active","ping":67},{"user_id":364,"name":"MAJICBUCKET","steam_id":76561198825268471,"connected_time":1108000000000,"state":"active","ping":71},{"user_id":352,"name":"Rick Astley's Foot","steam_id":76561198862617917,"connected_time":1950000000000,"state":"active","ping":57},{"user_id":373,"name":"Chrisscar","steam_id":76561198086298130,"connected_time":485000000000,"state":"active","ping":104},{"user_id":378,"name":"Ockulus","steam_id":76561199069638460,"connected_time":192000000000,"state":"active","ping":88},{"user_id":346,"name":"ror!","steam_id":76561198021227843,"connected_time":2403000000000,"state":"active","ping":53},{"user_id":365,"name":"Monster","steam_id":76561198189429665,"connected_time":1099000000000,"state":"active","ping":74},{"user_id":321,"name":"_hooded_","steam_id":76561198023595873,"connected_time":3556000000000,"state":"active","ping":85},{"user_id":285,"name":"J.G. Klaus","steam_id":76561198001111196,"connected_time":5701000000000,"state":"active","ping":60},{"user_id":370,"name":"{FITH}‚Ñ¢ SmittyWun {FM}","steam_id":76561198079531938,"connected_time":519000000000,"state":"active","ping":74},{"user_id":379,"name":"African Despot","steam_id":76561198169966346,"connected_time":69000000000,"state":"active","ping":77}]},{"server_id":403,"name":"Uncletopia | Chicago | 4 | All Maps","name_short":"chi-4","host":"chi-1.us.uncletopia.com","port":27045,"enabled":true,"region":"us-central","cc":"us","latitude":41.881832,"longitude":-87.62318,"reserved":0,"last_update":"0001-01-01T00:00:00Z","name_a2s":"Uncletopia | Chicago | 4 | All Maps","protocol":17,"map":"pl_snowycoast","folder":"tf","game":"Team Fortress","app_id":440,"player_count":24,"max_players":24,"Bots":0,"server_type":"Dedicated","server_os":"Linux","password":true,"vac":true,"version":"7757534","steam_id":85568392924515193,"keywords":["nocrits","nodmgspread","payload","uncletopia"],"game_id":440,"stv_port":27046,"stv_name":"Uncletopia | Chicago | 4 | All Maps | STV","players":[{"user_id":8,"name":"NBA2k22hoodmoments","steam_id":76561198383103506,"connected_time":10575000000000,"state":"active","ping":52},{"user_id":154,"name":"koompa_stomp","steam_id":76561198073081735,"connected_time":997000000000,"state":"active","ping":104},{"user_id":165,"name":"toho","steam_id":76561198117747254,"connected_time":661000000000,"state":"active","ping":61},{"user_id":163,"name":"‚ù§Breadshot (She)‚ù§","steam_id":76561199005756738,"connected_time":698000000000,"state":"active","ping":59},{"user_id":150,"name":"Slart (bleeding out)","steam_id":76561198873467173,"connected_time":1224000000000,"state":"active","ping":101},{"user_id":156,"name":"Stapler","steam_id":76561198099295077,"connected_time":924000000000,"state":"active","ping":98},{"user_id":166,"name":"Universe Man","steam_id":76561197997710655,"connected_time":630000000000,"state":"active","ping":88},{"user_id":162,"name":"Erick","steam_id":76561198176406475,"connected_time":751000000000,"state":"active","ping":83},{"user_id":131,"name":"Major Militron","steam_id":76561198435129402,"connected_time":2597000000000,"state":"active","ping":101},{"user_id":159,"name":"sax","steam_id":76561198094788852,"connected_time":877000000000,"state":"active","ping":54},{"user_id":121,"name":"i really like this dog :)","steam_id":76561198882404753,"connected_time":2979000000000,"state":"active","ping":80},{"user_id":161,"name":"Uncle","steam_id":76561197988647705,"connected_time":770000000000,"state":"active","ping":62},{"user_id":143,"name":"thomasdee725!!!!","steam_id":76561199189526173,"connected_time":2032000000000,"state":"active","ping":82},{"user_id":151,"name":"Malikar (fake)","steam_id":76561199037497493,"connected_time":1214000000000,"state":"active","ping":60},{"user_id":99,"name":"Rockcrusher","steam_id":76561199012666353,"connected_time":4572000000000,"state":"active","ping":70},{"user_id":118,"name":"Acehay14","steam_id":76561198052373291,"connected_time":3534000000000,"state":"active","ping":57},{"user_id":129,"name":"phlogging asshat","steam_id":76561199000786530,"connected_time":2639000000000,"state":"active","ping":87},{"user_id":153,"name":"Grand Piano Tuna","steam_id":76561198135137213,"connected_time":1070000000000,"state":"active","ping":86},{"user_id":144,"name":"TimTheEnchanter","steam_id":76561198174405078,"connected_time":2022000000000,"state":"active","ping":74},{"user_id":164,"name":"NovaSc6ut","steam_id":76561198277163301,"connected_time":689000000000,"state":"active","ping":69},{"user_id":158,"name":"66","steam_id":76561199435833201,"connected_time":915000000000,"state":"active","ping":109},{"user_id":167,"name":"kevin supermarket","steam_id":76561198058287022,"connected_time":55000000000,"state":"active","ping":60},{"user_id":135,"name":"The Expert","steam_id":76561198149987582,"connected_time":2536000000000,"state":"active","ping":44},{"user_id":122,"name":"[GUT] RiDiK¬Æ","steam_id":76561197969756446,"connected_time":2977000000000,"state":"active","ping":57}]},{"server_id":36,"name":"Uncletopia | Chicago | 5 | All Maps","name_short":"chi-5","host":"chi-2.us.uncletopia.com","port":27015,"enabled":true,"region":"us-central","cc":"us","latitude":41.881832,"longitude":-87.62318,"reserved":0,"last_update":"0001-01-01T00:00:00Z","name_a2s":"Uncletopia | Chicago | 5 | All Maps","protocol":17,"map":"pl_pier","folder":"tf","game":"Team Fortress","app_id":440,"player_count":20,"max_players":24,"Bots":0,"server_type":"Dedicated","server_os":"Linux","password":true,"vac":true,"version":"7757534","steam_id":85568392924866362,"keywords":["nocrits","nodmgspread","payload","uncletopia"],"game_id":440,"stv_port":27016,"stv_name":"Uncletopia | Chicago | 5 | All Maps | STV","players":[{"user_id":103,"name":"Endzilla88","steam_id":76561198257926514,"connected_time":2502000000000,"state":"connecting","ping":63},{"user_id":107,"name":"mountain*‚ú©‚Äß‚ÇäÀö","steam_id":76561198078395002,"connected_time":2391000000000,"state":"connecting","ping":64},{"user_id":50,"name":"Walkiing","steam_id":76561198074473413,"connected_time":5531000000000,"state":"connecting","ping":59},{"user_id":98,"name":"Ragveida","steam_id":76561199156968587,"connected_time":2889000000000,"state":"connecting","ping":71},{"user_id":22,"name":"wolf_71","steam_id":76561198963570945,"connected_time":6980000000000,"state":"connecting","ping":86},{"user_id":59,"name":"gas chambers for pit bulls","steam_id":76561198045340743,"connected_time":4787000000000,"state":"connecting","ping":112},{"user_id":147,"name":"kiviviviviviviviviviviviviviviv","steam_id":76561198838223023,"connected_time":2000000000,"state":"connecting","ping":87},{"user_id":137,"name":"even_steven.4season","steam_id":76561199161322235,"connected_time":347000000000,"state":"connecting","ping":83},{"user_id":55,"name":"AutoCon17","steam_id":76561198209977473,"connected_time":5310000000000,"state":"connecting","ping":54},{"user_id":143,"name":"Dagoth","steam_id":76561198100896443,"connected_time":105000000000,"state":"connecting","ping":66},{"user_id":83,"name":"Robin","steam_id":76561198121165149,"connected_time":3624000000000,"state":"connecting","ping":54},{"user_id":140,"name":"ItsRoy","steam_id":76561198119525485,"connected_time":248000000000,"state":"connecting","ping":72},{"user_id":125,"name":"A Shiny Meat Bicycle","steam_id":76561198358757709,"connected_time":1494000000000,"state":"connecting","ping":97},{"user_id":136,"name":"like a g6","steam_id":76561198070923665,"connected_time":453000000000,"state":"connecting","ping":96},{"user_id":120,"name":"ChaoticSony","steam_id":76561198288624642,"connected_time":1758000000000,"state":"connecting","ping":97},{"user_id":135,"name":"Sorrow","steam_id":76561198050225563,"connected_time":509000000000,"state":"connecting","ping":77},{"user_id":134,"name":"[PFF] Giacomo","steam_id":76561198058560798,"connected_time":516000000000,"state":"connecting","ping":70},{"user_id":141,"name":"flange","steam_id":76561198040182692,"connected_time":246000000000,"state":"connecting","ping":169},{"user_id":95,"name":"cooked chicken enjoyer","steam_id":76561198278282836,"connected_time":3156000000000,"state":"connecting","ping":68},{"user_id":127,"name":"Ctayl","steam_id":76561198154127858,"connected_time":1397000000000,"state":"connecting","ping":84}]},{"server_id":37,"name":"Uncletopia | Chicago | 6 | All Maps","name_short":"chi-6","host":"chi-2.us.uncletopia.com","port":27025,"enabled":true,"region":"us-central","cc":"us","latitude":41.881832,"longitude":-87.62318,"reserved":0,"last_update":"0001-01-01T00:00:00Z","name_a2s":"Uncletopia | Chicago | 6 | All Maps","protocol":17,"map":"pl_upward","folder":"tf","game":"Team Fortress","app_id":440,"player_count":24,"max_players":24,"Bots":0,"server_type":"Dedicated","server_os":"Linux","password":true,"vac":true,"version":"7757534","steam_id":85568392924866363,"keywords":["nocrits","nodmgspread","payload","uncletopia"],"game_id":440,"stv_port":27026,"stv_name":"Uncletopia | Chicago | 6 | All Maps | STV","players":[{"user_id":258,"name":"god approaches","steam_id":76561198081617990,"connected_time":441000000000,"state":"active","ping":95},{"user_id":264,"name":"The Domb Loid","steam_id":76561198295791203,"connected_time":52000000000,"state":"active","ping":54},{"user_id":218,"name":"rat eater","steam_id":76561199216874750,"connected_time":3391000000000,"state":"active","ping":57},{"user_id":233,"name":"nat","steam_id":76561198865090309,"connected_time":1658000000000,"state":"active","ping":78},{"user_id":259,"name":"Uso","steam_id":76561198012093238,"connected_time":400000000000,"state":"active","ping":46},{"user_id":260,"name":"zeplinnn","steam_id":76561198301300987,"connected_time":371000000000,"state":"active","ping":100},{"user_id":173,"name":"Bad Rollout","steam_id":76561197971948876,"connected_time":6669000000000,"state":"active","ping":73},{"user_id":197,"name":"Broadsword","steam_id":76561198011160411,"connected_time":5065000000000,"state":"active","ping":88},{"user_id":262,"name":"bachphong760","steam_id":76561199433780443,"connected_time":181000000000,"state":"active","ping":82},{"user_id":250,"name":"akin","steam_id":76561198065895033,"connected_time":860000000000,"state":"active","ping":62},{"user_id":247,"name":"E","steam_id":76561199106689292,"connected_time":1275000000000,"state":"active","ping":64},{"user_id":190,"name":"Sky (‚åê‚ñ†_‚ñ†)","steam_id":76561198104953731,"connected_time":5431000000000,"state":"active","ping":89},{"user_id":261,"name":"ungr8t","steam_id":76561198063521721,"connected_time":283000000000,"state":"active","ping":76},{"user_id":251,"name":"4d4","steam_id":76561198402360789,"connected_time":839000000000,"state":"active","ping":69},{"user_id":217,"name":"fmell","steam_id":76561198111655570,"connected_time":3437000000000,"state":"active","ping":42},{"user_id":242,"name":"sansa musa","steam_id":76561198163723555,"connected_time":1417000000000,"state":"active","ping":72},{"user_id":174,"name":"GrimDaReaper","steam_id":76561199038948822,"connected_time":6661000000000,"state":"active","ping":93},{"user_id":246,"name":"Decs","steam_id":76561198825197974,"connected_time":1317000000000,"state":"active","ping":126},{"user_id":240,"name":"Spring Beans","steam_id":76561197978546259,"connected_time":1441000000000,"state":"active","ping":60},{"user_id":49,"name":"Loki!","steam_id":76561198089201861,"connected_time":16388000000000,"state":"active","ping":62},{"user_id":263,"name":"ELL","steam_id":76561198842560531,"connected_time":174000000000,"state":"active","ping":70},{"user_id":244,"name":"Viziveks","steam_id":76561198958529050,"connected_time":1378000000000,"state":"active","ping":85},{"user_id":193,"name":"hud7on","steam_id":76561198185811389,"connected_time":5376000000000,"state":"active","ping":80},{"user_id":254,"name":"‡ºò ‚ãÜÀöüéßCaffeine‚òï*Àñ¬∞","steam_id":76561199259309294,"connected_time":695000000000,"state":"active","ping":78}]},{"server_id":38,"name":"Uncletopia | Chicago | 7 | Stopwatch Beta","name_short":"chi-7","host":"chi-2.us.uncletopia.com","port":27035,"enabled":true,"region":"us-central","cc":"us","latitude":41.881832,"longitude":-87.62318,"reserved":0,"last_update":"0001-01-01T00:00:00Z","name_a2s":"Uncletopia | Chicago | 7 | Stopwatch Beta","protocol":17,"map":"pl_barnblitz","folder":"tf","game":"Team Fortress","app_id":440,"player_count":0,"max_players":24,"Bots":0,"server_type":"Dedicated","server_os":"Linux","password":true,"vac":true,"version":"7757534","steam_id":85568392924866364,"keywords":["nocrits","nodmgspread","payload","uncletopia"],"game_id":440,"stv_port":27036,"stv_name":"Uncletopia | Chicago | 7 | Stopwatch Beta | STV","players":null},{"server_id":39,"name":"Uncletopia | Chicago | 8 | Community","name_short":"chi-8","host":"chi-2.us.uncletopia.com","port":27045,"enabled":true,"region":"us-central","cc":"us","latitude":41.881832,"longitude":-87.62318,"reserved":0,"last_update":"0001-01-01T00:00:00Z","name_a2s":"Uncletopia | Chicago | 8 | Community","protocol":17,"map":"koth_cascade","folder":"tf","game":"Team Fortress","app_id":440,"player_count":0,"max_players":24,"Bots":0,"server_type":"Dedicated","server_os":"Linux","password":true,"vac":true,"version":"7757534","steam_id":85568392924866365,"keywords":["cp","nocrits","nodmgspread","uncletopia"],"game_id":440,"stv_port":27046,"stv_name":"Uncletopia | Chicago | 8 | Community | STV","players":null},{"server_id":8,"name":"Uncletopia | Dallas | 1 | All Maps","name_short":"dal-1","host":"dal-1.us.uncletopia.com","port":27015,"enabled":true,"region":"us-central","cc":"us","latitude":32.779167,"longitude":-96.80889,"reserved":0,"last_update":"0001-01-01T00:00:00Z","name_a2s":"Uncletopia | Dallas | 1 | All Maps","protocol":17,"map":"pl_upward","folder":"tf","game":"Team Fortress","app_id":440,"player_count":24,"max_players":24,"Bots":0,"server_type":"Dedicated","server_os":"Linux","password":true,"vac":true,"version":"7757534","steam_id":85568392924469986,"keywords":["nocrits","nodmgspread","payload","uncletopia"],"game_id":440,"stv_port":27016,"stv_name":"Uncletopia | Dallas | 1 | All Maps | STV","players":[{"user_id":243,"name":"heavensandwiches","steam_id":76561198019021094,"connected_time":5548000000000,"state":"active","ping":50},{"user_id":296,"name":"owen","steam_id":76561198121517871,"connected_time":1622000000000,"state":"active","ping":51},{"user_id":321,"name":"Anomalocaris Gay Ming","steam_id":76561198257921898,"connected_time":302000000000,"state":"active","ping":147},{"user_id":254,"name":"Moonflower ‚ú¶","steam_id":76561198191782483,"connected_time":4591000000000,"state":"active","ping":49},{"user_id":295,"name":"aidan long","steam_id":76561198073022833,"connected_time":1647000000000,"state":"active","ping":42},{"user_id":300,"name":"Green_GarBear","steam_id":76561199468912415,"connected_time":1407000000000,"state":"active","ping":89},{"user_id":302,"name":"radicalPolio","steam_id":76561197961561855,"connected_time":1326000000000,"state":"active","ping":43},{"user_id":312,"name":"Goblin Merchant (50 OFF)","steam_id":76561199323707429,"connected_time":1015000000000,"state":"active","ping":63},{"user_id":252,"name":"Mellou","steam_id":76561198212048740,"connected_time":4937000000000,"state":"active","ping":51},{"user_id":292,"name":"Bogey","steam_id":76561198096227944,"connected_time":1747000000000,"state":"active","ping":44},{"user_id":299,"name":"The Cloaker","steam_id":76561198155815824,"connected_time":1446000000000,"state":"active","ping":96},{"user_id":322,"name":"The Super Mario Bros. Movie","steam_id":76561198871692156,"connected_time":300000000000,"state":"active","ping":100},{"user_id":271,"name":"Axities","steam_id":76561198278008225,"connected_time":3562000000000,"state":"active","ping":77},{"user_id":235,"name":"EmotreX","steam_id":76561198366518989,"connected_time":6276000000000,"state":"active","ping":58},{"user_id":304,"name":"K.A.R.M.A.","steam_id":76561198240750142,"connected_time":1171000000000,"state":"active","ping":80},{"user_id":319,"name":"thebadspy","steam_id":76561199213624583,"connected_time":365000000000,"state":"active","ping":90},{"user_id":323,"name":"luscaPUTO","steam_id":76561199037598902,"connected_time":25000000000,"state":"spawning","ping":167},{"user_id":314,"name":"tobrehto","steam_id":76561198097544038,"connected_time":407000000000,"state":"active","ping":64},{"user_id":306,"name":"VixianUwU „ÉÉ ‚ù§","steam_id":76561198948815060,"connected_time":1149000000000,"state":"active","ping":76},{"user_id":307,"name":"Mirage","steam_id":76561199133903803,"connected_time":1109000000000,"state":"active","ping":76},{"user_id":308,"name":"Burny Sanders","steam_id":76561197961879048,"connected_time":1081000000000,"state":"active","ping":45},{"user_id":317,"name":"aidenmc3","steam_id":76561198062209166,"connected_time":386000000000,"state":"active","ping":45},{"user_id":255,"name":"momb","steam_id":76561198142234038,"connected_time":4522000000000,"state":"active","ping":92},{"user_id":294,"name":"carol in HR","steam_id":76561198071775268,"connected_time":1671000000000,"state":"active","ping":75}]},{"server_id":108,"name":"Uncletopia | Dallas | 2 | All Maps","name_short":"dal-2","host":"dal-1.us.uncletopia.com","port":27025,"enabled":true,"region":"us-central","cc":"us","latitude":32.779167,"longitude":-96.80889,"reserved":0,"last_update":"0001-01-01T00:00:00Z","name_a2s":"Uncletopia | Dallas | 2 | All Maps","protocol":17,"map":"pl_upward","folder":"tf","game":"Team Fortress","app_id":440,"player_count":24,"max_players":24,"Bots":0,"server_type":"Dedicated","server_os":"Linux","password":true,"vac":true,"version":"7757534","steam_id":85568392924469988,"keywords":["nocrits","nodmgspread","payload","uncletopia"],"game_id":440,"stv_port":27026,"stv_name":"Uncletopia | Dallas | 2 | All Maps | STV","players":[{"user_id":82,"name":"Nightlygalad","steam_id":76561198170693990,"connected_time":8136000000000,"state":"active","ping":76},{"user_id":182,"name":"DoomoPelota","steam_id":76561198326462587,"connected_time":987000000000,"state":"active","ping":90},{"user_id":97,"name":"Can You Feel It Mr.Krabs","steam_id":76561198128302414,"connected_time":7572000000000,"state":"active","ping":71},{"user_id":178,"name":"Lil_Roomba","steam_id":76561199215047783,"connected_time":1086000000000,"state":"active","ping":97},{"user_id":187,"name":"mm","steam_id":76561198841559088,"connected_time":879000000000,"state":"active","ping":76},{"user_id":193,"name":"shinon","steam_id":76561198373626848,"connected_time":622000000000,"state":"active","ping":76},{"user_id":194,"name":"Eoka Gaming","steam_id":76561198315596929,"connected_time":609000000000,"state":"active","ping":72},{"user_id":180,"name":"BaRs","steam_id":76561198981717009,"connected_time":1022000000000,"state":"active","ping":61},{"user_id":183,"name":"FETTUCCINE GANG","steam_id":76561198398722419,"connected_time":974000000000,"state":"active","ping":62},{"user_id":176,"name":"bilo9901","steam_id":76561198091930188,"connected_time":1441000000000,"state":"active","ping":84},{"user_id":155,"name":"Gaminglast","steam_id":76561198362927765,"connected_time":2670000000000,"state":"active","ping":124},{"user_id":197,"name":"ReDiculous22","steam_id":76561198038391383,"connected_time":176000000000,"state":"active","ping":42},{"user_id":177,"name":"xZackAttack27x","steam_id":76561198035446639,"connected_time":1114000000000,"state":"active","ping":45},{"user_id":115,"name":"girl smell","steam_id":76561198118962168,"connected_time":5750000000000,"state":"active","ping":67},{"user_id":198,"name":"Espeonboy","steam_id":76561199013435819,"connected_time":33000000000,"state":"spawning","ping":73},{"user_id":185,"name":"me shoot floor","steam_id":76561198046526036,"connected_time":965000000000,"state":"active","ping":75},{"user_id":200,"name":"Mediarch","steam_id":76561198050765729,"connected_time":19000000000,"state":"active","ping":108},{"user_id":188,"name":"Swifz","steam_id":76561199074464840,"connected_time":872000000000,"state":"active","ping":79},{"user_id":189,"name":"[ttv]{BakedFox88}","steam_id":76561198030338421,"connected_time":872000000000,"state":"active","ping":74},{"user_id":196,"name":"zaku","steam_id":76561199227854899,"connected_time":547000000000,"state":"active","ping":115},{"user_id":199,"name":"DMM","steam_id":76561198065426171,"connected_time":33000000000,"state":"active","ping":54},{"user_id":132,"name":"RomerKromer","steam_id":76561198050499626,"connected_time":4136000000000,"state":"active","ping":76},{"user_id":171,"name":"Bastee1021","steam_id":76561199456141163,"connected_time":1683000000000,"state":"active","ping":103},{"user_id":192,"name":"Reyloko","steam_id":76561198172480913,"connected_time":776000000000,"state":"active","ping":76}]},{"server_id":5,"name":"Uncletopia | Frankfurt | 1 | All Maps","name_short":"frk-1","host":"frk-1.de.uncletopia.com","port":27015,"enabled":true,"region":"eu","cc":"de","latitude":50.110924,"longitude":8.682127,"reserved":0,"last_update":"0001-01-01T00:00:00Z","name_a2s":"Uncletopia | Frankfurt | 1 | All Maps","protocol":17,"map":"pl_snowycoast","folder":"tf","game":"Team Fortress","app_id":440,"player_count":24,"max_players":24,"Bots":0,"server_type":"Dedicated","server_os":"Linux","password":true,"vac":true,"version":"7757534","steam_id":85568392924469989,"keywords":["nocrits","nodmgspread","payload","uncletopia"],"game_id":440,"stv_port":27016,"stv_name":"Uncletopia | Frankfurt | 1 | All Maps | STV","players":[{"user_id":664,"name":"ThellanM","steam_id":76561199014222387,"connected_time":2313000000000,"state":"active","ping":75},{"user_id":635,"name":"Carrotcracker","steam_id":76561198034862396,"connected_time":3875000000000,"state":"active","ping":77},{"user_id":646,"name":"Mza28","steam_id":76561198873993324,"connected_time":3193000000000,"state":"active","ping":77},{"user_id":665,"name":"I Bleed Butter","steam_id":76561198130814770,"connected_time":2280000000000,"state":"active","ping":75},{"user_id":649,"name":"Predrag218","steam_id":76561199242439630,"connected_time":3012000000000,"state":"active","ping":116},{"user_id":685,"name":"Abhorrent","steam_id":76561198056338288,"connected_time":630000000000,"state":"active","ping":64},{"user_id":688,"name":"JAMES \"JIM\" COURIER","steam_id":76561198847048146,"connected_time":544000000000,"state":"active","ping":77},{"user_id":680,"name":"astigmatic","steam_id":76561199103959197,"connected_time":1528000000000,"state":"active","ping":86},{"user_id":631,"name":"eeeeee","steam_id":76561198017786875,"connected_time":3997000000000,"state":"active","ping":62},{"user_id":689,"name":"Mr.B","steam_id":76561199204478925,"connected_time":479000000000,"state":"active","ping":117},{"user_id":651,"name":"Nemium","steam_id":76561198070757635,"connected_time":2863000000000,"state":"active","ping":63},{"user_id":652,"name":"CopiTheCat","steam_id":76561198143948217,"connected_time":2736000000000,"state":"active","ping":59},{"user_id":683,"name":"Hat Lover","steam_id":76561198312283433,"connected_time":1190000000000,"state":"active","ping":85},{"user_id":654,"name":"Ôº≠ÔΩÅÔΩÉÔΩâÔΩéÔΩîÔΩèÔΩìÔΩà","steam_id":76561198074294565,"connected_time":2648000000000,"state":"active","ping":83},{"user_id":668,"name":"Oxer","steam_id":76561198055942412,"connected_time":2261000000000,"state":"active","ping":72},{"user_id":669,"name":"Manne","steam_id":76561197966137258,"connected_time":2257000000000,"state":"active","ping":72},{"user_id":656,"name":"mrSi","steam_id":76561198281528013,"connected_time":2459000000000,"state":"active","ping":47},{"user_id":657,"name":"knees","steam_id":76561198005924647,"connected_time":2406000000000,"state":"active","ping":82},{"user_id":670,"name":"CollDragon","steam_id":76561198067534450,"connected_time":2248000000000,"state":"active","ping":139},{"user_id":686,"name":"‚òÖpoyo‚òÖ","steam_id":76561198150078959,"connected_time":625000000000,"state":"active","ping":61},{"user_id":678,"name":"Gravel Mercenary","steam_id":76561199019412162,"connected_time":1946000000000,"state":"active","ping":67},{"user_id":691,"name":"Grillem Dafoe","steam_id":76561198306874574,"connected_time":2000000000,"state":"spawning","ping":63},{"user_id":681,"name":"Castleson","steam_id":76561198054330537,"connected_time":1479000000000,"state":"active","ping":138},{"user_id":690,"name":"Spike","steam_id":76561198306382723,"connected_time":37000000000,"state":"active","ping":64}]},{"server_id":110,"name":"Uncletopia | Frankfurt | 2 | All Maps","name_short":"frk-2","host":"frk-1.de.uncletopia.com","port":27025,"enabled":true,"region":"eu","cc":"de","latitude":50.110924,"longitude":8.682127,"reserved":0,"last_update":"0001-01-01T00:00:00Z","name_a2s":"Uncletopia | Frankfurt | 2 | All Maps","protocol":17,"map":"pl_frontier_final","folder":"tf","game":"Team Fortress","app_id":440,"player_count":13,"max_players":24,"Bots":0,"server_type":"Dedicated","server_os":"Linux","password":true,"vac":true,"version":"7757534","steam_id":85568392924469990,"keywords":["nocrits","nodmgspread","payload","uncletopia"],"game_id":440,"stv_port":27026,"stv_name":"Uncletopia | Frankfurt | 2 | All Maps | STV","players":[{"user_id":605,"name":"Dzan50","steam_id":76561198059758591,"connected_time":951000000000,"state":"active","ping":89},{"user_id":612,"name":"slnc","steam_id":76561198041151496,"connected_time":18000000000,"state":"active","ping":47},{"user_id":577,"name":"Dewotter","steam_id":76561198007653168,"connected_time":3664000000000,"state":"active","ping":74},{"user_id":598,"name":"Great recession of 2008","steam_id":76561198881151562,"connected_time":1681000000000,"state":"active","ping":79},{"user_id":573,"name":"Syll","steam_id":76561198040736202,"connected_time":3862000000000,"state":"active","ping":93},{"user_id":591,"name":"‡∂ûbominasus 2137  #SaveTF2","steam_id":76561198030062981,"connected_time":2297000000000,"state":"active","ping":61},{"user_id":521,"name":"Knez","steam_id":76561198043806388,"connected_time":7332000000000,"state":"active","ping":74},{"user_id":585,"name":"xiiski","steam_id":76561198152387747,"connected_time":2948000000000,"state":"active","ping":93},{"user_id":609,"name":"lore","steam_id":76561198120984188,"connected_time":415000000000,"state":"active","ping":59},{"user_id":594,"name":"KNARRER","steam_id":76561199130777953,"connected_time":2237000000000,"state":"active","ping":48},{"user_id":604,"name":"John Warsaw","steam_id":76561198076661772,"connected_time":999000000000,"state":"active","ping":75},{"user_id":569,"name":"DespawnedDiamond","steam_id":76561198841944417,"connected_time":4103000000000,"state":"active","ping":58},{"user_id":610,"name":"Charles Darwin","steam_id":76561197973496139,"connected_time":218000000000,"state":"active","ping":60}]},{"server_id":308,"name":"Uncletopia | Frankfurt | 3 | All Maps","name_short":"frk-3","host":"frk-1.de.uncletopia.com","port":27035,"enabled":true,"region":"eu","cc":"de","latitude":50.110924,"longitude":8.682127,"reserved":0,"last_update":"0001-01-01T00:00:00Z","name_a2s":"Uncletopia | Frankfurt | 3 | All Maps","protocol":17,"map":"pl_badwater","folder":"tf","game":"Team Fortress","app_id":440,"player_count":24,"max_players":24,"Bots":0,"server_type":"Dedicated","server_os":"Linux","password":true,"vac":true,"version":"7757534","steam_id":85568392924504274,"keywords":["nocrits","nodmgspread","payload","uncletopia"],"game_id":440,"stv_port":27036,"stv_name":"Uncletopia | Frankfurt | 3 | All Maps | STV","players":[{"user_id":383,"name":"grandpa's post-mortem photo","steam_id":76561198130116078,"connected_time":1589000000000,"state":"active","ping":90},{"user_id":352,"name":"dn4k","steam_id":76561199221755690,"connected_time":3232000000000,"state":"active","ping":80},{"user_id":394,"name":"cyanic","steam_id":76561198047828651,"connected_time":952000000000,"state":"active","ping":67},{"user_id":370,"name":"Sir Skyber","steam_id":76561198064440004,"connected_time":2357000000000,"state":"active","ping":104},{"user_id":381,"name":"Balls","steam_id":76561198086400484,"connected_time":1785000000000,"state":"active","ping":73},{"user_id":372,"name":"Piox","steam_id":76561198125689157,"connected_time":2336000000000,"state":"active","ping":77},{"user_id":287,"name":"Ecton","steam_id":76561198025103720,"connected_time":7967000000000,"state":"active","ping":62},{"user_id":365,"name":"quiche","steam_id":76561198822433744,"connected_time":2659000000000,"state":"active","ping":58},{"user_id":384,"name":"antuio","steam_id":76561198259489016,"connected_time":1430000000000,"state":"active","ping":92},{"user_id":341,"name":"Nyhde","steam_id":76561198012771416,"connected_time":3804000000000,"state":"active","ping":85},{"user_id":342,"name":"tiny engi","steam_id":76561199380255051,"connected_time":3749000000000,"state":"active","ping":88},{"user_id":377,"name":"Lil Ari","steam_id":76561198218178180,"connected_time":2078000000000,"state":"active","ping":85},{"user_id":402,"name":"Alibi","steam_id":76561198061845595,"connected_time":227000000000,"state":"active","ping":62},{"user_id":397,"name":"PluNgBe","steam_id":76561198131100420,"connected_time":373000000000,"state":"active","ping":61},{"user_id":399,"name":"‚Ä† saVage ‚Ä†","steam_id":76561198057824494,"connected_time":313000000000,"state":"active","ping":84},{"user_id":400,"name":"Dill Killem","steam_id":76561199071571354,"connected_time":298000000000,"state":"active","ping":72},{"user_id":401,"name":"Dr Crow","steam_id":76561198138444201,"connected_time":280000000000,"state":"active","ping":65},{"user_id":403,"name":"honneur aux pauvres","steam_id":76561198048741472,"connected_time":226000000000,"state":"active","ping":55},{"user_id":389,"name":"printer is broken","steam_id":76561198234270592,"connected_time":1283000000000,"state":"active","ping":58},{"user_id":396,"name":"im not good at video games","steam_id":76561198973507129,"connected_time":796000000000,"state":"active","ping":107},{"user_id":368,"name":"new headphones :)","steam_id":76561198334042273,"connected_time":2521000000000,"state":"active","ping":72},{"user_id":404,"name":"Kikuri","steam_id":76561198376786609,"connected_time":219000000000,"state":"active","ping":97},{"user_id":350,"name":"Monara12th","steam_id":76561199478607360,"connected_time":3378000000000,"state":"active","ping":65},{"user_id":395,"name":"Sarah Obama Michella","steam_id":76561198078996559,"connected_time":937000000000,"state":"active","ping":73}]},{"server_id":309,"name":"Uncletopia | Frankfurt | 4 | All Maps","name_short":"frk-4","host":"frk-1.de.uncletopia.com","port":27045,"enabled":true,"region":"eu","cc":"de","latitude":50.110924,"longitude":8.682127,"reserved":0,"last_update":"0001-01-01T00:00:00Z","name_a2s":"Uncletopia | Frankfurt | 4 | All Maps","protocol":17,"map":"pl_frontier_final","folder":"tf","game":"Team Fortress","app_id":440,"player_count":23,"max_players":24,"Bots":0,"server_type":"Dedicated","server_os":"Linux","password":true,"vac":true,"version":"7757534","steam_id":85568392924504275,"keywords":["nocrits","nodmgspread","payload","uncletopia"],"game_id":440,"stv_port":27046,"stv_name":"Uncletopia | Frankfurt | 4 | All Maps | STV","players":[{"user_id":142,"name":"balinter","steam_id":76561198103408801,"connected_time":1341000000000,"state":"active","ping":78},{"user_id":126,"name":"homeinvasion$","steam_id":76561199111905021,"connected_time":2793000000000,"state":"active","ping":113},{"user_id":132,"name":"jmp","steam_id":76561198168283286,"connected_time":1888000000000,"state":"active","ping":75},{"user_id":138,"name":"finbar","steam_id":76561198056812396,"connected_time":1434000000000,"state":"active","ping":75},{"user_id":115,"name":"The Appleguy","steam_id":76561198444982569,"connected_time":3071000000000,"state":"active","ping":63},{"user_id":151,"name":"Gibby","steam_id":76561198079632449,"connected_time":257000000000,"state":"active","ping":69},{"user_id":109,"name":"revolver rolka","steam_id":76561198131103805,"connected_time":3653000000000,"state":"active","ping":77},{"user_id":143,"name":"Towercat","steam_id":76561198013141793,"connected_time":1292000000000,"state":"active","ping":67},{"user_id":131,"name":"Owlet","steam_id":76561198065613974,"connected_time":2045000000000,"state":"active","ping":71},{"user_id":51,"name":"Astyloblatta","steam_id":76561199222909666,"connected_time":7437000000000,"state":"active","ping":59},{"user_id":144,"name":"Making Coffee","steam_id":76561198138281039,"connected_time":1278000000000,"state":"active","ping":62},{"user_id":122,"name":"sock","steam_id":76561198211198731,"connected_time":2852000000000,"state":"active","ping":56},{"user_id":118,"name":"fake rx","steam_id":76561198105121641,"connected_time":2964000000000,"state":"active","ping":73},{"user_id":137,"name":"HOT LOIS","steam_id":76561198302623594,"connected_time":1485000000000,"state":"active","ping":90},{"user_id":88,"name":"Avoo","steam_id":76561198186954897,"connected_time":5242000000000,"state":"active","ping":64},{"user_id":149,"name":"Creamy","steam_id":76561198063907478,"connected_time":357000000000,"state":"active","ping":73},{"user_id":150,"name":"yurkur","steam_id":76561198407108497,"connected_time":348000000000,"state":"active","ping":53},{"user_id":147,"name":"Panda","steam_id":76561198176342325,"connected_time":721000000000,"state":"active","ping":104},{"user_id":124,"name":"Sza","steam_id":76561198022132105,"connected_time":2830000000000,"state":"active","ping":60},{"user_id":103,"name":"t√Øger","steam_id":76561198260483157,"connected_time":4700000000000,"state":"active","ping":79},{"user_id":110,"name":"Amigo zemcenu tarifs ƒÅrzemƒìm","steam_id":76561199168663034,"connected_time":3547000000000,"state":"active","ping":63},{"user_id":141,"name":"Timpanojnoj","steam_id":76561197970334448,"connected_time":1391000000000,"state":"active","ping":64},{"user_id":106,"name":"Economic crisis","steam_id":76561198063562843,"connected_time":4681000000000,"state":"active","ping":53}]},{"server_id":310,"name":"Uncletopia | Frankfurt | 5 | All Maps","name_short":"frk-5","host":"frk-1.de.uncletopia.com","port":27055,"enabled":true,"region":"eu","cc":"de","latitude":50.110924,"longitude":8.682127,"reserved":0,"last_update":"0001-01-01T00:00:00Z","name_a2s":"Uncletopia | Frankfurt | 5 | All Maps","protocol":17,"map":"pl_upward","folder":"tf","game":"Team Fortress","app_id":440,"player_count":24,"max_players":24,"Bots":0,"server_type":"Dedicated","server_os":"Linux","password":true,"vac":true,"version":"7757534","steam_id":85568392924504277,"keywords":["nocrits","nodmgspread","payload","uncletopia"],"game_id":440,"stv_port":27056,"stv_name":"Uncletopia | Frankfurt | 5 | All Maps | STV","players":[{"user_id":670,"name":"rock","steam_id":76561198093488870,"connected_time":1406000000000,"state":"active","ping":70},{"user_id":611,"name":"xavier","steam_id":76561198076494034,"connected_time":7515000000000,"state":"active","ping":55},{"user_id":612,"name":"LarsInABox","steam_id":76561198028329262,"connected_time":7503000000000,"state":"active","ping":75},{"user_id":673,"name":"Smarties McFlurry","steam_id":76561198196259989,"connected_time":1128000000000,"state":"active","ping":61},{"user_id":643,"name":"Ankle Dane","steam_id":76561198134378108,"connected_time":3786000000000,"state":"active","ping":87},{"user_id":676,"name":"‚ô• aura ‚ô•","steam_id":76561198066258544,"connected_time":542000000000,"state":"active","ping":55},{"user_id":646,"name":"MAKENTAKEN","steam_id":76561199127359587,"connected_time":3640000000000,"state":"active","ping":90},{"user_id":628,"name":"Fat Pigeon","steam_id":76561198817940142,"connected_time":5609000000000,"state":"active","ping":60},{"user_id":648,"name":"Carkey","steam_id":76561198054398642,"connected_time":3469000000000,"state":"active","ping":57},{"user_id":580,"name":"hananamanna","steam_id":76561198006570285,"connected_time":10023000000000,"state":"active","ping":110},{"user_id":662,"name":"Udinese Dion","steam_id":76561198067931573,"connected_time":2984000000000,"state":"active","ping":53},{"user_id":622,"name":"Serton‚ôù","steam_id":76561198011061126,"connected_time":6859000000000,"state":"active","ping":89},{"user_id":613,"name":"cursedbygod‚ô°","steam_id":76561198318291047,"connected_time":7501000000000,"state":"active","ping":115},{"user_id":667,"name":"Kleiner Engel","steam_id":76561198009922500,"connected_time":2516000000000,"state":"active","ping":62},{"user_id":576,"name":"elsuedi","steam_id":76561198074722832,"connected_time":10421000000000,"state":"active","ping":58},{"user_id":663,"name":"Pestdoktor","steam_id":76561198058159271,"connected_time":2819000000000,"state":"active","ping":68},{"user_id":577,"name":"ghost","steam_id":76561198189940229,"connected_time":10393000000000,"state":"active","ping":61},{"user_id":674,"name":"jack53","steam_id":76561198821002160,"connected_time":1123000000000,"state":"active","ping":90},{"user_id":672,"name":"elwen","steam_id":76561198025282054,"connected_time":1184000000000,"state":"active","ping":81},{"user_id":555,"name":"Vershal Smershal","steam_id":76561198116223995,"connected_time":12154000000000,"state":"active","ping":63},{"user_id":677,"name":"SHLUUUURP","steam_id":76561199150903062,"connected_time":131000000000,"state":"active","ping":73},{"user_id":664,"name":"Lyncurion","steam_id":76561199260022725,"connected_time":2678000000000,"state":"active","ping":79},{"user_id":668,"name":"Yangus","steam_id":76561198147796010,"connected_time":2467000000000,"state":"active","ping":64},{"user_id":669,"name":"sareena","steam_id":76561198810194062,"connected_time":2440000000000,"state":"active","ping":83}]},{"server_id":311,"name":"Uncletopia | Frankfurt | 6 | All Maps","name_short":"frk-6","host":"frk-1.de.uncletopia.com","port":27065,"enabled":true,"region":"eu","cc":"de","latitude":50.110924,"longitude":8.682127,"reserved":0,"last_update":"0001-01-01T00:00:00Z","name_a2s":"Uncletopia | Frankfurt | 6 | All Maps","protocol":17,"map":"pl_badwater","folder":"tf","game":"Team Fortress","app_id":440,"player_count":24,"max_players":24,"Bots":0,"server_type":"Dedicated","server_os":"Linux","password":true,"vac":true,"version":"7757534","steam_id":85568392924504278,"keywords":["nocrits","nodmgspread","payload","uncletopia"],"game_id":440,"stv_port":27066,"stv_name":"Uncletopia | Frankfurt | 6 | All Maps | STV","players":[{"user_id":572,"name":"Wabzi","steam_id":76561198192696722,"connected_time":2223000000000,"state":"active","ping":191},{"user_id":557,"name":"Farao Ramses II","steam_id":76561198078722712,"connected_time":3262000000000,"state":"active","ping":53},{"user_id":573,"name":"Snd","steam_id":76561198010816408,"connected_time":2206000000000,"state":"active","ping":107},{"user_id":583,"name":"howabe","steam_id":76561197996486818,"connected_time":1715000000000,"state":"active","ping":54},{"user_id":565,"name":"ereh","steam_id":76561198061239823,"connected_time":2881000000000,"state":"active","ping":66},{"user_id":581,"name":"stole ur gender lol","steam_id":76561199474154775,"connected_time":2033000000000,"state":"active","ping":55},{"user_id":593,"name":"Meki","steam_id":76561198108279631,"connected_time":590000000000,"state":"active","ping":96},{"user_id":532,"name":"Clitorina","steam_id":76561198077570815,"connected_time":4749000000000,"state":"active","ping":59},{"user_id":600,"name":"wickEd_","steam_id":76561198048068999,"connected_time":183000000000,"state":"active","ping":161},{"user_id":595,"name":"Aesthetic Alcoholism","steam_id":76561198044418968,"connected_time":554000000000,"state":"active","ping":55},{"user_id":596,"name":"=FAZE= Fernandinho the Eggplant","steam_id":76561198042988373,"connected_time":492000000000,"state":"active","ping":143},{"user_id":522,"name":"5tv^","steam_id":76561198063129586,"connected_time":5051000000000,"state":"active","ping":65},{"user_id":598,"name":"Moe Jama","steam_id":76561198021676997,"connected_time":430000000000,"state":"active","ping":78},{"user_id":555,"name":"Oki (Bon)","steam_id":76561199047748534,"connected_time":3348000000000,"state":"active","ping":68},{"user_id":525,"name":"Wululu","steam_id":76561198180657331,"connected_time":5022000000000,"state":"active","ping":60},{"user_id":535,"name":"disc0rd","steam_id":76561197985965776,"connected_time":4147000000000,"state":"active","ping":58},{"user_id":591,"name":"Uncle Moomin","steam_id":76561198011628656,"connected_time":797000000000,"state":"active","ping":83},{"user_id":601,"name":"nynon","steam_id":76561197998432126,"connected_time":26000000000,"state":"active","ping":246},{"user_id":556,"name":"Arcader","steam_id":76561198109860110,"connected_time":3334000000000,"state":"active","ping":64},{"user_id":590,"name":"76561198397931520","steam_id":76561198397931520,"connected_time":969000000000,"state":"active","ping":102},{"user_id":582,"name":"eduardo","steam_id":76561198014491925,"connected_time":1924000000000,"state":"active","ping":87},{"user_id":569,"name":"ODanial","steam_id":76561198034854402,"connected_time":2552000000000,"state":"active","ping":90},{"user_id":580,"name":"CNTRL","steam_id":76561199125803827,"connected_time":2075000000000,"state":"active","ping":71},{"user_id":588,"name":"dishes456","steam_id":76561199106285591,"connected_time":1148000000000,"state":"active","ping":161}]},{"server_id":23,"name":"Uncletopia | Frankfurt | 7 | Stopwatch Beta","name_short":"frk-7","host":"frk-1.de.uncletopia.com","port":27075,"enabled":true,"region":"eu","cc":"de","latitude":50.110924,"longitude":8.682127,"reserved":0,"last_update":"0001-01-01T00:00:00Z","name_a2s":"Uncletopia | Frankfurt | 7 | Stopwatch Beta","protocol":17,"map":"workshop/koth_bagel_rc6.ugc2514036946","folder":"tf","game":"Team Fortress","app_id":440,"player_count":0,"max_players":24,"Bots":0,"server_type":"Dedicated","server_os":"Linux","password":true,"vac":true,"version":"7757534","steam_id":85568392924742827,"keywords":["cp","nocrits","nodmgspread","uncletopia"],"game_id":440,"stv_port":27076,"stv_name":"Uncletopia | Frankfurt | 7 | Stopwatch Beta | STV","players":null},{"server_id":24,"name":"Uncletopia | Frankfurt | 8 | Community","name_short":"frk-8","host":"frk-1.de.uncletopia.com","port":27085,"enabled":true,"region":"eu","cc":"de","latitude":50.110924,"longitude":8.682127,"reserved":0,"last_update":"0001-01-01T00:00:00Z","name_a2s":"Uncletopia | Frankfurt | 8 | Community","protocol":17,"map":"workshop/cp_hazyfort_rc6.ugc1365963729","folder":"tf","game":"Team Fortress","app_id":440,"player_count":1,"max_players":24,"Bots":0,"server_type":"Dedicated","server_os":"Linux","password":true,"vac":true,"version":"7757534","steam_id":85568392924742828,"keywords":["cp","nocrits","nodmgspread","uncletopia"],"game_id":440,"stv_port":27086,"stv_name":"Uncletopia | Frankfurt | 8 | Community | STV","players":[{"user_id":8437,"name":"Qui-Gon Jinn","steam_id":76561198853214333,"connected_time":0,"state":"connecting","ping":73}]},{"server_id":202,"name":"Uncletopia | Hong Kong | 1 | All Maps","name_short":"hgk-1","host":"hgk-1.hk.uncletopia.com","port":27015,"enabled":true,"region":"asia","cc":"hk","latitude":22.302711,"longitude":114.177216,"reserved":0,"last_update":"0001-01-01T00:00:00Z","name_a2s":"Uncletopia | Hong Kong | 1 | All Maps","protocol":17,"map":"koth_lakeside_final","folder":"tf","game":"Team Fortress","app_id":440,"player_count":0,"max_players":24,"Bots":0,"server_type":"Dedicated","server_os":"Linux","password":true,"vac":true,"version":"7757534","steam_id":85568392924494504,"keywords":["cp","nocrits","nodmgspread","uncletopia"],"game_id":440,"stv_port":27016,"stv_name":"Uncletopia | Hong Kong | 1 | All Maps | STV","players":null},{"server_id":1,"name":"Uncletopia | Los Angeles | 1 | All Maps","name_short":"lax-1","host":"lax-1.us.uncletopia.com","port":27015,"enabled":true,"region":"us-west","cc":"us","latitude":33.94279,"longitude":-118.41004,"reserved":0,"last_update":"0001-01-01T00:00:00Z","name_a2s":"Uncletopia | Los Angeles | 1 | All Maps","protocol":17,"map":"pl_borneo","folder":"tf","game":"Team Fortress","app_id":440,"player_count":3,"max_players":24,"Bots":0,"server_type":"Dedicated","server_os":"Linux","password":true,"vac":true,"version":"7757534","steam_id":85568392924469991,"keywords":["nocrits","nodmgspread","payload","uncletopia"],"game_id":440,"stv_port":27016,"stv_name":"Uncletopia | Los Angeles | 1 | All Maps | STV","players":[{"user_id":18,"name":"CSharp","steam_id":76561199185191710,"connected_time":486000000000,"state":"active","ping":100},{"user_id":20,"name":"Grave Shifter15","steam_id":76561198036381323,"connected_time":110000000000,"state":"active","ping":63},{"user_id":21,"name":"Rrrrrrrrrrrrrronald","steam_id":76561198382772101,"connected_time":23000000000,"state":"active","ping":115}]},{"server_id":112,"name":"Uncletopia | Los Angeles | 2 | All Maps","name_short":"lax-2","host":"lax-1.us.uncletopia.com","port":27025,"enabled":true,"region":"us-west","cc":"us","latitude":33.94279,"longitude":-118.41004,"reserved":0,"last_update":"0001-01-01T00:00:00Z","name_a2s":"Uncletopia | Los Angeles | 2 | All Maps","protocol":17,"map":"cp_altitude","folder":"tf","game":"Team Fortress","app_id":440,"player_count":0,"max_players":24,"Bots":0,"server_type":"Dedicated","server_os":"Linux","password":true,"vac":true,"version":"7757534","steam_id":85568392924469992,"keywords":["cp","nocrits","nodmgspread","uncletopia"],"game_id":440,"stv_port":27026,"stv_name":"Uncletopia | Los Angeles | 2 | All Maps | STV","players":null},{"server_id":324,"name":"Uncletopia | Los Angeles | 3 | All Maps","name_short":"lax-3","host":"lax-1.us.uncletopia.com","port":27035,"enabled":true,"region":"us-west","cc":"us","latitude":33.94279,"longitude":-118.41004,"reserved":0,"last_update":"0001-01-01T00:00:00Z","name_a2s":"Uncletopia | Los Angeles | 3 | All Maps","protocol":17,"map":"pl_barnblitz","folder":"tf","game":"Team Fortress","app_id":440,"player_count":0,"max_players":24,"Bots":0,"server_type":"Dedicated","server_os":"Linux","password":true,"vac":true,"version":"7757534","steam_id":85568392924510198,"keywords":["nocrits","nodmgspread","payload","uncletopia"],"game_id":440,"stv_port":27036,"stv_name":"Uncletopia | Los Angeles | 3 | All Maps | STV","players":null},{"server_id":25,"name":"Uncletopia | Los Angeles | 4 | Stopwatch Beta","name_short":"lax-4","host":"lax-1.us.uncletopia.com","port":27045,"enabled":true,"region":"us-west","cc":"us","latitude":33.94279,"longitude":-118.41004,"reserved":0,"last_update":"0001-01-01T00:00:00Z","name_a2s":"Uncletopia | Los Angeles | 4 | Stopwatch Beta","protocol":17,"map":"pl_swiftwater_final1","folder":"tf","game":"Team Fortress","app_id":440,"player_count":0,"max_players":24,"Bots":0,"server_type":"Dedicated","server_os":"Linux","password":true,"vac":true,"version":"7757534","steam_id":85568392924510199,"keywords":["nocrits","nodmgspread","payload","uncletopia"],"game_id":440,"stv_port":27046,"stv_name":"Uncletopia | Los Angeles | 4 | Stopwatch Beta | STV","players":null},{"server_id":11,"name":"Uncletopia | London | 1 | All Maps","name_short":"lon-1","host":"lon-1.uk.uncletopia.com","port":27015,"enabled":true,"region":"eu","cc":"gb","latitude":51.509865,"longitude":-0.118092,"reserved":0,"last_update":"0001-01-01T00:00:00Z","name_a2s":"Uncletopia | London | 1 | All Maps","protocol":17,"map":"pl_upward","folder":"tf","game":"Team Fortress","app_id":440,"player_count":24,"max_players":24,"Bots":0,"server_type":"Dedicated","server_os":"Linux","password":true,"vac":true,"version":"7757534","steam_id":85568392924367362,"keywords":["nocrits","nodmgspread","payload","uncletopia"],"game_id":440,"stv_port":27016,"stv_name":"Uncletopia | London | 1 | All Maps | STV","players":[{"user_id":569,"name":"flappi","steam_id":76561198072892783,"connected_time":6928000000000,"state":"active","ping":61},{"user_id":632,"name":"ant753","steam_id":76561198103458889,"connected_time":1358000000000,"state":"active","ping":60},{"user_id":637,"name":"Desj","steam_id":76561198114212636,"connected_time":769000000000,"state":"active","ping":45},{"user_id":630,"name":"SOPHIIEE","steam_id":76561198443798981,"connected_time":1396000000000,"state":"active","ping":57},{"user_id":641,"name":"Juiceydough","steam_id":76561197997323419,"connected_time":140000000000,"state":"active","ping":77},{"user_id":627,"name":"JOHN GAMING (#transrights)","steam_id":76561199085822219,"connected_time":2320000000000,"state":"active","ping":89},{"user_id":631,"name":"Generic text","steam_id":76561198291962185,"connected_time":1394000000000,"state":"active","ping":87},{"user_id":611,"name":"Wyro","steam_id":76561199176835169,"connected_time":3251000000000,"state":"active","ping":53},{"user_id":636,"name":"Topia","steam_id":76561198163571788,"connected_time":1097000000000,"state":"active","ping":72},{"user_id":639,"name":"FNF","steam_id":76561199151422826,"connected_time":206000000000,"state":"active","ping":108},{"user_id":624,"name":"Eismaker","steam_id":76561198320871767,"connected_time":2618000000000,"state":"active","ping":46},{"user_id":625,"name":"It's a me Malario","steam_id":76561198176546013,"connected_time":2611000000000,"state":"active","ping":45},{"user_id":602,"name":"Sandshee","steam_id":76561198088574666,"connected_time":3993000000000,"state":"active","ping":38},{"user_id":629,"name":"Kretur","steam_id":76561198161086266,"connected_time":1751000000000,"state":"active","ping":100},{"user_id":640,"name":"strideŒî","steam_id":76561199007826093,"connected_time":152000000000,"state":"active","ping":78},{"user_id":618,"name":"Lethal","steam_id":76561198452042648,"connected_time":2950000000000,"state":"active","ping":73},{"user_id":608,"name":"jimmy bob","steam_id":76561198319583692,"connected_time":3504000000000,"state":"active","ping":57},{"user_id":635,"name":"Number 6","steam_id":76561198427754179,"connected_time":1131000000000,"state":"active","ping":135},{"user_id":634,"name":"p1c14sty","steam_id":76561198360551469,"connected_time":1260000000000,"state":"active","ping":98},{"user_id":638,"name":"kojitori","steam_id":76561198838072150,"connected_time":398000000000,"state":"active","ping":45},{"user_id":587,"name":"teddy","steam_id":76561198007436837,"connected_time":5861000000000,"state":"active","ping":45},{"user_id":574,"name":"shooer! (shooer!)","steam_id":76561198110531281,"connected_time":6548000000000,"state":"active","ping":70},{"user_id":642,"name":"hedon/","steam_id":76561198249832770,"connected_time":128000000000,"state":"active","ping":53},{"user_id":610,"name":"Vitamin Weee","steam_id":76561199183937747,"connected_time":3319000000000,"state":"active","ping":95}]},{"server_id":114,"name":"Uncletopia | London | 2 | All Maps","name_short":"lon-2","host":"lon-1.uk.uncletopia.com","port":27025,"enabled":true,"region":"eu","cc":"gb","latitude":51.509865,"longitude":-0.118092,"reserved":0,"last_update":"0001-01-01T00:00:00Z","name_a2s":"Uncletopia | London | 2 | All Maps","protocol":17,"map":"pl_frontier_final","folder":"tf","game":"Team Fortress","app_id":440,"player_count":24,"max_players":24,"Bots":0,"server_type":"Dedicated","server_os":"Linux","password":true,"vac":true,"version":"7757534","steam_id":85568392924470941,"keywords":["nocrits","nodmgspread","payload","uncletopia"],"game_id":440,"stv_port":27026,"stv_name":"Uncletopia | London | 2 | All Maps | STV","players":[{"user_id":491,"name":"Noodle","steam_id":76561198306486695,"connected_time":107000000000,"state":"active","ping":73},{"user_id":405,"name":"Lux","steam_id":76561198060417740,"connected_time":6211000000000,"state":"active","ping":45},{"user_id":461,"name":"Mannequin","steam_id":76561198128833974,"connected_time":1072000000000,"state":"active","ping":46},{"user_id":467,"name":"demolition2n3","steam_id":76561198356060442,"connected_time":602000000000,"state":"active","ping":42},{"user_id":456,"name":"free uber","steam_id":76561198198581079,"connected_time":1657000000000,"state":"active","ping":69},{"user_id":493,"name":"lambrusco di sorbara","steam_id":76561198066071855,"connected_time":65000000000,"state":"active","ping":65},{"user_id":417,"name":"LiterallyRyanGosling","steam_id":76561199017856691,"connected_time":5224000000000,"state":"active","ping":52},{"user_id":468,"name":"Xpload","steam_id":76561198188505089,"connected_time":601000000000,"state":"active","ping":46},{"user_id":459,"name":"roan","steam_id":76561197996420773,"connected_time":1430000000000,"state":"active","ping":55},{"user_id":451,"name":"Anonymous47007","steam_id":76561199005211417,"connected_time":1784000000000,"state":"active","ping":89},{"user_id":447,"name":"Kapo-Sama","steam_id":76561198090731537,"connected_time":1848000000000,"state":"active","ping":141},{"user_id":446,"name":"NoPfizer","steam_id":76561198307914381,"connected_time":1916000000000,"state":"active","ping":58},{"user_id":448,"name":"KingPotatoChips","steam_id":76561198035156465,"connected_time":1835000000000,"state":"active","ping":64},{"user_id":472,"name":"M√∂ppy #savetf2","steam_id":76561198020555530,"connected_time":578000000000,"state":"active","ping":39},{"user_id":457,"name":"AsuX","steam_id":76561197990333289,"connected_time":1468000000000,"state":"active","ping":60},{"user_id":452,"name":"Blud walked 0 miles üò≠üò≠\ufffd\ufffd\ufffd","steam_id":76561199285074344,"connected_time":1763000000000,"state":"active","ping":134},{"user_id":487,"name":"Absolute_clamp","steam_id":76561198958563865,"connected_time":318000000000,"state":"active","ping":30},{"user_id":489,"name":"BonsaiCat_","steam_id":76561198232236020,"connected_time":142000000000,"state":"active","ping":46},{"user_id":484,"name":"The Sealion","steam_id":76561198014154047,"connected_time":537000000000,"state":"active","ping":52},{"user_id":476,"name":"Stern","steam_id":76561198065421312,"connected_time":552000000000,"state":"active","ping":31},{"user_id":490,"name":"Pineapple Okan","steam_id":76561198069199449,"connected_time":118000000000,"state":"active","ping":112},{"user_id":365,"name":"Bocchi","steam_id":76561198101532240,"connected_time":8932000000000,"state":"active","ping":64},{"user_id":455,"name":"Druid5333","steam_id":76561198348066287,"connected_time":1727000000000,"state":"active","ping":71},{"user_id":492,"name":"gRocc0","steam_id":76561198283840637,"connected_time":95000000000,"state":"active","ping":105}]},{"server_id":320,"name":"Uncletopia | London | 3 | All Maps","name_short":"lon-3","host":"lon-1.uk.uncletopia.com","port":27035,"enabled":true,"region":"eu","cc":"gb","latitude":51.509865,"longitude":-0.118092,"reserved":0,"last_update":"0001-01-01T00:00:00Z","name_a2s":"Uncletopia | London | 3 | All Maps","protocol":17,"map":"cp_snakewater_final1","folder":"tf","game":"Team Fortress","app_id":440,"player_count":24,"max_players":24,"Bots":0,"server_type":"Dedicated","server_os":"Linux","password":true,"vac":true,"version":"7757534","steam_id":85568392924510192,"keywords":["cp","nocrits","nodmgspread","uncletopia"],"game_id":440,"stv_port":27036,"stv_name":"Uncletopia | London | 3 | All Maps | STV","players":[{"user_id":230,"name":"Cream Corn","steam_id":76561198043791586,"connected_time":166000000000,"state":"active","ping":116},{"user_id":211,"name":"1 toke 4 mars bars","steam_id":76561198056460000,"connected_time":1198000000000,"state":"active","ping":54},{"user_id":216,"name":"killer of noob, winner of game","steam_id":76561198190583242,"connected_time":908000000000,"state":"active","ping":78},{"user_id":207,"name":"Sparky","steam_id":76561198036754195,"connected_time":2182000000000,"state":"active","ping":48},{"user_id":214,"name":"mumbler","steam_id":76561197970641239,"connected_time":1064000000000,"state":"active","ping":52},{"user_id":202,"name":"Aleyway","steam_id":76561198799137475,"connected_time":2278000000000,"state":"active","ping":59},{"user_id":221,"name":"anton","steam_id":76561198081460598,"connected_time":761000000000,"state":"active","ping":55},{"user_id":231,"name":"Spiooty","steam_id":76561198261918994,"connected_time":139000000000,"state":"active","ping":67},{"user_id":228,"name":"Nithle","steam_id":76561198025372740,"connected_time":380000000000,"state":"active","ping":31},{"user_id":195,"name":"Iphy","steam_id":76561198137519489,"connected_time":3671000000000,"state":"active","ping":79},{"user_id":152,"name":"sape","steam_id":76561198089322416,"connected_time":6316000000000,"state":"active","ping":99},{"user_id":226,"name":"Knugen the Conqueror","steam_id":76561198127091993,"connected_time":545000000000,"state":"active","ping":66},{"user_id":190,"name":"DelaNo","steam_id":76561199125086655,"connected_time":3966000000000,"state":"active","ping":45},{"user_id":201,"name":"Sch","steam_id":76561198071341689,"connected_time":3128000000000,"state":"active","ping":61},{"user_id":232,"name":"aShySir","steam_id":76561198443776269,"connected_time":135000000000,"state":"active","ping":59},{"user_id":219,"name":"Edmost","steam_id":76561198090748165,"connected_time":889000000000,"state":"active","ping":72},{"user_id":196,"name":"i have severe 2fort brainrot","steam_id":76561198159100379,"connected_time":3644000000000,"state":"active","ping":64},{"user_id":225,"name":"SpyCrab  Erik Twice","steam_id":76561198009710309,"connected_time":653000000000,"state":"active","ping":59},{"user_id":234,"name":"PrimeTarget","steam_id":76561198046409289,"connected_time":51000000000,"state":"active","ping":84},{"user_id":220,"name":"Oak","steam_id":76561198067315672,"connected_time":849000000000,"state":"active","ping":66},{"user_id":227,"name":"Droy","steam_id":76561198065854668,"connected_time":523000000000,"state":"active","ping":45},{"user_id":223,"name":"TLRF","steam_id":76561198934020885,"connected_time":753000000000,"state":"active","ping":39},{"user_id":229,"name":"Pan W","steam_id":76561198384111099,"connected_time":354000000000,"state":"active","ping":68},{"user_id":235,"name":"git bash -er","steam_id":76561198072586494,"connected_time":34000000000,"state":"active","ping":55}]},{"server_id":321,"name":"Uncletopia | London | 4 | All Maps","name_short":"lon-4","host":"lon-1.uk.uncletopia.com","port":27045,"enabled":true,"region":"eu","cc":"gb","latitude":51.509865,"longitude":-0.118092,"reserved":0,"last_update":"0001-01-01T00:00:00Z","name_a2s":"Uncletopia | London | 4 | All Maps","protocol":17,"map":"koth_highpass","folder":"tf","game":"Team Fortress","app_id":440,"player_count":0,"max_players":24,"Bots":0,"server_type":"Dedicated","server_os":"Linux","password":true,"vac":true,"version":"7757534","steam_id":85568392924510193,"keywords":["cp","nocrits","nodmgspread","uncletopia"],"game_id":440,"stv_port":27046,"stv_name":"Uncletopia | London | 4 | All Maps | STV","players":null},{"server_id":21,"name":"Uncletopia | London | 5 | All Maps","name_short":"lon-5","host":"lon-1.uk.uncletopia.com","port":27055,"enabled":true,"region":"eu","cc":"gb","latitude":51.509865,"longitude":-0.118092,"reserved":0,"last_update":"0001-01-01T00:00:00Z","name_a2s":"Uncletopia | London | 5 | All Maps","protocol":17,"map":"cp_process_final","folder":"tf","game":"Team Fortress","app_id":440,"player_count":22,"max_players":24,"Bots":0,"server_type":"Dedicated","server_os":"Linux","password":true,"vac":true,"version":"7757534","steam_id":85568392924742829,"keywords":["cp","nocrits","nodmgspread","uncletopia"],"game_id":440,"stv_port":27056,"stv_name":"Uncletopia | London | 5 | All Maps | STV","players":[{"user_id":257,"name":"The Mage","steam_id":76561198019147244,"connected_time":1854000000000,"state":"active","ping":72},{"user_id":274,"name":"HRCR118","steam_id":76561199146388596,"connected_time":1254000000000,"state":"active","ping":69},{"user_id":283,"name":"Air","steam_id":76561198271025518,"connected_time":461000000000,"state":"active","ping":106},{"user_id":232,"name":"Penis Contortionist","steam_id":76561198073663784,"connected_time":3704000000000,"state":"active","ping":37},{"user_id":287,"name":"Dwapking","steam_id":76561198039583834,"connected_time":128000000000,"state":"active","ping":52},{"user_id":293,"name":"dotdotdot","steam_id":76561198057628751,"connected_time":44000000000,"state":"active","ping":61},{"user_id":289,"name":"Perci","steam_id":76561198097789669,"connected_time":106000000000,"state":"active","ping":65},{"user_id":277,"name":"Enforcer02","steam_id":76561197966045944,"connected_time":1077000000000,"state":"active","ping":61},{"user_id":247,"name":"kaelan","steam_id":76561198001425310,"connected_time":2071000000000,"state":"active","ping":65},{"user_id":294,"name":"hexerii","steam_id":76561198149967445,"connected_time":35000000000,"state":"active","ping":31},{"user_id":268,"name":"biohazard.pt","steam_id":76561198088367808,"connected_time":1408000000000,"state":"active","ping":96},{"user_id":254,"name":"MacKaivuri","steam_id":76561198951925161,"connected_time":1918000000000,"state":"active","ping":86},{"user_id":280,"name":"Ben UFO","steam_id":76561198001648348,"connected_time":979000000000,"state":"active","ping":47},{"user_id":230,"name":"Yaire","steam_id":76561198017343510,"connected_time":3784000000000,"state":"active","ping":55},{"user_id":258,"name":"Usagi","steam_id":76561198009808058,"connected_time":1841000000000,"state":"active","ping":46},{"user_id":291,"name":"marco / s /","steam_id":76561198300120382,"connected_time":83000000000,"state":"active","ping":62},{"user_id":296,"name":"cherry powder","steam_id":76561199006915718,"connected_time":18000000000,"state":"active","ping":61},{"user_id":272,"name":"Spanns","steam_id":76561197998349793,"connected_time":1340000000000,"state":"active","ping":75},{"user_id":295,"name":"chey","steam_id":76561198035380064,"connected_time":22000000000,"state":"active","ping":45},{"user_id":278,"name":"SirSangoor","steam_id":76561198044462559,"connected_time":1067000000000,"state":"active","ping":105},{"user_id":279,"name":"reverence","steam_id":76561198090519649,"connected_time":1038000000000,"state":"active","ping":129},{"user_id":282,"name":"tracey stacks","steam_id":76561198885581544,"connected_time":787000000000,"state":"active","ping":74}]},{"server_id":22,"name":"Uncletopia | London | 6 | All Maps","name_short":"lon-6","host":"lon-1.uk.uncletopia.com","port":27065,"enabled":true,"region":"eu","cc":"gb","latitude":51.509865,"longitude":-0.118092,"reserved":0,"last_update":"0001-01-01T00:00:00Z","name_a2s":"Uncletopia | London | 6 | All Maps","protocol":17,"map":"pl_badwater","folder":"tf","game":"Team Fortress","app_id":440,"player_count":8,"max_players":24,"Bots":0,"server_type":"Dedicated","server_os":"Linux","password":true,"vac":true,"version":"7757534","steam_id":85568392924742830,"keywords":["nocrits","nodmgspread","payload","uncletopia"],"game_id":440,"stv_port":27066,"stv_name":"Uncletopia | London | 6 | All Maps | STV","players":[{"user_id":353,"name":"Suspicion","steam_id":76561198041922679,"connected_time":22000000000,"state":"active","ping":126},{"user_id":339,"name":"Kjat","steam_id":76561198839433592,"connected_time":1050000000000,"state":"active","ping":59},{"user_id":340,"name":"coo coo coo cha","steam_id":76561198007792525,"connected_time":898000000000,"state":"active","ping":41},{"user_id":352,"name":"Riz","steam_id":76561199066196943,"connected_time":121000000000,"state":"active","ping":191},{"user_id":350,"name":"scout_main","steam_id":76561198987628993,"connected_time":217000000000,"state":"active","ping":187},{"user_id":344,"name":"var","steam_id":76561198886111917,"connected_time":545000000000,"state":"active","ping":72},{"user_id":329,"name":"Mancomb Seepgood","steam_id":76561197974116369,"connected_time":2181000000000,"state":"active","ping":31},{"user_id":346,"name":"The Observer","steam_id":76561199101441871,"connected_time":434000000000,"state":"active","ping":132}]},{"server_id":40,"name":"Uncletopia | London | 7 | No Payload","name_short":"lon-7","host":"lon-1.uk.uncletopia.com","port":27075,"enabled":true,"region":"eu","cc":"gb","latitude":51.509865,"longitude":-0.118092,"reserved":0,"last_update":"0001-01-01T00:00:00Z","name_a2s":"Uncletopia | London | 7 | No Payload","protocol":17,"map":"cp_gorge","folder":"tf","game":"Team Fortress","app_id":440,"player_count":0,"max_players":24,"Bots":0,"server_type":"Dedicated","server_os":"Linux","password":true,"vac":true,"version":"7757534","steam_id":85568392924964314,"keywords":["cp","nocrits","nodmgspread","uncletopia"],"game_id":440,"stv_port":27076,"stv_name":"Uncletopia | London | 7 | No Payload | STV","players":null},{"server_id":41,"name":"Uncletopia | London | 8 | Community","name_short":"lon-8","host":"lon-1.uk.uncletopia.com","port":27085,"enabled":true,"region":"eu","cc":"gb","latitude":51.509865,"longitude":-0.118092,"reserved":0,"last_update":"0001-01-01T00:00:00Z","name_a2s":"Uncletopia | London | 8 | Community","protocol":17,"map":"workshop/koth_bagel_rc6.ugc2514036946","folder":"tf","game":"Team Fortress","app_id":440,"player_count":0,"max_players":24,"Bots":0,"server_type":"Dedicated","server_os":"Linux","password":true,"vac":true,"version":"7757534","steam_id":85568392924964315,"keywords":["cp","nocrits","nodmgspread","uncletopia"],"game_id":440,"stv_port":27086,"stv_name":"Uncletopia | London | 8 | Community | STV","players":null},{"server_id":300,"name":"Uncletopia | Montr√©al | 1 | All Maps","name_short":"mtl-1","host":"mtl-1.ca.uncletopia.com","port":27015,"enabled":true,"region":"us-east","cc":"ca","latitude":45.50889,"longitude":-73.56167,"reserved":0,"last_update":"0001-01-01T00:00:00Z","name_a2s":"Uncletopia | Montr√©al | 1 | All Maps","protocol":17,"map":"cp_snakewater_final1","folder":"tf","game":"Team Fortress","app_id":440,"player_count":0,"max_players":24,"Bots":0,"server_type":"Dedicated","server_os":"Linux","password":true,"vac":true,"version":"7757534","steam_id":85568392924500087,"keywords":["cp","nocrits","nodmgspread","uncletopia"],"game_id":440,"stv_port":27016,"stv_name":"Uncletopia | Montr√©al | 1 | All Maps | STV","players":null},{"server_id":301,"name":"Uncletopia | Montr√©al | 2 | All Maps","name_short":"mtl-2","host":"mtl-1.ca.uncletopia.com","port":27025,"enabled":true,"region":"us-east","cc":"ca","latitude":45.50889,"longitude":-73.56167,"reserved":0,"last_update":"0001-01-01T00:00:00Z","name_a2s":"Uncletopia | Montr√©al | 2 | All Maps","protocol":17,"map":"cp_snakewater_final1","folder":"tf","game":"Team Fortress","app_id":440,"player_count":0,"max_players":24,"Bots":0,"server_type":"Dedicated","server_os":"Linux","password":true,"vac":true,"version":"7757534","steam_id":85568392924500088,"keywords":["cp","nocrits","nodmgspread","uncletopia"],"game_id":440,"stv_port":27026,"stv_name":"Uncletopia | Montr√©al | 2 | All Maps | STV","players":null},{"server_id":302,"name":"Uncletopia | Montr√©al | 3 | All Maps","name_short":"mtl-3","host":"mtl-1.ca.uncletopia.com","port":27035,"enabled":true,"region":"us-east","cc":"ca","latitude":45.50889,"longitude":-73.56167,"reserved":0,"last_update":"0001-01-01T00:00:00Z","name_a2s":"Uncletopia | Montr√©al | 3 | All Maps","protocol":17,"map":"koth_lakeside_final","folder":"tf","game":"Team Fortress","app_id":440,"player_count":0,"max_players":24,"Bots":0,"server_type":"Dedicated","server_os":"Linux","password":true,"vac":true,"version":"7757534","steam_id":85568392924500089,"keywords":["cp","nocrits","nodmgspread","uncletopia"],"game_id":440,"stv_port":27036,"stv_name":"Uncletopia | Montr√©al | 3 | All Maps | STV","players":null},{"server_id":303,"name":"Uncletopia | Montr√©al | 4 | No Payload","name_short":"mtl-4","host":"mtl-1.ca.uncletopia.com","port":27045,"enabled":true,"region":"us-east","cc":"ca","latitude":45.50889,"longitude":-73.56167,"reserved":0,"last_update":"0001-01-01T00:00:00Z","name_a2s":"Uncletopia | Montr√©al | 4 | No Payload","protocol":17,"map":"cp_foundry","folder":"tf","game":"Team Fortress","app_id":440,"player_count":0,"max_players":24,"Bots":0,"server_type":"Dedicated","server_os":"Linux","password":true,"vac":true,"version":"7757534","steam_id":85568392924500090,"keywords":["cp","nocrits","nodmgspread","uncletopia"],"game_id":440,"stv_port":27046,"stv_name":"Uncletopia | Montr√©al | 4 | No Payload | STV","players":null},{"server_id":13,"name":"Uncletopia | New York City | 1 | All Maps","name_short":"nyc-1","host":"nyc-1.us.uncletopia.com","port":27015,"enabled":true,"region":"us-east","cc":"us","latitude":40.73061,"longitude":-73.93524,"reserved":0,"last_update":"0001-01-01T00:00:00Z","name_a2s":"Uncletopia | New York City | 1 | All Maps","protocol":17,"map":"pl_swiftwater_final1","folder":"tf","game":"Team Fortress","app_id":440,"player_count":24,"max_players":24,"Bots":0,"server_type":"Dedicated","server_os":"Linux","password":true,"vac":true,"version":"7757534","steam_id":85568392924469993,"keywords":["nocrits","nodmgspread","payload","uncletopia"],"game_id":440,"stv_port":27016,"stv_name":"Uncletopia | New York City | 1 | All Maps | STV","players":[{"user_id":141,"name":"Delilah-fluff","steam_id":76561198977968066,"connected_time":13382000000000,"state":"active","ping":72},{"user_id":264,"name":"Weather Report","steam_id":76561199109494283,"connected_time":3906000000000,"state":"active","ping":54},{"user_id":276,"name":"Gocel","steam_id":76561198071467515,"connected_time":2496000000000,"state":"active","ping":51},{"user_id":286,"name":"WeegeePJ","steam_id":76561199383362382,"connected_time":1826000000000,"state":"active","ping":60},{"user_id":287,"name":"Krellah","steam_id":76561198287045069,"connected_time":1793000000000,"state":"active","ping":60},{"user_id":288,"name":"sonic1394","steam_id":76561198054636788,"connected_time":1788000000000,"state":"active","ping":73},{"user_id":290,"name":"Gambling addiction","steam_id":76561198251665862,"connected_time":1753000000000,"state":"active","ping":103},{"user_id":285,"name":"Chinese Cabbage","steam_id":76561198311588768,"connected_time":1870000000000,"state":"active","ping":72},{"user_id":291,"name":"Female Gamer","steam_id":76561199366482682,"connected_time":1741000000000,"state":"active","ping":122},{"user_id":299,"name":"Vivid Hut 64","steam_id":76561198170050059,"connected_time":1154000000000,"state":"active","ping":57},{"user_id":263,"name":"Prometheus Jones","steam_id":76561198059087964,"connected_time":3947000000000,"state":"active","ping":71},{"user_id":274,"name":"dell-star","steam_id":76561198841709393,"connected_time":2533000000000,"state":"active","ping":45},{"user_id":292,"name":"ArchieHasAntlers","steam_id":76561198029995678,"connected_time":1730000000000,"state":"active","ping":51},{"user_id":298,"name":"BasicPeaches","steam_id":76561198190890150,"connected_time":1365000000000,"state":"active","ping":61},{"user_id":270,"name":"mana_sourcer","steam_id":76561199231055566,"connected_time":2983000000000,"state":"active","ping":83},{"user_id":256,"name":"Muffin","steam_id":76561199156302434,"connected_time":4744000000000,"state":"active","ping":74},{"user_id":293,"name":"KingNeptune","steam_id":76561198965549228,"connected_time":1692000000000,"state":"active","ping":61},{"user_id":245,"name":"El Bondin","steam_id":76561198820792434,"connected_time":5930000000000,"state":"active","ping":95},{"user_id":294,"name":"peee pee man","steam_id":76561198044979205,"connected_time":1667000000000,"state":"active","ping":60},{"user_id":277,"name":"ANTJedi","steam_id":76561198010456111,"connected_time":2487000000000,"state":"active","ping":70},{"user_id":295,"name":"Mochi","steam_id":76561199151314140,"connected_time":1654000000000,"state":"active","ping":39},{"user_id":279,"name":"JuJu The Human","steam_id":76561198152895619,"connected_time":2204000000000,"state":"active","ping":40},{"user_id":301,"name":"RASK0LN1K0V","steam_id":76561199242418087,"connected_time":808000000000,"state":"active","ping":69},{"user_id":303,"name":"lestagio","steam_id":76561199040214135,"connected_time":767000000000,"state":"active","ping":76}]},{"server_id":14,"name":"Uncletopia | New York City | 2 | All Maps","name_short":"nyc-2","host":"nyc-1.us.uncletopia.com","port":27025,"enabled":true,"region":"us-east","cc":"us","latitude":40.73061,"longitude":-73.93524,"reserved":0,"last_update":"0001-01-01T00:00:00Z","name_a2s":"Uncletopia | New York City | 2 | All Maps","protocol":17,"map":"cp_dustbowl","folder":"tf","game":"Team Fortress","app_id":440,"player_count":20,"max_players":24,"Bots":0,"server_type":"Dedicated","server_os":"Linux","password":true,"vac":true,"version":"7757534","steam_id":85568392924469994,"keywords":["cp","nocrits","nodmgspread","uncletopia"],"game_id":440,"stv_port":27026,"stv_name":"Uncletopia | New York City | 2 | All Maps | STV","players":[{"user_id":603,"name":"goldgardian","steam_id":76561198319471339,"connected_time":236000000000,"state":"active","ping":88},{"user_id":595,"name":"moyaai","steam_id":76561198893218523,"connected_time":645000000000,"state":"active","ping":50},{"user_id":584,"name":"Larry from Pokemon SV","steam_id":76561198095245223,"connected_time":1717000000000,"state":"active","ping":46},{"user_id":604,"name":"butt plug gaming","steam_id":76561198044696803,"connected_time":223000000000,"state":"active","ping":46},{"user_id":599,"name":"oops","steam_id":76561199123467117,"connected_time":391000000000,"state":"active","ping":113},{"user_id":607,"name":"Poodwecker","steam_id":76561198344264859,"connected_time":105000000000,"state":"active","ping":110},{"user_id":605,"name":"Weltall","steam_id":76561198061079937,"connected_time":219000000000,"state":"active","ping":149},{"user_id":601,"name":"Epic Gamer","steam_id":76561198342353435,"connected_time":307000000000,"state":"active","ping":32},{"user_id":602,"name":"Asym29","steam_id":76561198991100651,"connected_time":257000000000,"state":"active","ping":45},{"user_id":606,"name":"SpaceLeezerd","steam_id":76561198171026678,"connected_time":125000000000,"state":"active","ping":60},{"user_id":560,"name":"Drake the Pixel","steam_id":76561198131824401,"connected_time":3780000000000,"state":"active","ping":36},{"user_id":608,"name":"Cristanc99","steam_id":76561198114715810,"connected_time":100000000000,"state":"active","ping":75},{"user_id":609,"name":"Ramble Jamble","steam_id":76561198357189275,"connected_time":97000000000,"state":"active","ping":111},{"user_id":610,"name":"swag of moners","steam_id":76561197972729645,"connected_time":79000000000,"state":"active","ping":31},{"user_id":611,"name":"Carson","steam_id":76561198076771071,"connected_time":71000000000,"state":"active","ping":61},{"user_id":612,"name":"Once in a Lifetime","steam_id":76561199180652178,"connected_time":53000000000,"state":"active","ping":89},{"user_id":615,"name":"STartlight","steam_id":76561198985717670,"connected_time":45000000000,"state":"active","ping":63},{"user_id":616,"name":"amaricantanker#574","steam_id":76561198343584037,"connected_time":36000000000,"state":"active","ping":130},{"user_id":617,"name":"garette","steam_id":76561198330911140,"connected_time":29000000000,"state":"active","ping":76},{"user_id":572,"name":"MurpAMurp","steam_id":76561198374437261,"connected_time":3277000000000,"state":"active","ping":68}]},{"server_id":15,"name":"Uncletopia | New York City | 3 | Stopwatch Beta","name_short":"nyc-3","host":"nyc-1.us.uncletopia.com","port":27035,"enabled":true,"region":"us-east","cc":"us","latitude":40.73061,"longitude":-73.93524,"reserved":0,"last_update":"0001-01-01T00:00:00Z","name_a2s":"Uncletopia | New York City | 3 | Stopwatch Beta","protocol":17,"map":"cp_snakewater_final1","folder":"tf","game":"Team Fortress","app_id":440,"player_count":24,"max_players":24,"Bots":0,"server_type":"Dedicated","server_os":"Linux","password":true,"vac":true,"version":"7757534","steam_id":85568392924742820,"keywords":["cp","nocrits","nodmgspread","uncletopia"],"game_id":440,"stv_port":27036,"stv_name":"Uncletopia | New York City | 3 | Stopwatch Beta | STV","players":[{"user_id":80,"name":"Penjamin city","steam_id":76561198202216091,"connected_time":401000000000,"state":"active","ping":56},{"user_id":81,"name":"Live","steam_id":76561198003194656,"connected_time":351000000000,"state":"active","ping":73},{"user_id":82,"name":"Im totally a hacker","steam_id":76561198888005736,"connected_time":339000000000,"state":"active","ping":62},{"user_id":70,"name":"fac","steam_id":76561198009818412,"connected_time":842000000000,"state":"active","ping":76},{"user_id":71,"name":"Peri","steam_id":76561198255311543,"connected_time":760000000000,"state":"active","ping":67},{"user_id":86,"name":"frank gallagher","steam_id":76561198973429541,"connected_time":136000000000,"state":"active","ping":89},{"user_id":73,"name":"pigswill","steam_id":76561197999081865,"connected_time":615000000000,"state":"active","ping":72},{"user_id":56,"name":"MINI CRIT!999","steam_id":76561198027649268,"connected_time":1742000000000,"state":"active","ping":100},{"user_id":28,"name":"Nerrrd_","steam_id":76561198870129960,"connected_time":3349000000000,"state":"active","ping":39},{"user_id":34,"name":"Poptart From Mars","steam_id":76561197979930960,"connected_time":3062000000000,"state":"active","ping":90},{"user_id":74,"name":"IPlayGamez","steam_id":76561198041387508,"connected_time":596000000000,"state":"active","ping":53},{"user_id":57,"name":"Zoawsome","steam_id":76561198018758753,"connected_time":1635000000000,"state":"active","ping":67},{"user_id":83,"name":"Demianeithor","steam_id":76561198800036537,"connected_time":319000000000,"state":"active","ping":101},{"user_id":76,"name":"uhhhh","steam_id":76561199211193548,"connected_time":548000000000,"state":"active","ping":53},{"user_id":36,"name":"ark","steam_id":76561198041066271,"connected_time":2895000000000,"state":"active","ping":91},{"user_id":38,"name":"Havok","steam_id":76561198063455003,"connected_time":2831000000000,"state":"active","ping":49},{"user_id":77,"name":"Swifgz","steam_id":76561198162875756,"connected_time":533000000000,"state":"active","ping":43},{"user_id":43,"name":"schlumped","steam_id":76561198119826352,"connected_time":2540000000000,"state":"active","ping":88},{"user_id":78,"name":"choi","steam_id":76561198053669887,"connected_time":531000000000,"state":"active","ping":120},{"user_id":64,"name":"Davy Jones","steam_id":76561198956823243,"connected_time":1270000000000,"state":"active","ping":63},{"user_id":54,"name":"terrapieseven","steam_id":76561198072062415,"connected_time":2068000000000,"state":"active","ping":60},{"user_id":66,"name":"Tony Pizza","steam_id":76561198044331477,"connected_time":1189000000000,"state":"active","ping":55},{"user_id":87,"name":"octmari","steam_id":76561198121212097,"connected_time":72000000000,"state":"active","ping":60},{"user_id":79,"name":"Schmingus","steam_id":76561199476148332,"connected_time":531000000000,"state":"active","ping":103}]},{"server_id":16,"name":"Uncletopia | New York City | 4 | Community","name_short":"nyc-4","host":"nyc-1.us.uncletopia.com","port":27045,"enabled":true,"region":"us-east","cc":"us","latitude":40.73061,"longitude":-73.93524,"reserved":0,"last_update":"0001-01-01T00:00:00Z","name_a2s":"Uncletopia | New York City | 4 | Community","protocol":17,"map":"pl_swiftwater_final1","folder":"tf","game":"Team Fortress","app_id":440,"player_count":0,"max_players":24,"Bots":0,"server_type":"Dedicated","server_os":"Linux","password":true,"vac":true,"version":"7757534","steam_id":85568392924742821,"keywords":["nocrits","nodmgspread","payload","uncletopia"],"game_id":440,"stv_port":27046,"stv_name":"Uncletopia | New York City | 4 | Community | STV","players":null},{"server_id":142,"name":"Uncletopia | S√£o Paulo | 1 | All Maps","name_short":"sao-1","host":"sao-1.br.uncletopia.com","port":27015,"enabled":true,"region":"sa","cc":"br","latitude":-23.533773,"longitude":-46.62529,"reserved":0,"last_update":"0001-01-01T00:00:00Z","name_a2s":"Uncletopia | S√£o Paulo | 1 | All Maps","protocol":17,"map":"koth_cascade","folder":"tf","game":"Team Fortress","app_id":440,"player_count":0,"max_players":24,"Bots":0,"server_type":"Dedicated","server_os":"Linux","password":true,"vac":true,"version":"7757534","steam_id":85568392924469996,"keywords":["cp","nocrits","nodmgspread","uncletopia"],"game_id":440,"stv_port":27016,"stv_name":"Uncletopia | S√£o Paulo | 1 | All Maps | STV","players":null},{"server_id":143,"name":"Uncletopia | S√£o Paulo | 2 | All Maps","name_short":"sao-2","host":"sao-2.br.uncletopia.com","port":27015,"enabled":true,"region":"sa","cc":"br","latitude":-23.533773,"longitude":-46.62529,"reserved":0,"last_update":"0001-01-01T00:00:00Z","name_a2s":"Uncletopia | S√£o Paulo | 2 | All Maps","protocol":17,"map":"cp_mountainlab","folder":"tf","game":"Team Fortress","app_id":440,"player_count":21,"max_players":24,"Bots":0,"server_type":"Dedicated","server_os":"Linux","password":true,"vac":true,"version":"7757534","steam_id":85568392924485349,"keywords":["cp","nocrits","nodmgspread","uncletopia"],"game_id":440,"stv_port":27016,"stv_name":"Uncletopia | S√£o Paulo | 2 | All Maps | STV","players":[{"user_id":22,"name":"HeadShotGamerBR","steam_id":76561198116856702,"connected_time":7709000000000,"state":"active","ping":81},{"user_id":155,"name":"Bomb","steam_id":76561198367361513,"connected_time":670000000000,"state":"active","ping":51},{"user_id":148,"name":"LIPOTRAS","steam_id":76561198380600657,"connected_time":904000000000,"state":"active","ping":164},{"user_id":152,"name":"Eets (vineboom)","steam_id":76561198237350282,"connected_time":812000000000,"state":"active","ping":56},{"user_id":150,"name":"PaD_Ding","steam_id":76561198831202965,"connected_time":865000000000,"state":"active","ping":144},{"user_id":153,"name":"admouse","steam_id":76561198251951784,"connected_time":803000000000,"state":"active","ping":44},{"user_id":73,"name":"YellowEyePatch Guy","steam_id":76561199108111310,"connected_time":4846000000000,"state":"active","ping":55},{"user_id":135,"name":"Average Dispenser Enjoyer","steam_id":76561198989154975,"connected_time":1305000000000,"state":"active","ping":180},{"user_id":151,"name":"kronos","steam_id":76561198410645341,"connected_time":863000000000,"state":"active","ping":45},{"user_id":100,"name":":^)","steam_id":76561198276113571,"connected_time":3746000000000,"state":"active","ping":42},{"user_id":156,"name":"·¥á·¥ç·¥á Ä ü","steam_id":76561199071424567,"connected_time":558000000000,"state":"active","ping":110},{"user_id":137,"name":"Duckman","steam_id":76561198256238125,"connected_time":1287000000000,"state":"active","ping":144},{"user_id":138,"name":"Flade","steam_id":76561199022522272,"connected_time":1243000000000,"state":"active","ping":48},{"user_id":139,"name":"White","steam_id":76561198805132813,"connected_time":1200000000000,"state":"active","ping":53},{"user_id":159,"name":"Tio do suco","steam_id":76561198328645486,"connected_time":403000000000,"state":"active","ping":43},{"user_id":160,"name":"alglumberdumberplumberslumber","steam_id":76561199429426012,"connected_time":327000000000,"state":"active","ping":59},{"user_id":161,"name":"Volum…õ","steam_id":76561198043956974,"connected_time":326000000000,"state":"active","ping":93},{"user_id":142,"name":"A Lagosta Azul","steam_id":76561198927907896,"connected_time":1178000000000,"state":"active","ping":60},{"user_id":145,"name":"Zircon","steam_id":76561198363199181,"connected_time":982000000000,"state":"active","ping":61},{"user_id":164,"name":"Robby","steam_id":76561199152605617,"connected_time":66000000000,"state":"active","ping":173},{"user_id":147,"name":"lean","steam_id":76561198388376734,"connected_time":939000000000,"state":"active","ping":96}]},{"server_id":7,"name":"Uncletopia | Seattle | 1 | All Maps","name_short":"sea-1","host":"sea-1.us.uncletopia.com","port":27015,"enabled":true,"region":"us-west","cc":"us","latitude":47.608013,"longitude":-122.33517,"reserved":0,"last_update":"0001-01-01T00:00:00Z","name_a2s":"Uncletopia | Seattle | 1 | All Maps","protocol":17,"map":"pl_upward","folder":"tf","game":"Team Fortress","app_id":440,"player_count":24,"max_players":24,"Bots":0,"server_type":"Dedicated","server_os":"Linux","password":true,"vac":true,"version":"7757534","steam_id":85568392924469997,"keywords":["nocrits","nodmgspread","payload","uncletopia"],"game_id":440,"stv_port":27016,"stv_name":"Uncletopia | Seattle | 1 | All Maps | STV","players":[{"user_id":165,"name":"River Rat","steam_id":76561198116383976,"connected_time":3260000000000,"state":"active","ping":69},{"user_id":151,"name":"Reb","steam_id":76561198144756713,"connected_time":4373000000000,"state":"active","ping":74},{"user_id":205,"name":"Keamy","steam_id":76561199471434875,"connected_time":68000000000,"state":"active","ping":43},{"user_id":191,"name":"bloodhail","steam_id":76561198121633820,"connected_time":1635000000000,"state":"active","ping":75},{"user_id":189,"name":"makeshift_burrito","steam_id":76561198042510825,"connected_time":2027000000000,"state":"active","ping":72},{"user_id":138,"name":"Ultra Pinstinct","steam_id":76561198336604599,"connected_time":4857000000000,"state":"active","ping":57},{"user_id":164,"name":"tacofever","steam_id":76561198010966507,"connected_time":3438000000000,"state":"active","ping":76},{"user_id":203,"name":"[TTV]slendermansmoom","steam_id":76561199053946374,"connected_time":244000000000,"state":"active","ping":65},{"user_id":197,"name":"Thewaffleman141","steam_id":76561198083068694,"connected_time":1106000000000,"state":"active","ping":112},{"user_id":148,"name":"MacchuPeachu","steam_id":76561199093242587,"connected_time":4407000000000,"state":"active","ping":59},{"user_id":126,"name":"Medic","steam_id":76561198152570304,"connected_time":5474000000000,"state":"active","ping":78},{"user_id":150,"name":"Themasterman75","steam_id":76561199385573293,"connected_time":4383000000000,"state":"active","ping":73},{"user_id":195,"name":"Quarter Cheese","steam_id":76561198115814588,"connected_time":1286000000000,"state":"active","ping":42},{"user_id":204,"name":"Mitchell","steam_id":76561197972922328,"connected_time":133000000000,"state":"active","ping":85},{"user_id":199,"name":"boombox","steam_id":76561198237013798,"connected_time":390000000000,"state":"active","ping":130},{"user_id":190,"name":"Google (perhaps real)","steam_id":76561198857237473,"connected_time":1737000000000,"state":"active","ping":56},{"user_id":143,"name":"_cza","steam_id":76561198079793576,"connected_time":4703000000000,"state":"active","ping":46},{"user_id":192,"name":"Mike Hock","steam_id":76561199470441954,"connected_time":1588000000000,"state":"active","ping":102},{"user_id":202,"name":"Dimple #TF2Center","steam_id":76561198980324190,"connected_time":341000000000,"state":"active","ping":49},{"user_id":136,"name":"jacix3 [gay wolfgirl]{she/it}","steam_id":76561198205004165,"connected_time":4981000000000,"state":"active","ping":59},{"user_id":184,"name":"El Texicano","steam_id":76561198053207411,"connected_time":2697000000000,"state":"active","ping":122},{"user_id":185,"name":"PheebsyDeebsy","steam_id":76561198101509436,"connected_time":2641000000000,"state":"active","ping":67},{"user_id":186,"name":"North-West-","steam_id":76561198071295860,"connected_time":2639000000000,"state":"active","ping":67},{"user_id":201,"name":"Lynx","steam_id":76561198322363286,"connected_time":384000000000,"state":"active","ping":78}]},{"server_id":119,"name":"Uncletopia | Seattle | 2 | All Maps","name_short":"sea-2","host":"sea-1.us.uncletopia.com","port":27025,"enabled":true,"region":"us-west","cc":"us","latitude":47.608013,"longitude":-122.33517,"reserved":0,"last_update":"0001-01-01T00:00:00Z","name_a2s":"Uncletopia | Seattle | 2 | All Maps","protocol":17,"map":"pl_borneo","folder":"tf","game":"Team Fortress","app_id":440,"player_count":24,"max_players":24,"Bots":0,"server_type":"Dedicated","server_os":"Linux","password":true,"vac":true,"version":"7757534","steam_id":85568392924469998,"keywords":["nocrits","nodmgspread","payload","uncletopia"],"game_id":440,"stv_port":27026,"stv_name":"Uncletopia | Seattle | 2 | All Maps | STV","players":[{"user_id":380,"name":"O","steam_id":76561198450073779,"connected_time":2414000000000,"state":"active","ping":49},{"user_id":413,"name":"Reptile DysFunktion","steam_id":76561198018725250,"connected_time":30000000000,"state":"active","ping":65},{"user_id":384,"name":"SaltyFlump","steam_id":76561199379601288,"connected_time":2025000000000,"state":"active","ping":64},{"user_id":409,"name":"joe rippa","steam_id":76561198170402666,"connected_time":392000000000,"state":"active","ping":65},{"user_id":389,"name":"lightning","steam_id":76561198432444690,"connected_time":1922000000000,"state":"active","ping":38},{"user_id":395,"name":"da bong lord","steam_id":76561198301019618,"connected_time":1683000000000,"state":"active","ping":72},{"user_id":410,"name":"Snippykeegan","steam_id":76561198274529343,"connected_time":153000000000,"state":"active","ping":76},{"user_id":403,"name":"Training Arc","steam_id":76561198038832034,"connected_time":1067000000000,"state":"active","ping":59},{"user_id":391,"name":"Little Linguine","steam_id":76561198816986370,"connected_time":1863000000000,"state":"active","ping":62},{"user_id":386,"name":"Yura Kachel","steam_id":76561199097181510,"connected_time":1973000000000,"state":"active","ping":82},{"user_id":371,"name":"Chimpanzee","steam_id":76561198850387282,"connected_time":2899000000000,"state":"active","ping":127},{"user_id":387,"name":"the rash42","steam_id":76561198858732642,"connected_time":1968000000000,"state":"active","ping":55},{"user_id":375,"name":"Eraser cat","steam_id":76561199045570463,"connected_time":2786000000000,"state":"active","ping":45},{"user_id":404,"name":"sammy #freecream","steam_id":76561199001307670,"connected_time":1065000000000,"state":"active","ping":45},{"user_id":407,"name":"McTriggered69","steam_id":76561198854334889,"connected_time":866000000000,"state":"active","ping":95},{"user_id":290,"name":"Wishful","steam_id":76561198880608202,"connected_time":7091000000000,"state":"active","ping":54},{"user_id":411,"name":"SUSSYSURFER56","steam_id":76561198361547224,"connected_time":45000000000,"state":"active","ping":45},{"user_id":398,"name":"lil homie gay ass","steam_id":76561198044804626,"connected_time":1317000000000,"state":"active","ping":110},{"user_id":412,"name":"Anxious Nerd Bird","steam_id":76561198112178602,"connected_time":40000000000,"state":"active","ping":75},{"user_id":393,"name":"Fattacolion","steam_id":76561198862445474,"connected_time":1712000000000,"state":"active","ping":67},{"user_id":401,"name":"slack","steam_id":76561198269268086,"connected_time":1121000000000,"state":"active","ping":105},{"user_id":388,"name":"Meth_Friend","steam_id":76561199054041183,"connected_time":1951000000000,"state":"active","ping":131},{"user_id":392,"name":"selry","steam_id":76561198326966333,"connected_time":1731000000000,"state":"active","ping":45},{"user_id":390,"name":"KingKata","steam_id":76561198289610011,"connected_time":1912000000000,"state":"active","ping":65}]},{"server_id":406,"name":"Uncletopia | Seattle | 3 | Stopwatch Beta","name_short":"sea-3","host":"sea-1.us.uncletopia.com","port":27035,"enabled":true,"region":"us-west","cc":"us","latitude":47.608013,"longitude":-122.33517,"reserved":0,"last_update":"0001-01-01T00:00:00Z","name_a2s":"Uncletopia | Seattle | 3 | Stopwatch Beta","protocol":17,"map":"koth_lakeside_final","folder":"tf","game":"Team Fortress","app_id":440,"player_count":0,"max_players":24,"Bots":0,"server_type":"Dedicated","server_os":"Linux","password":true,"vac":true,"version":"7757534","steam_id":85568392924515217,"keywords":["cp","nocrits","nodmgspread","uncletopia"],"game_id":440,"stv_port":27036,"stv_name":"Uncletopia | Seattle | 3 | Stopwatch Beta | STV","players":null},{"server_id":17,"name":"Uncletopia | San Francisco | 1 | All Maps","name_short":"sfo-1","host":"sfo-1.us.uncletopia.com","port":27015,"enabled":true,"region":"us-west","cc":"us","latitude":37.77397,"longitude":-122.4313,"reserved":0,"last_update":"0001-01-01T00:00:00Z","name_a2s":"Uncletopia | San Francisco | 1 | All Maps","protocol":17,"map":"koth_lakeside_final","folder":"tf","game":"Team Fortress","app_id":440,"player_count":24,"max_players":24,"Bots":0,"server_type":"Dedicated","server_os":"Linux","password":true,"vac":true,"version":"7757534","steam_id":85568392924469999,"keywords":["cp","nocrits","nodmgspread","uncletopia"],"game_id":440,"stv_port":27016,"stv_name":"Uncletopia | San Francisco | 1 | All Maps | STV","players":[{"user_id":95,"name":"Phil Collins","steam_id":76561198068868644,"connected_time":2573000000000,"state":"active","ping":59},{"user_id":119,"name":"SneekiCheekiQbone","steam_id":76561198045077980,"connected_time":561000000000,"state":"active","ping":51},{"user_id":78,"name":"everyrockstar!","steam_id":76561198272094975,"connected_time":3209000000000,"state":"active","ping":82},{"user_id":107,"name":"Gentle Opp 3","steam_id":76561198150406851,"connected_time":1239000000000,"state":"active","ping":45},{"user_id":111,"name":"Spectre","steam_id":76561198025652246,"connected_time":887000000000,"state":"active","ping":88},{"user_id":123,"name":"Dani","steam_id":76561198348012378,"connected_time":434000000000,"state":"active","ping":125},{"user_id":103,"name":"Frontier Psychiatrist","steam_id":76561198378587138,"connected_time":1605000000000,"state":"active","ping":47},{"user_id":125,"name":"1 Great Wooden Dad","steam_id":76561198377126974,"connected_time":220000000000,"state":"active","ping":128},{"user_id":126,"name":"BBL Sponsor","steam_id":76561199093733603,"connected_time":174000000000,"state":"active","ping":72},{"user_id":70,"name":"Menacing Pile of Frogs","steam_id":76561198360134800,"connected_time":4003000000000,"state":"active","ping":118},{"user_id":114,"name":"bonk schnoffer","steam_id":76561198301598124,"connected_time":758000000000,"state":"active","ping":78},{"user_id":91,"name":"alpharuby","steam_id":76561198051638462,"connected_time":2607000000000,"state":"active","ping":59},{"user_id":100,"name":"NotAWeeb","steam_id":76561198165530739,"connected_time":1958000000000,"state":"active","ping":45},{"user_id":26,"name":"Pyrotek‚Å¥","steam_id":76561198072747672,"connected_time":5439000000000,"state":"active","ping":59},{"user_id":110,"name":"Jacob Hornberger 2016 dice","steam_id":76561198204549723,"connected_time":1052000000000,"state":"active","ping":134},{"user_id":124,"name":"Big man","steam_id":76561198975807588,"connected_time":253000000000,"state":"active","ping":97},{"user_id":115,"name":"Cesar","steam_id":76561199244427790,"connected_time":751000000000,"state":"active","ping":71},{"user_id":108,"name":"TeriyakiDynamite","steam_id":76561198050049346,"connected_time":1126000000000,"state":"active","ping":68},{"user_id":93,"name":"BertWert","steam_id":76561198308277681,"connected_time":2585000000000,"state":"active","ping":114},{"user_id":127,"name":"sigma male grindset","steam_id":76561198086090527,"connected_time":121000000000,"state":"active","ping":112},{"user_id":118,"name":"Carthage","steam_id":76561198049001571,"connected_time":688000000000,"state":"active","ping":102},{"user_id":109,"name":"weenie hut jr","steam_id":76561198206922028,"connected_time":1090000000000,"state":"active","ping":60},{"user_id":55,"name":"fish","steam_id":76561198440986029,"connected_time":4668000000000,"state":"active","ping":55},{"user_id":97,"name":"bobtheninjaman","steam_id":76561198066424544,"connected_time":2498000000000,"state":"active","ping":67}]},{"server_id":18,"name":"Uncletopia | San Francisco | 2 | All Maps","name_short":"sfo-2","host":"sfo-1.us.uncletopia.com","port":27025,"enabled":true,"region":"us-west","cc":"us","latitude":37.77397,"longitude":-122.4313,"reserved":0,"last_update":"0001-01-01T00:00:00Z","name_a2s":"Uncletopia | San Francisco | 2 | All Maps","protocol":17,"map":"pl_upward","folder":"tf","game":"Team Fortress","app_id":440,"player_count":24,"max_players":24,"Bots":0,"server_type":"Dedicated","server_os":"Linux","password":true,"vac":true,"version":"7757534","steam_id":85568392924470000,"keywords":["nocrits","nodmgspread","payload","uncletopia"],"game_id":440,"stv_port":27026,"stv_name":"Uncletopia | San Francisco | 2 | All Maps | STV","players":[{"user_id":102,"name":"Livin' Like Larry","steam_id":76561198313360974,"connected_time":2450000000000,"state":"active","ping":37},{"user_id":118,"name":"Mina's Ninas","steam_id":76561198046502179,"connected_time":1139000000000,"state":"active","ping":69},{"user_id":127,"name":"Wingman","steam_id":76561198066270405,"connected_time":500000000000,"state":"active","ping":40},{"user_id":93,"name":"momus","steam_id":76561198966979196,"connected_time":3123000000000,"state":"active","ping":59},{"user_id":95,"name":"The Horny","steam_id":76561198863639459,"connected_time":3102000000000,"state":"active","ping":78},{"user_id":122,"name":"bee","steam_id":76561198178015361,"connected_time":930000000000,"state":"active","ping":106},{"user_id":126,"name":"kaede :3","steam_id":76561198345528370,"connected_time":539000000000,"state":"active","ping":44},{"user_id":129,"name":"lonelymaw","steam_id":76561198020675278,"connected_time":346000000000,"state":"active","ping":52},{"user_id":130,"name":"jaketropolis","steam_id":76561198044728812,"connected_time":324000000000,"state":"active","ping":104},{"user_id":103,"name":"hakken","steam_id":76561199102391736,"connected_time":2406000000000,"state":"active","ping":57},{"user_id":30,"name":"jello","steam_id":76561198149683030,"connected_time":6848000000000,"state":"active","ping":45},{"user_id":124,"name":"james may","steam_id":76561198043857339,"connected_time":648000000000,"state":"active","ping":58},{"user_id":120,"name":"‚úµknifepartylyrcs ‚ôú","steam_id":76561198404914442,"connected_time":1042000000000,"state":"active","ping":80},{"user_id":33,"name":"old birb man","steam_id":76561199410269097,"connected_time":6709000000000,"state":"active","ping":108},{"user_id":108,"name":"takeshi_","steam_id":76561198148797456,"connected_time":2083000000000,"state":"active","ping":55},{"user_id":109,"name":"YouAreReadingThis","steam_id":76561198367831600,"connected_time":2055000000000,"state":"active","ping":95},{"user_id":69,"name":"Dietrich","steam_id":76561198028163840,"connected_time":4881000000000,"state":"active","ping":66},{"user_id":132,"name":"Ostin","steam_id":76561197993726444,"connected_time":159000000000,"state":"active","ping":87},{"user_id":131,"name":"Bobby Ray","steam_id":76561198044131188,"connected_time":324000000000,"state":"active","ping":71},{"user_id":121,"name":"Sgt. Satire","steam_id":76561198104193483,"connected_time":1024000000000,"state":"active","ping":75},{"user_id":128,"name":"Noodlesmasher2","steam_id":76561199084186813,"connected_time":361000000000,"state":"active","ping":135},{"user_id":97,"name":"Landlord","steam_id":76561198987913057,"connected_time":3078000000000,"state":"active","ping":72},{"user_id":114,"name":"Chap","steam_id":76561198294226443,"connected_time":1506000000000,"state":"active","ping":70},{"user_id":116,"name":"MORE BOUNCE TO THE OUNCE","steam_id":76561198243399336,"connected_time":1490000000000,"state":"active","ping":62}]},{"server_id":19,"name":"Uncletopia | San Francisco | 3 | Stopwatch Beta","name_short":"sfo-3","host":"sfo-1.us.uncletopia.com","port":27035,"enabled":true,"region":"us-west","cc":"us","latitude":37.77397,"longitude":-122.4313,"reserved":0,"last_update":"0001-01-01T00:00:00Z","name_a2s":"Uncletopia | San Francisco | 3 | Stopwatch Beta","protocol":17,"map":"workshop/cp_reckoner_rc6.ugc674719999","folder":"tf","game":"Team Fortress","app_id":440,"player_count":0,"max_players":24,"Bots":0,"server_type":"Dedicated","server_os":"Linux","password":true,"vac":true,"version":"7757534","steam_id":85568392924742824,"keywords":["cp","nocrits","nodmgspread","uncletopia"],"game_id":440,"stv_port":27036,"stv_name":"Uncletopia | San Francisco | 3 | Stopwatch Beta | STV","players":null},{"server_id":20,"name":"Uncletopia | San Francisco | 4 | Community","name_short":"sfo-4","host":"sfo-1.us.uncletopia.com","port":27045,"enabled":true,"region":"us-west","cc":"us","latitude":37.77397,"longitude":-122.4313,"reserved":0,"last_update":"0001-01-01T00:00:00Z","name_a2s":"Uncletopia | San Francisco | 4 | Community","protocol":17,"map":"workshop/koth_product_final.ugc454272353","folder":"tf","game":"Team Fortress","app_id":440,"player_count":0,"max_players":24,"Bots":0,"server_type":"Dedicated","server_os":"Linux","password":true,"vac":true,"version":"7757534","steam_id":85568392924742826,"keywords":["cp","nocrits","nodmgspread","uncletopia"],"game_id":440,"stv_port":27046,"stv_name":"Uncletopia | San Francisco | 4 | Community | STV","players":null},{"server_id":141,"name":"Uncletopia | Sydney | 1 | All Maps","name_short":"syd-1","host":"syd-1.au.uncletopia.com","port":27015,"enabled":true,"region":"au","cc":"au","latitude":-33.865143,"longitude":151.2099,"reserved":0,"last_update":"0001-01-01T00:00:00Z","name_a2s":"Uncletopia | Sydney | 1 | All Maps","protocol":17,"map":"koth_viaduct","folder":"tf","game":"Team Fortress","app_id":440,"player_count":0,"max_players":24,"Bots":0,"server_type":"Dedicated","server_os":"Linux","password":true,"vac":true,"version":"7757534","steam_id":85568392924470001,"keywords":["cp","nocrits","nodmgspread","uncletopia"],"game_id":440,"stv_port":27016,"stv_name":"Uncletopia | Sydney | 1 | All Maps | STV","players":null},{"server_id":123,"name":"Uncletopia | Sydney | 2 | All Maps","name_short":"syd-2","host":"syd-1.au.uncletopia.com","port":27025,"enabled":true,"region":"au","cc":"au","latitude":-33.865143,"longitude":151.2099,"reserved":0,"last_update":"0001-01-01T00:00:00Z","name_a2s":"Uncletopia | Sydney | 2 | All Maps","protocol":17,"map":"cp_process_final","folder":"tf","game":"Team Fortress","app_id":440,"player_count":0,"max_players":24,"Bots":0,"server_type":"Dedicated","server_os":"Linux","password":true,"vac":true,"version":"7757534","steam_id":85568392924470002,"keywords":["cp","nocrits","nodmgspread","uncletopia"],"game_id":440,"stv_port":27026,"stv_name":"Uncletopia | Sydney | 2 | All Maps | STV","players":null},{"server_id":395,"name":"Uncletopia | Sydney | 3 | All Maps","name_short":"syd-3","host":"syd-1.au.uncletopia.com","port":27035,"enabled":true,"region":"au","cc":"au","latitude":-33.865143,"longitude":151.2099,"reserved":0,"last_update":"0001-01-01T00:00:00Z","name_a2s":"Uncletopia | Sydney | 3 | All Maps","protocol":17,"map":"pl_swiftwater_final1","folder":"tf","game":"Team Fortress","app_id":440,"player_count":0,"max_players":24,"Bots":0,"server_type":"Dedicated","server_os":"Linux","password":true,"vac":true,"version":"7757534","steam_id":85568392925194467,"keywords":["nocrits","nodmgspread","payload","uncletopia"],"game_id":440,"stv_port":27036,"stv_name":"Uncletopia | Sydney | 3 | All Maps | STV","players":null},{"server_id":396,"name":"Uncletopia | Sydney | 4 | All Maps","name_short":"syd-4","host":"syd-1.au.uncletopia.com","port":27045,"enabled":true,"region":"au","cc":"au","latitude":-33.865143,"longitude":151.2099,"reserved":0,"last_update":"0001-01-01T00:00:00Z","name_a2s":"Uncletopia | Sydney | 4 | All Maps","protocol":17,"map":"koth_highpass","folder":"tf","game":"Team Fortress","app_id":440,"player_count":0,"max_players":24,"Bots":0,"server_type":"Dedicated","server_os":"Linux","password":true,"vac":true,"version":"7757534","steam_id":85568392925397958,"keywords":["cp","nocrits","nodmgspread","uncletopia"],"game_id":440,"stv_port":27046,"stv_name":"Uncletopia | Sydney | 4 | All Maps | STV","players":null},{"server_id":58,"name":"Uncletopia | Sydney | 5 | Stopwatch Beta","name_short":"syd-5","host":"syd-1.au.uncletopia.com","port":27055,"enabled":true,"region":"au","cc":"au","latitude":-33.865143,"longitude":151.2099,"reserved":0,"last_update":"0001-01-01T00:00:00Z","name_a2s":"Uncletopia | Sydney | 5 | Stopwatch Beta","protocol":17,"map":"koth_cascade","folder":"tf","game":"Team Fortress","app_id":440,"player_count":0,"max_players":24,"Bots":0,"server_type":"Dedicated","server_os":"Linux","password":true,"vac":true,"version":"7757534","steam_id":85568392925397959,"keywords":["cp","nocrits","nodmgspread","uncletopia"],"game_id":440,"stv_port":27056,"stv_name":"Uncletopia | Sydney | 5 | Stopwatch Beta | STV","players":null},{"server_id":59,"name":"Uncletopia | Sydney | 6 | Community","name_short":"syd-6","host":"syd-1.au.uncletopia.com","port":27065,"enabled":true,"region":"au","cc":"au","latitude":-33.865143,"longitude":151.2099,"reserved":0,"last_update":"0001-01-01T00:00:00Z","name_a2s":"Uncletopia | Sydney | 6 | Community","protocol":17,"map":"cp_snakewater_final1","folder":"tf","game":"Team Fortress","app_id":440,"player_count":0,"max_players":24,"Bots":0,"server_type":"Dedicated","server_os":"Linux","password":true,"vac":true,"version":"7757534","steam_id":85568392925397960,"keywords":["cp","nocrits","nodmgspread","uncletopia"],"game_id":440,"stv_port":27066,"stv_name":"Uncletopia | Sydney | 6 | Community | STV","players":null},{"server_id":49,"name":"Uncletopia | Warsaw | 1 | All Maps","name_short":"waw-1","host":"waw-1.pl.uncletopia.com","port":27015,"enabled":true,"region":"eu","cc":"pl","latitude":52.2297,"longitude":21.017532,"reserved":0,"last_update":"0001-01-01T00:00:00Z","name_a2s":"","protocol":0,"map":"","folder":"","game":"","app_id":0,"player_count":0,"max_players":0,"Bots":0,"server_type":"","server_os":"","password":false,"vac":false,"version":"","steam_id":0,"keywords":null,"game_id":0,"stv_port":0,"stv_name":"","players":null},{"server_id":50,"name":"Uncletopia | Warsaw | 2 | All Maps","name_short":"waw-2","host":"waw-1.pl.uncletopia.com","port":27025,"enabled":true,"region":"eu","cc":"pl","latitude":52.2297,"longitude":21.017532,"reserved":0,"last_update":"0001-01-01T00:00:00Z","name_a2s":"Uncletopia | Warsaw | 2 | All Maps","protocol":17,"map":"koth_viaduct","folder":"tf","game":"Team Fortress","app_id":440,"player_count":0,"max_players":24,"Bots":0,"server_type":"Dedicated","server_os":"Linux","password":true,"vac":true,"version":"7757534","steam_id":85568392925397851,"keywords":["cp","nocrits","nodmgspread","uncletopia"],"game_id":440,"stv_port":27026,"stv_name":"Uncletopia | Warsaw | 2 | All Maps | STV","players":null},{"server_id":51,"name":"Uncletopia | Warsaw | 3 | All Maps","name_short":"waw-3","host":"waw-1.pl.uncletopia.com","port":27035,"enabled":true,"region":"eu","cc":"pl","latitude":52.2297,"longitude":21.017532,"reserved":0,"last_update":"0001-01-01T00:00:00Z","name_a2s":"Uncletopia | Warsaw | 3 | All Maps","protocol":17,"map":"koth_viaduct","folder":"tf","game":"Team Fortress","app_id":440,"player_count":0,"max_players":24,"Bots":0,"server_type":"Dedicated","server_os":"Linux","password":true,"vac":true,"version":"7757534","steam_id":85568392925397852,"keywords":["cp","nocrits","nodmgspread","uncletopia"],"game_id":440,"stv_port":27036,"stv_name":"Uncletopia | Warsaw | 3 | All Maps | STV","players":null},{"server_id":52,"name":"Uncletopia | Warsaw | 4 | All Maps","name_short":"waw-4","host":"waw-1.pl.uncletopia.com","port":27045,"enabled":true,"region":"eu","cc":"pl","latitude":52.2297,"longitude":21.017532,"reserved":0,"last_update":"0001-01-01T00:00:00Z","name_a2s":"Uncletopia | Warsaw | 4 | All Maps","protocol":17,"map":"koth_lakeside_final","folder":"tf","game":"Team Fortress","app_id":440,"player_count":0,"max_players":24,"Bots":0,"server_type":"Dedicated","server_os":"Linux","password":true,"vac":true,"version":"7757534","steam_id":85568392925397853,"keywords":["cp","nocrits","nodmgspread","uncletopia"],"game_id":440,"stv_port":27046,"stv_name":"Uncletopia | Warsaw | 4 | All Maps | STV","players":null},{"server_id":53,"name":"Uncletopia | Warsaw | 5 | Stopwatch Beta","name_short":"waw-5","host":"waw-1.pl.uncletopia.com","port":27055,"enabled":true,"region":"eu","cc":"pl","latitude":52.2297,"longitude":21.017532,"reserved":0,"last_update":"0001-01-01T00:00:00Z","name_a2s":"Uncletopia | Warsaw | 5 | Stopwatch Beta","protocol":17,"map":"pl_borneo","folder":"tf","game":"Team Fortress","app_id":440,"player_count":0,"max_players":24,"Bots":0,"server_type":"Dedicated","server_os":"Linux","password":true,"vac":true,"version":"7757534","steam_id":85568392925397854,"keywords":["nocrits","nodmgspread","payload","uncletopia"],"game_id":440,"stv_port":27056,"stv_name":"Uncletopia | Warsaw | 5 | Stopwatch Beta | STV","players":null},{"server_id":54,"name":"Uncletopia | Warsaw | 6 | Community","name_short":"waw-6","host":"waw-1.pl.uncletopia.com","port":27065,"enabled":true,"region":"eu","cc":"pl","latitude":52.2297,"longitude":21.017532,"reserved":0,"last_update":"0001-01-01T00:00:00Z","name_a2s":"Uncletopia | Warsaw | 6 | Community","protocol":17,"map":"koth_lakeside_final","folder":"tf","game":"Team Fortress","app_id":440,"player_count":0,"max_players":24,"Bots":0,"server_type":"Dedicated","server_os":"Linux","password":true,"vac":true,"version":"7757534","steam_id":85568392925397856,"keywords":["cp","nocrits","nodmgspread","uncletopia"],"game_id":440,"stv_port":27066,"stv_name":"Uncletopia | Warsaw | 6 | Community | STV","players":null}]}