{"status":true,"message":"","result":[{"server_id":9,"name":"Uncletopia | Atlanta | 1 | All Maps","name_short":"atl-1","host":"atl-1.us.uncletopia.com","port":27015,"enabled":true,"region":"us-east","cc":"us","latitude":33.753746,"longitude":-84.38633,"reserved":0,"last_update":"0001-01-01T00:00:00Z","name_a2s":"Uncletopia | Atlanta | 1 | All Maps","protocol":17,"map":"pl_badwater","folder":"tf","game":"Team Fortress","app_id":440,"player_count":25,"max_players":24,"Bots":0,"server_type":"Dedicated","server_os":"Linux","password":true,"vac":true,"version":"7757534","steam_id":85568392924469982,"keywords":["nocrits","nodmgspread","payload","uncletopia"],"game_id":440,"stv_port":27016,"stv_name":"Uncletopia | Atlanta | 1 | All Maps | STV","players":[{"user_id":3,"name":"cola","steam_id":76561198374390458,"connected_time":2963000000000,"state":"active","ping":45},{"user_id":4,"name":"roman","steam_id":76561198170066797,"connected_time":2961000000000,"state":"active","ping":71},{"user_id":9,"name":"eish","steam_id":76561198089463603,"connected_time":2957000000000,"state":"active","ping":115},{"user_id":7,"name":"ATL 1 | Save your wifi","steam_id":76561198286147372,"connected_time":2959000000000,"state":"active","ping":49},{"user_id":34,"name":"[positive] milk","steam_id":76561198127457787,"connected_time":1698000000000,"state":"active","ping":76},{"user_id":39,"name":"Kidzbopsicle","steam_id":76561198047660691,"connected_time":1276000000000,"state":"active","ping":54},{"user_id":11,"name":"‚ô°Alyx‚ô°","steam_id":76561198024303978,"connected_time":2953000000000,"state":"active","ping":54},{"user_id":43,"name":"GeneralTaco","steam_id":76561198026783097,"connected_time":8000000000,"state":"spawning","ping":121},{"user_id":13,"name":"ATL1 | Pango","steam_id":76561198069811545,"connected_time":2943000000000,"state":"active","ping":45},{"user_id":14,"name":"chexo4","steam_id":76561198150532531,"connected_time":2937000000000,"state":"active","ping":47},{"user_id":31,"name":"titan","steam_id":76561198197388678,"connected_time":2621000000000,"state":"active","ping":60},{"user_id":16,"name":"FemboyNate","steam_id":76561198146636410,"connected_time":2934000000000,"state":"active","ping":70},{"user_id":35,"name":"lil hog","steam_id":76561199230929836,"connected_time":1693000000000,"state":"active","ping":76},{"user_id":18,"name":"Ghetto Smosh Fan","steam_id":76561198097272509,"connected_time":2923000000000,"state":"active","ping":34},{"user_id":19,"name":"lucil3 on Bandcamp","steam_id":76561198149063013,"connected_time":2922000000000,"state":"active","ping":69},{"user_id":20,"name":"dash23‚Ñ¢","steam_id":76561198314951185,"connected_time":2921000000000,"state":"active","ping":109},{"user_id":21,"name":"Perfume Department","steam_id":76561198128299594,"connected_time":2921000000000,"state":"active","ping":108},{"user_id":22,"name":"propeller rat","steam_id":76561198339195930,"connected_time":2920000000000,"state":"active","ping":99},{"user_id":33,"name":"Deltapunk","steam_id":76561199122138062,"connected_time":2152000000000,"state":"active","ping":123},{"user_id":25,"name":"brinks truck","steam_id":76561198126489501,"connected_time":2914000000000,"state":"active","ping":72},{"user_id":38,"name":"Just PYE","steam_id":76561199439622967,"connected_time":1334000000000,"state":"active","ping":71},{"user_id":45,"name":"Bottom Trans Cowgirl","steam_id":76561198304239680,"connected_time":8000000000,"state":"spawning","ping":48},{"user_id":30,"name":"reis","steam_id":76561199232952016,"connected_time":2802000000000,"state":"active","ping":180},{"user_id":46,"name":"Epifiny","steam_id":76561198027958086,"connected_time":8000000000,"state":"spawning","ping":80}]},{"server_id":104,"name":"Uncletopia | Atlanta | 2 | All Maps","name_short":"atl-2","host":"atl-1.us.uncletopia.com","port":27025,"enabled":true,"region":"us-east","cc":"us","latitude":33.753746,"longitude":-84.38633,"reserved":0,"last_update":"0001-01-01T00:00:00Z","name_a2s":"Uncletopia | Atlanta | 2 | All Maps","protocol":17,"map":"pl_upward","folder":"tf","game":"Team Fortress","app_id":440,"player_count":24,"max_players":24,"Bots":0,"server_type":"Dedicated","server_os":"Linux","password":true,"vac":true,"version":"7757534","steam_id":85568392924469983,"keywords":["nocrits","nodmgspread","payload","uncletopia"],"game_id":440,"stv_port":27026,"stv_name":"Uncletopia | Atlanta | 2 | All Maps | STV","players":[{"user_id":55,"name":"Skate Duck","steam_id":76561198125041862,"connected_time":242000000000,"state":"active","ping":130},{"user_id":56,"name":"AoD  Pyro","steam_id":76561198312228050,"connected_time":181000000000,"state":"active","ping":52},{"user_id":25,"name":"ICANTGETRIDOFTHEGOBLINSINMYWALL","steam_id":76561198351096378,"connected_time":1691000000000,"state":"active","ping":71},{"user_id":39,"name":"splatt","steam_id":76561198217172111,"connected_time":904000000000,"state":"active","ping":77},{"user_id":24,"name":"Ice","steam_id":76561198045076794,"connected_time":1769000000000,"state":"active","ping":78},{"user_id":59,"name":"St. Michael","steam_id":76561198037611052,"connected_time":41000000000,"state":"active","ping":60},{"user_id":10,"name":"Val-Simp","steam_id":76561198354437045,"connected_time":2917000000000,"state":"active","ping":119},{"user_id":30,"name":"∆ê’å—¥∆≥","steam_id":76561198099470277,"connected_time":1479000000000,"state":"active","ping":64},{"user_id":27,"name":"Frontier Psychiatrist","steam_id":76561198038689088,"connected_time":1582000000000,"state":"active","ping":88},{"user_id":58,"name":"Wolfgamer2413","steam_id":76561198262226752,"connected_time":59000000000,"state":"active","ping":89},{"user_id":51,"name":"I Play Scout","steam_id":76561199475821142,"connected_time":530000000000,"state":"active","ping":81},{"user_id":31,"name":"slowdance","steam_id":76561198097427947,"connected_time":1389000000000,"state":"active","ping":137},{"user_id":32,"name":"Windy Writer","steam_id":76561198048217633,"connected_time":1344000000000,"state":"active","ping":90},{"user_id":33,"name":"ditsoon","steam_id":76561198026609945,"connected_time":1302000000000,"state":"active","ping":75},{"user_id":34,"name":"(¬¥-Œπ_-ÔΩÄ)","steam_id":76561198007464245,"connected_time":1289000000000,"state":"active","ping":64},{"user_id":36,"name":"Reisen","steam_id":76561199174579733,"connected_time":1261000000000,"state":"active","ping":66},{"user_id":52,"name":"Mr. Soupman","steam_id":76561198021649598,"connected_time":530000000000,"state":"active","ping":71},{"user_id":41,"name":"mechiimi ‚òÖ","steam_id":76561198321627268,"connected_time":755000000000,"state":"active","ping":92},{"user_id":42,"name":"ray (the based god)","steam_id":76561198311984941,"connected_time":731000000000,"state":"active","ping":84},{"user_id":60,"name":"BoxARocks","steam_id":76561198262363602,"connected_time":40000000000,"state":"active","ping":92},{"user_id":61,"name":"I Lead MLB In \"Bats Eaten\"","steam_id":76561198034079853,"connected_time":32000000000,"state":"active","ping":62},{"user_id":45,"name":"my tomach hurt 100","steam_id":76561198046111695,"connected_time":616000000000,"state":"active","ping":63},{"user_id":53,"name":"CrystalClear","steam_id":76561198344276579,"connected_time":497000000000,"state":"active","ping":106},{"user_id":62,"name":"Jeeper","steam_id":76561198155583692,"connected_time":27000000000,"state":"active","ping":63}]},{"server_id":400,"name":"Uncletopia | Atlanta | 3 | Community","name_short":"atl-3","host":"atl-1.us.uncletopia.com","port":27035,"enabled":true,"region":"us-east","cc":"us","latitude":33.753746,"longitude":-84.38633,"reserved":0,"last_update":"0001-01-01T00:00:00Z","name_a2s":"Uncletopia | Atlanta | 3 | Community","protocol":17,"map":"cp_snakewater_final1","folder":"tf","game":"Team Fortress","app_id":440,"player_count":0,"max_players":24,"Bots":0,"server_type":"Dedicated","server_os":"Linux","password":true,"vac":true,"version":"7757534","steam_id":85568392924515187,"keywords":["cp","nocrits","nodmgspread","uncletopia"],"game_id":440,"stv_port":27036,"stv_name":"Uncletopia | Atlanta | 3 | Community | STV","players":null},{"server_id":401,"name":"Uncletopia | Atlanta | 4 | No Payload","name_short":"atl-4","host":"atl-1.us.uncletopia.com","port":27045,"enabled":true,"region":"us-east","cc":"us","latitude":33.753746,"longitude":-84.38633,"reserved":0,"last_update":"0001-01-01T00:00:00Z","name_a2s":"","protocol":0,"map":"","folder":"","game":"","app_id":0,"player_count":0,"max_players":0,"Bots":0,"server_type":"","server_os":"","password":false,"vac":false,"version":"","steam_id":0,"keywords":null,"game_id":0,"stv_port":0,"stv_name":"","players":null},{"server_id":2,"name":"Uncletopia | Chicago | 1 | All Maps","name_short":"chi-1","host":"chi-1.us.uncletopia.com","port":27015,"enabled":true,"region":"us-central","cc":"us","latitude":41.881832,"longitude":-87.62318,"reserved":0,"last_update":"0001-01-01T00:00:00Z","name_a2s":"Uncletopia | Chicago | 1 | All Maps","protocol":17,"map":"pl_pier","folder":"tf","game":"Team Fortress","app_id":440,"player_count":24,"max_players":24,"Bots":0,"server_type":"Dedicated","server_os":"Linux","password":true,"vac":true,"version":"7757534","steam_id":85568392924469984,"keywords":["nocrits","nodmgspread","payload","uncletopia"],"game_id":440,"stv_port":27016,"stv_name":"Uncletopia | Chicago | 1 | All Maps | STV","players":[{"user_id":46,"name":"ARegularJohnDoe","steam_id":76561198015020139,"connected_time":1129000000000,"state":"active","ping":59},{"user_id":42,"name":"PineappleSalesman","steam_id":76561198881039861,"connected_time":1163000000000,"state":"active","ping":46},{"user_id":5,"name":"[ŸäŸáŸàÿØŸä] Bill Clinton [◊ê◊ú","steam_id":76561198163291190,"connected_time":2968000000000,"state":"active","ping":86},{"user_id":40,"name":"Belvidere","steam_id":76561198121336953,"connected_time":1166000000000,"state":"active","ping":78},{"user_id":7,"name":"N√©oGothiqueüïØ","steam_id":76561198003467269,"connected_time":2963000000000,"state":"active","ping":72},{"user_id":8,"name":"River Rat","steam_id":76561198116383976,"connected_time":2962000000000,"state":"active","ping":117},{"user_id":9,"name":"PKBEAST_7","steam_id":76561198177136537,"connected_time":2961000000000,"state":"active","ping":89},{"user_id":10,"name":"Shipmunk","steam_id":76561198063062670,"connected_time":2961000000000,"state":"active","ping":64},{"user_id":47,"name":"Rat_king","steam_id":76561199465689129,"connected_time":1093000000000,"state":"active","ping":84},{"user_id":12,"name":"Thatoneguybunchanumbers","steam_id":76561198028039160,"connected_time":2958000000000,"state":"active","ping":84},{"user_id":13,"name":"chaffy","steam_id":76561198021754567,"connected_time":2957000000000,"state":"active","ping":55},{"user_id":43,"name":"Tobo","steam_id":76561198085846393,"connected_time":1163000000000,"state":"active","ping":94},{"user_id":44,"name":"ROGUE-PLANET","steam_id":76561198116023052,"connected_time":1158000000000,"state":"active","ping":77},{"user_id":45,"name":"breezewax","steam_id":76561198121702006,"connected_time":1155000000000,"state":"active","ping":73},{"user_id":17,"name":"Bloodrayne","steam_id":76561198116808497,"connected_time":2953000000000,"state":"active","ping":68},{"user_id":48,"name":"Qdoxll","steam_id":76561199027684714,"connected_time":969000000000,"state":"active","ping":68},{"user_id":19,"name":"BurnN8or101","steam_id":76561198132668224,"connected_time":2951000000000,"state":"active","ping":82},{"user_id":20,"name":"XinPing","steam_id":76561198174498174,"connected_time":2949000000000,"state":"active","ping":97},{"user_id":41,"name":"richard clock","steam_id":76561198048455671,"connected_time":1165000000000,"state":"active","ping":60},{"user_id":49,"name":"Boogie","steam_id":76561198043626626,"connected_time":944000000000,"state":"active","ping":58},{"user_id":23,"name":"Lore","steam_id":76561198098407538,"connected_time":2947000000000,"state":"active","ping":55},{"user_id":29,"name":"Kohbold","steam_id":76561198996480140,"connected_time":2902000000000,"state":"active","ping":82},{"user_id":25,"name":"Quack Quack","steam_id":76561198040371105,"connected_time":2946000000000,"state":"active","ping":91},{"user_id":32,"name":"cyclops","steam_id":76561197970370198,"connected_time":2494000000000,"state":"active","ping":57}]},{"server_id":106,"name":"Uncletopia | Chicago | 2 | All Maps","name_short":"chi-2","host":"chi-1.us.uncletopia.com","port":27025,"enabled":true,"region":"us-central","cc":"us","latitude":41.881832,"longitude":-87.62318,"reserved":0,"last_update":"0001-01-01T00:00:00Z","name_a2s":"Uncletopia | Chicago | 2 | All Maps","protocol":17,"map":"pl_upward","folder":"tf","game":"Team Fortress","app_id":440,"player_count":15,"max_players":24,"Bots":0,"server_type":"Dedicated","server_os":"Linux","password":true,"vac":true,"version":"7757534","steam_id":85568392924469985,"keywords":["nocrits","nodmgspread","payload","uncletopia"],"game_id":440,"stv_port":27026,"stv_name":"Uncletopia | Chicago | 2 | All Maps | STV","players":[{"user_id":61,"name":"Brock O'Brian","steam_id":76561198117839474,"connected_time":114000000000,"state":"active","ping":78},{"user_id":42,"name":"MEATBALL","steam_id":76561198028499312,"connected_time":1423000000000,"state":"active","ping":59},{"user_id":49,"name":"Viokik","steam_id":76561198408846602,"connected_time":1012000000000,"state":"active","ping":66},{"user_id":25,"name":"‚úß333","steam_id":76561198365397472,"connected_time":2014000000000,"state":"active","ping":42},{"user_id":63,"name":"Siless","steam_id":76561198040803878,"connected_time":7000000000,"state":"spawning","ping":53},{"user_id":45,"name":"e doctor","steam_id":76561198081851446,"connected_time":1250000000000,"state":"active","ping":45},{"user_id":46,"name":"Nobody","steam_id":76561199352089107,"connected_time":1242000000000,"state":"active","ping":102},{"user_id":16,"name":"rudy","steam_id":76561198088712799,"connected_time":2417000000000,"state":"active","ping":78},{"user_id":57,"name":"Michaelpc1","steam_id":76561198088365519,"connected_time":403000000000,"state":"active","ping":45},{"user_id":20,"name":"Ace Chromatica","steam_id":76561198042211131,"connected_time":2354000000000,"state":"active","ping":53},{"user_id":22,"name":"phone","steam_id":76561198029268743,"connected_time":2189000000000,"state":"active","ping":60},{"user_id":30,"name":"xFactr","steam_id":76561198129007422,"connected_time":1946000000000,"state":"active","ping":53},{"user_id":31,"name":"Q47","steam_id":76561198087128341,"connected_time":1946000000000,"state":"active","ping":126},{"user_id":59,"name":"Huey","steam_id":76561198972816386,"connected_time":247000000000,"state":"active","ping":75},{"user_id":40,"name":"primordialheath","steam_id":76561199386942638,"connected_time":1847000000000,"state":"active","ping":46}]},{"server_id":402,"name":"Uncletopia | Chicago | 3 | All Maps","name_short":"chi-3","host":"chi-1.us.uncletopia.com","port":27035,"enabled":true,"region":"us-central","cc":"us","latitude":41.881832,"longitude":-87.62318,"reserved":0,"last_update":"0001-01-01T00:00:00Z","name_a2s":"Uncletopia | Chicago | 3 | All Maps","protocol":17,"map":"cp_steel","folder":"tf","game":"Team Fortress","app_id":440,"player_count":24,"max_players":24,"Bots":0,"server_type":"Dedicated","server_os":"Linux","password":true,"vac":true,"version":"7757534","steam_id":85568392924515191,"keywords":["cp","nocrits","nodmgspread","uncletopia"],"game_id":440,"stv_port":27036,"stv_name":"Uncletopia | Chicago | 3 | All Maps | STV","players":[{"user_id":42,"name":"pathulhu","steam_id":76561198323941614,"connected_time":1339000000000,"state":"active","ping":73},{"user_id":59,"name":"Panckakebro","steam_id":76561198106419992,"connected_time":140000000000,"state":"active","ping":78},{"user_id":46,"name":"bash -lc ./asshat.sh","steam_id":76561198004584315,"connected_time":1047000000000,"state":"active","ping":67},{"user_id":6,"name":"SomeScuffedKid","steam_id":76561198086113234,"connected_time":2941000000000,"state":"active","ping":64},{"user_id":39,"name":"Scared Duck","steam_id":76561198081348409,"connected_time":1674000000000,"state":"active","ping":65},{"user_id":47,"name":"matkaster","steam_id":76561197998546486,"connected_time":1046000000000,"state":"active","ping":57},{"user_id":53,"name":"WhoIsFrosty","steam_id":76561198880588117,"connected_time":722000000000,"state":"active","ping":53},{"user_id":60,"name":"[DATS‚û°] Sugar Meowth","steam_id":76561197995251793,"connected_time":93000000000,"state":"active","ping":83},{"user_id":49,"name":"ramm","steam_id":76561199192289015,"connected_time":891000000000,"state":"active","ping":121},{"user_id":14,"name":"Joe Biden","steam_id":76561198238699798,"connected_time":2873000000000,"state":"active","ping":86},{"user_id":55,"name":"a footnote in sounding history","steam_id":76561198063064857,"connected_time":646000000000,"state":"active","ping":75},{"user_id":58,"name":"The Colonel","steam_id":76561198004147927,"connected_time":334000000000,"state":"active","ping":82},{"user_id":17,"name":"LikeASir","steam_id":76561198042209721,"connected_time":2866000000000,"state":"active","ping":50},{"user_id":19,"name":"real jewish space lasers","steam_id":76561198119536224,"connected_time":2855000000000,"state":"active","ping":77},{"user_id":61,"name":"ChocoCrispChunks","steam_id":76561198881926539,"connected_time":57000000000,"state":"active","ping":113},{"user_id":21,"name":"BigOrca54","steam_id":76561198181360271,"connected_time":2825000000000,"state":"active","ping":64},{"user_id":37,"name":"zongers","steam_id":76561198097160898,"connected_time":2135000000000,"state":"active","ping":51},{"user_id":23,"name":"stfu im vibin rn","steam_id":76561198069407799,"connected_time":2784000000000,"state":"active","ping":77},{"user_id":24,"name":"God's not dead, I am.","steam_id":76561198840484105,"connected_time":2776000000000,"state":"active","ping":74},{"user_id":57,"name":"Antifa Alligator","steam_id":76561197988170816,"connected_time":359000000000,"state":"active","ping":69},{"user_id":54,"name":"N0Ne","steam_id":76561198376822522,"connected_time":711000000000,"state":"active","ping":74},{"user_id":35,"name":"AkimboAoki","steam_id":76561198158323058,"connected_time":2456000000000,"state":"active","ping":90},{"user_id":56,"name":"Peanut Arbuckle","steam_id":76561198081689361,"connected_time":637000000000,"state":"active","ping":72},{"user_id":43,"name":"FoodzAreGoodz","steam_id":76561198309262052,"connected_time":1249000000000,"state":"active","ping":104}]},{"server_id":403,"name":"Uncletopia | Chicago | 4 | All Maps","name_short":"chi-4","host":"chi-1.us.uncletopia.com","port":27045,"enabled":true,"region":"us-central","cc":"us","latitude":41.881832,"longitude":-87.62318,"reserved":0,"last_update":"0001-01-01T00:00:00Z","name_a2s":"Uncletopia | Chicago | 4 | All Maps","protocol":17,"map":"pl_snowycoast","folder":"tf","game":"Team Fortress","app_id":440,"player_count":24,"max_players":24,"Bots":0,"server_type":"Dedicated","server_os":"Linux","password":true,"vac":true,"version":"7757534","steam_id":85568392924515193,"keywords":["nocrits","nodmgspread","payload","uncletopia"],"game_id":440,"stv_port":27046,"stv_name":"Uncletopia | Chicago | 4 | All Maps | STV","players":[{"user_id":42,"name":"ShadBad","steam_id":76561198248287390,"connected_time":276000000000,"state":"active","ping":109},{"user_id":41,"name":"GoreFudge","steam_id":76561199080573462,"connected_time":300000000000,"state":"active","ping":148},{"user_id":33,"name":"[DEEP] Danmar33","steam_id":76561198056453091,"connected_time":1484000000000,"state":"active","ping":50},{"user_id":6,"name":"trappy (showered)","steam_id":76561198402801140,"connected_time":2911000000000,"state":"active","ping":57},{"user_id":7,"name":"Vladikr1","steam_id":76561198401495362,"connected_time":2900000000000,"state":"active","ping":76},{"user_id":40,"name":"Garfield Smoking a Fat Pipe","steam_id":76561198086737105,"connected_time":505000000000,"state":"active","ping":63},{"user_id":9,"name":"fish","steam_id":76561198054070811,"connected_time":2894000000000,"state":"active","ping":103},{"user_id":38,"name":"C papi","steam_id":76561198027779564,"connected_time":674000000000,"state":"active","ping":54},{"user_id":43,"name":"iFram420","steam_id":76561198324682963,"connected_time":255000000000,"state":"active","ping":80},{"user_id":12,"name":"aqua","steam_id":76561199407709552,"connected_time":2833000000000,"state":"active","ping":46},{"user_id":13,"name":"johnrp","steam_id":76561198139424047,"connected_time":2824000000000,"state":"active","ping":77},{"user_id":14,"name":"Infinitytacos","steam_id":76561198884260211,"connected_time":2713000000000,"state":"active","ping":45},{"user_id":32,"name":"Corndog27-","steam_id":76561198797639167,"connected_time":1778000000000,"state":"active","ping":85},{"user_id":37,"name":"_hooded_","steam_id":76561198023595873,"connected_time":1026000000000,"state":"active","ping":79},{"user_id":44,"name":"Ass","steam_id":76561198125553823,"connected_time":254000000000,"state":"active","ping":63},{"user_id":18,"name":"girl pisser","steam_id":76561198065848254,"connected_time":2545000000000,"state":"active","ping":83},{"user_id":29,"name":"Deathninja952","steam_id":76561199066489355,"connected_time":2139000000000,"state":"active","ping":91},{"user_id":30,"name":"Leviathan","steam_id":76561197997528907,"connected_time":1934000000000,"state":"active","ping":60},{"user_id":45,"name":"British Zoner","steam_id":76561198977330214,"connected_time":227000000000,"state":"active","ping":100},{"user_id":23,"name":"leeeeeeeeeeeeeeeeeeeeeeeeeee","steam_id":76561199083322731,"connected_time":2486000000000,"state":"active","ping":96},{"user_id":24,"name":"Ninty","steam_id":76561199364725776,"connected_time":2472000000000,"state":"active","ping":98},{"user_id":25,"name":"CroMaLaka","steam_id":76561198380926090,"connected_time":2462000000000,"state":"active","ping":48},{"user_id":26,"name":"T√ñZI","steam_id":76561198045268695,"connected_time":2461000000000,"state":"active","ping":61},{"user_id":27,"name":"Branz","steam_id":76561198076632143,"connected_time":2459000000000,"state":"active","ping":75}]},{"server_id":36,"name":"Uncletopia | Chicago | 5 | All Maps","name_short":"chi-5","host":"chi-2.us.uncletopia.com","port":27015,"enabled":true,"region":"us-central","cc":"us","latitude":41.881832,"longitude":-87.62318,"reserved":0,"last_update":"0001-01-01T00:00:00Z","name_a2s":"Uncletopia | Chicago | 5 | All Maps","protocol":17,"map":"koth_cascade","folder":"tf","game":"Team Fortress","app_id":440,"player_count":0,"max_players":24,"Bots":0,"server_type":"Dedicated","server_os":"Linux","password":true,"vac":true,"version":"7757534","steam_id":85568392924866362,"keywords":["cp","nocrits","nodmgspread","uncletopia"],"game_id":440,"stv_port":27016,"stv_name":"Uncletopia | Chicago | 5 | All Maps | STV","players":null},{"server_id":37,"name":"Uncletopia | Chicago | 6 | All Maps","name_short":"chi-6","host":"chi-2.us.uncletopia.com","port":27025,"enabled":true,"region":"us-central","cc":"us","latitude":41.881832,"longitude":-87.62318,"reserved":0,"last_update":"0001-01-01T00:00:00Z","name_a2s":"Uncletopia | Chicago | 6 | All Maps","protocol":17,"map":"koth_lakeside_final","folder":"tf","game":"Team Fortress","app_id":440,"player_count":0,"max_players":24,"Bots":0,"server_type":"Dedicated","server_os":"Linux","password":true,"vac":true,"version":"7757534","steam_id":85568392924866363,"keywords":["cp","nocrits","nodmgspread","uncletopia"],"game_id":440,"stv_port":27026,"stv_name":"Uncletopia | Chicago | 6 | All Maps | STV","players":null},{"server_id":38,"name":"Uncletopia | Chicago | 7 | Stopwatch Beta","name_short":"chi-7","host":"chi-2.us.uncletopia.com","port":27035,"enabled":true,"region":"us-central","cc":"us","latitude":41.881832,"longitude":-87.62318,"reserved":0,"last_update":"0001-01-01T00:00:00Z","name_a2s":"Uncletopia | Chicago | 7 | Stopwatch Beta","protocol":17,"map":"pl_barnblitz","folder":"tf","game":"Team Fortress","app_id":440,"player_count":0,"max_players":24,"Bots":0,"server_type":"Dedicated","server_os":"Linux","password":true,"vac":true,"version":"7757534","steam_id":85568392924866364,"keywords":["nocrits","nodmgspread","payload","uncletopia"],"game_id":440,"stv_port":27036,"stv_name":"Uncletopia | Chicago | 7 | Stopwatch Beta | STV","players":null},{"server_id":39,"name":"Uncletopia | Chicago | 8 | Community","name_short":"chi-8","host":"chi-2.us.uncletopia.com","port":27045,"enabled":true,"region":"us-central","cc":"us","latitude":41.881832,"longitude":-87.62318,"reserved":0,"last_update":"0001-01-01T00:00:00Z","name_a2s":"Uncletopia | Chicago | 8 | Community","protocol":17,"map":"koth_cascade","folder":"tf","game":"Team Fortress","app_id":440,"player_count":0,"max_players":24,"Bots":0,"server_type":"Dedicated","server_os":"Linux","password":true,"vac":true,"version":"7757534","steam_id":85568392924866365,"keywords":["cp","nocrits","nodmgspread","uncletopia"],"game_id":440,"stv_port":27046,"stv_name":"Uncletopia | Chicago | 8 | Community | STV","players":null},{"server_id":8,"name":"Uncletopia | Dallas | 1 | All Maps","name_short":"dal-1","host":"dal-1.us.uncletopia.com","port":27015,"enabled":true,"region":"us-central","cc":"us","latitude":32.779167,"longitude":-96.80889,"reserved":0,"last_update":"0001-01-01T00:00:00Z","name_a2s":"Uncletopia | Dallas | 1 | All Maps","protocol":17,"map":"pl_upward","folder":"tf","game":"Team Fortress","app_id":440,"player_count":20,"max_players":24,"Bots":0,"server_type":"Dedicated","server_os":"Linux","password":true,"vac":true,"version":"7757534","steam_id":85568392924469986,"keywords":["nocrits","nodmgspread","payload","uncletopia"],"game_id":440,"stv_port":27016,"stv_name":"Uncletopia | Dallas | 1 | All Maps | STV","players":[{"user_id":3,"name":"ribbonborn","steam_id":76561198001195423,"connected_time":2951000000000,"state":"spawning","ping":49},{"user_id":4,"name":"peppy","steam_id":76561198361818082,"connected_time":2946000000000,"state":"spawning","ping":48},{"user_id":51,"name":"amphy","steam_id":76561198003344621,"connected_time":44000000000,"state":"active","ping":167},{"user_id":42,"name":"LuciD","steam_id":76561198242842394,"connected_time":973000000000,"state":"active","ping":58},{"user_id":8,"name":"Mak","steam_id":76561198089197922,"connected_time":2916000000000,"state":"active","ping":104},{"user_id":47,"name":"lyraaaaaaaaaaa","steam_id":76561198259331758,"connected_time":842000000000,"state":"active","ping":139},{"user_id":13,"name":"kabooomerang","steam_id":76561198808706122,"connected_time":2889000000000,"state":"active","ping":83},{"user_id":14,"name":"b0urbaki7","steam_id":76561198141342345,"connected_time":2882000000000,"state":"active","ping":87},{"user_id":15,"name":"tie dye die guy","steam_id":76561198049845337,"connected_time":2879000000000,"state":"active","ping":88},{"user_id":32,"name":"{ST} Oxythemoron","steam_id":76561198060089965,"connected_time":2166000000000,"state":"spawning","ping":46},{"user_id":17,"name":"Prince Peen","steam_id":76561198046217806,"connected_time":2867000000000,"state":"active","ping":78},{"user_id":18,"name":"Akaya","steam_id":76561198180003349,"connected_time":2866000000000,"state":"active","ping":84},{"user_id":49,"name":"Ghost Cage","steam_id":76561198101172776,"connected_time":680000000000,"state":"active","ping":68},{"user_id":20,"name":"Poladroid","steam_id":76561198032005291,"connected_time":2862000000000,"state":"active","ping":70},{"user_id":52,"name":"General Teddie","steam_id":76561198004310204,"connected_time":40000000000,"state":"active","ping":89},{"user_id":39,"name":"ChottoAMinute","steam_id":76561198873157775,"connected_time":1200000000000,"state":"active","ping":81},{"user_id":26,"name":"Chuck Finley","steam_id":76561198027411284,"connected_time":2834000000000,"state":"active","ping":86},{"user_id":31,"name":"Pengu","steam_id":76561198007851610,"connected_time":2698000000000,"state":"active","ping":71},{"user_id":38,"name":"Luna","steam_id":76561198131342156,"connected_time":1495000000000,"state":"spawning","ping":75},{"user_id":50,"name":"DargaribdusPersonOfLordlyCalibe","steam_id":76561198020876416,"connected_time":397000000000,"state":"active","ping":66}]},{"server_id":108,"name":"Uncletopia | Dallas | 2 | All Maps","name_short":"dal-2","host":"dal-1.us.uncletopia.com","port":27025,"enabled":true,"region":"us-central","cc":"us","latitude":32.779167,"longitude":-96.80889,"reserved":0,"last_update":"0001-01-01T00:00:00Z","name_a2s":"Uncletopia | Dallas | 2 | All Maps","protocol":17,"map":"pl_borneo","folder":"tf","game":"Team Fortress","app_id":440,"player_count":24,"max_players":24,"Bots":0,"server_type":"Dedicated","server_os":"Linux","password":true,"vac":true,"version":"7757534","steam_id":85568392924469988,"keywords":["nocrits","nodmgspread","payload","uncletopia"],"game_id":440,"stv_port":27026,"stv_name":"Uncletopia | Dallas | 2 | All Maps | STV","players":[{"user_id":67,"name":"EatSports","steam_id":76561198009384115,"connected_time":206000000000,"state":"active","ping":54},{"user_id":35,"name":"GLG MUTT","steam_id":76561198147785541,"connected_time":2410000000000,"state":"active","ping":66},{"user_id":8,"name":"I am a mooshroom","steam_id":76561198104198295,"connected_time":2915000000000,"state":"active","ping":59},{"user_id":44,"name":"Doomagedden","steam_id":76561198272589475,"connected_time":1208000000000,"state":"active","ping":59},{"user_id":54,"name":"Regice","steam_id":76561198049860998,"connected_time":805000000000,"state":"active","ping":47},{"user_id":47,"name":"Fargo","steam_id":76561198044703931,"connected_time":1181000000000,"state":"active","ping":71},{"user_id":60,"name":"daniel","steam_id":76561197991289254,"connected_time":471000000000,"state":"active","ping":101},{"user_id":63,"name":"terrorism? boy howdy","steam_id":76561198844003641,"connected_time":310000000000,"state":"active","ping":84},{"user_id":68,"name":"Kaluka","steam_id":76561198036861445,"connected_time":200000000000,"state":"active","ping":90},{"user_id":14,"name":"deadpixel","steam_id":76561198150249843,"connected_time":2859000000000,"state":"active","ping":74},{"user_id":16,"name":"Phil Collins","steam_id":76561198068868644,"connected_time":2852000000000,"state":"active","ping":77},{"user_id":17,"name":"jester","steam_id":76561198065970212,"connected_time":2851000000000,"state":"active","ping":74},{"user_id":58,"name":"Registeel","steam_id":76561198068516556,"connected_time":666000000000,"state":"active","ping":89},{"user_id":25,"name":"TastesLikeTriangle","steam_id":76561198109705599,"connected_time":2816000000000,"state":"active","ping":101},{"user_id":51,"name":"Stamin-Pol","steam_id":76561198280081805,"connected_time":873000000000,"state":"active","ping":69},{"user_id":21,"name":"||:‚ô©‚ô©‚ô©‚ô™:|| Opplydead","steam_id":76561198028630334,"connected_time":2835000000000,"state":"active","ping":80},{"user_id":61,"name":"fac","steam_id":76561198009818412,"connected_time":422000000000,"state":"active","ping":65},{"user_id":52,"name":"Dr. Flopper","steam_id":76561198295059865,"connected_time":855000000000,"state":"active","ping":79},{"user_id":55,"name":"traytable","steam_id":76561198355890964,"connected_time":798000000000,"state":"active","ping":89},{"user_id":64,"name":"Squiddysquibbles","steam_id":76561198268476001,"connected_time":305000000000,"state":"active","ping":95},{"user_id":27,"name":"Cassaronpa","steam_id":76561198112985518,"connected_time":2796000000000,"state":"active","ping":150},{"user_id":65,"name":"Tanya Forger","steam_id":76561198889997809,"connected_time":300000000000,"state":"active","ping":78},{"user_id":66,"name":"crankshaft","steam_id":76561197992798282,"connected_time":294000000000,"state":"active","ping":75},{"user_id":69,"name":"Wiggler","steam_id":76561198118420406,"connected_time":156000000000,"state":"active","ping":93}]},{"server_id":5,"name":"Uncletopia | Frankfurt | 1 | All Maps","name_short":"frk-1","host":"frk-1.de.uncletopia.com","port":27015,"enabled":true,"region":"eu","cc":"de","latitude":50.110924,"longitude":8.682127,"reserved":0,"last_update":"0001-01-01T00:00:00Z","name_a2s":"Uncletopia | Frankfurt | 1 | All Maps","protocol":17,"map":"pl_snowycoast","folder":"tf","game":"Team Fortress","app_id":440,"player_count":0,"max_players":24,"Bots":0,"server_type":"Dedicated","server_os":"Linux","password":true,"vac":true,"version":"7757534","steam_id":85568392924469989,"keywords":["nocrits","nodmgspread","payload","uncletopia"],"game_id":440,"stv_port":27016,"stv_name":"Uncletopia | Frankfurt | 1 | All Maps | STV","players":null},{"server_id":110,"name":"Uncletopia | Frankfurt | 2 | All Maps","name_short":"frk-2","host":"frk-1.de.uncletopia.com","port":27025,"enabled":true,"region":"eu","cc":"de","latitude":50.110924,"longitude":8.682127,"reserved":0,"last_update":"0001-01-01T00:00:00Z","name_a2s":"Uncletopia | Frankfurt | 2 | All Maps","protocol":17,"map":"cp_snakewater_final1","folder":"tf","game":"Team Fortress","app_id":440,"player_count":0,"max_players":24,"Bots":0,"server_type":"Dedicated","server_os":"Linux","password":true,"vac":true,"version":"7757534","steam_id":85568392924469990,"keywords":["cp","nocrits","nodmgspread","uncletopia"],"game_id":440,"stv_port":27026,"stv_name":"Uncletopia | Frankfurt | 2 | All Maps | STV","players":null},{"server_id":308,"name":"Uncletopia | Frankfurt | 3 | All Maps","name_short":"frk-3","host":"frk-1.de.uncletopia.com","port":27035,"enabled":true,"region":"eu","cc":"de","latitude":50.110924,"longitude":8.682127,"reserved":0,"last_update":"0001-01-01T00:00:00Z","name_a2s":"Uncletopia | Frankfurt | 3 | All Maps","protocol":17,"map":"pl_swiftwater_final1","folder":"tf","game":"Team Fortress","app_id":440,"player_count":0,"max_players":24,"Bots":0,"server_type":"Dedicated","server_os":"Linux","password":true,"vac":true,"version":"7757534","steam_id":85568392924504274,"keywords":["nocrits","nodmgspread","payload","uncletopia"],"game_id":440,"stv_port":27036,"stv_name":"Uncletopia | Frankfurt | 3 | All Maps | STV","players":null},{"server_id":309,"name":"Uncletopia | Frankfurt | 4 | All Maps","name_short":"frk-4","host":"frk-1.de.uncletopia.com","port":27045,"enabled":true,"region":"eu","cc":"de","latitude":50.110924,"longitude":8.682127,"reserved":0,"last_update":"0001-01-01T00:00:00Z","name_a2s":"Uncletopia | Frankfurt | 4 | All Maps","protocol":17,"map":"koth_viaduct","folder":"tf","game":"Team Fortress","app_id":440,"player_count":0,"max_players":24,"Bots":0,"server_type":"Dedicated","server_os":"Linux","password":true,"vac":true,"version":"7757534","steam_id":85568392924504275,"keywords":["cp","nocrits","nodmgspread","uncletopia"],"game_id":440,"stv_port":27046,"stv_name":"Uncletopia | Frankfurt | 4 | All Maps | STV","players":null},{"server_id":310,"name":"Uncletopia | Frankfurt | 5 | All Maps","name_short":"frk-5","host":"frk-1.de.uncletopia.com","port":27055,"enabled":true,"region":"eu","cc":"de","latitude":50.110924,"longitude":8.682127,"reserved":0,"last_update":"0001-01-01T00:00:00Z","name_a2s":"Uncletopia | Frankfurt | 5 | All Maps","protocol":17,"map":"koth_lakeside_final","folder":"tf","game":"Team Fortress","app_id":440,"player_count":0,"max_players":24,"Bots":0,"server_type":"Dedicated","server_os":"Linux","password":true,"vac":true,"version":"7757534","steam_id":85568392924504277,"keywords":["cp","nocrits","nodmgspread","uncletopia"],"game_id":440,"stv_port":27056,"stv_name":"Uncletopia | Frankfurt | 5 | All Maps | STV","players":null},{"server_id":311,"name":"Uncletopia | Frankfurt | 6 | All Maps","name_short":"frk-6","host":"frk-1.de.uncletopia.com","port":27065,"enabled":true,"region":"eu","cc":"de","latitude":50.110924,"longitude":8.682127,"reserved":0,"last_update":"0001-01-01T00:00:00Z","name_a2s":"Uncletopia | Frankfurt | 6 | All Maps","protocol":17,"map":"pl_frontier_final","folder":"tf","game":"Team Fortress","app_id":440,"player_count":0,"max_players":24,"Bots":0,"server_type":"Dedicated","server_os":"Linux","password":true,"vac":true,"version":"7757534","steam_id":85568392924504278,"keywords":["nocrits","nodmgspread","payload","uncletopia"],"game_id":440,"stv_port":27066,"stv_name":"Uncletopia | Frankfurt | 6 | All Maps | STV","players":null},{"server_id":23,"name":"Uncletopia | Frankfurt | 7 | Stopwatch Beta","name_short":"frk-7","host":"frk-1.de.uncletopia.com","port":27075,"enabled":true,"region":"eu","cc":"de","latitude":50.110924,"longitude":8.682127,"reserved":0,"last_update":"0001-01-01T00:00:00Z","name_a2s":"Uncletopia | Frankfurt | 7 | Stopwatch Beta","protocol":17,"map":"cp_sunshine","folder":"tf","game":"Team Fortress","app_id":440,"player_count":0,"max_players":24,"Bots":0,"server_type":"Dedicated","server_os":"Linux","password":true,"vac":true,"version":"7757534","steam_id":85568392924742827,"keywords":["cp","nocrits","nodmgspread","uncletopia"],"game_id":440,"stv_port":27076,"stv_name":"Uncletopia | Frankfurt | 7 | Stopwatch Beta | STV","players":null},{"server_id":24,"name":"Uncletopia | Frankfurt | 8 | Community","name_short":"frk-8","host":"frk-1.de.uncletopia.com","port":27085,"enabled":true,"region":"eu","cc":"de","latitude":50.110924,"longitude":8.682127,"reserved":0,"last_update":"0001-01-01T00:00:00Z","name_a2s":"Uncletopia | Frankfurt | 8 | Community","protocol":17,"map":"koth_lakeside_final","folder":"tf","game":"Team Fortress","app_id":440,"player_count":0,"max_players":24,"Bots":0,"server_type":"Dedicated","server_os":"Linux","password":true,"vac":true,"version":"7757534","steam_id":85568392924742828,"keywords":["cp","nocrits","nodmgspread","uncletopia"],"game_id":440,"stv_port":27086,"stv_name":"Uncletopia | Frankfurt | 8 | Community | STV","players":null},{"server_id":202,"name":"Uncletopia | Hong Kong | 1 | All Maps","name_short":"hgk-1","host":"hgk-1.hk.uncletopia.com","port":27015,"enabled":true,"region":"asia","cc":"hk","latitude":22.302711,"longitude":114.177216,"reserved":0,"last_update":"0001-01-01T00:00:00Z","name_a2s":"Uncletopia | Hong Kong | 1 | All Maps","protocol":17,"map":"pl_pier","folder":"tf","game":"Team Fortress","app_id":440,"player_count":0,"max_players":24,"Bots":0,"server_type":"Dedicated","server_os":"Linux","password":true,"vac":true,"version":"7757534","steam_id":85568392924494504,"keywords":["nocrits","nodmgspread","payload","uncletopia"],"game_id":440,"stv_port":27016,"stv_name":"Uncletopia | Hong Kong | 1 | All Maps | STV","players":null},{"server_id":1,"name":"Uncletopia | Los Angeles | 1 | All Maps","name_short":"lax-1","host":"lax-1.us.uncletopia.com","port":27015,"enabled":true,"region":"us-west","cc":"us","latitude":33.94279,"longitude":-118.41004,"reserved":0,"last_update":"0001-01-01T00:00:00Z","name_a2s":"Uncletopia | Los Angeles | 1 | All Maps","protocol":17,"map":"pl_badwater","folder":"tf","game":"Team Fortress","app_id":440,"player_count":23,"max_players":24,"Bots":0,"server_type":"Dedicated","server_os":"Linux","password":true,"vac":true,"version":"7757534","steam_id":85568392924469991,"keywords":["nocrits","nodmgspread","payload","uncletopia"],"game_id":440,"stv_port":27016,"stv_name":"Uncletopia | Los Angeles | 1 | All Maps | STV","players":[{"user_id":6,"name":"LX-24","steam_id":76561198016168993,"connected_time":2919000000000,"state":"active","ping":81},{"user_id":23,"name":"MonkeyMage101","steam_id":76561198354192200,"connected_time":2714000000000,"state":"active","ping":65},{"user_id":47,"name":"heck","steam_id":76561198315694520,"connected_time":1582000000000,"state":"active","ping":57},{"user_id":82,"name":"Blacksteel387","steam_id":76561198060543196,"connected_time":412000000000,"state":"active","ping":112},{"user_id":84,"name":"ErrorPanda","steam_id":76561198866408000,"connected_time":404000000000,"state":"active","ping":116},{"user_id":86,"name":"Mom","steam_id":76561198207936000,"connected_time":358000000000,"state":"active","ping":65},{"user_id":15,"name":"Krazy","steam_id":76561198835502709,"connected_time":2880000000000,"state":"active","ping":44},{"user_id":67,"name":"Shin Tae Il's Lighter","steam_id":76561198984360849,"connected_time":935000000000,"state":"active","ping":72},{"user_id":89,"name":"LogicalFurret","steam_id":76561198350604657,"connected_time":47000000000,"state":"active","ping":45},{"user_id":18,"name":"wAck","steam_id":76561198072385729,"connected_time":2833000000000,"state":"active","ping":41},{"user_id":49,"name":"Su1tCas3","steam_id":76561198035989471,"connected_time":1529000000000,"state":"active","ping":79},{"user_id":20,"name":"Salamimander","steam_id":76561198036083292,"connected_time":2815000000000,"state":"active","ping":68},{"user_id":21,"name":"bebo","steam_id":76561198385085005,"connected_time":2788000000000,"state":"active","ping":68},{"user_id":36,"name":"Jolly","steam_id":76561198116357972,"connected_time":2487000000000,"state":"active","ping":45},{"user_id":26,"name":"Dr. B Busta","steam_id":76561198206387303,"connected_time":2684000000000,"state":"active","ping":36},{"user_id":68,"name":"0xFUL","steam_id":76561198081684676,"connected_time":876000000000,"state":"active","ping":100},{"user_id":85,"name":"27 blends","steam_id":76561197997100185,"connected_time":387000000000,"state":"active","ping":49},{"user_id":44,"name":"Just a little bit blue?","steam_id":76561199113013688,"connected_time":1684000000000,"state":"active","ping":52},{"user_id":87,"name":"Uluyo","steam_id":76561198065857148,"connected_time":354000000000,"state":"active","ping":66},{"user_id":31,"name":"Ceatharlach","steam_id":76561198318126190,"connected_time":2587000000000,"state":"active","ping":155},{"user_id":88,"name":"snoogy woogy buggy","steam_id":76561198894676484,"connected_time":354000000000,"state":"active","ping":45},{"user_id":35,"name":"K33n","steam_id":76561198392025097,"connected_time":2527000000000,"state":"active","ping":106},{"user_id":60,"name":"The Assistant Regional Manager","steam_id":76561199221484936,"connected_time":1270000000000,"state":"active","ping":58}]},{"server_id":112,"name":"Uncletopia | Los Angeles | 2 | All Maps","name_short":"lax-2","host":"lax-1.us.uncletopia.com","port":27025,"enabled":true,"region":"us-west","cc":"us","latitude":33.94279,"longitude":-118.41004,"reserved":0,"last_update":"0001-01-01T00:00:00Z","name_a2s":"Uncletopia | Los Angeles | 2 | All Maps","protocol":17,"map":"cp_dustbowl","folder":"tf","game":"Team Fortress","app_id":440,"player_count":0,"max_players":24,"Bots":0,"server_type":"Dedicated","server_os":"Linux","password":true,"vac":true,"version":"7757534","steam_id":85568392924469992,"keywords":["cp","nocrits","nodmgspread","uncletopia"],"game_id":440,"stv_port":27026,"stv_name":"Uncletopia | Los Angeles | 2 | All Maps | STV","players":null},{"server_id":324,"name":"Uncletopia | Los Angeles | 3 | All Maps","name_short":"lax-3","host":"lax-1.us.uncletopia.com","port":27035,"enabled":true,"region":"us-west","cc":"us","latitude":33.94279,"longitude":-118.41004,"reserved":0,"last_update":"0001-01-01T00:00:00Z","name_a2s":"Uncletopia | Los Angeles | 3 | All Maps","protocol":17,"map":"pl_pier","folder":"tf","game":"Team Fortress","app_id":440,"player_count":0,"max_players":24,"Bots":0,"server_type":"Dedicated","server_os":"Linux","password":true,"vac":true,"version":"7757534","steam_id":85568392924510198,"keywords":["nocrits","nodmgspread","payload","uncletopia"],"game_id":440,"stv_port":27036,"stv_name":"Uncletopia | Los Angeles | 3 | All Maps | STV","players":null},{"server_id":25,"name":"Uncletopia | Los Angeles | 4 | Stopwatch Beta","name_short":"lax-4","host":"lax-1.us.uncletopia.com","port":27045,"enabled":true,"region":"us-west","cc":"us","latitude":33.94279,"longitude":-118.41004,"reserved":0,"last_update":"0001-01-01T00:00:00Z","name_a2s":"Uncletopia | Los Angeles | 4 | Stopwatch Beta","protocol":17,"map":"pl_swiftwater_final1","folder":"tf","game":"Team Fortress","app_id":440,"player_count":0,"max_players":24,"Bots":0,"server_type":"Dedicated","server_os":"Linux","password":true,"vac":true,"version":"7757534","steam_id":85568392924510199,"keywords":["nocrits","nodmgspread","payload","uncletopia"],"game_id":440,"stv_port":27046,"stv_name":"Uncletopia | Los Angeles | 4 | Stopwatch Beta | STV","players":null},{"server_id":11,"name":"Uncletopia | London | 1 | All Maps","name_short":"lon-1","host":"lon-1.uk.uncletopia.com","port":27015,"enabled":true,"region":"eu","cc":"gb","latitude":51.509865,"longitude":-0.118092,"reserved":0,"last_update":"0001-01-01T00:00:00Z","name_a2s":"Uncletopia | London | 1 | All Maps","protocol":17,"map":"koth_highpass","folder":"tf","game":"Team Fortress","app_id":440,"player_count":0,"max_players":24,"Bots":0,"server_type":"Dedicated","server_os":"Linux","password":true,"vac":true,"version":"7757534","steam_id":85568392924367362,"keywords":["cp","nocrits","nodmgspread","uncletopia"],"game_id":440,"stv_port":27016,"stv_name":"Uncletopia | London | 1 | All Maps | STV","players":null},{"server_id":114,"name":"Uncletopia | London | 2 | All Maps","name_short":"lon-2","host":"lon-1.uk.uncletopia.com","port":27025,"enabled":true,"region":"eu","cc":"gb","latitude":51.509865,"longitude":-0.118092,"reserved":0,"last_update":"0001-01-01T00:00:00Z","name_a2s":"Uncletopia | London | 2 | All Maps","protocol":17,"map":"koth_viaduct","folder":"tf","game":"Team Fortress","app_id":440,"player_count":0,"max_players":24,"Bots":0,"server_type":"Dedicated","server_os":"Linux","password":true,"vac":true,"version":"7757534","steam_id":85568392924470941,"keywords":["cp","nocrits","nodmgspread","uncletopia"],"game_id":440,"stv_port":27026,"stv_name":"Uncletopia | London | 2 | All Maps | STV","players":null},{"server_id":320,"name":"Uncletopia | London | 3 | All Maps","name_short":"lon-3","host":"lon-1.uk.uncletopia.com","port":27035,"enabled":true,"region":"eu","cc":"gb","latitude":51.509865,"longitude":-0.118092,"reserved":0,"last_update":"0001-01-01T00:00:00Z","name_a2s":"Uncletopia | London | 3 | All Maps","protocol":17,"map":"cp_dustbowl","folder":"tf","game":"Team Fortress","app_id":440,"player_count":0,"max_players":24,"Bots":0,"server_type":"Dedicated","server_os":"Linux","password":true,"vac":true,"version":"7757534","steam_id":85568392924510192,"keywords":["cp","nocrits","nodmgspread","uncletopia"],"game_id":440,"stv_port":27036,"stv_name":"Uncletopia | London | 3 | All Maps | STV","players":null},{"server_id":321,"name":"Uncletopia | London | 4 | All Maps","name_short":"lon-4","host":"lon-1.uk.uncletopia.com","port":27045,"enabled":true,"region":"eu","cc":"gb","latitude":51.509865,"longitude":-0.118092,"reserved":0,"last_update":"0001-01-01T00:00:00Z","name_a2s":"Uncletopia | London | 4 | All Maps","protocol":17,"map":"cp_dustbowl","folder":"tf","game":"Team Fortress","app_id":440,"player_count":0,"max_players":24,"Bots":0,"server_type":"Dedicated","server_os":"Linux","password":true,"vac":true,"version":"7757534","steam_id":85568392924510193,"keywords":["cp","nocrits","nodmgspread","uncletopia"],"game_id":440,"stv_port":27046,"stv_name":"Uncletopia | London | 4 | All Maps | STV","players":null},{"server_id":21,"name":"Uncletopia | London | 5 | All Maps","name_short":"lon-5","host":"lon-1.uk.uncletopia.com","port":27055,"enabled":true,"region":"eu","cc":"gb","latitude":51.509865,"longitude":-0.118092,"reserved":0,"last_update":"0001-01-01T00:00:00Z","name_a2s":"Uncletopia | London | 5 | All Maps","protocol":17,"map":"cp_altitude","folder":"tf","game":"Team Fortress","app_id":440,"player_count":0,"max_players":24,"Bots":0,"server_type":"Dedicated","server_os":"Linux","password":true,"vac":true,"version":"7757534","steam_id":85568392924742829,"keywords":["cp","nocrits","nodmgspread","uncletopia"],"game_id":440,"stv_port":27056,"stv_name":"Uncletopia | London | 5 | All Maps | STV","players":null},{"server_id":22,"name":"Uncletopia | London | 6 | All Maps","name_short":"lon-6","host":"lon-1.uk.uncletopia.com","port":27065,"enabled":true,"region":"eu","cc":"gb","latitude":51.509865,"longitude":-0.118092,"reserved":0,"last_update":"0001-01-01T00:00:00Z","name_a2s":"Uncletopia | London | 6 | All Maps","protocol":17,"map":"cp_mountainlab","folder":"tf","game":"Team Fortress","app_id":440,"player_count":0,"max_players":24,"Bots":0,"server_type":"Dedicated","server_os":"Linux","password":true,"vac":true,"version":"7757534","steam_id":85568392924742830,"keywords":["cp","nocrits","nodmgspread","uncletopia"],"game_id":440,"stv_port":27066,"stv_name":"Uncletopia | London | 6 | All Maps | STV","players":null},{"server_id":40,"name":"Uncletopia | London | 7 | No Payload","name_short":"lon-7","host":"lon-1.uk.uncletopia.com","port":27075,"enabled":true,"region":"eu","cc":"gb","latitude":51.509865,"longitude":-0.118092,"reserved":0,"last_update":"0001-01-01T00:00:00Z","name_a2s":"Uncletopia | London | 7 | No Payload","protocol":17,"map":"pl_badwater","folder":"tf","game":"Team Fortress","app_id":440,"player_count":0,"max_players":24,"Bots":0,"server_type":"Dedicated","server_os":"Linux","password":true,"vac":true,"version":"7757534","steam_id":85568392924964314,"keywords":["nocrits","nodmgspread","payload","uncletopia"],"game_id":440,"stv_port":27076,"stv_name":"Uncletopia | London | 7 | No Payload | STV","players":null},{"server_id":41,"name":"Uncletopia | London | 8 | Community","name_short":"lon-8","host":"lon-1.uk.uncletopia.com","port":27085,"enabled":true,"region":"eu","cc":"gb","latitude":51.509865,"longitude":-0.118092,"reserved":0,"last_update":"0001-01-01T00:00:00Z","name_a2s":"Uncletopia | London | 8 | Community","protocol":17,"map":"pl_barnblitz","folder":"tf","game":"Team Fortress","app_id":440,"player_count":0,"max_players":24,"Bots":0,"server_type":"Dedicated","server_os":"Linux","password":true,"vac":true,"version":"7757534","steam_id":85568392924964315,"keywords":["nocrits","nodmgspread","payload","uncletopia"],"game_id":440,"stv_port":27086,"stv_name":"Uncletopia | London | 8 | Community | STV","players":null},{"server_id":300,"name":"Uncletopia | Montr√©al | 1 | All Maps","name_short":"mtl-1","host":"mtl-1.ca.uncletopia.com","port":27015,"enabled":true,"region":"us-east","cc":"ca","latitude":45.50889,"longitude":-73.56167,"reserved":0,"last_update":"0001-01-01T00:00:00Z","name_a2s":"Uncletopia | Montr√©al | 1 | All Maps","protocol":17,"map":"pl_upward","folder":"tf","game":"Team Fortress","app_id":440,"player_count":0,"max_players":24,"Bots":0,"server_type":"Dedicated","server_os":"Linux","password":true,"vac":true,"version":"7757534","steam_id":85568392924500087,"keywords":["nocrits","nodmgspread","payload","uncletopia"],"game_id":440,"stv_port":27016,"stv_name":"Uncletopia | Montr√©al | 1 | All Maps | STV","players":null},{"server_id":301,"name":"Uncletopia | Montr√©al | 2 | All Maps","name_short":"mtl-2","host":"mtl-1.ca.uncletopia.com","port":27025,"enabled":true,"region":"us-east","cc":"ca","latitude":45.50889,"longitude":-73.56167,"reserved":0,"last_update":"0001-01-01T00:00:00Z","name_a2s":"Uncletopia | Montr√©al | 2 | All Maps","protocol":17,"map":"pl_snowycoast","folder":"tf","game":"Team Fortress","app_id":440,"player_count":0,"max_players":24,"Bots":0,"server_type":"Dedicated","server_os":"Linux","password":true,"vac":true,"version":"7757534","steam_id":85568392924500088,"keywords":["nocrits","nodmgspread","payload","uncletopia"],"game_id":440,"stv_port":27026,"stv_name":"Uncletopia | Montr√©al | 2 | All Maps | STV","players":null},{"server_id":302,"name":"Uncletopia | Montr√©al | 3 | All Maps","name_short":"mtl-3","host":"mtl-1.ca.uncletopia.com","port":27035,"enabled":true,"region":"us-east","cc":"ca","latitude":45.50889,"longitude":-73.56167,"reserved":0,"last_update":"0001-01-01T00:00:00Z","name_a2s":"Uncletopia | Montr√©al | 3 | All Maps","protocol":17,"map":"pl_swiftwater_final1","folder":"tf","game":"Team Fortress","app_id":440,"player_count":0,"max_players":24,"Bots":0,"server_type":"Dedicated","server_os":"Linux","password":true,"vac":true,"version":"7757534","steam_id":85568392924500089,"keywords":["nocrits","nodmgspread","payload","uncletopia"],"game_id":440,"stv_port":27036,"stv_name":"Uncletopia | Montr√©al | 3 | All Maps | STV","players":null},{"server_id":303,"name":"Uncletopia | Montr√©al | 4 | No Payload","name_short":"mtl-4","host":"mtl-1.ca.uncletopia.com","port":27045,"enabled":true,"region":"us-east","cc":"ca","latitude":45.50889,"longitude":-73.56167,"reserved":0,"last_update":"0001-01-01T00:00:00Z","name_a2s":"Uncletopia | Montr√©al | 4 | No Payload","protocol":17,"map":"pl_pier","folder":"tf","game":"Team Fortress","app_id":440,"player_count":0,"max_players":24,"Bots":0,"server_type":"Dedicated","server_os":"Linux","password":true,"vac":true,"version":"7757534","steam_id":85568392924500090,"keywords":["nocrits","nodmgspread","payload","uncletopia"],"game_id":440,"stv_port":27046,"stv_name":"Uncletopia | Montr√©al | 4 | No Payload | STV","players":null},{"server_id":13,"name":"Uncletopia | New York City | 1 | All Maps","name_short":"nyc-1","host":"nyc-1.us.uncletopia.com","port":27015,"enabled":true,"region":"us-east","cc":"us","latitude":40.73061,"longitude":-73.93524,"reserved":0,"last_update":"0001-01-01T00:00:00Z","name_a2s":"Uncletopia | New York City | 1 | All Maps","protocol":17,"map":"cp_gorge","folder":"tf","game":"Team Fortress","app_id":440,"player_count":22,"max_players":24,"Bots":0,"server_type":"Dedicated","server_os":"Linux","password":true,"vac":true,"version":"7757534","steam_id":85568392924469993,"keywords":["cp","nocrits","nodmgspread","uncletopia"],"game_id":440,"stv_port":27016,"stv_name":"Uncletopia | New York City | 1 | All Maps | STV","players":[{"user_id":34,"name":"shanghai","steam_id":76561197997961542,"connected_time":2391000000000,"state":"active","ping":62},{"user_id":59,"name":"Vivid Hut 64","steam_id":76561198170050059,"connected_time":176000000000,"state":"active","ping":56},{"user_id":61,"name":"Mythius","steam_id":76561198401392472,"connected_time":90000000000,"state":"active","ping":61},{"user_id":58,"name":"LevelZ3R0","steam_id":76561199239710681,"connected_time":226000000000,"state":"active","ping":136},{"user_id":62,"name":"Six","steam_id":76561198140584050,"connected_time":72000000000,"state":"active","ping":47},{"user_id":46,"name":"washy","steam_id":76561198046622670,"connected_time":1096000000000,"state":"active","ping":77},{"user_id":48,"name":"LittleHW","steam_id":76561198093979440,"connected_time":1002000000000,"state":"active","ping":53},{"user_id":12,"name":"Horrizan","steam_id":76561197965028480,"connected_time":2908000000000,"state":"active","ping":86},{"user_id":50,"name":"Wique","steam_id":76561198071217597,"connected_time":866000000000,"state":"active","ping":63},{"user_id":63,"name":"Skrasher","steam_id":76561198281711422,"connected_time":57000000000,"state":"active","ping":93},{"user_id":55,"name":"Subway Fan","steam_id":76561198336372790,"connected_time":443000000000,"state":"active","ping":41},{"user_id":43,"name":"Dross","steam_id":76561198042172372,"connected_time":1361000000000,"state":"active","ping":53},{"user_id":64,"name":"roadrunner","steam_id":76561198237140468,"connected_time":46000000000,"state":"active","ping":77},{"user_id":20,"name":"Dr. Marvello","steam_id":76561198107573800,"connected_time":2674000000000,"state":"active","ping":75},{"user_id":65,"name":"Madrox Who?","steam_id":76561197988859134,"connected_time":6000000000,"state":"active","ping":143},{"user_id":66,"name":"Roni1213","steam_id":76561198408533295,"connected_time":2000000000,"state":"spawning","ping":161},{"user_id":52,"name":"chroma","steam_id":76561198050188632,"connected_time":762000000000,"state":"active","ping":45},{"user_id":37,"name":"Salixiola","steam_id":76561198042177809,"connected_time":2122000000000,"state":"active","ping":72},{"user_id":44,"name":"dog fart burrito","steam_id":76561198023683949,"connected_time":1224000000000,"state":"active","ping":118},{"user_id":31,"name":"Fiendish Frog","steam_id":76561198029478821,"connected_time":2471000000000,"state":"active","ping":46},{"user_id":32,"name":"rad","steam_id":76561198413125750,"connected_time":2453000000000,"state":"active","ping":48},{"user_id":54,"name":"D-Class 1278","steam_id":76561198121316353,"connected_time":552000000000,"state":"active","ping":98}]},{"server_id":14,"name":"Uncletopia | New York City | 2 | All Maps","name_short":"nyc-2","host":"nyc-1.us.uncletopia.com","port":27025,"enabled":true,"region":"us-east","cc":"us","latitude":40.73061,"longitude":-73.93524,"reserved":0,"last_update":"0001-01-01T00:00:00Z","name_a2s":"Uncletopia | New York City | 2 | All Maps","protocol":17,"map":"pl_borneo","folder":"tf","game":"Team Fortress","app_id":440,"player_count":0,"max_players":24,"Bots":0,"server_type":"Dedicated","server_os":"Linux","password":true,"vac":true,"version":"7757534","steam_id":85568392924469994,"keywords":["nocrits","nodmgspread","payload","uncletopia"],"game_id":440,"stv_port":27026,"stv_name":"Uncletopia | New York City | 2 | All Maps | STV","players":null},{"server_id":15,"name":"Uncletopia | New York City | 3 | Stopwatch Beta","name_short":"nyc-3","host":"nyc-1.us.uncletopia.com","port":27035,"enabled":true,"region":"us-east","cc":"us","latitude":40.73061,"longitude":-73.93524,"reserved":0,"last_update":"0001-01-01T00:00:00Z","name_a2s":"Uncletopia | New York City | 3 | Stopwatch Beta","protocol":17,"map":"pl_upward","folder":"tf","game":"Team Fortress","app_id":440,"player_count":0,"max_players":24,"Bots":0,"server_type":"Dedicated","server_os":"Linux","password":true,"vac":true,"version":"7757534","steam_id":85568392924742820,"keywords":["nocrits","nodmgspread","payload","uncletopia"],"game_id":440,"stv_port":27036,"stv_name":"Uncletopia | New York City | 3 | Stopwatch Beta | STV","players":null},{"server_id":16,"name":"Uncletopia | New York City | 4 | Community","name_short":"nyc-4","host":"nyc-1.us.uncletopia.com","port":27045,"enabled":true,"region":"us-east","cc":"us","latitude":40.73061,"longitude":-73.93524,"reserved":0,"last_update":"0001-01-01T00:00:00Z","name_a2s":"Uncletopia | New York City | 4 | Community","protocol":17,"map":"pl_swiftwater_final1","folder":"tf","game":"Team Fortress","app_id":440,"player_count":0,"max_players":24,"Bots":0,"server_type":"Dedicated","server_os":"Linux","password":true,"vac":true,"version":"7757534","steam_id":85568392924742821,"keywords":["nocrits","nodmgspread","payload","uncletopia"],"game_id":440,"stv_port":27046,"stv_name":"Uncletopia | New York City | 4 | Community | STV","players":null},{"server_id":142,"name":"Uncletopia | S√£o Paulo | 1 | All Maps","name_short":"sao-1","host":"sao-1.br.uncletopia.com","port":27015,"enabled":true,"region":"sa","cc":"br","latitude":-23.533773,"longitude":-46.62529,"reserved":0,"last_update":"0001-01-01T00:00:00Z","name_a2s":"Uncletopia | S√£o Paulo | 1 | All Maps","protocol":17,"map":"koth_lakeside_final","folder":"tf","game":"Team Fortress","app_id":440,"player_count":0,"max_players":24,"Bots":0,"server_type":"Dedicated","server_os":"Linux","password":true,"vac":true,"version":"7757534","steam_id":85568392924469996,"keywords":["cp","nocrits","nodmgspread","uncletopia"],"game_id":440,"stv_port":27016,"stv_name":"Uncletopia | S√£o Paulo | 1 | All Maps | STV","players":null},{"server_id":143,"name":"Uncletopia | S√£o Paulo | 2 | All Maps","name_short":"sao-2","host":"sao-2.br.uncletopia.com","port":27015,"enabled":true,"region":"sa","cc":"br","latitude":-23.533773,"longitude":-46.62529,"reserved":0,"last_update":"0001-01-01T00:00:00Z","name_a2s":"Uncletopia | S√£o Paulo | 2 | All Maps","protocol":17,"map":"pl_borneo","folder":"tf","game":"Team Fortress","app_id":440,"player_count":0,"max_players":24,"Bots":0,"server_type":"Dedicated","server_os":"Linux","password":true,"vac":true,"version":"7757534","steam_id":85568392924485349,"keywords":["nocrits","nodmgspread","payload","uncletopia"],"game_id":440,"stv_port":27016,"stv_name":"Uncletopia | S√£o Paulo | 2 | All Maps | STV","players":null},{"server_id":7,"name":"Uncletopia | Seattle | 1 | All Maps","name_short":"sea-1","host":"sea-1.us.uncletopia.com","port":27015,"enabled":true,"region":"us-west","cc":"us","latitude":47.608013,"longitude":-122.33517,"reserved":0,"last_update":"0001-01-01T00:00:00Z","name_a2s":"Uncletopia | Seattle | 1 | All Maps","protocol":17,"map":"pl_pier","folder":"tf","game":"Team Fortress","app_id":440,"player_count":24,"max_players":24,"Bots":0,"server_type":"Dedicated","server_os":"Linux","password":true,"vac":true,"version":"7757534","steam_id":85568392924469997,"keywords":["nocrits","nodmgspread","payload","uncletopia"],"game_id":440,"stv_port":27016,"stv_name":"Uncletopia | Seattle | 1 | All Maps | STV","players":[{"user_id":34,"name":"Ducks","steam_id":76561198130038345,"connected_time":2083000000000,"state":"active","ping":59},{"user_id":4,"name":"WaffleWithNoToppings","steam_id":76561199088280111,"connected_time":2910000000000,"state":"active","ping":54},{"user_id":35,"name":"Foxymittenz","steam_id":76561198189953711,"connected_time":1951000000000,"state":"active","ping":60},{"user_id":40,"name":"A Duck With Socks","steam_id":76561198018844227,"connected_time":1348000000000,"state":"active","ping":58},{"user_id":7,"name":"pyrotechnic","steam_id":76561198043558709,"connected_time":2906000000000,"state":"active","ping":45},{"user_id":47,"name":"fungi","steam_id":76561198169755734,"connected_time":678000000000,"state":"active","ping":60},{"user_id":44,"name":"Kuudere","steam_id":76561198075028016,"connected_time":1281000000000,"state":"active","ping":97},{"user_id":51,"name":"i think im doing it wrong","steam_id":76561198319442494,"connected_time":108000000000,"state":"active","ping":85},{"user_id":11,"name":"what is","steam_id":76561198329367716,"connected_time":2903000000000,"state":"active","ping":78},{"user_id":52,"name":"rorywashere /·ê† - Àï -„Éû ‚≥ä","steam_id":76561198065825165,"connected_time":101000000000,"state":"active","ping":161},{"user_id":45,"name":"resh","steam_id":76561198239598834,"connected_time":1004000000000,"state":"active","ping":137},{"user_id":49,"name":"trashbro","steam_id":76561199417993197,"connected_time":619000000000,"state":"active","ping":71},{"user_id":19,"name":"An Old Lady","steam_id":76561198047480318,"connected_time":2882000000000,"state":"active","ping":69},{"user_id":20,"name":"Ayayahuasca","steam_id":76561199002906056,"connected_time":2879000000000,"state":"active","ping":54},{"user_id":21,"name":"The King of Piss World","steam_id":76561198082806956,"connected_time":2878000000000,"state":"active","ping":113},{"user_id":43,"name":"Lynx","steam_id":76561198322363286,"connected_time":1306000000000,"state":"active","ping":78},{"user_id":36,"name":"i cant aim","steam_id":76561198065873462,"connected_time":1651000000000,"state":"active","ping":76},{"user_id":53,"name":"mewtek","steam_id":76561198138599995,"connected_time":101000000000,"state":"active","ping":96},{"user_id":46,"name":"spenca","steam_id":76561198025371154,"connected_time":918000000000,"state":"active","ping":75},{"user_id":26,"name":"https://en.wikipedia.org/","steam_id":76561198261326806,"connected_time":2869000000000,"state":"active","ping":97},{"user_id":54,"name":"SwoopShoot","steam_id":76561199024079388,"connected_time":59000000000,"state":"active","ping":46},{"user_id":32,"name":"Bloom","steam_id":76561199065581662,"connected_time":2802000000000,"state":"active","ping":107},{"user_id":39,"name":"Cam(era)","steam_id":76561198285054047,"connected_time":1622000000000,"state":"active","ping":78},{"user_id":33,"name":"p9 jorts weed syrup","steam_id":76561199041179985,"connected_time":2788000000000,"state":"active","ping":56}]},{"server_id":119,"name":"Uncletopia | Seattle | 2 | All Maps","name_short":"sea-2","host":"sea-1.us.uncletopia.com","port":27025,"enabled":true,"region":"us-west","cc":"us","latitude":47.608013,"longitude":-122.33517,"reserved":0,"last_update":"0001-01-01T00:00:00Z","name_a2s":"Uncletopia | Seattle | 2 | All Maps","protocol":17,"map":"pl_borneo","folder":"tf","game":"Team Fortress","app_id":440,"player_count":24,"max_players":24,"Bots":0,"server_type":"Dedicated","server_os":"Linux","password":true,"vac":true,"version":"7757534","steam_id":85568392924469998,"keywords":["nocrits","nodmgspread","payload","uncletopia"],"game_id":440,"stv_port":27026,"stv_name":"Uncletopia | Seattle | 2 | All Maps | STV","players":[{"user_id":64,"name":"Thevenin","steam_id":76561198050398028,"connected_time":54000000000,"state":"active","ping":96},{"user_id":63,"name":"Superbacon24","steam_id":76561198121223443,"connected_time":62000000000,"state":"active","ping":65},{"user_id":60,"name":"Seriously Bruh","steam_id":76561198070408485,"connected_time":81000000000,"state":"active","ping":48},{"user_id":48,"name":"Amogous Supreme","steam_id":76561198025476774,"connected_time":1003000000000,"state":"active","ping":70},{"user_id":54,"name":"JON","steam_id":76561198057971005,"connected_time":321000000000,"state":"active","ping":44},{"user_id":9,"name":"Keamy","steam_id":76561199471434875,"connected_time":2891000000000,"state":"active","ping":40},{"user_id":38,"name":"Ena","steam_id":76561198066986108,"connected_time":1659000000000,"state":"active","ping":87},{"user_id":65,"name":"Poppet","steam_id":76561198012301951,"connected_time":49000000000,"state":"active","ping":106},{"user_id":14,"name":"Grammaring","steam_id":76561198867366139,"connected_time":2874000000000,"state":"active","ping":79},{"user_id":15,"name":"nathan","steam_id":76561198170402666,"connected_time":2869000000000,"state":"active","ping":66},{"user_id":66,"name":"Thanks Ants","steam_id":76561197966221018,"connected_time":45000000000,"state":"active","ping":52},{"user_id":17,"name":"Gary, 40, soul sucking 9-5","steam_id":76561198073812888,"connected_time":2852000000000,"state":"active","ping":46},{"user_id":53,"name":"Evanb","steam_id":76561198042057792,"connected_time":814000000000,"state":"active","ping":45},{"user_id":32,"name":"brhm","steam_id":76561198199604767,"connected_time":2478000000000,"state":"active","ping":51},{"user_id":49,"name":"garry","steam_id":76561199091007559,"connected_time":985000000000,"state":"active","ping":85},{"user_id":62,"name":"Korbi.","steam_id":76561198355711373,"connected_time":75000000000,"state":"active","ping":69},{"user_id":61,"name":"bob morely","steam_id":76561198045926594,"connected_time":80000000000,"state":"active","ping":70},{"user_id":52,"name":"Oxferd Crow","steam_id":76561198096916018,"connected_time":861000000000,"state":"active","ping":72},{"user_id":25,"name":"Big Mon","steam_id":76561198409907417,"connected_time":2791000000000,"state":"active","ping":100},{"user_id":47,"name":"SvicidalBug","steam_id":76561198221390504,"connected_time":1026000000000,"state":"active","ping":64},{"user_id":67,"name":"oil","steam_id":76561198099980149,"connected_time":10000000000,"state":"spawning","ping":69},{"user_id":55,"name":"LordKirby","steam_id":76561198006938286,"connected_time":317000000000,"state":"active","ping":100},{"user_id":30,"name":"maggie","steam_id":76561198041874647,"connected_time":2734000000000,"state":"active","ping":41},{"user_id":58,"name":"Napas","steam_id":76561199343790654,"connected_time":99000000000,"state":"active","ping":231}]},{"server_id":406,"name":"Uncletopia | Seattle | 3 | Stopwatch Beta","name_short":"sea-3","host":"sea-1.us.uncletopia.com","port":27035,"enabled":true,"region":"us-west","cc":"us","latitude":47.608013,"longitude":-122.33517,"reserved":0,"last_update":"0001-01-01T00:00:00Z","name_a2s":"Uncletopia | Seattle | 3 | Stopwatch Beta","protocol":17,"map":"workshop/pl_summercoast_rc8e.ugc1761528829","folder":"tf","game":"Team Fortress","app_id":440,"player_count":0,"max_players":24,"Bots":0,"server_type":"Dedicated","server_os":"Linux","password":true,"vac":true,"version":"7757534","steam_id":85568392924515217,"keywords":["nocrits","nodmgspread","payload","uncletopia"],"game_id":440,"stv_port":27036,"stv_name":"Uncletopia | Seattle | 3 | Stopwatch Beta | STV","players":null},{"server_id":17,"name":"Uncletopia | San Francisco | 1 | All Maps","name_short":"sfo-1","host":"sfo-1.us.uncletopia.com","port":27015,"enabled":true,"region":"us-west","cc":"us","latitude":37.77397,"longitude":-122.4313,"reserved":0,"last_update":"0001-01-01T00:00:00Z","name_a2s":"Uncletopia | San Francisco | 1 | All Maps","protocol":17,"map":"pl_badwater","folder":"tf","game":"Team Fortress","app_id":440,"player_count":24,"max_players":24,"Bots":0,"server_type":"Dedicated","server_os":"Linux","password":true,"vac":true,"version":"7757534","steam_id":85568392924469999,"keywords":["nocrits","nodmgspread","payload","uncletopia"],"game_id":440,"stv_port":27016,"stv_name":"Uncletopia | San Francisco | 1 | All Maps | STV","players":[{"user_id":7,"name":"possum gamer (noob)","steam_id":76561198057138795,"connected_time":2847000000000,"state":"active","ping":86},{"user_id":4,"name":"Saggy","steam_id":76561198166706479,"connected_time":2903000000000,"state":"active","ping":106},{"user_id":37,"name":"Wumps","steam_id":76561198207226825,"connected_time":1580000000000,"state":"active","ping":105},{"user_id":8,"name":"ferby","steam_id":76561198028229594,"connected_time":2845000000000,"state":"active","ping":47},{"user_id":9,"name":"Sierra Foxtrot","steam_id":76561197996667382,"connected_time":2839000000000,"state":"active","ping":99},{"user_id":10,"name":"Robogineer","steam_id":76561198026994739,"connected_time":2837000000000,"state":"active","ping":54},{"user_id":11,"name":"Thunder","steam_id":76561198795676044,"connected_time":2655000000000,"state":"active","ping":54},{"user_id":16,"name":"Superman123389","steam_id":76561198267472539,"connected_time":2261000000000,"state":"active","ping":88},{"user_id":14,"name":"LProduct","steam_id":76561199442139670,"connected_time":2474000000000,"state":"active","ping":99},{"user_id":19,"name":"Juice-tan","steam_id":76561198180730678,"connected_time":1898000000000,"state":"active","ping":57},{"user_id":38,"name":"Burgie","steam_id":76561198066425198,"connected_time":1466000000000,"state":"active","ping":69},{"user_id":46,"name":"poker","steam_id":76561197995889948,"connected_time":77000000000,"state":"active","ping":82},{"user_id":22,"name":"johnman gooberguy","steam_id":76561199014859764,"connected_time":1797000000000,"state":"active","ping":72},{"user_id":43,"name":"Goog","steam_id":76561198212777924,"connected_time":795000000000,"state":"active","ping":64},{"user_id":24,"name":"RagingRoosevelt","steam_id":76561197985483153,"connected_time":1791000000000,"state":"active","ping":65},{"user_id":44,"name":"Bunslinger","steam_id":76561197998875496,"connected_time":786000000000,"state":"active","ping":68},{"user_id":26,"name":"FlamingManiac","steam_id":76561198361996837,"connected_time":1717000000000,"state":"active","ping":129},{"user_id":45,"name":"Monkey Gaming","steam_id":76561198232461944,"connected_time":786000000000,"state":"active","ping":63},{"user_id":40,"name":"Major_Pippy","steam_id":76561198004482878,"connected_time":884000000000,"state":"active","ping":68},{"user_id":39,"name":"gamer_hater","steam_id":76561198973306314,"connected_time":1106000000000,"state":"active","ping":54},{"user_id":30,"name":"Super crak 202 9","steam_id":76561199176207530,"connected_time":1672000000000,"state":"active","ping":77},{"user_id":31,"name":"WizBiz","steam_id":76561198169716861,"connected_time":1669000000000,"state":"active","ping":63},{"user_id":36,"name":"Jaded","steam_id":76561198272575611,"connected_time":1621000000000,"state":"active","ping":103},{"user_id":34,"name":"Internal Screaming","steam_id":76561198272327629,"connected_time":1655000000000,"state":"active","ping":60}]},{"server_id":18,"name":"Uncletopia | San Francisco | 2 | All Maps","name_short":"sfo-2","host":"sfo-1.us.uncletopia.com","port":27025,"enabled":true,"region":"us-west","cc":"us","latitude":37.77397,"longitude":-122.4313,"reserved":0,"last_update":"0001-01-01T00:00:00Z","name_a2s":"Uncletopia | San Francisco | 2 | All Maps","protocol":17,"map":"pl_upward","folder":"tf","game":"Team Fortress","app_id":440,"player_count":19,"max_players":24,"Bots":0,"server_type":"Dedicated","server_os":"Linux","password":true,"vac":true,"version":"7757534","steam_id":85568392924470000,"keywords":["nocrits","nodmgspread","payload","uncletopia"],"game_id":440,"stv_port":27026,"stv_name":"Uncletopia | San Francisco | 2 | All Maps | STV","players":[{"user_id":4,"name":"89","steam_id":76561198106308056,"connected_time":2902000000000,"state":"active","ping":51},{"user_id":5,"name":"landogg","steam_id":76561198049000586,"connected_time":2901000000000,"state":"active","ping":62},{"user_id":34,"name":"MetalTao","steam_id":76561198189408110,"connected_time":2138000000000,"state":"active","ping":135},{"user_id":33,"name":"Smiling","steam_id":76561198293407075,"connected_time":2200000000000,"state":"active","ping":103},{"user_id":50,"name":"Jojo","steam_id":76561198166713255,"connected_time":1618000000000,"state":"active","ping":107},{"user_id":45,"name":"Frontier Psychiatrist","steam_id":76561198378587138,"connected_time":1850000000000,"state":"active","ping":49},{"user_id":10,"name":"Penguin","steam_id":76561198987947291,"connected_time":2869000000000,"state":"active","ping":49},{"user_id":21,"name":"Ice cream sandwich","steam_id":76561198172748357,"connected_time":2469000000000,"state":"active","ping":55},{"user_id":27,"name":"Juanelo","steam_id":76561199096390505,"connected_time":2307000000000,"state":"spawning","ping":86},{"user_id":56,"name":"SturmTea","steam_id":76561198027371308,"connected_time":1224000000000,"state":"active","ping":75},{"user_id":14,"name":"Lv. 5 Grunt","steam_id":76561198800334545,"connected_time":2753000000000,"state":"active","ping":53},{"user_id":51,"name":"goblino","steam_id":76561198068260422,"connected_time":1519000000000,"state":"active","ping":108},{"user_id":66,"name":"Enderkill777","steam_id":76561198876915153,"connected_time":731000000000,"state":"active","ping":58},{"user_id":26,"name":"Flyingcat9000","steam_id":76561198179561797,"connected_time":2326000000000,"state":"active","ping":30},{"user_id":68,"name":"Death Bird","steam_id":76561198041329791,"connected_time":354000000000,"state":"active","ping":59},{"user_id":39,"name":"This game sucks","steam_id":76561198042007578,"connected_time":1979000000000,"state":"active","ping":61},{"user_id":61,"name":"Non weeb","steam_id":76561199066748501,"connected_time":1071000000000,"state":"active","ping":60},{"user_id":67,"name":"ur getting frog","steam_id":76561198880773196,"connected_time":675000000000,"state":"active","ping":73},{"user_id":62,"name":"Mr.Frundles","steam_id":76561198134559026,"connected_time":1061000000000,"state":"active","ping":75}]},{"server_id":19,"name":"Uncletopia | San Francisco | 3 | Stopwatch Beta","name_short":"sfo-3","host":"sfo-1.us.uncletopia.com","port":27035,"enabled":true,"region":"us-west","cc":"us","latitude":37.77397,"longitude":-122.4313,"reserved":0,"last_update":"0001-01-01T00:00:00Z","name_a2s":"Uncletopia | San Francisco | 3 | Stopwatch Beta","protocol":17,"map":"koth_lakeside_final","folder":"tf","game":"Team Fortress","app_id":440,"player_count":0,"max_players":24,"Bots":0,"server_type":"Dedicated","server_os":"Linux","password":true,"vac":true,"version":"7757534","steam_id":85568392924742824,"keywords":["cp","nocrits","nodmgspread","uncletopia"],"game_id":440,"stv_port":27036,"stv_name":"Uncletopia | San Francisco | 3 | Stopwatch Beta | STV","players":null},{"server_id":20,"name":"Uncletopia | San Francisco | 4 | Community","name_short":"sfo-4","host":"sfo-1.us.uncletopia.com","port":27045,"enabled":true,"region":"us-west","cc":"us","latitude":37.77397,"longitude":-122.4313,"reserved":0,"last_update":"0001-01-01T00:00:00Z","name_a2s":"Uncletopia | San Francisco | 4 | Community","protocol":17,"map":"workshop/pl_barnblitz_pro7.ugc582280235","folder":"tf","game":"Team Fortress","app_id":440,"player_count":0,"max_players":24,"Bots":0,"server_type":"Dedicated","server_os":"Linux","password":true,"vac":true,"version":"7757534","steam_id":85568392924742826,"keywords":["nocrits","nodmgspread","payload","uncletopia"],"game_id":440,"stv_port":27046,"stv_name":"Uncletopia | San Francisco | 4 | Community | STV","players":null},{"server_id":141,"name":"Uncletopia | Sydney | 1 | All Maps","name_short":"syd-1","host":"syd-1.au.uncletopia.com","port":27015,"enabled":true,"region":"au","cc":"au","latitude":-33.865143,"longitude":151.2099,"reserved":0,"last_update":"0001-01-01T00:00:00Z","name_a2s":"Uncletopia | Sydney | 1 | All Maps","protocol":17,"map":"pl_upward","folder":"tf","game":"Team Fortress","app_id":440,"player_count":24,"max_players":24,"Bots":0,"server_type":"Dedicated","server_os":"Linux","password":true,"vac":true,"version":"7757534","steam_id":85568392924470001,"keywords":["nocrits","nodmgspread","payload","uncletopia"],"game_id":440,"stv_port":27016,"stv_name":"Uncletopia | Sydney | 1 | All Maps | STV","players":[{"user_id":54,"name":"Wubs","steam_id":76561198169757490,"connected_time":1654000000000,"state":"active","ping":51},{"user_id":9,"name":"Zieria","steam_id":76561199261811388,"connected_time":2970000000000,"state":"active","ping":41},{"user_id":78,"name":"Y0shua3","steam_id":76561199381627916,"connected_time":342000000000,"state":"active","ping":95},{"user_id":62,"name":"THE RIZZ LORD","steam_id":76561199043227163,"connected_time":1126000000000,"state":"active","ping":59},{"user_id":63,"name":"ChairMonster26","steam_id":76561198959787682,"connected_time":996000000000,"state":"active","ping":74},{"user_id":80,"name":"Snake101","steam_id":76561198418910767,"connected_time":56000000000,"state":"active","ping":60},{"user_id":64,"name":"sketch","steam_id":76561198123512440,"connected_time":978000000000,"state":"active","ping":78},{"user_id":79,"name":"Dung Pie","steam_id":76561198172990938,"connected_time":312000000000,"state":"active","ping":84},{"user_id":46,"name":"whiteshaq","steam_id":76561198131988811,"connected_time":1883000000000,"state":"active","ping":85},{"user_id":39,"name":"WMCheese1372 YT","steam_id":76561199107211696,"connected_time":2370000000000,"state":"active","ping":53},{"user_id":68,"name":"audit (shirtless gamer)","steam_id":76561198199935918,"connected_time":863000000000,"state":"active","ping":52},{"user_id":17,"name":"No Scrubs","steam_id":76561197969619053,"connected_time":2956000000000,"state":"active","ping":67},{"user_id":66,"name":"Lain","steam_id":76561198149217307,"connected_time":958000000000,"state":"active","ping":90},{"user_id":20,"name":"Top Ramen","steam_id":76561198028969833,"connected_time":2950000000000,"state":"active","ping":45},{"user_id":40,"name":"first time dementia haver","steam_id":76561198083700749,"connected_time":2355000000000,"state":"active","ping":45},{"user_id":67,"name":"Zort","steam_id":76561198056414289,"connected_time":897000000000,"state":"active","ping":67},{"user_id":47,"name":"steez master general","steam_id":76561198841162620,"connected_time":1876000000000,"state":"active","ping":60},{"user_id":57,"name":"thepixel","steam_id":76561198155396809,"connected_time":1345000000000,"state":"active","ping":51},{"user_id":25,"name":"Gwarp","steam_id":76561198061960926,"connected_time":2932000000000,"state":"active","ping":97},{"user_id":75,"name":"Peashooter","steam_id":76561198157250318,"connected_time":578000000000,"state":"active","ping":60},{"user_id":73,"name":"Pizza","steam_id":76561199154318083,"connected_time":668000000000,"state":"active","ping":78},{"user_id":53,"name":"CypressFluff (She/Her)","steam_id":76561198174667818,"connected_time":1752000000000,"state":"active","ping":65},{"user_id":76,"name":"Rumoshiji","steam_id":76561199174449723,"connected_time":575000000000,"state":"active","ping":149},{"user_id":59,"name":"Vasxus","steam_id":76561198067733319,"connected_time":1203000000000,"state":"active","ping":70}]},{"server_id":123,"name":"Uncletopia | Sydney | 2 | All Maps","name_short":"syd-2","host":"syd-1.au.uncletopia.com","port":27025,"enabled":true,"region":"au","cc":"au","latitude":-33.865143,"longitude":151.2099,"reserved":0,"last_update":"0001-01-01T00:00:00Z","name_a2s":"Uncletopia | Sydney | 2 | All Maps","protocol":17,"map":"cp_snakewater_final1","folder":"tf","game":"Team Fortress","app_id":440,"player_count":0,"max_players":24,"Bots":0,"server_type":"Dedicated","server_os":"Linux","password":true,"vac":true,"version":"7757534","steam_id":85568392924470002,"keywords":["cp","nocrits","nodmgspread","uncletopia"],"game_id":440,"stv_port":27026,"stv_name":"Uncletopia | Sydney | 2 | All Maps | STV","players":null},{"server_id":395,"name":"Uncletopia | Sydney | 3 | All Maps","name_short":"syd-3","host":"syd-1.au.uncletopia.com","port":27035,"enabled":true,"region":"au","cc":"au","latitude":-33.865143,"longitude":151.2099,"reserved":0,"last_update":"0001-01-01T00:00:00Z","name_a2s":"Uncletopia | Sydney | 3 | All Maps","protocol":17,"map":"pl_swiftwater_final1","folder":"tf","game":"Team Fortress","app_id":440,"player_count":0,"max_players":24,"Bots":0,"server_type":"Dedicated","server_os":"Linux","password":true,"vac":true,"version":"7757534","steam_id":85568392925194467,"keywords":["nocrits","nodmgspread","payload","uncletopia"],"game_id":440,"stv_port":27036,"stv_name":"Uncletopia | Sydney | 3 | All Maps | STV","players":null},{"server_id":396,"name":"Uncletopia | Sydney | 4 | All Maps","name_short":"syd-4","host":"syd-1.au.uncletopia.com","port":27045,"enabled":true,"region":"au","cc":"au","latitude":-33.865143,"longitude":151.2099,"reserved":0,"last_update":"0001-01-01T00:00:00Z","name_a2s":"Uncletopia | Sydney | 4 | All Maps","protocol":17,"map":"koth_highpass","folder":"tf","game":"Team Fortress","app_id":440,"player_count":0,"max_players":24,"Bots":0,"server_type":"Dedicated","server_os":"Linux","password":true,"vac":true,"version":"7757534","steam_id":85568392925397958,"keywords":["cp","nocrits","nodmgspread","uncletopia"],"game_id":440,"stv_port":27046,"stv_name":"Uncletopia | Sydney | 4 | All Maps | STV","players":null},{"server_id":58,"name":"Uncletopia | Sydney | 5 | Stopwatch Beta","name_short":"syd-5","host":"syd-1.au.uncletopia.com","port":27055,"enabled":true,"region":"au","cc":"au","latitude":-33.865143,"longitude":151.2099,"reserved":0,"last_update":"0001-01-01T00:00:00Z","name_a2s":"Uncletopia | Sydney | 5 | Stopwatch Beta","protocol":17,"map":"koth_cascade","folder":"tf","game":"Team Fortress","app_id":440,"player_count":0,"max_players":24,"Bots":0,"server_type":"Dedicated","server_os":"Linux","password":true,"vac":true,"version":"7757534","steam_id":85568392925397959,"keywords":["cp","nocrits","nodmgspread","uncletopia"],"game_id":440,"stv_port":27056,"stv_name":"Uncletopia | Sydney | 5 | Stopwatch Beta | STV","players":null},{"server_id":59,"name":"Uncletopia | Sydney | 6 | Community","name_short":"syd-6","host":"syd-1.au.uncletopia.com","port":27065,"enabled":true,"region":"au","cc":"au","latitude":-33.865143,"longitude":151.2099,"reserved":0,"last_update":"0001-01-01T00:00:00Z","name_a2s":"Uncletopia | Sydney | 6 | Community","protocol":17,"map":"cp_snakewater_final1","folder":"tf","game":"Team Fortress","app_id":440,"player_count":0,"max_players":24,"Bots":0,"server_type":"Dedicated","server_os":"Linux","password":true,"vac":true,"version":"7757534","steam_id":85568392925397960,"keywords":["cp","nocrits","nodmgspread","uncletopia"],"game_id":440,"stv_port":27066,"stv_name":"Uncletopia | Sydney | 6 | Community | STV","players":null},{"server_id":49,"name":"Uncletopia | Warsaw | 1 | All Maps","name_short":"waw-1","host":"waw-1.pl.uncletopia.com","port":27015,"enabled":true,"region":"eu","cc":"pl","latitude":52.2297,"longitude":21.017532,"reserved":0,"last_update":"0001-01-01T00:00:00Z","name_a2s":"","protocol":0,"map":"","folder":"","game":"","app_id":0,"player_count":0,"max_players":0,"Bots":0,"server_type":"","server_os":"","password":false,"vac":false,"version":"","steam_id":0,"keywords":null,"game_id":0,"stv_port":0,"stv_name":"","players":null},{"server_id":50,"name":"Uncletopia | Warsaw | 2 | All Maps","name_short":"waw-2","host":"waw-1.pl.uncletopia.com","port":27025,"enabled":true,"region":"eu","cc":"pl","latitude":52.2297,"longitude":21.017532,"reserved":0,"last_update":"0001-01-01T00:00:00Z","name_a2s":"Uncletopia | Warsaw | 2 | All Maps","protocol":17,"map":"koth_viaduct","folder":"tf","game":"Team Fortress","app_id":440,"player_count":0,"max_players":24,"Bots":0,"server_type":"Dedicated","server_os":"Linux","password":true,"vac":true,"version":"7757534","steam_id":85568392925397851,"keywords":["cp","nocrits","nodmgspread","uncletopia"],"game_id":440,"stv_port":27026,"stv_name":"Uncletopia | Warsaw | 2 | All Maps | STV","players":null},{"server_id":51,"name":"Uncletopia | Warsaw | 3 | All Maps","name_short":"waw-3","host":"waw-1.pl.uncletopia.com","port":27035,"enabled":true,"region":"eu","cc":"pl","latitude":52.2297,"longitude":21.017532,"reserved":0,"last_update":"0001-01-01T00:00:00Z","name_a2s":"Uncletopia | Warsaw | 3 | All Maps","protocol":17,"map":"pl_badwater","folder":"tf","game":"Team Fortress","app_id":440,"player_count":0,"max_players":24,"Bots":0,"server_type":"Dedicated","server_os":"Linux","password":true,"vac":true,"version":"7757534","steam_id":85568392925397852,"keywords":["nocrits","nodmgspread","payload","uncletopia"],"game_id":440,"stv_port":27036,"stv_name":"Uncletopia | Warsaw | 3 | All Maps | STV","players":null},{"server_id":52,"name":"Uncletopia | Warsaw | 4 | All Maps","name_short":"waw-4","host":"waw-1.pl.uncletopia.com","port":27045,"enabled":true,"region":"eu","cc":"pl","latitude":52.2297,"longitude":21.017532,"reserved":0,"last_update":"0001-01-01T00:00:00Z","name_a2s":"Uncletopia | Warsaw | 4 | All Maps","protocol":17,"map":"koth_lakeside_final","folder":"tf","game":"Team Fortress","app_id":440,"player_count":0,"max_players":24,"Bots":0,"server_type":"Dedicated","server_os":"Linux","password":true,"vac":true,"version":"7757534","steam_id":85568392925397853,"keywords":["cp","nocrits","nodmgspread","uncletopia"],"game_id":440,"stv_port":27046,"stv_name":"Uncletopia | Warsaw | 4 | All Maps | STV","players":null},{"server_id":53,"name":"Uncletopia | Warsaw | 5 | Stopwatch Beta","name_short":"waw-5","host":"waw-1.pl.uncletopia.com","port":27055,"enabled":true,"region":"eu","cc":"pl","latitude":52.2297,"longitude":21.017532,"reserved":0,"last_update":"0001-01-01T00:00:00Z","name_a2s":"Uncletopia | Warsaw | 5 | Stopwatch Beta","protocol":17,"map":"pl_borneo","folder":"tf","game":"Team Fortress","app_id":440,"player_count":0,"max_players":24,"Bots":0,"server_type":"Dedicated","server_os":"Linux","password":true,"vac":true,"version":"7757534","steam_id":85568392925397854,"keywords":["nocrits","nodmgspread","payload","uncletopia"],"game_id":440,"stv_port":27056,"stv_name":"Uncletopia | Warsaw | 5 | Stopwatch Beta | STV","players":null},{"server_id":54,"name":"Uncletopia | Warsaw | 6 | Community","name_short":"waw-6","host":"waw-1.pl.uncletopia.com","port":27065,"enabled":true,"region":"eu","cc":"pl","latitude":52.2297,"longitude":21.017532,"reserved":0,"last_update":"0001-01-01T00:00:00Z","name_a2s":"Uncletopia | Warsaw | 6 | Community","protocol":17,"map":"koth_lakeside_final","folder":"tf","game":"Team Fortress","app_id":440,"player_count":0,"max_players":24,"Bots":0,"server_type":"Dedicated","server_os":"Linux","password":true,"vac":true,"version":"7757534","steam_id":85568392925397856,"keywords":["cp","nocrits","nodmgspread","uncletopia"],"game_id":440,"stv_port":27066,"stv_name":"Uncletopia | Warsaw | 6 | Community | STV","players":null}]}