{"status":true,"message":"","result":[{"server_id":9,"name":"Uncletopia | Atlanta | 1 | All Maps","name_short":"atl-1","host":"atl-1.us.uncletopia.com","port":27015,"enabled":true,"region":"us-east","cc":"us","latitude":33.753746,"longitude":-84.38633,"reserved":0,"last_update":"0001-01-01T00:00:00Z","name_a2s":"Uncletopia | Atlanta | 1 | All Maps","protocol":17,"map":"pl_frontier_final","folder":"tf","game":"Team Fortress","app_id":440,"player_count":24,"max_players":24,"Bots":0,"server_type":"Dedicated","server_os":"Linux","password":true,"vac":true,"version":"7757534","steam_id":85568392924469982,"keywords":["nocrits","nodmgspread","payload","uncletopia"],"game_id":440,"stv_port":27016,"stv_name":"Uncletopia | Atlanta | 1 | All Maps | STV","players":[{"user_id":414,"name":"Dr.Zarann","steam_id":76561198163952958,"connected_time":3972000000000,"state":"active","ping":60},{"user_id":445,"name":"Intro Bonito","steam_id":76561198119478838,"connected_time":239000000000,"state":"active","ping":45},{"user_id":440,"name":"Emperor Dankatine","steam_id":76561198044741086,"connected_time":890000000000,"state":"active","ping":125},{"user_id":446,"name":"PinkLemonade","steam_id":76561198799286228,"connected_time":133000000000,"state":"active","ping":531},{"user_id":433,"name":"RyInc","steam_id":76561198874261643,"connected_time":1619000000000,"state":"active","ping":62},{"user_id":443,"name":"DuckKey","steam_id":76561198904477889,"connected_time":782000000000,"state":"active","ping":60},{"user_id":438,"name":"ATL1 | Lancer Fan Club","steam_id":76561198355495948,"connected_time":950000000000,"state":"active","ping":51},{"user_id":404,"name":"TheRealMud","steam_id":76561198138312993,"connected_time":4522000000000,"state":"active","ping":85},{"user_id":338,"name":"Onyx","steam_id":76561198275349640,"connected_time":9724000000000,"state":"active","ping":72},{"user_id":405,"name":"eish","steam_id":76561198089463603,"connected_time":4518000000000,"state":"active","ping":120},{"user_id":431,"name":"Kami","steam_id":76561199039249396,"connected_time":1627000000000,"state":"active","ping":105},{"user_id":411,"name":"Nox(She/They)","steam_id":76561198141950842,"connected_time":4227000000000,"state":"active","ping":50},{"user_id":442,"name":"Rudy","steam_id":76561198013456828,"connected_time":819000000000,"state":"active","ping":57},{"user_id":384,"name":"morphine","steam_id":76561198072124799,"connected_time":5545000000000,"state":"active","ping":89},{"user_id":406,"name":"BurningPride","steam_id":76561198080592800,"connected_time":4501000000000,"state":"active","ping":125},{"user_id":434,"name":"Toonice","steam_id":76561198402994885,"connected_time":1612000000000,"state":"active","ping":83},{"user_id":409,"name":"Sophie","steam_id":76561198170408057,"connected_time":4489000000000,"state":"active","ping":48},{"user_id":393,"name":"Brian","steam_id":76561198089908485,"connected_time":5170000000000,"state":"active","ping":65},{"user_id":444,"name":"Mister","steam_id":76561198097164652,"connected_time":435000000000,"state":"active","ping":69},{"user_id":365,"name":"Ghetto Smosh Fan","steam_id":76561198097272509,"connected_time":7252000000000,"state":"active","ping":39},{"user_id":435,"name":"Broken Cereal√","steam_id":76561198087489795,"connected_time":1492000000000,"state":"active","ping":69},{"user_id":398,"name":"RelativeTitan1 λC","steam_id":76561198073717608,"connected_time":5129000000000,"state":"active","ping":112},{"user_id":425,"name":"Motreir","steam_id":76561198151717946,"connected_time":2259000000000,"state":"active","ping":81},{"user_id":422,"name":"General Mischief","steam_id":76561198163825955,"connected_time":2835000000000,"state":"active","ping":110}]},{"server_id":104,"name":"Uncletopia | Atlanta | 2 | All Maps","name_short":"atl-2","host":"atl-1.us.uncletopia.com","port":27025,"enabled":true,"region":"us-east","cc":"us","latitude":33.753746,"longitude":-84.38633,"reserved":0,"last_update":"0001-01-01T00:00:00Z","name_a2s":"Uncletopia | Atlanta | 2 | All Maps","protocol":17,"map":"koth_cascade","folder":"tf","game":"Team Fortress","app_id":440,"player_count":24,"max_players":24,"Bots":0,"server_type":"Dedicated","server_os":"Linux","password":true,"vac":true,"version":"7757534","steam_id":85568392924469983,"keywords":["cp","nocrits","nodmgspread","uncletopia"],"game_id":440,"stv_port":27026,"stv_name":"Uncletopia | Atlanta | 2 | All Maps | STV","players":[{"user_id":295,"name":"Gian","steam_id":76561198041434512,"connected_time":4015000000000,"state":"active","ping":98},{"user_id":58,"name":"Mike Charlie","steam_id":76561199470538309,"connected_time":22152000000000,"state":"active","ping":75},{"user_id":332,"name":"captain red","steam_id":76561198191587983,"connected_time":1192000000000,"state":"active","ping":89},{"user_id":318,"name":"! F i s h !","steam_id":76561198397755357,"connected_time":2360000000000,"state":"active","ping":100},{"user_id":330,"name":"swan","steam_id":76561198012569200,"connected_time":1345000000000,"state":"active","ping":93},{"user_id":342,"name":"captainspatklz","steam_id":76561198432167270,"connected_time":266000000000,"state":"active","ping":59},{"user_id":308,"name":"how do i girl???","steam_id":76561198050290565,"connected_time":3033000000000,"state":"active","ping":74},{"user_id":327,"name":"crimmson","steam_id":76561198416325300,"connected_time":1590000000000,"state":"active","ping":80},{"user_id":337,"name":"glquantum","steam_id":76561198057553971,"connected_time":576000000000,"state":"active","ping":60},{"user_id":334,"name":".-.","steam_id":76561198820617005,"connected_time":1109000000000,"state":"active","ping":97},{"user_id":333,"name":"PINGAS","steam_id":76561198966488979,"connected_time":1170000000000,"state":"active","ping":105},{"user_id":311,"name":"fruitlogic","steam_id":76561198071251588,"connected_time":2757000000000,"state":"active","ping":69},{"user_id":341,"name":"Picbascassquiato","steam_id":76561198011487900,"connected_time":289000000000,"state":"active","ping":96},{"user_id":296,"name":"Mr.Oxiclean","steam_id":76561198144729009,"connected_time":3853000000000,"state":"active","ping":70},{"user_id":286,"name":"lemon","steam_id":76561198329179651,"connected_time":4994000000000,"state":"active","ping":93},{"user_id":326,"name":"Weasel Smack","steam_id":76561198023116430,"connected_time":1796000000000,"state":"active","ping":82},{"user_id":319,"name":"Emails","steam_id":76561198836919458,"connected_time":2358000000000,"state":"active","ping":65},{"user_id":323,"name":"Mechann","steam_id":76561198136491236,"connected_time":1982000000000,"state":"active","ping":91},{"user_id":279,"name":"Yummy Kabobz","steam_id":76561198067661705,"connected_time":5431000000000,"state":"active","ping":60},{"user_id":325,"name":"Nyko","steam_id":76561198143197549,"connected_time":1966000000000,"state":"active","ping":83},{"user_id":339,"name":"Aristotle Voulton","steam_id":76561198100174923,"connected_time":543000000000,"state":"active","ping":88},{"user_id":336,"name":"H00DEDRIOT","steam_id":76561198351880498,"connected_time":867000000000,"state":"active","ping":77},{"user_id":338,"name":"andyiscolorless","steam_id":76561199239870921,"connected_time":565000000000,"state":"active","ping":130},{"user_id":335,"name":"Constipated Barry","steam_id":76561198004482269,"connected_time":1046000000000,"state":"active","ping":103}]},{"server_id":400,"name":"Uncletopia | Atlanta | 3 | Community","name_short":"atl-3","host":"atl-1.us.uncletopia.com","port":27035,"enabled":true,"region":"us-east","cc":"us","latitude":33.753746,"longitude":-84.38633,"reserved":0,"last_update":"0001-01-01T00:00:00Z","name_a2s":"Uncletopia | Atlanta | 3 | Community","protocol":17,"map":"workshop/koth_ashville_final.ugc2130459942","folder":"tf","game":"Team Fortress","app_id":440,"player_count":24,"max_players":24,"Bots":0,"server_type":"Dedicated","server_os":"Linux","password":true,"vac":true,"version":"7757534","steam_id":85568392924515187,"keywords":["cp","nocrits","nodmgspread","uncletopia"],"game_id":440,"stv_port":27036,"stv_name":"Uncletopia | Atlanta | 3 | Community | STV","players":[{"user_id":40,"name":"generic solly main","steam_id":76561199011526116,"connected_time":528000000000,"state":"active","ping":84},{"user_id":29,"name":"ShameLord","steam_id":76561198055510710,"connected_time":929000000000,"state":"active","ping":58},{"user_id":14,"name":"jerry","steam_id":76561198422891994,"connected_time":3190000000000,"state":"active","ping":122},{"user_id":18,"name":"Rin \"Hindwing\" Redtail","steam_id":76561199074865638,"connected_time":2691000000000,"state":"active","ping":59},{"user_id":26,"name":"Hashyterps Visioncs.de","steam_id":76561198110563958,"connected_time":1403000000000,"state":"active","ping":90},{"user_id":37,"name":"Moonadoo","steam_id":76561198133377546,"connected_time":632000000000,"state":"active","ping":90},{"user_id":41,"name":"Soviet Gaming","steam_id":76561199121938518,"connected_time":452000000000,"state":"active","ping":68},{"user_id":28,"name":"Sludgelord Bahama Mama","steam_id":76561198042906001,"connected_time":1323000000000,"state":"active","ping":112},{"user_id":32,"name":"pathulhu","steam_id":76561198323941614,"connected_time":781000000000,"state":"active","ping":62},{"user_id":33,"name":"Shadow Xaenen","steam_id":76561198345321624,"connected_time":758000000000,"state":"active","ping":51},{"user_id":34,"name":"babastramacc12","steam_id":76561199437951175,"connected_time":755000000000,"state":"active","ping":86},{"user_id":46,"name":"Goofball","steam_id":76561198074189084,"connected_time":238000000000,"state":"active","ping":59},{"user_id":36,"name":"FHC | Nyle","steam_id":76561198045652639,"connected_time":653000000000,"state":"active","ping":108},{"user_id":38,"name":"goldgardian","steam_id":76561198319471339,"connected_time":632000000000,"state":"active","ping":128},{"user_id":39,"name":"Pizza","steam_id":76561198401733150,"connected_time":574000000000,"state":"active","ping":80},{"user_id":42,"name":"Fieldrook","steam_id":76561198799005478,"connected_time":411000000000,"state":"active","ping":72},{"user_id":43,"name":"Meurik","steam_id":76561198078032795,"connected_time":394000000000,"state":"active","ping":157},{"user_id":45,"name":"Roberto Del Fuego","steam_id":76561198043458554,"connected_time":284000000000,"state":"active","ping":71},{"user_id":48,"name":"Mako","steam_id":76561199437710547,"connected_time":183000000000,"state":"active","ping":198},{"user_id":51,"name":"mayak2112","steam_id":76561199186794035,"connected_time":145000000000,"state":"active","ping":86},{"user_id":50,"name":"jeremimi","steam_id":76561198818225102,"connected_time":162000000000,"state":"active","ping":120},{"user_id":52,"name":"Yoru","steam_id":76561198119698950,"connected_time":121000000000,"state":"active","ping":125},{"user_id":53,"name":"bloard","steam_id":76561198083206034,"connected_time":87000000000,"state":"active","ping":66},{"user_id":54,"name":"doodoo","steam_id":76561199038072811,"connected_time":56000000000,"state":"active","ping":98}]},{"server_id":401,"name":"Uncletopia | Atlanta | 4 | No Payload","name_short":"atl-4","host":"atl-1.us.uncletopia.com","port":27045,"enabled":true,"region":"us-east","cc":"us","latitude":33.753746,"longitude":-84.38633,"reserved":0,"last_update":"0001-01-01T00:00:00Z","name_a2s":"","protocol":0,"map":"","folder":"","game":"","app_id":0,"player_count":0,"max_players":0,"Bots":0,"server_type":"","server_os":"","password":false,"vac":false,"version":"","steam_id":0,"keywords":null,"game_id":0,"stv_port":0,"stv_name":"","players":null},{"server_id":2,"name":"Uncletopia | Chicago | 1 | All Maps","name_short":"chi-1","host":"chi-1.us.uncletopia.com","port":27015,"enabled":true,"region":"us-central","cc":"us","latitude":41.881832,"longitude":-87.62318,"reserved":0,"last_update":"0001-01-01T00:00:00Z","name_a2s":"Uncletopia | Chicago | 1 | All Maps","protocol":17,"map":"pl_swiftwater_final1","folder":"tf","game":"Team Fortress","app_id":440,"player_count":24,"max_players":24,"Bots":0,"server_type":"Dedicated","server_os":"Linux","password":true,"vac":true,"version":"7757534","steam_id":85568392924469984,"keywords":["nocrits","nodmgspread","payload","uncletopia"],"game_id":440,"stv_port":27016,"stv_name":"Uncletopia | Chicago | 1 | All Maps | STV","players":[{"user_id":388,"name":"asbestos","steam_id":76561198079178866,"connected_time":1406000000000,"state":"active","ping":56},{"user_id":383,"name":"capybapy","steam_id":76561198798828328,"connected_time":1597000000000,"state":"active","ping":45},{"user_id":389,"name":"Liquid Oxycodone","steam_id":76561198154162664,"connected_time":1046000000000,"state":"active","ping":75},{"user_id":387,"name":"Grenade_Addict","steam_id":76561199212037850,"connected_time":1477000000000,"state":"active","ping":97},{"user_id":393,"name":"Electrovs","steam_id":76561198004940909,"connected_time":230000000000,"state":"active","ping":66},{"user_id":395,"name":"He do be Hitting the Griddy","steam_id":76561198131522878,"connected_time":216000000000,"state":"active","ping":69},{"user_id":400,"name":"Lemon Drop","steam_id":76561198023684559,"connected_time":143000000000,"state":"active","ping":92},{"user_id":362,"name":"Axities","steam_id":76561198278008225,"connected_time":3304000000000,"state":"active","ping":75},{"user_id":390,"name":"Ringo x Seiran","steam_id":76561198357437908,"connected_time":1028000000000,"state":"active","ping":63},{"user_id":384,"name":"Magnet Dood","steam_id":76561198364178746,"connected_time":1589000000000,"state":"active","ping":58},{"user_id":380,"name":"sh333ts","steam_id":76561197979938489,"connected_time":2260000000000,"state":"active","ping":70},{"user_id":392,"name":"Ehttri","steam_id":76561198170138667,"connected_time":241000000000,"state":"active","ping":102},{"user_id":345,"name":"Man Man","steam_id":76561199068338634,"connected_time":4073000000000,"state":"active","ping":84},{"user_id":295,"name":"Ademar","steam_id":76561199391802581,"connected_time":7709000000000,"state":"spawning","ping":196},{"user_id":396,"name":"Bob's your Uncle","steam_id":76561197995230744,"connected_time":205000000000,"state":"active","ping":80},{"user_id":385,"name":"FieryRainbowDog","steam_id":76561199047810065,"connected_time":1543000000000,"state":"active","ping":69},{"user_id":372,"name":"Captain Baxter","steam_id":76561198100587328,"connected_time":2702000000000,"state":"active","ping":75},{"user_id":357,"name":"DeadErebus","steam_id":76561198286117045,"connected_time":3455000000000,"state":"active","ping":44},{"user_id":401,"name":"threethree","steam_id":76561198177354155,"connected_time":107000000000,"state":"active","ping":72},{"user_id":343,"name":"DarthEthanBoy","steam_id":76561198441643581,"connected_time":4109000000000,"state":"active","ping":74},{"user_id":397,"name":"Piggy","steam_id":76561198000399862,"connected_time":197000000000,"state":"active","ping":95},{"user_id":349,"name":"AppleTruffle","steam_id":76561198031299571,"connected_time":3799000000000,"state":"active","ping":60},{"user_id":398,"name":"Chap","steam_id":76561198294226443,"connected_time":196000000000,"state":"active","ping":118},{"user_id":399,"name":"BIG LION","steam_id":76561198091880358,"connected_time":195000000000,"state":"active","ping":40}]},{"server_id":106,"name":"Uncletopia | Chicago | 2 | All Maps","name_short":"chi-2","host":"chi-1.us.uncletopia.com","port":27025,"enabled":true,"region":"us-central","cc":"us","latitude":41.881832,"longitude":-87.62318,"reserved":0,"last_update":"0001-01-01T00:00:00Z","name_a2s":"Uncletopia | Chicago | 2 | All Maps","protocol":17,"map":"pl_borneo","folder":"tf","game":"Team Fortress","app_id":440,"player_count":24,"max_players":24,"Bots":0,"server_type":"Dedicated","server_os":"Linux","password":true,"vac":true,"version":"7757534","steam_id":85568392924469985,"keywords":["nocrits","nodmgspread","payload","uncletopia"],"game_id":440,"stv_port":27026,"stv_name":"Uncletopia | Chicago | 2 | All Maps | STV","players":[{"user_id":373,"name":"Raine","steam_id":76561199081937889,"connected_time":708000000000,"state":"active","ping":62},{"user_id":341,"name":"yaRn","steam_id":76561199221219848,"connected_time":2438000000000,"state":"active","ping":69},{"user_id":379,"name":"D.LeBlanc","steam_id":76561198119483989,"connected_time":311000000000,"state":"active","ping":64},{"user_id":329,"name":"tim-","steam_id":76561199119101315,"connected_time":3564000000000,"state":"active","ping":73},{"user_id":328,"name":"cold spaghetti","steam_id":76561198983037944,"connected_time":3579000000000,"state":"active","ping":48},{"user_id":374,"name":"Kiss Master","steam_id":76561198289572271,"connected_time":654000000000,"state":"active","ping":79},{"user_id":353,"name":"tesagi","steam_id":76561198026664629,"connected_time":2127000000000,"state":"active","ping":60},{"user_id":368,"name":"Skullypoo","steam_id":76561198067912022,"connected_time":839000000000,"state":"active","ping":60},{"user_id":348,"name":"ThePizzaMaster3","steam_id":76561199137307151,"connected_time":2286000000000,"state":"active","ping":82},{"user_id":380,"name":"Toygar","steam_id":76561198023679830,"connected_time":221000000000,"state":"active","ping":46},{"user_id":303,"name":"Succubus_Lilith","steam_id":76561198240578890,"connected_time":5985000000000,"state":"active","ping":75},{"user_id":336,"name":"Blagoni","steam_id":76561198079134230,"connected_time":2741000000000,"state":"active","ping":103},{"user_id":357,"name":"nickname 123","steam_id":76561198080234033,"connected_time":1109000000000,"state":"active","ping":63},{"user_id":370,"name":"tighty walter whities","steam_id":76561199122915452,"connected_time":756000000000,"state":"active","ping":99},{"user_id":371,"name":"Malevo","steam_id":76561198148606522,"connected_time":755000000000,"state":"active","ping":80},{"user_id":372,"name":"DragonKnight343","steam_id":76561199235854406,"connected_time":747000000000,"state":"active","ping":111},{"user_id":327,"name":"American Dad","steam_id":76561198059711448,"connected_time":3616000000000,"state":"active","ping":71},{"user_id":305,"name":"vanilla gorilla","steam_id":76561197989019617,"connected_time":5804000000000,"state":"active","ping":47},{"user_id":375,"name":"FS Jorda (She/Her)","steam_id":76561198071421459,"connected_time":650000000000,"state":"active","ping":60},{"user_id":365,"name":"Howard Hamlin","steam_id":76561198881039861,"connected_time":994000000000,"state":"active","ping":47},{"user_id":354,"name":"orcluvr69","steam_id":76561198068712028,"connected_time":2053000000000,"state":"active","ping":71},{"user_id":376,"name":"vyx","steam_id":76561198037205391,"connected_time":596000000000,"state":"active","ping":76},{"user_id":362,"name":"Texas Man","steam_id":76561198353412986,"connected_time":1024000000000,"state":"active","ping":75},{"user_id":363,"name":"demoknight tf2","steam_id":76561198070393998,"connected_time":1022000000000,"state":"active","ping":74}]},{"server_id":402,"name":"Uncletopia | Chicago | 3 | All Maps","name_short":"chi-3","host":"chi-1.us.uncletopia.com","port":27035,"enabled":true,"region":"us-central","cc":"us","latitude":41.881832,"longitude":-87.62318,"reserved":0,"last_update":"0001-01-01T00:00:00Z","name_a2s":"Uncletopia | Chicago | 3 | All Maps","protocol":17,"map":"pl_pier","folder":"tf","game":"Team Fortress","app_id":440,"player_count":24,"max_players":24,"Bots":0,"server_type":"Dedicated","server_os":"Linux","password":true,"vac":true,"version":"7757534","steam_id":85568392924515191,"keywords":["nocrits","nodmgspread","payload","uncletopia"],"game_id":440,"stv_port":27036,"stv_name":"Uncletopia | Chicago | 3 | All Maps | STV","players":[{"user_id":209,"name":"[BALLS] r30848","steam_id":76561199123984543,"connected_time":976000000000,"state":"active","ping":77},{"user_id":214,"name":"MS Paint Gamer","steam_id":76561198964527916,"connected_time":823000000000,"state":"active","ping":91},{"user_id":196,"name":"OlympicChamp_12 | Trade.tf","steam_id":76561198830574526,"connected_time":1989000000000,"state":"active","ping":100},{"user_id":206,"name":"noel","steam_id":76561198128280883,"connected_time":1448000000000,"state":"active","ping":76},{"user_id":124,"name":"rustyorion","steam_id":76561198439186347,"connected_time":7089000000000,"state":"active","ping":109},{"user_id":212,"name":"a very serious gamer","steam_id":76561198391863341,"connected_time":926000000000,"state":"active","ping":110},{"user_id":188,"name":"autumnal.messenger","steam_id":76561199345816635,"connected_time":3009000000000,"state":"active","ping":107},{"user_id":177,"name":"J1407B","steam_id":76561199003447981,"connected_time":3513000000000,"state":"active","ping":89},{"user_id":180,"name":"Blaze2.0","steam_id":76561199098688888,"connected_time":3420000000000,"state":"active","ping":113},{"user_id":181,"name":"Penjamin city","steam_id":76561198202216091,"connected_time":3389000000000,"state":"active","ping":66},{"user_id":199,"name":"Riku","steam_id":76561198047287940,"connected_time":1779000000000,"state":"active","ping":85},{"user_id":205,"name":"Sev","steam_id":76561198248814700,"connected_time":1655000000000,"state":"active","ping":92},{"user_id":171,"name":"Vaudeville Villain","steam_id":76561199212093339,"connected_time":4169000000000,"state":"active","ping":66},{"user_id":200,"name":"1 Great Wooden Dad","steam_id":76561198377126974,"connected_time":1763000000000,"state":"active","ping":60},{"user_id":201,"name":".jpg","steam_id":76561198137237377,"connected_time":1743000000000,"state":"active","ping":70},{"user_id":202,"name":"Queen Frau the Round","steam_id":76561197999942134,"connected_time":1740000000000,"state":"active","ping":47},{"user_id":216,"name":"Wild_Rumpus","steam_id":76561198066393719,"connected_time":429000000000,"state":"active","ping":74},{"user_id":213,"name":"Your kinky Onee-san","steam_id":76561199146582356,"connected_time":926000000000,"state":"active","ping":104},{"user_id":187,"name":"bill","steam_id":76561199142779872,"connected_time":3253000000000,"state":"active","ping":69},{"user_id":203,"name":"Manu","steam_id":76561198145330934,"connected_time":1739000000000,"state":"active","ping":125},{"user_id":152,"name":"Ellen Baker","steam_id":76561198065712435,"connected_time":5937000000000,"state":"active","ping":125},{"user_id":215,"name":"Ghandi","steam_id":76561198046702733,"connected_time":443000000000,"state":"active","ping":75},{"user_id":204,"name":"Pluto","steam_id":76561198338593690,"connected_time":1717000000000,"state":"active","ping":86},{"user_id":218,"name":"b","steam_id":76561198196769297,"connected_time":288000000000,"state":"active","ping":58}]},{"server_id":403,"name":"Uncletopia | Chicago | 4 | All Maps","name_short":"chi-4","host":"chi-1.us.uncletopia.com","port":27045,"enabled":true,"region":"us-central","cc":"us","latitude":41.881832,"longitude":-87.62318,"reserved":0,"last_update":"0001-01-01T00:00:00Z","name_a2s":"Uncletopia | Chicago | 4 | All Maps","protocol":17,"map":"pl_pier","folder":"tf","game":"Team Fortress","app_id":440,"player_count":24,"max_players":24,"Bots":0,"server_type":"Dedicated","server_os":"Linux","password":true,"vac":true,"version":"7757534","steam_id":85568392924515193,"keywords":["nocrits","nodmgspread","payload","uncletopia"],"game_id":440,"stv_port":27046,"stv_name":"Uncletopia | Chicago | 4 | All Maps | STV","players":[{"user_id":301,"name":"spooky","steam_id":76561198122964663,"connected_time":3020000000000,"state":"active","ping":60},{"user_id":268,"name":"The Law","steam_id":76561198080974454,"connected_time":5345000000000,"state":"active","ping":64},{"user_id":336,"name":"Robin","steam_id":76561198121165149,"connected_time":370000000000,"state":"active","ping":43},{"user_id":332,"name":"Carl","steam_id":76561198285931413,"connected_time":1177000000000,"state":"active","ping":62},{"user_id":330,"name":"Milkman","steam_id":76561199089290269,"connected_time":1215000000000,"state":"active","ping":166},{"user_id":303,"name":"-W3E- grim10465","steam_id":76561198045698581,"connected_time":2281000000000,"state":"active","ping":46},{"user_id":331,"name":":)))))","steam_id":76561199043151390,"connected_time":1203000000000,"state":"active","ping":103},{"user_id":318,"name":"CyberZayne","steam_id":76561198002351356,"connected_time":1485000000000,"state":"active","ping":81},{"user_id":339,"name":"FWWM","steam_id":76561198387852168,"connected_time":194000000000,"state":"active","ping":76},{"user_id":264,"name":"1rhythm","steam_id":76561199159347310,"connected_time":5837000000000,"state":"active","ping":73},{"user_id":323,"name":"Mikmoomamimocki","steam_id":76561199077167536,"connected_time":1406000000000,"state":"active","ping":71},{"user_id":308,"name":"Ultimate Gohan","steam_id":76561198065614782,"connected_time":1912000000000,"state":"active","ping":59},{"user_id":326,"name":"ElBentz","steam_id":76561199059582221,"connected_time":1378000000000,"state":"active","ping":103},{"user_id":334,"name":"Dagoth","steam_id":76561198100896443,"connected_time":503000000000,"state":"active","ping":67},{"user_id":328,"name":"objective permanence","steam_id":76561198050393061,"connected_time":1275000000000,"state":"active","ping":75},{"user_id":311,"name":"Korporal K. Reep","steam_id":76561199098222561,"connected_time":1718000000000,"state":"active","ping":140},{"user_id":297,"name":"Mina's Ninas","steam_id":76561198046502179,"connected_time":3313000000000,"state":"active","ping":94},{"user_id":341,"name":"Project_Counter","steam_id":76561198152786076,"connected_time":178000000000,"state":"active","ping":75},{"user_id":333,"name":"Walkiing","steam_id":76561198074473413,"connected_time":1119000000000,"state":"active","ping":44},{"user_id":335,"name":"Sleepy Zombie","steam_id":76561197999126875,"connected_time":379000000000,"state":"active","ping":61},{"user_id":329,"name":"zeplinnn","steam_id":76561198301300987,"connected_time":1220000000000,"state":"active","ping":106},{"user_id":286,"name":"Theory-Y","steam_id":76561198116419931,"connected_time":3963000000000,"state":"active","ping":110},{"user_id":306,"name":"Ginger Jesus","steam_id":76561198052386458,"connected_time":2226000000000,"state":"active","ping":64},{"user_id":266,"name":"ShadBad","steam_id":76561198248287390,"connected_time":5712000000000,"state":"active","ping":104}]},{"server_id":36,"name":"Uncletopia | Chicago | 5 | All Maps","name_short":"chi-5","host":"chi-2.us.uncletopia.com","port":27015,"enabled":true,"region":"us-central","cc":"us","latitude":41.881832,"longitude":-87.62318,"reserved":0,"last_update":"0001-01-01T00:00:00Z","name_a2s":"Uncletopia | Chicago | 5 | All Maps","protocol":17,"map":"cp_dustbowl","folder":"tf","game":"Team Fortress","app_id":440,"player_count":24,"max_players":24,"Bots":0,"server_type":"Dedicated","server_os":"Linux","password":true,"vac":true,"version":"7757534","steam_id":85568392924866362,"keywords":["cp","nocrits","nodmgspread","uncletopia"],"game_id":440,"stv_port":27016,"stv_name":"Uncletopia | Chicago | 5 | All Maps | STV","players":[{"user_id":247,"name":"THinkBOX546","steam_id":76561198928550867,"connected_time":2772000000000,"state":"active","ping":104},{"user_id":241,"name":"4oh4","steam_id":76561198388047861,"connected_time":3056000000000,"state":"active","ping":77},{"user_id":222,"name":"Peter Popoff","steam_id":76561198027171160,"connected_time":4724000000000,"state":"active","ping":41},{"user_id":291,"name":"TheRealJake_12","steam_id":76561198991960738,"connected_time":291000000000,"state":"active","ping":69},{"user_id":278,"name":"Michaelpc1","steam_id":76561198088365519,"connected_time":1173000000000,"state":"active","ping":74},{"user_id":240,"name":"Furious George","steam_id":76561198405111646,"connected_time":3064000000000,"state":"active","ping":99},{"user_id":244,"name":"ZofoJackson","steam_id":76561197998366861,"connected_time":2947000000000,"state":"active","ping":57},{"user_id":200,"name":"uhooter","steam_id":76561198007829078,"connected_time":5734000000000,"state":"active","ping":47},{"user_id":274,"name":"nerd gaming","steam_id":76561198066018972,"connected_time":1493000000000,"state":"active","ping":75},{"user_id":284,"name":"Alfonso Molestro","steam_id":76561197998677099,"connected_time":566000000000,"state":"active","ping":78},{"user_id":273,"name":"Name","steam_id":76561199111748012,"connected_time":1799000000000,"state":"active","ping":71},{"user_id":223,"name":"SHADY SWEATER SALESMAN","steam_id":76561198014616865,"connected_time":4714000000000,"state":"active","ping":88},{"user_id":251,"name":"Why Me...","steam_id":76561199124019937,"connected_time":2512000000000,"state":"active","ping":101},{"user_id":236,"name":"PageBoiSkull","steam_id":76561198237353578,"connected_time":3855000000000,"state":"active","ping":112},{"user_id":277,"name":"ThatThingWithaK","steam_id":76561198317602350,"connected_time":1208000000000,"state":"active","ping":85},{"user_id":275,"name":"Mr. Hankey","steam_id":76561198872852200,"connected_time":1265000000000,"state":"active","ping":150},{"user_id":279,"name":"Artic the femboy","steam_id":76561199134893517,"connected_time":1111000000000,"state":"active","ping":99},{"user_id":207,"name":"Illuminaughty","steam_id":76561199163662910,"connected_time":5679000000000,"state":"active","ping":76},{"user_id":292,"name":"[Z80] Princess Kittycath","steam_id":76561198023770278,"connected_time":237000000000,"state":"active","ping":63},{"user_id":281,"name":"VALENCE","steam_id":76561198118492031,"connected_time":1000000000000,"state":"active","ping":84},{"user_id":208,"name":"nnobi","steam_id":76561198878729277,"connected_time":5654000000000,"state":"active","ping":76},{"user_id":286,"name":"ZBaldTop","steam_id":76561199396318132,"connected_time":555000000000,"state":"active","ping":46},{"user_id":282,"name":"Mug Moment Gaming","steam_id":76561198233098136,"connected_time":970000000000,"state":"active","ping":58},{"user_id":290,"name":"Ring A Ding","steam_id":76561199205871164,"connected_time":313000000000,"state":"active","ping":99}]},{"server_id":37,"name":"Uncletopia | Chicago | 6 | All Maps","name_short":"chi-6","host":"chi-2.us.uncletopia.com","port":27025,"enabled":true,"region":"us-central","cc":"us","latitude":41.881832,"longitude":-87.62318,"reserved":0,"last_update":"0001-01-01T00:00:00Z","name_a2s":"Uncletopia | Chicago | 6 | All Maps","protocol":17,"map":"pl_upward","folder":"tf","game":"Team Fortress","app_id":440,"player_count":24,"max_players":24,"Bots":0,"server_type":"Dedicated","server_os":"Linux","password":true,"vac":true,"version":"7757534","steam_id":85568392924866363,"keywords":["nocrits","nodmgspread","payload","uncletopia"],"game_id":440,"stv_port":27026,"stv_name":"Uncletopia | Chicago | 6 | All Maps | STV","players":[{"user_id":86,"name":"๖Ðiestow","steam_id":76561198046662484,"connected_time":4510000000000,"state":"active","ping":102},{"user_id":135,"name":"Ticktockman","steam_id":76561198170071647,"connected_time":1481000000000,"state":"active","ping":62},{"user_id":117,"name":"ali oop","steam_id":76561198057516213,"connected_time":3165000000000,"state":"active","ping":81},{"user_id":149,"name":"Ark","steam_id":76561198053000340,"connected_time":100000000000,"state":"active","ping":61},{"user_id":130,"name":"Nyatascha Gaming","steam_id":76561198400058665,"connected_time":1917000000000,"state":"active","ping":72},{"user_id":84,"name":"shadow","steam_id":76561198194231953,"connected_time":4841000000000,"state":"active","ping":185},{"user_id":136,"name":"reymundo","steam_id":76561197989412830,"connected_time":1471000000000,"state":"active","ping":114},{"user_id":132,"name":"Assitins","steam_id":76561198041572892,"connected_time":1805000000000,"state":"active","ping":67},{"user_id":137,"name":"gamerlegend47","steam_id":76561198122776598,"connected_time":1456000000000,"state":"active","ping":75},{"user_id":89,"name":"ayecodex","steam_id":76561199477598858,"connected_time":4447000000000,"state":"active","ping":67},{"user_id":141,"name":"[_Dr.Scythe_]","steam_id":76561198845245858,"connected_time":694000000000,"state":"active","ping":86},{"user_id":105,"name":"Giggles™","steam_id":76561198058708019,"connected_time":3961000000000,"state":"active","ping":56},{"user_id":142,"name":"SLaPPy- oNaSiS","steam_id":76561198009286862,"connected_time":635000000000,"state":"active","ping":70},{"user_id":145,"name":"Try Gardening","steam_id":76561198120311340,"connected_time":250000000000,"state":"active","ping":51},{"user_id":150,"name":"wokky bin laddn","steam_id":76561198265200834,"connected_time":33000000000,"state":"spawning","ping":60},{"user_id":139,"name":"Worriedinsect","steam_id":76561199291879621,"connected_time":1221000000000,"state":"active","ping":72},{"user_id":123,"name":"BossMan3l1t3","steam_id":76561199379894807,"connected_time":2757000000000,"state":"active","ping":64},{"user_id":108,"name":"anonion","steam_id":76561198056477584,"connected_time":3660000000000,"state":"active","ping":86},{"user_id":124,"name":"KevCraft","steam_id":76561199000622939,"connected_time":2730000000000,"state":"active","ping":74},{"user_id":147,"name":"Cerabond","steam_id":76561199230915333,"connected_time":189000000000,"state":"active","ping":78},{"user_id":131,"name":"nonagon infinity","steam_id":76561198397662124,"connected_time":1833000000000,"state":"active","ping":84},{"user_id":148,"name":"Bon Gripper","steam_id":76561198090074621,"connected_time":183000000000,"state":"active","ping":64},{"user_id":77,"name":"Maverick","steam_id":76561198322829814,"connected_time":5608000000000,"state":"active","ping":83},{"user_id":140,"name":"SuperFresh","steam_id":76561198200723198,"connected_time":1050000000000,"state":"active","ping":41}]},{"server_id":38,"name":"Uncletopia | Chicago | 7 | Stopwatch Beta","name_short":"chi-7","host":"chi-2.us.uncletopia.com","port":27035,"enabled":true,"region":"us-central","cc":"us","latitude":41.881832,"longitude":-87.62318,"reserved":0,"last_update":"0001-01-01T00:00:00Z","name_a2s":"Uncletopia | Chicago | 7 | Stopwatch Beta","protocol":17,"map":"workshop/pl_vigil_rc9.ugc1266210012","folder":"tf","game":"Team Fortress","app_id":440,"player_count":0,"max_players":24,"Bots":0,"server_type":"Dedicated","server_os":"Linux","password":true,"vac":true,"version":"7757534","steam_id":85568392924866364,"keywords":["nocrits","nodmgspread","payload","uncletopia"],"game_id":440,"stv_port":27036,"stv_name":"Uncletopia | Chicago | 7 | Stopwatch Beta | STV","players":null},{"server_id":39,"name":"Uncletopia | Chicago | 8 | Community","name_short":"chi-8","host":"chi-2.us.uncletopia.com","port":27045,"enabled":true,"region":"us-central","cc":"us","latitude":41.881832,"longitude":-87.62318,"reserved":0,"last_update":"0001-01-01T00:00:00Z","name_a2s":"Uncletopia | Chicago | 8 | Community","protocol":17,"map":"workshop/cp_fulgur_rc2a.ugc2068252300","folder":"tf","game":"Team Fortress","app_id":440,"player_count":0,"max_players":24,"Bots":0,"server_type":"Dedicated","server_os":"Linux","password":true,"vac":true,"version":"7757534","steam_id":85568392924866365,"keywords":["cp","nocrits","nodmgspread","uncletopia"],"game_id":440,"stv_port":27046,"stv_name":"Uncletopia | Chicago | 8 | Community | STV","players":null},{"server_id":8,"name":"Uncletopia | Dallas | 1 | All Maps","name_short":"dal-1","host":"dal-1.us.uncletopia.com","port":27015,"enabled":true,"region":"us-central","cc":"us","latitude":32.779167,"longitude":-96.80889,"reserved":0,"last_update":"0001-01-01T00:00:00Z","name_a2s":"Uncletopia | Dallas | 1 | All Maps","protocol":17,"map":"pl_thundermountain","folder":"tf","game":"Team Fortress","app_id":440,"player_count":24,"max_players":24,"Bots":0,"server_type":"Dedicated","server_os":"Linux","password":true,"vac":true,"version":"7757534","steam_id":85568392924469986,"keywords":["nocrits","nodmgspread","payload","uncletopia"],"game_id":440,"stv_port":27016,"stv_name":"Uncletopia | Dallas | 1 | All Maps | STV","players":[{"user_id":464,"name":"Womp","steam_id":76561198245103000,"connected_time":3452000000000,"state":"active","ping":88},{"user_id":509,"name":"Johnny Ballsack","steam_id":76561198072876620,"connected_time":453000000000,"state":"active","ping":68},{"user_id":478,"name":"KingKata","steam_id":76561198289610011,"connected_time":2293000000000,"state":"active","ping":128},{"user_id":502,"name":"Lunky","steam_id":76561198391687083,"connected_time":853000000000,"state":"active","ping":93},{"user_id":367,"name":"A Straw","steam_id":76561199367935846,"connected_time":9499000000000,"state":"active","ping":70},{"user_id":499,"name":"herb","steam_id":76561198185980055,"connected_time":1264000000000,"state":"active","ping":71},{"user_id":450,"name":"ArnoldGamingﾠٴ","steam_id":76561198040140247,"connected_time":3905000000000,"state":"active","ping":109},{"user_id":503,"name":"Lane","steam_id":76561197965828506,"connected_time":836000000000,"state":"active","ping":60},{"user_id":506,"name":"SomeUnknownThing","steam_id":76561198412163316,"connected_time":514000000000,"state":"active","ping":75},{"user_id":479,"name":"B12","steam_id":76561198353018186,"connected_time":2238000000000,"state":"active","ping":97},{"user_id":495,"name":"Worst Scenario","steam_id":76561199052130229,"connected_time":1534000000000,"state":"active","ping":92},{"user_id":481,"name":"earthbound393","steam_id":76561199444276547,"connected_time":2224000000000,"state":"active","ping":113},{"user_id":438,"name":"Cofi","steam_id":76561199026721822,"connected_time":5078000000000,"state":"active","ping":92},{"user_id":452,"name":"Cedric","steam_id":76561198072090580,"connected_time":3895000000000,"state":"active","ping":96},{"user_id":511,"name":"Karma","steam_id":76561199112057184,"connected_time":119000000000,"state":"active","ping":60},{"user_id":492,"name":"Mcfighter2","steam_id":76561198168073956,"connected_time":1850000000000,"state":"active","ping":86},{"user_id":484,"name":"brock","steam_id":76561199015537819,"connected_time":2204000000000,"state":"active","ping":62},{"user_id":487,"name":"Gary Gaming","steam_id":76561198853378233,"connected_time":2144000000000,"state":"active","ping":87},{"user_id":472,"name":"Moonflower ✦","steam_id":76561198191782483,"connected_time":2752000000000,"state":"active","ping":50},{"user_id":512,"name":"Fishstall","steam_id":76561198038126034,"connected_time":61000000000,"state":"active","ping":72},{"user_id":460,"name":"Critical","steam_id":76561198123744966,"connected_time":3697000000000,"state":"active","ping":86},{"user_id":457,"name":"Butter Beyond The Binary","steam_id":76561198128408544,"connected_time":3858000000000,"state":"active","ping":76},{"user_id":510,"name":"lilpix3l","steam_id":76561198358892539,"connected_time":411000000000,"state":"active","ping":81},{"user_id":500,"name":"goblin'n around","steam_id":76561199455732510,"connected_time":1016000000000,"state":"active","ping":86}]},{"server_id":108,"name":"Uncletopia | Dallas | 2 | All Maps","name_short":"dal-2","host":"dal-1.us.uncletopia.com","port":27025,"enabled":true,"region":"us-central","cc":"us","latitude":32.779167,"longitude":-96.80889,"reserved":0,"last_update":"0001-01-01T00:00:00Z","name_a2s":"Uncletopia | Dallas | 2 | All Maps","protocol":17,"map":"cp_steel","folder":"tf","game":"Team Fortress","app_id":440,"player_count":24,"max_players":24,"Bots":0,"server_type":"Dedicated","server_os":"Linux","password":true,"vac":true,"version":"7757534","steam_id":85568392924469988,"keywords":["cp","nocrits","nodmgspread","uncletopia"],"game_id":440,"stv_port":27026,"stv_name":"Uncletopia | Dallas | 2 | All Maps | STV","players":[{"user_id":240,"name":"creechure!","steam_id":76561198804556517,"connected_time":1819000000000,"state":"active","ping":69},{"user_id":241,"name":"Jerphf","steam_id":76561198328825964,"connected_time":1544000000000,"state":"active","ping":60},{"user_id":249,"name":"Dr. Robotniks Mean Bean Machine","steam_id":76561198047980627,"connected_time":743000000000,"state":"active","ping":79},{"user_id":211,"name":"ray (the based god)","steam_id":76561198311984941,"connected_time":3619000000000,"state":"active","ping":85},{"user_id":193,"name":"Trenos301","steam_id":76561198081155226,"connected_time":4405000000000,"state":"active","ping":51},{"user_id":252,"name":"StatesideSnake","steam_id":76561198272957048,"connected_time":388000000000,"state":"active","ping":76},{"user_id":267,"name":"sunny","steam_id":76561198069380992,"connected_time":78000000000,"state":"active","ping":51},{"user_id":192,"name":"Eden","steam_id":76561198081284664,"connected_time":4449000000000,"state":"active","ping":75},{"user_id":268,"name":"hammond the blithering idiot","steam_id":76561199263384620,"connected_time":53000000000,"state":"active","ping":92},{"user_id":255,"name":"mrnotsogudguy","steam_id":76561199289893241,"connected_time":314000000000,"state":"active","ping":64},{"user_id":248,"name":"Jonatello","steam_id":76561198045699189,"connected_time":874000000000,"state":"active","ping":142},{"user_id":260,"name":"oddlyobtuselemon1654","steam_id":76561198877069773,"connected_time":270000000000,"state":"active","ping":85},{"user_id":256,"name":"simp orbiter","steam_id":76561198067497459,"connected_time":298000000000,"state":"active","ping":82},{"user_id":244,"name":"SC|Formuoli","steam_id":76561198254354595,"connected_time":1454000000000,"state":"active","ping":62},{"user_id":265,"name":"You Don't Nomi.","steam_id":76561197969137836,"connected_time":98000000000,"state":"active","ping":86},{"user_id":261,"name":"certainlysim","steam_id":76561199092352335,"connected_time":243000000000,"state":"active","ping":117},{"user_id":257,"name":"shawty say i smell","steam_id":76561198059560324,"connected_time":293000000000,"state":"active","ping":99},{"user_id":258,"name":"Captain Demytri","steam_id":76561198097998607,"connected_time":291000000000,"state":"active","ping":75},{"user_id":263,"name":"Recursive Gamer","steam_id":76561198042102952,"connected_time":172000000000,"state":"active","ping":86},{"user_id":264,"name":"Waaaaz","steam_id":76561198029754301,"connected_time":112000000000,"state":"active","ping":102},{"user_id":236,"name":"superx","steam_id":76561198044976613,"connected_time":2491000000000,"state":"active","ping":96},{"user_id":266,"name":"Jackass in a box","steam_id":76561198355268305,"connected_time":97000000000,"state":"active","ping":70},{"user_id":184,"name":"Luna","steam_id":76561198131342156,"connected_time":5233000000000,"state":"active","ping":49},{"user_id":190,"name":"Avem","steam_id":76561198058763710,"connected_time":4921000000000,"state":"active","ping":75}]},{"server_id":5,"name":"Uncletopia | Frankfurt | 1 | All Maps","name_short":"frk-1","host":"frk-1.de.uncletopia.com","port":27015,"enabled":true,"region":"eu","cc":"de","latitude":50.110924,"longitude":8.682127,"reserved":0,"last_update":"0001-01-01T00:00:00Z","name_a2s":"Uncletopia | Frankfurt | 1 | All Maps","protocol":17,"map":"pl_borneo","folder":"tf","game":"Team Fortress","app_id":440,"player_count":0,"max_players":24,"Bots":0,"server_type":"Dedicated","server_os":"Linux","password":true,"vac":true,"version":"7757534","steam_id":85568392924469989,"keywords":["nocrits","nodmgspread","payload","uncletopia"],"game_id":440,"stv_port":27016,"stv_name":"Uncletopia | Frankfurt | 1 | All Maps | STV","players":null},{"server_id":110,"name":"Uncletopia | Frankfurt | 2 | All Maps","name_short":"frk-2","host":"frk-1.de.uncletopia.com","port":27025,"enabled":true,"region":"eu","cc":"de","latitude":50.110924,"longitude":8.682127,"reserved":0,"last_update":"0001-01-01T00:00:00Z","name_a2s":"Uncletopia | Frankfurt | 2 | All Maps","protocol":17,"map":"cp_dustbowl","folder":"tf","game":"Team Fortress","app_id":440,"player_count":0,"max_players":24,"Bots":0,"server_type":"Dedicated","server_os":"Linux","password":true,"vac":true,"version":"7757534","steam_id":85568392924469990,"keywords":["cp","nocrits","nodmgspread","uncletopia"],"game_id":440,"stv_port":27026,"stv_name":"Uncletopia | Frankfurt | 2 | All Maps | STV","players":null},{"server_id":308,"name":"Uncletopia | Frankfurt | 3 | All Maps","name_short":"frk-3","host":"frk-1.de.uncletopia.com","port":27035,"enabled":true,"region":"eu","cc":"de","latitude":50.110924,"longitude":8.682127,"reserved":0,"last_update":"0001-01-01T00:00:00Z","name_a2s":"Uncletopia | Frankfurt | 3 | All Maps","protocol":17,"map":"pl_upward","folder":"tf","game":"Team Fortress","app_id":440,"player_count":24,"max_players":24,"Bots":0,"server_type":"Dedicated","server_os":"Linux","password":true,"vac":true,"version":"7757534","steam_id":85568392924504274,"keywords":["nocrits","nodmgspread","payload","uncletopia"],"game_id":440,"stv_port":27036,"stv_name":"Uncletopia | Frankfurt | 3 | All Maps | STV","players":[{"user_id":621,"name":"SuperBob103","steam_id":76561199175360012,"connected_time":1404000000000,"state":"active","ping":71},{"user_id":606,"name":"vi","steam_id":76561198303147966,"connected_time":2738000000000,"state":"active","ping":57},{"user_id":630,"name":"vani","steam_id":76561197991778291,"connected_time":259000000000,"state":"active","ping":73},{"user_id":616,"name":"Bonca","steam_id":76561198137503531,"connected_time":1649000000000,"state":"active","ping":79},{"user_id":628,"name":"teddy","steam_id":76561198007436837,"connected_time":655000000000,"state":"active","ping":45},{"user_id":626,"name":"Fat Pigeon","steam_id":76561198817940142,"connected_time":701000000000,"state":"active","ping":60},{"user_id":597,"name":"Mach","steam_id":76561198952487564,"connected_time":3943000000000,"state":"active","ping":156},{"user_id":632,"name":"Hannü","steam_id":76561197969886128,"connected_time":222000000000,"state":"active","ping":74},{"user_id":590,"name":"Carrotcracker","steam_id":76561198034862396,"connected_time":5147000000000,"state":"active","ping":67},{"user_id":568,"name":"Jon","steam_id":76561199380849468,"connected_time":5938000000000,"state":"active","ping":61},{"user_id":461,"name":"Nyhde","steam_id":76561198012771416,"connected_time":13517000000000,"state":"active","ping":88},{"user_id":609,"name":"Fish","steam_id":76561198182278770,"connected_time":2600000000000,"state":"active","ping":80},{"user_id":629,"name":"Volcyy","steam_id":76561198063979124,"connected_time":552000000000,"state":"active","ping":42},{"user_id":548,"name":"tallen","steam_id":76561198061708595,"connected_time":7575000000000,"state":"active","ping":78},{"user_id":572,"name":"frosty","steam_id":76561198094560834,"connected_time":5916000000000,"state":"active","ping":60},{"user_id":633,"name":"tosti_tower","steam_id":76561198153445364,"connected_time":202000000000,"state":"active","ping":49},{"user_id":596,"name":"cinny","steam_id":76561198832112629,"connected_time":4529000000000,"state":"active","ping":84},{"user_id":619,"name":"✪ qua ✪","steam_id":76561198066408333,"connected_time":1479000000000,"state":"active","ping":71},{"user_id":634,"name":"that fat croc from donkey kong","steam_id":76561198159172495,"connected_time":195000000000,"state":"active","ping":73},{"user_id":601,"name":"Труп Володя","steam_id":76561198035718457,"connected_time":3758000000000,"state":"active","ping":96},{"user_id":631,"name":"Juiceydough","steam_id":76561197997323419,"connected_time":243000000000,"state":"active","ping":90},{"user_id":604,"name":"dn4k","steam_id":76561199221755690,"connected_time":3197000000000,"state":"active","ping":84},{"user_id":623,"name":"The Punch","steam_id":76561198212488780,"connected_time":1318000000000,"state":"active","ping":60}]},{"server_id":309,"name":"Uncletopia | Frankfurt | 4 | All Maps","name_short":"frk-4","host":"frk-1.de.uncletopia.com","port":27045,"enabled":true,"region":"eu","cc":"de","latitude":50.110924,"longitude":8.682127,"reserved":0,"last_update":"0001-01-01T00:00:00Z","name_a2s":"Uncletopia | Frankfurt | 4 | All Maps","protocol":17,"map":"pl_barnblitz","folder":"tf","game":"Team Fortress","app_id":440,"player_count":24,"max_players":24,"Bots":0,"server_type":"Dedicated","server_os":"Linux","password":true,"vac":true,"version":"7757534","steam_id":85568392924504275,"keywords":["nocrits","nodmgspread","payload","uncletopia"],"game_id":440,"stv_port":27046,"stv_name":"Uncletopia | Frankfurt | 4 | All Maps | STV","players":[{"user_id":206,"name":"randompixel","steam_id":76561198003941207,"connected_time":1903000000000,"state":"active","ping":70},{"user_id":194,"name":"El Gato Volador","steam_id":76561198021296882,"connected_time":2669000000000,"state":"active","ping":74},{"user_id":209,"name":"Uncle Dale","steam_id":76561199144302768,"connected_time":1401000000000,"state":"active","ping":156},{"user_id":185,"name":"David \"Crash\" Murphy","steam_id":76561198292845505,"connected_time":3638000000000,"state":"active","ping":91},{"user_id":190,"name":"Ostara","steam_id":76561198200054489,"connected_time":3220000000000,"state":"active","ping":65},{"user_id":159,"name":"anders McFlanders","steam_id":76561198022811995,"connected_time":5261000000000,"state":"active","ping":63},{"user_id":200,"name":"Economic crisis","steam_id":76561198063562843,"connected_time":2170000000000,"state":"active","ping":54},{"user_id":213,"name":"Stigurna","steam_id":76561198063906822,"connected_time":976000000000,"state":"active","ping":91},{"user_id":163,"name":"mtdrewski gaming","steam_id":76561198033408919,"connected_time":4953000000000,"state":"active","ping":36},{"user_id":161,"name":"Kelpy G gaming","steam_id":76561198056995633,"connected_time":5215000000000,"state":"active","ping":69},{"user_id":216,"name":"KittyKate ❤","steam_id":76561198116340817,"connected_time":821000000000,"state":"active","ping":60},{"user_id":203,"name":"Gravy","steam_id":76561198029548074,"connected_time":2067000000000,"state":"active","ping":74},{"user_id":202,"name":"Knösta","steam_id":76561198143422139,"connected_time":2132000000000,"state":"active","ping":96},{"user_id":222,"name":"Hildreth","steam_id":76561197995254867,"connected_time":236000000000,"state":"active","ping":59},{"user_id":174,"name":"Just Navlis","steam_id":76561198090479609,"connected_time":3818000000000,"state":"active","ping":46},{"user_id":221,"name":"etc","steam_id":76561197998394797,"connected_time":595000000000,"state":"active","ping":59},{"user_id":219,"name":"rummy","steam_id":76561197997573379,"connected_time":624000000000,"state":"active","ping":66},{"user_id":217,"name":"_Starlight_","steam_id":76561197993885738,"connected_time":818000000000,"state":"active","ping":83},{"user_id":218,"name":"BuzzBees ❤","steam_id":76561198101502273,"connected_time":680000000000,"state":"active","ping":61},{"user_id":172,"name":"Vershal Smershal","steam_id":76561198116223995,"connected_time":4172000000000,"state":"active","ping":59},{"user_id":189,"name":"Whisper","steam_id":76561197990890595,"connected_time":3458000000000,"state":"active","ping":68},{"user_id":207,"name":"Pumpkin Pie","steam_id":76561198115230959,"connected_time":1533000000000,"state":"active","ping":78},{"user_id":210,"name":"yurkur","steam_id":76561198407108497,"connected_time":1226000000000,"state":"active","ping":53},{"user_id":220,"name":"Panique","steam_id":76561197993239675,"connected_time":622000000000,"state":"active","ping":70}]},{"server_id":310,"name":"Uncletopia | Frankfurt | 5 | All Maps","name_short":"frk-5","host":"frk-1.de.uncletopia.com","port":27055,"enabled":true,"region":"eu","cc":"de","latitude":50.110924,"longitude":8.682127,"reserved":0,"last_update":"0001-01-01T00:00:00Z","name_a2s":"Uncletopia | Frankfurt | 5 | All Maps","protocol":17,"map":"pl_borneo","folder":"tf","game":"Team Fortress","app_id":440,"player_count":24,"max_players":24,"Bots":0,"server_type":"Dedicated","server_os":"Linux","password":true,"vac":true,"version":"7757534","steam_id":85568392924504277,"keywords":["nocrits","nodmgspread","payload","uncletopia"],"game_id":440,"stv_port":27056,"stv_name":"Uncletopia | Frankfurt | 5 | All Maps | STV","players":[{"user_id":661,"name":"Arcader","steam_id":76561198109860110,"connected_time":3355000000000,"state":"active","ping":63},{"user_id":692,"name":"Sarah Obama Michella","steam_id":76561198078996559,"connected_time":284000000000,"state":"active","ping":75},{"user_id":695,"name":"Daza_3s","steam_id":76561198796443584,"connected_time":169000000000,"state":"active","ping":42},{"user_id":686,"name":"Ishbel","steam_id":76561198211990879,"connected_time":543000000000,"state":"active","ping":128},{"user_id":673,"name":"Doctor Marijuana","steam_id":76561198288289879,"connected_time":1880000000000,"state":"active","ping":62},{"user_id":691,"name":"Chicanery","steam_id":76561197995195337,"connected_time":321000000000,"state":"active","ping":73},{"user_id":693,"name":"JujuBalu","steam_id":76561198207253071,"connected_time":280000000000,"state":"active","ping":77},{"user_id":640,"name":"BenteBent","steam_id":76561198297920637,"connected_time":4985000000000,"state":"active","ping":48},{"user_id":665,"name":"Cabbch","steam_id":76561198045955679,"connected_time":2493000000000,"state":"active","ping":50},{"user_id":630,"name":"Sugar","steam_id":76561198283947732,"connected_time":5727000000000,"state":"active","ping":84},{"user_id":681,"name":"engineer gaming","steam_id":76561199482886946,"connected_time":1198000000000,"state":"active","ping":49},{"user_id":678,"name":"THEJamiboi","steam_id":76561198034696965,"connected_time":1648000000000,"state":"active","ping":74},{"user_id":682,"name":"Fofenho","steam_id":76561198436817109,"connected_time":584000000000,"state":"active","ping":60},{"user_id":687,"name":"breedable","steam_id":76561198010300032,"connected_time":517000000000,"state":"active","ping":72},{"user_id":675,"name":"ุ","steam_id":76561198045466919,"connected_time":1871000000000,"state":"active","ping":61},{"user_id":688,"name":"Woman (Real)","steam_id":76561199151823932,"connected_time":513000000000,"state":"active","ping":73},{"user_id":676,"name":"r4s1","steam_id":76561198024034917,"connected_time":1857000000000,"state":"active","ping":60},{"user_id":689,"name":"Marquis de Hoto","steam_id":76561198080687708,"connected_time":484000000000,"state":"active","ping":62},{"user_id":694,"name":"ScarredPixel123","steam_id":76561199165112703,"connected_time":238000000000,"state":"active","ping":74},{"user_id":637,"name":"Balls","steam_id":76561198086400484,"connected_time":5392000000000,"state":"active","ping":74},{"user_id":677,"name":"the most schizo med main","steam_id":76561198048530109,"connected_time":1808000000000,"state":"active","ping":64},{"user_id":597,"name":"vividatant","steam_id":76561198367913885,"connected_time":9611000000000,"state":"active","ping":68},{"user_id":684,"name":"gajo","steam_id":76561199172260370,"connected_time":572000000000,"state":"active","ping":77},{"user_id":668,"name":"giclure :;","steam_id":76561197986362828,"connected_time":2238000000000,"state":"active","ping":60}]},{"server_id":311,"name":"Uncletopia | Frankfurt | 6 | All Maps","name_short":"frk-6","host":"frk-1.de.uncletopia.com","port":27065,"enabled":true,"region":"eu","cc":"de","latitude":50.110924,"longitude":8.682127,"reserved":0,"last_update":"0001-01-01T00:00:00Z","name_a2s":"Uncletopia | Frankfurt | 6 | All Maps","protocol":17,"map":"pl_upward","folder":"tf","game":"Team Fortress","app_id":440,"player_count":0,"max_players":24,"Bots":0,"server_type":"Dedicated","server_os":"Linux","password":true,"vac":true,"version":"7757534","steam_id":85568392924504278,"keywords":["nocrits","nodmgspread","payload","uncletopia"],"game_id":440,"stv_port":27066,"stv_name":"Uncletopia | Frankfurt | 6 | All Maps | STV","players":null},{"server_id":23,"name":"Uncletopia | Frankfurt | 7 | Stopwatch Beta","name_short":"frk-7","host":"frk-1.de.uncletopia.com","port":27075,"enabled":true,"region":"eu","cc":"de","latitude":50.110924,"longitude":8.682127,"reserved":0,"last_update":"0001-01-01T00:00:00Z","name_a2s":"Uncletopia | Frankfurt | 7 | Stopwatch Beta","protocol":17,"map":"workshop/koth_ramjam_rc1.ugc459778887","folder":"tf","game":"Team Fortress","app_id":440,"player_count":0,"max_players":24,"Bots":0,"server_type":"Dedicated","server_os":"Linux","password":true,"vac":true,"version":"7757534","steam_id":85568392924742827,"keywords":["cp","nocrits","nodmgspread","uncletopia"],"game_id":440,"stv_port":27076,"stv_name":"Uncletopia | Frankfurt | 7 | Stopwatch Beta | STV","players":null},{"server_id":24,"name":"Uncletopia | Frankfurt | 8 | Community","name_short":"frk-8","host":"frk-1.de.uncletopia.com","port":27085,"enabled":true,"region":"eu","cc":"de","latitude":50.110924,"longitude":8.682127,"reserved":0,"last_update":"0001-01-01T00:00:00Z","name_a2s":"Uncletopia | Frankfurt | 8 | Community","protocol":17,"map":"workshop/pl_fifthcurve_rc1.ugc648227046","folder":"tf","game":"Team Fortress","app_id":440,"player_count":0,"max_players":24,"Bots":0,"server_type":"Dedicated","server_os":"Linux","password":true,"vac":true,"version":"7757534","steam_id":85568392924742828,"keywords":["nocrits","nodmgspread","payload","uncletopia"],"game_id":440,"stv_port":27086,"stv_name":"Uncletopia | Frankfurt | 8 | Community | STV","players":null},{"server_id":202,"name":"Uncletopia | Hong Kong | 1 | All Maps","name_short":"hgk-1","host":"hgk-1.hk.uncletopia.com","port":27015,"enabled":true,"region":"asia","cc":"hk","latitude":22.302711,"longitude":114.177216,"reserved":0,"last_update":"0001-01-01T00:00:00Z","name_a2s":"Uncletopia | Hong Kong | 1 | All Maps","protocol":17,"map":"pl_borneo","folder":"tf","game":"Team Fortress","app_id":440,"player_count":0,"max_players":24,"Bots":0,"server_type":"Dedicated","server_os":"Linux","password":true,"vac":true,"version":"7757534","steam_id":85568392924494504,"keywords":["nocrits","nodmgspread","payload","uncletopia"],"game_id":440,"stv_port":27016,"stv_name":"Uncletopia | Hong Kong | 1 | All Maps | STV","players":null},{"server_id":1,"name":"Uncletopia | Los Angeles | 1 | All Maps","name_short":"lax-1","host":"lax-1.us.uncletopia.com","port":27015,"enabled":true,"region":"us-west","cc":"us","latitude":33.94279,"longitude":-118.41004,"reserved":0,"last_update":"0001-01-01T00:00:00Z","name_a2s":"Uncletopia | Los Angeles | 1 | All Maps","protocol":17,"map":"pl_snowycoast","folder":"tf","game":"Team Fortress","app_id":440,"player_count":24,"max_players":24,"Bots":0,"server_type":"Dedicated","server_os":"Linux","password":true,"vac":true,"version":"7757534","steam_id":85568392924469991,"keywords":["nocrits","nodmgspread","payload","uncletopia"],"game_id":440,"stv_port":27016,"stv_name":"Uncletopia | Los Angeles | 1 | All Maps | STV","players":[{"user_id":56,"name":"Thunder","steam_id":76561198097721532,"connected_time":1030000000000,"state":"active","ping":45},{"user_id":16,"name":"DeathSushi","steam_id":76561199156131540,"connected_time":3303000000000,"state":"active","ping":87},{"user_id":17,"name":"Ectomonkey","steam_id":76561198125417062,"connected_time":3161000000000,"state":"active","ping":57},{"user_id":31,"name":"Instant Ramen","steam_id":76561198303631736,"connected_time":1748000000000,"state":"active","ping":40},{"user_id":60,"name":"just a engineer","steam_id":76561198392255493,"connected_time":692000000000,"state":"active","ping":56},{"user_id":20,"name":"Wormhole","steam_id":76561199008302939,"connected_time":2952000000000,"state":"active","ping":74},{"user_id":54,"name":"[72Vs] Far_Beyond_Liber-tea","steam_id":76561198070649733,"connected_time":1239000000000,"state":"active","ping":76},{"user_id":65,"name":"[chef] iron","steam_id":76561197970888616,"connected_time":580000000000,"state":"active","ping":89},{"user_id":45,"name":"xerro","steam_id":76561198323340524,"connected_time":1454000000000,"state":"active","ping":93},{"user_id":57,"name":"bachphong760","steam_id":76561199433780443,"connected_time":997000000000,"state":"active","ping":135},{"user_id":62,"name":"BuhByeFalecia","steam_id":76561198364710587,"connected_time":612000000000,"state":"active","ping":114},{"user_id":63,"name":"drinking water (extra sulfur)","steam_id":76561198066566813,"connected_time":612000000000,"state":"active","ping":135},{"user_id":66,"name":"Void","steam_id":76561198308290211,"connected_time":526000000000,"state":"active","ping":62},{"user_id":34,"name":"Cash Money AP","steam_id":76561198870787508,"connected_time":1698000000000,"state":"active","ping":183},{"user_id":64,"name":"PEPPINO SPAGHETTI","steam_id":76561198084849541,"connected_time":608000000000,"state":"active","ping":76},{"user_id":38,"name":"Wacks","steam_id":76561198079476100,"connected_time":1558000000000,"state":"active","ping":56},{"user_id":55,"name":"J.G. Klaus","steam_id":76561198001111196,"connected_time":1228000000000,"state":"active","ping":84},{"user_id":59,"name":"zoiboi","steam_id":76561198069598590,"connected_time":801000000000,"state":"active","ping":49},{"user_id":42,"name":"BorstchBag","steam_id":76561198155294045,"connected_time":1494000000000,"state":"active","ping":101},{"user_id":43,"name":"shadowbunz","steam_id":76561198064484797,"connected_time":1473000000000,"state":"active","ping":91},{"user_id":67,"name":"Nemesis_421.EXE","steam_id":76561198311948563,"connected_time":153000000000,"state":"active","ping":45},{"user_id":47,"name":"Zādok","steam_id":76561199111024480,"connected_time":1406000000000,"state":"active","ping":110},{"user_id":48,"name":"Amogous Supreme","steam_id":76561198025476774,"connected_time":1397000000000,"state":"active","ping":68},{"user_id":53,"name":"D_10.Shin","steam_id":76561198209278033,"connected_time":1260000000000,"state":"active","ping":96}]},{"server_id":112,"name":"Uncletopia | Los Angeles | 2 | All Maps","name_short":"lax-2","host":"lax-1.us.uncletopia.com","port":27025,"enabled":true,"region":"us-west","cc":"us","latitude":33.94279,"longitude":-118.41004,"reserved":0,"last_update":"0001-01-01T00:00:00Z","name_a2s":"Uncletopia | Los Angeles | 2 | All Maps","protocol":17,"map":"cp_egypt_final","folder":"tf","game":"Team Fortress","app_id":440,"player_count":22,"max_players":24,"Bots":0,"server_type":"Dedicated","server_os":"Linux","password":true,"vac":true,"version":"7757534","steam_id":85568392924469992,"keywords":["cp","nocrits","nodmgspread","uncletopia"],"game_id":440,"stv_port":27026,"stv_name":"Uncletopia | Los Angeles | 2 | All Maps | STV","players":[{"user_id":269,"name":"M E M E","steam_id":76561198318611576,"connected_time":289000000000,"state":"active","ping":53},{"user_id":148,"name":"roach","steam_id":76561198354811369,"connected_time":7574000000000,"state":"active","ping":45},{"user_id":268,"name":"Chef Molbo","steam_id":76561198089045454,"connected_time":301000000000,"state":"active","ping":82},{"user_id":175,"name":"a chicken","steam_id":76561198313121580,"connected_time":4917000000000,"state":"active","ping":62},{"user_id":252,"name":"dysesthesia","steam_id":76561198027159018,"connected_time":953000000000,"state":"active","ping":121},{"user_id":167,"name":"The Benefactor","steam_id":76561198307247913,"connected_time":5547000000000,"state":"active","ping":51},{"user_id":259,"name":"JellyParrot","steam_id":76561199190990163,"connected_time":787000000000,"state":"active","ping":102},{"user_id":270,"name":"HENNY IN MY RIGHT HAND","steam_id":76561198357132470,"connected_time":274000000000,"state":"active","ping":61},{"user_id":272,"name":"Free1337","steam_id":76561198034160133,"connected_time":85000000000,"state":"active","ping":95},{"user_id":203,"name":"Amateur Glaswegian","steam_id":76561198030851956,"connected_time":2504000000000,"state":"active","ping":75},{"user_id":264,"name":"Orion","steam_id":76561198000418837,"connected_time":597000000000,"state":"active","ping":91},{"user_id":260,"name":"Sheev Palpatine","steam_id":76561198252332430,"connected_time":784000000000,"state":"active","ping":108},{"user_id":204,"name":"TTV/ChadMorningWood","steam_id":76561198139832291,"connected_time":2463000000000,"state":"active","ping":57},{"user_id":261,"name":"abhorrent","steam_id":76561198295113883,"connected_time":779000000000,"state":"active","ping":87},{"user_id":266,"name":"Brain Magic","steam_id":76561198010201477,"connected_time":384000000000,"state":"active","ping":54},{"user_id":224,"name":"Ken-Sama","steam_id":76561198040465331,"connected_time":1861000000000,"state":"active","ping":54},{"user_id":219,"name":"monkey squirts","steam_id":76561197983101644,"connected_time":1968000000000,"state":"active","ping":38},{"user_id":247,"name":"onyxmckoy","steam_id":76561198047037902,"connected_time":1270000000000,"state":"active","ping":45},{"user_id":146,"name":"[El Fail] MR.BadassMCLee","steam_id":76561198043787818,"connected_time":8159000000000,"state":"active","ping":62},{"user_id":172,"name":"Dat1SpenceyBoi","steam_id":76561199446171976,"connected_time":5147000000000,"state":"active","ping":53},{"user_id":171,"name":"Jolly","steam_id":76561198116357972,"connected_time":5419000000000,"state":"active","ping":51},{"user_id":244,"name":"TMP","steam_id":76561197995400066,"connected_time":1355000000000,"state":"active","ping":76}]},{"server_id":324,"name":"Uncletopia | Los Angeles | 3 | All Maps","name_short":"lax-3","host":"lax-1.us.uncletopia.com","port":27035,"enabled":true,"region":"us-west","cc":"us","latitude":33.94279,"longitude":-118.41004,"reserved":0,"last_update":"0001-01-01T00:00:00Z","name_a2s":"Uncletopia | Los Angeles | 3 | All Maps","protocol":17,"map":"pl_badwater","folder":"tf","game":"Team Fortress","app_id":440,"player_count":25,"max_players":24,"Bots":0,"server_type":"Dedicated","server_os":"Linux","password":true,"vac":true,"version":"7757534","steam_id":85568392924510198,"keywords":["nocrits","nodmgspread","payload","uncletopia"],"game_id":440,"stv_port":27036,"stv_name":"Uncletopia | Los Angeles | 3 | All Maps | STV","players":[{"user_id":129,"name":"yawn","steam_id":76561198067753179,"connected_time":636000000000,"state":"active","ping":93},{"user_id":63,"name":"Fishandfish","steam_id":76561198298483804,"connected_time":2488000000000,"state":"active","ping":78},{"user_id":161,"name":"JohnnyBoi","steam_id":76561199082599937,"connected_time":46000000000,"state":"active","ping":51},{"user_id":76,"name":"Erebus","steam_id":76561199061956673,"connected_time":2156000000000,"state":"active","ping":123},{"user_id":143,"name":"Genius Meme","steam_id":76561198162911254,"connected_time":382000000000,"state":"active","ping":73},{"user_id":75,"name":"TheGhost","steam_id":76561199373968569,"connected_time":2182000000000,"state":"active","ping":130},{"user_id":35,"name":"FiddyFoMike","steam_id":76561198057072581,"connected_time":4476000000000,"state":"active","ping":51},{"user_id":73,"name":"Bman253","steam_id":76561198089945659,"connected_time":2221000000000,"state":"active","ping":111},{"user_id":96,"name":"clash.royale.fan.22","steam_id":76561198309760791,"connected_time":1471000000000,"state":"active","ping":116},{"user_id":67,"name":"Plain Toast","steam_id":76561198451580251,"connected_time":2369000000000,"state":"active","ping":138},{"user_id":109,"name":"ooglog","steam_id":76561198322721964,"connected_time":1090000000000,"state":"active","ping":109},{"user_id":130,"name":"Bomb Squirtle™","steam_id":76561197998931145,"connected_time":621000000000,"state":"active","ping":129},{"user_id":110,"name":"tntexplosion","steam_id":76561199090152308,"connected_time":1089000000000,"state":"active","ping":125},{"user_id":20,"name":"CadenLCheese","steam_id":76561199105517435,"connected_time":4826000000000,"state":"active","ping":87},{"user_id":160,"name":"viciousbeatmaker","steam_id":76561198086876652,"connected_time":54000000000,"state":"active","ping":58},{"user_id":70,"name":"i forgor","steam_id":76561199120622265,"connected_time":2344000000000,"state":"active","ping":84},{"user_id":131,"name":"GriDLocK; T0T4113D","steam_id":76561197999816631,"connected_time":567000000000,"state":"active","ping":85},{"user_id":162,"name":"Pah-Wraith Gul Dukat","steam_id":76561198033918106,"connected_time":19000000000,"state":"spawning","ping":53},{"user_id":47,"name":"mike","steam_id":76561198163265338,"connected_time":4027000000000,"state":"active","ping":81},{"user_id":157,"name":"gummygeek","steam_id":76561198244543486,"connected_time":133000000000,"state":"active","ping":98},{"user_id":152,"name":"LatinRhythms -2 ref","steam_id":76561198025110751,"connected_time":261000000000,"state":"active","ping":121},{"user_id":132,"name":"Dongus","steam_id":76561197979056451,"connected_time":546000000000,"state":"active","ping":76},{"user_id":56,"name":"Rowmaster","steam_id":76561198271659574,"connected_time":3521000000000,"state":"active","ping":94},{"user_id":74,"name":"pumbloom","steam_id":76561199161322235,"connected_time":2205000000000,"state":"active","ping":64},{"user_id":134,"name":"`Jace","steam_id":76561198002440462,"connected_time":532000000000,"state":"active","ping":123}]},{"server_id":25,"name":"Uncletopia | Los Angeles | 4 | Stopwatch Beta","name_short":"lax-4","host":"lax-1.us.uncletopia.com","port":27045,"enabled":true,"region":"us-west","cc":"us","latitude":33.94279,"longitude":-118.41004,"reserved":0,"last_update":"0001-01-01T00:00:00Z","name_a2s":"Uncletopia | Los Angeles | 4 | Stopwatch Beta","protocol":17,"map":"pl_swiftwater_final1","folder":"tf","game":"Team Fortress","app_id":440,"player_count":0,"max_players":24,"Bots":0,"server_type":"Dedicated","server_os":"Linux","password":true,"vac":true,"version":"7757534","steam_id":85568392924510199,"keywords":["nocrits","nodmgspread","payload","uncletopia"],"game_id":440,"stv_port":27046,"stv_name":"Uncletopia | Los Angeles | 4 | Stopwatch Beta | STV","players":null},{"server_id":11,"name":"Uncletopia | London | 1 | All Maps","name_short":"lon-1","host":"lon-1.uk.uncletopia.com","port":27015,"enabled":true,"region":"eu","cc":"gb","latitude":51.509865,"longitude":-0.118092,"reserved":0,"last_update":"0001-01-01T00:00:00Z","name_a2s":"Uncletopia | London | 1 | All Maps","protocol":17,"map":"cp_snakewater_final1","folder":"tf","game":"Team Fortress","app_id":440,"player_count":1,"max_players":24,"Bots":0,"server_type":"Dedicated","server_os":"Linux","password":true,"vac":true,"version":"7757534","steam_id":85568392924367362,"keywords":["cp","nocrits","nodmgspread","uncletopia"],"game_id":440,"stv_port":27016,"stv_name":"Uncletopia | London | 1 | All Maps | STV","players":[{"user_id":774,"name":"WojakArtist","steam_id":76561199472006568,"connected_time":48000000000,"state":"active","ping":132}]},{"server_id":114,"name":"Uncletopia | London | 2 | All Maps","name_short":"lon-2","host":"lon-1.uk.uncletopia.com","port":27025,"enabled":true,"region":"eu","cc":"gb","latitude":51.509865,"longitude":-0.118092,"reserved":0,"last_update":"0001-01-01T00:00:00Z","name_a2s":"Uncletopia | London | 2 | All Maps","protocol":17,"map":"pl_badwater","folder":"tf","game":"Team Fortress","app_id":440,"player_count":24,"max_players":24,"Bots":0,"server_type":"Dedicated","server_os":"Linux","password":true,"vac":true,"version":"7757534","steam_id":85568392924470941,"keywords":["nocrits","nodmgspread","payload","uncletopia"],"game_id":440,"stv_port":27026,"stv_name":"Uncletopia | London | 2 | All Maps | STV","players":[{"user_id":663,"name":"Zonts","steam_id":76561198850176432,"connected_time":1685000000000,"state":"active","ping":88},{"user_id":592,"name":"øpossum","steam_id":76561198056152479,"connected_time":5830000000000,"state":"active","ping":44},{"user_id":626,"name":"Minimi","steam_id":76561198873850443,"connected_time":3940000000000,"state":"active","ping":44},{"user_id":639,"name":"♥ aura ♥","steam_id":76561198066258544,"connected_time":3264000000000,"state":"active","ping":60},{"user_id":669,"name":"Sayu","steam_id":76561198395421637,"connected_time":1383000000000,"state":"active","ping":61},{"user_id":648,"name":"Een schaap zonder slaap","steam_id":76561198084808410,"connected_time":2882000000000,"state":"active","ping":58},{"user_id":668,"name":"Gnarville","steam_id":76561198006373329,"connected_time":1384000000000,"state":"active","ping":47},{"user_id":676,"name":"Nicholas Angel","steam_id":76561198434652604,"connected_time":1148000000000,"state":"active","ping":95},{"user_id":678,"name":"Aaron","steam_id":76561197990046953,"connected_time":809000000000,"state":"active","ping":63},{"user_id":680,"name":"juju ✨","steam_id":76561198966057450,"connected_time":271000000000,"state":"active","ping":87},{"user_id":679,"name":"Night Fury","steam_id":76561197995207032,"connected_time":293000000000,"state":"active","ping":94},{"user_id":652,"name":"tm`","steam_id":76561197993580412,"connected_time":2688000000000,"state":"active","ping":68},{"user_id":658,"name":"Baki ඞ","steam_id":76561198193615529,"connected_time":2410000000000,"state":"active","ping":64},{"user_id":655,"name":"two fork","steam_id":76561199088913787,"connected_time":2655000000000,"state":"active","ping":57},{"user_id":674,"name":"Pinkchup","steam_id":76561198106802803,"connected_time":1332000000000,"state":"active","ping":77},{"user_id":470,"name":"wide appreciator","steam_id":76561198083286511,"connected_time":13930000000000,"state":"active","ping":45},{"user_id":631,"name":"oldy","steam_id":76561198031899043,"connected_time":3868000000000,"state":"active","ping":75},{"user_id":673,"name":"BrownBreadMan","steam_id":76561199092834214,"connected_time":1343000000000,"state":"active","ping":66},{"user_id":660,"name":"Storm","steam_id":76561198978140369,"connected_time":2243000000000,"state":"active","ping":57},{"user_id":598,"name":"Mammut","steam_id":76561198056773933,"connected_time":5751000000000,"state":"active","ping":58},{"user_id":677,"name":"Homosapien","steam_id":76561197972035953,"connected_time":1133000000000,"state":"active","ping":61},{"user_id":647,"name":"Glaze!","steam_id":76561199063223088,"connected_time":2946000000000,"state":"active","ping":159},{"user_id":659,"name":"Shovelhalfrusty","steam_id":76561198346447513,"connected_time":2401000000000,"state":"active","ping":70},{"user_id":665,"name":"Mr_Pulse_","steam_id":76561198095001602,"connected_time":1476000000000,"state":"active","ping":107}]},{"server_id":320,"name":"Uncletopia | London | 3 | All Maps","name_short":"lon-3","host":"lon-1.uk.uncletopia.com","port":27035,"enabled":true,"region":"eu","cc":"gb","latitude":51.509865,"longitude":-0.118092,"reserved":0,"last_update":"0001-01-01T00:00:00Z","name_a2s":"Uncletopia | London | 3 | All Maps","protocol":17,"map":"koth_suijin","folder":"tf","game":"Team Fortress","app_id":440,"player_count":16,"max_players":24,"Bots":0,"server_type":"Dedicated","server_os":"Linux","password":true,"vac":true,"version":"7757534","steam_id":85568392924510192,"keywords":["cp","nocrits","nodmgspread","uncletopia"],"game_id":440,"stv_port":27036,"stv_name":"Uncletopia | London | 3 | All Maps | STV","players":[{"user_id":741,"name":"cat","steam_id":76561198305304708,"connected_time":8000000000,"state":"spawning","ping":46},{"user_id":713,"name":"Bobo","steam_id":76561198052308399,"connected_time":1241000000000,"state":"active","ping":67},{"user_id":735,"name":"sriracha..","steam_id":76561198005560221,"connected_time":332000000000,"state":"active","ping":75},{"user_id":708,"name":"jackirosss","steam_id":76561199403718993,"connected_time":1771000000000,"state":"active","ping":150},{"user_id":697,"name":"♡ Mͨuͧfͭfͤin ♡","steam_id":76561198377242969,"connected_time":2415000000000,"state":"active","ping":53},{"user_id":717,"name":"Nitro2300","steam_id":76561198269430639,"connected_time":822000000000,"state":"active","ping":44},{"user_id":714,"name":"Dozer","steam_id":76561197998742338,"connected_time":1197000000000,"state":"active","ping":46},{"user_id":729,"name":"icy_spicy","steam_id":76561199481524657,"connected_time":474000000000,"state":"active","ping":74},{"user_id":710,"name":"crafteen","steam_id":76561198362185755,"connected_time":1692000000000,"state":"active","ping":46},{"user_id":730,"name":"Batters🌸","steam_id":76561198927992205,"connected_time":451000000000,"state":"active","ping":48},{"user_id":699,"name":"engie?","steam_id":76561198331852832,"connected_time":2391000000000,"state":"active","ping":46},{"user_id":736,"name":"demone","steam_id":76561198136959681,"connected_time":277000000000,"state":"active","ping":53},{"user_id":723,"name":"Hussain_144","steam_id":76561198346029208,"connected_time":669000000000,"state":"active","ping":169},{"user_id":733,"name":"scarecrowshelper","steam_id":76561198072260553,"connected_time":414000000000,"state":"active","ping":58},{"user_id":740,"name":"donatofina","steam_id":76561198353497885,"connected_time":94000000000,"state":"active","ping":129},{"user_id":632,"name":"Shearman360","steam_id":76561198193909685,"connected_time":7029000000000,"state":"active","ping":60}]},{"server_id":321,"name":"Uncletopia | London | 4 | All Maps","name_short":"lon-4","host":"lon-1.uk.uncletopia.com","port":27045,"enabled":true,"region":"eu","cc":"gb","latitude":51.509865,"longitude":-0.118092,"reserved":0,"last_update":"0001-01-01T00:00:00Z","name_a2s":"Uncletopia | London | 4 | All Maps","protocol":17,"map":"pl_pier","folder":"tf","game":"Team Fortress","app_id":440,"player_count":23,"max_players":24,"Bots":0,"server_type":"Dedicated","server_os":"Linux","password":true,"vac":true,"version":"7757534","steam_id":85568392924510193,"keywords":["nocrits","nodmgspread","payload","uncletopia"],"game_id":440,"stv_port":27046,"stv_name":"Uncletopia | London | 4 | All Maps | STV","players":[{"user_id":216,"name":"clcraven","steam_id":76561198004637699,"connected_time":704000000000,"state":"active","ping":50},{"user_id":201,"name":"Pruff","steam_id":76561198377084417,"connected_time":1792000000000,"state":"active","ping":74},{"user_id":193,"name":"Yogfan800","steam_id":76561198089699429,"connected_time":2712000000000,"state":"active","ping":146},{"user_id":185,"name":"Sabi","steam_id":76561198202111522,"connected_time":2958000000000,"state":"active","ping":59},{"user_id":223,"name":"noodl3","steam_id":76561198254495488,"connected_time":125000000000,"state":"active","ping":53},{"user_id":222,"name":"Kriv","steam_id":76561198344276348,"connected_time":248000000000,"state":"active","ping":153},{"user_id":226,"name":"Hikaru Nakamura","steam_id":76561198980644010,"connected_time":25000000000,"state":"active","ping":104},{"user_id":217,"name":"grim reaper god","steam_id":76561199394194512,"connected_time":391000000000,"state":"active","ping":80},{"user_id":196,"name":"CiVillain","steam_id":76561198059617732,"connected_time":2510000000000,"state":"active","ping":75},{"user_id":225,"name":"Lukas","steam_id":76561198009118452,"connected_time":70000000000,"state":"active","ping":68},{"user_id":227,"name":"Professional facestab","steam_id":76561198258721056,"connected_time":22000000000,"state":"active","ping":53},{"user_id":228,"name":"Lord of the Cows","steam_id":76561198203140640,"connected_time":1000000000,"state":"spawning","ping":77},{"user_id":166,"name":"and i'm javert!","steam_id":76561198117033273,"connected_time":3883000000000,"state":"active","ping":47},{"user_id":219,"name":"MT Foxtrot","steam_id":76561198058003989,"connected_time":365000000000,"state":"active","ping":49},{"user_id":194,"name":"elio","steam_id":76561198142662131,"connected_time":2692000000000,"state":"active","ping":68},{"user_id":214,"name":"gibb (official)","steam_id":76561198074097655,"connected_time":1124000000000,"state":"active","ping":34},{"user_id":188,"name":"Sirwλst3d","steam_id":76561198201935008,"connected_time":2952000000000,"state":"active","ping":71},{"user_id":128,"name":"AshieTheVixen","steam_id":76561199061018034,"connected_time":7774000000000,"state":"active","ping":85},{"user_id":208,"name":"eNine the FOREVER","steam_id":76561198890193313,"connected_time":1448000000000,"state":"active","ping":64},{"user_id":175,"name":"Nero Claudius","steam_id":76561198173936397,"connected_time":3353000000000,"state":"active","ping":84},{"user_id":190,"name":"Racco Slava Ukraina","steam_id":76561198198855238,"connected_time":2919000000000,"state":"active","ping":62},{"user_id":168,"name":"Blue⛧Melon","steam_id":76561197970926435,"connected_time":3763000000000,"state":"active","ping":125},{"user_id":215,"name":"noodlehairronaldoprime","steam_id":76561199471954402,"connected_time":1117000000000,"state":"active","ping":74}]},{"server_id":21,"name":"Uncletopia | London | 5 | All Maps","name_short":"lon-5","host":"lon-1.uk.uncletopia.com","port":27055,"enabled":true,"region":"eu","cc":"gb","latitude":51.509865,"longitude":-0.118092,"reserved":0,"last_update":"0001-01-01T00:00:00Z","name_a2s":"Uncletopia | London | 5 | All Maps","protocol":17,"map":"pl_pier","folder":"tf","game":"Team Fortress","app_id":440,"player_count":3,"max_players":24,"Bots":0,"server_type":"Dedicated","server_os":"Linux","password":true,"vac":true,"version":"7757534","steam_id":85568392924742829,"keywords":["nocrits","nodmgspread","payload","uncletopia"],"game_id":440,"stv_port":27056,"stv_name":"Uncletopia | London | 5 | All Maps | STV","players":[{"user_id":540,"name":"Vennoxen","steam_id":76561199083337210,"connected_time":264000000000,"state":"active","ping":54},{"user_id":541,"name":"br4ndon","steam_id":76561198983274330,"connected_time":254000000000,"state":"active","ping":70},{"user_id":542,"name":"Nepptenio","steam_id":76561198089519107,"connected_time":248000000000,"state":"active","ping":65}]},{"server_id":22,"name":"Uncletopia | London | 6 | All Maps","name_short":"lon-6","host":"lon-1.uk.uncletopia.com","port":27065,"enabled":true,"region":"eu","cc":"gb","latitude":51.509865,"longitude":-0.118092,"reserved":0,"last_update":"0001-01-01T00:00:00Z","name_a2s":"Uncletopia | London | 6 | All Maps","protocol":17,"map":"koth_cascade","folder":"tf","game":"Team Fortress","app_id":440,"player_count":0,"max_players":24,"Bots":0,"server_type":"Dedicated","server_os":"Linux","password":true,"vac":true,"version":"7757534","steam_id":85568392924742830,"keywords":["cp","nocrits","nodmgspread","uncletopia"],"game_id":440,"stv_port":27066,"stv_name":"Uncletopia | London | 6 | All Maps | STV","players":null},{"server_id":40,"name":"Uncletopia | London | 7 | No Payload","name_short":"lon-7","host":"lon-1.uk.uncletopia.com","port":27075,"enabled":true,"region":"eu","cc":"gb","latitude":51.509865,"longitude":-0.118092,"reserved":0,"last_update":"0001-01-01T00:00:00Z","name_a2s":"Uncletopia | London | 7 | No Payload","protocol":17,"map":"koth_harvest_final","folder":"tf","game":"Team Fortress","app_id":440,"player_count":24,"max_players":24,"Bots":0,"server_type":"Dedicated","server_os":"Linux","password":true,"vac":true,"version":"7757534","steam_id":85568392924964314,"keywords":["cp","nocrits","nodmgspread","uncletopia"],"game_id":440,"stv_port":27076,"stv_name":"Uncletopia | London | 7 | No Payload | STV","players":[{"user_id":283,"name":"Littleyoshifan","steam_id":76561198445491045,"connected_time":1881000000000,"state":"active","ping":34},{"user_id":293,"name":"Femboy Portal Radio Uncompresse","steam_id":76561198072320671,"connected_time":1156000000000,"state":"active","ping":32},{"user_id":297,"name":"multiflex","steam_id":76561198049639319,"connected_time":820000000000,"state":"active","ping":64},{"user_id":286,"name":"BELADIT","steam_id":76561198011911501,"connected_time":1470000000000,"state":"active","ping":75},{"user_id":238,"name":"Wattoz","steam_id":76561198127779511,"connected_time":4120000000000,"state":"active","ping":54},{"user_id":299,"name":"smörgåstårta","steam_id":76561198149967445,"connected_time":786000000000,"state":"active","ping":34},{"user_id":275,"name":"pensami forte","steam_id":76561198066071855,"connected_time":2465000000000,"state":"active","ping":74},{"user_id":290,"name":"Olaznot","steam_id":76561199111472610,"connected_time":1273000000000,"state":"active","ping":73},{"user_id":294,"name":"Grichka Bogdanoff","steam_id":76561199157330506,"connected_time":1155000000000,"state":"active","ping":84},{"user_id":304,"name":"PSHH YOBA","steam_id":76561197999869136,"connected_time":552000000000,"state":"active","ping":81},{"user_id":295,"name":"milk coke","steam_id":76561198122814249,"connected_time":1149000000000,"state":"active","ping":46},{"user_id":239,"name":"Minus Rep","steam_id":76561198065992476,"connected_time":4077000000000,"state":"active","ping":146},{"user_id":308,"name":"Krefa12","steam_id":76561198268375393,"connected_time":238000000000,"state":"active","ping":104},{"user_id":300,"name":"Bentley","steam_id":76561197978252169,"connected_time":781000000000,"state":"active","ping":57},{"user_id":206,"name":"Zeora","steam_id":76561198799145251,"connected_time":6589000000000,"state":"active","ping":133},{"user_id":301,"name":"nedilya","steam_id":76561198039692077,"connected_time":773000000000,"state":"active","ping":69},{"user_id":273,"name":"yeyegoncas","steam_id":76561198061217656,"connected_time":2503000000000,"state":"active","ping":85},{"user_id":309,"name":"Enkloth | trade.tf","steam_id":76561198115106008,"connected_time":228000000000,"state":"active","ping":49},{"user_id":235,"name":"skindiver376","steam_id":76561198056533071,"connected_time":4435000000000,"state":"active","ping":66},{"user_id":306,"name":"GoGoGodzilla","steam_id":76561199115736205,"connected_time":442000000000,"state":"active","ping":141},{"user_id":292,"name":"tiiyama","steam_id":76561198046196005,"connected_time":1261000000000,"state":"active","ping":60},{"user_id":307,"name":"TF2 2023 SUMMER UPDATE","steam_id":76561198084982609,"connected_time":427000000000,"state":"active","ping":165},{"user_id":289,"name":"☁⭍ qBowN∼","steam_id":76561198000980532,"connected_time":1429000000000,"state":"active","ping":59}]},{"server_id":41,"name":"Uncletopia | London | 8 | Community","name_short":"lon-8","host":"lon-1.uk.uncletopia.com","port":27085,"enabled":true,"region":"eu","cc":"gb","latitude":51.509865,"longitude":-0.118092,"reserved":0,"last_update":"0001-01-01T00:00:00Z","name_a2s":"Uncletopia | London | 8 | Community","protocol":17,"map":"workshop/koth_ashville_final.ugc2130459942","folder":"tf","game":"Team Fortress","app_id":440,"player_count":0,"max_players":24,"Bots":0,"server_type":"Dedicated","server_os":"Linux","password":true,"vac":true,"version":"7757534","steam_id":85568392924964315,"keywords":["cp","nocrits","nodmgspread","uncletopia"],"game_id":440,"stv_port":27086,"stv_name":"Uncletopia | London | 8 | Community | STV","players":null},{"server_id":300,"name":"Uncletopia | Montréal | 1 | All Maps","name_short":"mtl-1","host":"mtl-1.ca.uncletopia.com","port":27015,"enabled":true,"region":"us-east","cc":"ca","latitude":45.50889,"longitude":-73.56167,"reserved":0,"last_update":"0001-01-01T00:00:00Z","name_a2s":"Uncletopia | Montréal | 1 | All Maps","protocol":17,"map":"pl_barnblitz","folder":"tf","game":"Team Fortress","app_id":440,"player_count":0,"max_players":24,"Bots":0,"server_type":"Dedicated","server_os":"Linux","password":true,"vac":true,"version":"7757534","steam_id":85568392924500087,"keywords":["nocrits","nodmgspread","payload","uncletopia"],"game_id":440,"stv_port":27016,"stv_name":"Uncletopia | Montréal | 1 | All Maps | STV","players":null},{"server_id":301,"name":"Uncletopia | Montréal | 2 | All Maps","name_short":"mtl-2","host":"mtl-1.ca.uncletopia.com","port":27025,"enabled":true,"region":"us-east","cc":"ca","latitude":45.50889,"longitude":-73.56167,"reserved":0,"last_update":"0001-01-01T00:00:00Z","name_a2s":"Uncletopia | Montréal | 2 | All Maps","protocol":17,"map":"koth_lakeside_final","folder":"tf","game":"Team Fortress","app_id":440,"player_count":0,"max_players":24,"Bots":0,"server_type":"Dedicated","server_os":"Linux","password":true,"vac":true,"version":"7757534","steam_id":85568392924500088,"keywords":["cp","nocrits","nodmgspread","uncletopia"],"game_id":440,"stv_port":27026,"stv_name":"Uncletopia | Montréal | 2 | All Maps | STV","players":null},{"server_id":302,"name":"Uncletopia | Montréal | 3 | All Maps","name_short":"mtl-3","host":"mtl-1.ca.uncletopia.com","port":27035,"enabled":true,"region":"us-east","cc":"ca","latitude":45.50889,"longitude":-73.56167,"reserved":0,"last_update":"0001-01-01T00:00:00Z","name_a2s":"Uncletopia | Montréal | 3 | All Maps","protocol":17,"map":"pl_badwater","folder":"tf","game":"Team Fortress","app_id":440,"player_count":0,"max_players":24,"Bots":0,"server_type":"Dedicated","server_os":"Linux","password":true,"vac":true,"version":"7757534","steam_id":85568392924500089,"keywords":["nocrits","nodmgspread","payload","uncletopia"],"game_id":440,"stv_port":27036,"stv_name":"Uncletopia | Montréal | 3 | All Maps | STV","players":null},{"server_id":303,"name":"Uncletopia | Montréal | 4 | No Payload","name_short":"mtl-4","host":"mtl-1.ca.uncletopia.com","port":27045,"enabled":true,"region":"us-east","cc":"ca","latitude":45.50889,"longitude":-73.56167,"reserved":0,"last_update":"0001-01-01T00:00:00Z","name_a2s":"Uncletopia | Montréal | 4 | No Payload","protocol":17,"map":"ctf_doublecross","folder":"tf","game":"Team Fortress","app_id":440,"player_count":0,"max_players":24,"Bots":0,"server_type":"Dedicated","server_os":"Linux","password":true,"vac":true,"version":"7757534","steam_id":85568392924500090,"keywords":["ctf","nocrits","nodmgspread","uncletopia"],"game_id":440,"stv_port":27046,"stv_name":"Uncletopia | Montréal | 4 | No Payload | STV","players":null},{"server_id":13,"name":"Uncletopia | New York City | 1 | All Maps","name_short":"nyc-1","host":"nyc-1.us.uncletopia.com","port":27015,"enabled":true,"region":"us-east","cc":"us","latitude":40.73061,"longitude":-73.93524,"reserved":0,"last_update":"0001-01-01T00:00:00Z","name_a2s":"Uncletopia | New York City | 1 | All Maps","protocol":17,"map":"cp_mountainlab","folder":"tf","game":"Team Fortress","app_id":440,"player_count":21,"max_players":24,"Bots":0,"server_type":"Dedicated","server_os":"Linux","password":true,"vac":true,"version":"7757534","steam_id":85568392924469993,"keywords":["cp","nocrits","nodmgspread","uncletopia"],"game_id":440,"stv_port":27016,"stv_name":"Uncletopia | New York City | 1 | All Maps | STV","players":[{"user_id":435,"name":"Victor Skull","steam_id":76561198352212864,"connected_time":1418000000000,"state":"active","ping":31},{"user_id":441,"name":"Marijuanaut","steam_id":76561198069814977,"connected_time":268000000000,"state":"active","ping":46},{"user_id":376,"name":"JimmyNeutron","steam_id":76561197993353322,"connected_time":6203000000000,"state":"active","ping":85},{"user_id":442,"name":"monkey","steam_id":76561198966980576,"connected_time":208000000000,"state":"active","ping":41},{"user_id":391,"name":"frying pan gaming","steam_id":76561199097866312,"connected_time":4002000000000,"state":"active","ping":105},{"user_id":443,"name":"Sniper","steam_id":76561199482262282,"connected_time":203000000000,"state":"active","ping":69},{"user_id":440,"name":"Purble Place Lore Expert","steam_id":76561199134895220,"connected_time":313000000000,"state":"active","ping":56},{"user_id":420,"name":"RomanLegate","steam_id":76561198931699640,"connected_time":2656000000000,"state":"active","ping":70},{"user_id":428,"name":"I'm Going Goblin Mode","steam_id":76561198084167611,"connected_time":2024000000000,"state":"active","ping":78},{"user_id":444,"name":"wafflehamster2000","steam_id":76561198849161820,"connected_time":184000000000,"state":"active","ping":94},{"user_id":421,"name":"booyah! cumshot!","steam_id":76561198044034546,"connected_time":2386000000000,"state":"active","ping":47},{"user_id":427,"name":"Penis but it rhymes with Venice","steam_id":76561197986420836,"connected_time":2034000000000,"state":"active","ping":52},{"user_id":445,"name":"who is gavin?","steam_id":76561198069415057,"connected_time":149000000000,"state":"active","ping":42},{"user_id":409,"name":"Leyor","steam_id":76561199037658406,"connected_time":3229000000000,"state":"active","ping":126},{"user_id":446,"name":"Comet","steam_id":76561199013413622,"connected_time":65000000000,"state":"active","ping":75},{"user_id":436,"name":"Dwarfo","steam_id":76561198119220289,"connected_time":1401000000000,"state":"active","ping":75},{"user_id":411,"name":"xXcLaImEd__ReApErXx [F2P]","steam_id":76561198067232540,"connected_time":3208000000000,"state":"active","ping":76},{"user_id":404,"name":"Queso2469","steam_id":76561197993024580,"connected_time":3434000000000,"state":"active","ping":41},{"user_id":447,"name":"Furrio","steam_id":76561198174104607,"connected_time":49000000000,"state":"spawning","ping":89},{"user_id":438,"name":"jodie.blend","steam_id":76561198140701807,"connected_time":998000000000,"state":"active","ping":81},{"user_id":439,"name":"ReTrying","steam_id":76561198976162684,"connected_time":644000000000,"state":"active","ping":76}]},{"server_id":14,"name":"Uncletopia | New York City | 2 | All Maps","name_short":"nyc-2","host":"nyc-1.us.uncletopia.com","port":27025,"enabled":true,"region":"us-east","cc":"us","latitude":40.73061,"longitude":-73.93524,"reserved":0,"last_update":"0001-01-01T00:00:00Z","name_a2s":"Uncletopia | New York City | 2 | All Maps","protocol":17,"map":"pl_thundermountain","folder":"tf","game":"Team Fortress","app_id":440,"player_count":23,"max_players":24,"Bots":0,"server_type":"Dedicated","server_os":"Linux","password":true,"vac":true,"version":"7757534","steam_id":85568392924469994,"keywords":["nocrits","nodmgspread","payload","uncletopia"],"game_id":440,"stv_port":27026,"stv_name":"Uncletopia | New York City | 2 | All Maps | STV","players":[{"user_id":395,"name":"Fly2Freedom","steam_id":76561198066043602,"connected_time":25000000000,"state":"active","ping":41},{"user_id":387,"name":"ahotspicelife","steam_id":76561199439263580,"connected_time":626000000000,"state":"active","ping":59},{"user_id":392,"name":"alex","steam_id":76561198095203229,"connected_time":376000000000,"state":"active","ping":70},{"user_id":353,"name":"Al Cabone","steam_id":76561198956823243,"connected_time":2034000000000,"state":"active","ping":60},{"user_id":385,"name":"MondoDong","steam_id":76561197991400109,"connected_time":678000000000,"state":"active","ping":41},{"user_id":365,"name":"BarrowBaron","steam_id":76561198013633236,"connected_time":1365000000000,"state":"active","ping":87},{"user_id":366,"name":"Stupid Sexy Flanders","steam_id":76561198136311983,"connected_time":1309000000000,"state":"active","ping":61},{"user_id":381,"name":"flappyflap2","steam_id":76561198285048973,"connected_time":835000000000,"state":"active","ping":44},{"user_id":368,"name":"Crazy Ivan","steam_id":76561197993072059,"connected_time":1293000000000,"state":"active","ping":61},{"user_id":370,"name":"pee man","steam_id":76561199134435413,"connected_time":1213000000000,"state":"active","ping":121},{"user_id":346,"name":"MEDIC GAMING BOI","steam_id":76561198303608388,"connected_time":2591000000000,"state":"active","ping":71},{"user_id":369,"name":"Arinikus","steam_id":76561198025652136,"connected_time":1281000000000,"state":"active","ping":43},{"user_id":371,"name":"Krusty Nut","steam_id":76561198120637924,"connected_time":1157000000000,"state":"active","ping":56},{"user_id":349,"name":"Punished Mura","steam_id":76561198111407699,"connected_time":2543000000000,"state":"active","ping":93},{"user_id":372,"name":"weedcat","steam_id":76561198346054736,"connected_time":1126000000000,"state":"active","ping":60},{"user_id":374,"name":"IMYS","steam_id":76561198096223200,"connected_time":1104000000000,"state":"active","ping":52},{"user_id":358,"name":"Sychke","steam_id":76561198067144055,"connected_time":1785000000000,"state":"active","ping":63},{"user_id":386,"name":"Heropon","steam_id":76561198105224481,"connected_time":667000000000,"state":"active","ping":62},{"user_id":390,"name":"turd ferguson","steam_id":76561198071620782,"connected_time":475000000000,"state":"active","ping":68},{"user_id":329,"name":"King Sans","steam_id":76561198294198517,"connected_time":3693000000000,"state":"active","ping":42},{"user_id":377,"name":"Chin","steam_id":76561198247426906,"connected_time":1036000000000,"state":"active","ping":68},{"user_id":379,"name":"Oopsie Daisy ❋","steam_id":76561198042144492,"connected_time":986000000000,"state":"active","ping":84},{"user_id":389,"name":"AlmondMilk","steam_id":76561198151229725,"connected_time":591000000000,"state":"active","ping":40}]},{"server_id":15,"name":"Uncletopia | New York City | 3 | Stopwatch Beta","name_short":"nyc-3","host":"nyc-1.us.uncletopia.com","port":27035,"enabled":true,"region":"us-east","cc":"us","latitude":40.73061,"longitude":-73.93524,"reserved":0,"last_update":"0001-01-01T00:00:00Z","name_a2s":"Uncletopia | New York City | 3 | Stopwatch Beta","protocol":17,"map":"pl_upward","folder":"tf","game":"Team Fortress","app_id":440,"player_count":0,"max_players":24,"Bots":0,"server_type":"Dedicated","server_os":"Linux","password":true,"vac":true,"version":"7757534","steam_id":85568392924742820,"keywords":["nocrits","nodmgspread","payload","uncletopia"],"game_id":440,"stv_port":27036,"stv_name":"Uncletopia | New York City | 3 | Stopwatch Beta | STV","players":null},{"server_id":16,"name":"Uncletopia | New York City | 4 | Community","name_short":"nyc-4","host":"nyc-1.us.uncletopia.com","port":27045,"enabled":true,"region":"us-east","cc":"us","latitude":40.73061,"longitude":-73.93524,"reserved":0,"last_update":"0001-01-01T00:00:00Z","name_a2s":"Uncletopia | New York City | 4 | Community","protocol":17,"map":"workshop/cp_logjam_rc12.ugc454812035","folder":"tf","game":"Team Fortress","app_id":440,"player_count":0,"max_players":24,"Bots":0,"server_type":"Dedicated","server_os":"Linux","password":true,"vac":true,"version":"7757534","steam_id":85568392924742821,"keywords":["cp","nocrits","nodmgspread","uncletopia"],"game_id":440,"stv_port":27046,"stv_name":"Uncletopia | New York City | 4 | Community | STV","players":null},{"server_id":142,"name":"Uncletopia | São Paulo | 1 | All Maps","name_short":"sao-1","host":"sao-1.br.uncletopia.com","port":27015,"enabled":true,"region":"sa","cc":"br","latitude":-23.533773,"longitude":-46.62529,"reserved":0,"last_update":"0001-01-01T00:00:00Z","name_a2s":"Uncletopia | São Paulo | 1 | All Maps","protocol":17,"map":"koth_viaduct","folder":"tf","game":"Team Fortress","app_id":440,"player_count":3,"max_players":24,"Bots":0,"server_type":"Dedicated","server_os":"Linux","password":true,"vac":true,"version":"7757534","steam_id":85568392924469996,"keywords":["cp","nocrits","nodmgspread","uncletopia"],"game_id":440,"stv_port":27016,"stv_name":"Uncletopia | São Paulo | 1 | All Maps | STV","players":[{"user_id":42,"name":"DisastersGadget48","steam_id":76561199435046419,"connected_time":240000000000,"state":"active","ping":195},{"user_id":43,"name":"i have rabies","steam_id":76561199368678839,"connected_time":192000000000,"state":"active","ping":292},{"user_id":44,"name":"sopping wet beast","steam_id":76561198995121468,"connected_time":124000000000,"state":"active","ping":198}]},{"server_id":143,"name":"Uncletopia | São Paulo | 2 | All Maps","name_short":"sao-2","host":"sao-2.br.uncletopia.com","port":27015,"enabled":true,"region":"sa","cc":"br","latitude":-23.533773,"longitude":-46.62529,"reserved":0,"last_update":"0001-01-01T00:00:00Z","name_a2s":"Uncletopia | São Paulo | 2 | All Maps","protocol":17,"map":"cp_sunshine","folder":"tf","game":"Team Fortress","app_id":440,"player_count":0,"max_players":24,"Bots":0,"server_type":"Dedicated","server_os":"Linux","password":true,"vac":true,"version":"7757534","steam_id":85568392924485349,"keywords":["cp","nocrits","nodmgspread","uncletopia"],"game_id":440,"stv_port":27016,"stv_name":"Uncletopia | São Paulo | 2 | All Maps | STV","players":null},{"server_id":7,"name":"Uncletopia | Seattle | 1 | All Maps","name_short":"sea-1","host":"sea-1.us.uncletopia.com","port":27015,"enabled":true,"region":"us-west","cc":"us","latitude":47.608013,"longitude":-122.33517,"reserved":0,"last_update":"0001-01-01T00:00:00Z","name_a2s":"Uncletopia | Seattle | 1 | All Maps","protocol":17,"map":"pl_thundermountain","folder":"tf","game":"Team Fortress","app_id":440,"player_count":24,"max_players":24,"Bots":0,"server_type":"Dedicated","server_os":"Linux","password":true,"vac":true,"version":"7757534","steam_id":85568392924469997,"keywords":["nocrits","nodmgspread","payload","uncletopia"],"game_id":440,"stv_port":27016,"stv_name":"Uncletopia | Seattle | 1 | All Maps | STV","players":[{"user_id":334,"name":"Cheese Fiend","steam_id":76561198053602591,"connected_time":1195000000000,"state":"active","ping":93},{"user_id":339,"name":"Retesaurus","steam_id":76561198045189319,"connected_time":974000000000,"state":"active","ping":56},{"user_id":335,"name":"S O L I D","steam_id":76561198086095072,"connected_time":1192000000000,"state":"active","ping":109},{"user_id":343,"name":"münn","steam_id":76561198111147624,"connected_time":352000000000,"state":"active","ping":86},{"user_id":319,"name":"EnbySeven","steam_id":76561198981899169,"connected_time":3349000000000,"state":"active","ping":45},{"user_id":324,"name":"THE_DARK_TRICKSTER","steam_id":76561198870649125,"connected_time":3116000000000,"state":"active","ping":86},{"user_id":336,"name":"HeyImAlasterツ","steam_id":76561198283925139,"connected_time":1160000000000,"state":"active","ping":91},{"user_id":333,"name":"gloobern","steam_id":76561198341190679,"connected_time":1259000000000,"state":"active","ping":69},{"user_id":240,"name":"Corpe","steam_id":76561198054490549,"connected_time":10594000000000,"state":"active","ping":56},{"user_id":318,"name":"yaoi knight","steam_id":76561199047969318,"connected_time":3361000000000,"state":"active","ping":65},{"user_id":329,"name":"Nakasmacka","steam_id":76561198049787270,"connected_time":2141000000000,"state":"active","ping":37},{"user_id":327,"name":"Saint Pablo","steam_id":76561198083300159,"connected_time":2705000000000,"state":"active","ping":72},{"user_id":325,"name":"( ● 3 - ) ©","steam_id":76561199196821524,"connected_time":2883000000000,"state":"active","ping":60},{"user_id":310,"name":"Peppy","steam_id":76561198866629645,"connected_time":3760000000000,"state":"active","ping":98},{"user_id":330,"name":"ZEKKER","steam_id":76561197967968980,"connected_time":1860000000000,"state":"active","ping":53},{"user_id":328,"name":"sudoku_fiend","steam_id":76561198152029104,"connected_time":2586000000000,"state":"active","ping":95},{"user_id":342,"name":"soda","steam_id":76561198105924953,"connected_time":475000000000,"state":"active","ping":76},{"user_id":341,"name":"toes","steam_id":76561198221151676,"connected_time":527000000000,"state":"active","ping":60},{"user_id":301,"name":"Boyaredeen","steam_id":76561198880492636,"connected_time":4237000000000,"state":"active","ping":49},{"user_id":323,"name":"BreadQuest","steam_id":76561198082425960,"connected_time":3141000000000,"state":"active","ping":35},{"user_id":346,"name":"joji fan fr","steam_id":76561198975706117,"connected_time":151000000000,"state":"active","ping":79},{"user_id":337,"name":"CareFree Brie","steam_id":76561198868697407,"connected_time":1148000000000,"state":"active","ping":71},{"user_id":297,"name":"DazedBunny","steam_id":76561198243610560,"connected_time":4284000000000,"state":"active","ping":70},{"user_id":345,"name":"lili ezili","steam_id":76561199391478575,"connected_time":342000000000,"state":"active","ping":75}]},{"server_id":119,"name":"Uncletopia | Seattle | 2 | All Maps","name_short":"sea-2","host":"sea-1.us.uncletopia.com","port":27025,"enabled":true,"region":"us-west","cc":"us","latitude":47.608013,"longitude":-122.33517,"reserved":0,"last_update":"0001-01-01T00:00:00Z","name_a2s":"Uncletopia | Seattle | 2 | All Maps","protocol":17,"map":"pl_upward","folder":"tf","game":"Team Fortress","app_id":440,"player_count":24,"max_players":24,"Bots":0,"server_type":"Dedicated","server_os":"Linux","password":true,"vac":true,"version":"7757534","steam_id":85568392924469998,"keywords":["nocrits","nodmgspread","payload","uncletopia"],"game_id":440,"stv_port":27026,"stv_name":"Uncletopia | Seattle | 2 | All Maps | STV","players":[{"user_id":171,"name":"COOL master_9","steam_id":76561198073041151,"connected_time":4295000000000,"state":"active","ping":99},{"user_id":222,"name":"Rocket Drifter","steam_id":76561198046952513,"connected_time":44000000000,"state":"spawning","ping":46},{"user_id":191,"name":"Thanatos","steam_id":76561198103077571,"connected_time":2470000000000,"state":"active","ping":64},{"user_id":220,"name":"Seriously Bruh","steam_id":76561198070408485,"connected_time":335000000000,"state":"active","ping":49},{"user_id":209,"name":"Haiwik","steam_id":76561198871081291,"connected_time":722000000000,"state":"active","ping":70},{"user_id":219,"name":"MacchuPeachu","steam_id":76561199093242587,"connected_time":399000000000,"state":"active","ping":60},{"user_id":208,"name":"Drapph","steam_id":76561199384213314,"connected_time":725000000000,"state":"active","ping":101},{"user_id":194,"name":"Bastee1021","steam_id":76561199456141163,"connected_time":2386000000000,"state":"active","ping":105},{"user_id":153,"name":"Hindmost","steam_id":76561199081837220,"connected_time":5384000000000,"state":"active","ping":114},{"user_id":188,"name":"tconnors1976","steam_id":76561198840033336,"connected_time":2944000000000,"state":"active","ping":67},{"user_id":210,"name":"Algibruh","steam_id":76561199221599415,"connected_time":718000000000,"state":"active","ping":53},{"user_id":200,"name":"Feldspaten","steam_id":76561199122059102,"connected_time":2025000000000,"state":"active","ping":76},{"user_id":205,"name":"grim reefer","steam_id":76561198162927733,"connected_time":989000000000,"state":"active","ping":57},{"user_id":189,"name":"Lonestar827","steam_id":76561198035533639,"connected_time":2613000000000,"state":"active","ping":58},{"user_id":221,"name":"Tet","steam_id":76561198079672144,"connected_time":265000000000,"state":"active","ping":115},{"user_id":212,"name":"Gramma!","steam_id":76561198340989175,"connected_time":656000000000,"state":"active","ping":137},{"user_id":213,"name":"WM1 PYRO","steam_id":76561198045893896,"connected_time":629000000000,"state":"active","ping":56},{"user_id":182,"name":"♦Benji♦","steam_id":76561198313529973,"connected_time":3299000000000,"state":"active","ping":38},{"user_id":202,"name":"DIGGY","steam_id":76561198991238982,"connected_time":1755000000000,"state":"active","ping":50},{"user_id":216,"name":"Kmann","steam_id":76561199229843447,"connected_time":602000000000,"state":"active","ping":122},{"user_id":217,"name":"Greskrendtregk","steam_id":76561197969553142,"connected_time":550000000000,"state":"active","ping":49},{"user_id":185,"name":"Rav","steam_id":76561198358105415,"connected_time":3078000000000,"state":"active","ping":98},{"user_id":75,"name":"Fire_box41238","steam_id":76561199185673650,"connected_time":10380000000000,"state":"active","ping":55},{"user_id":215,"name":"Vin","steam_id":76561198137057777,"connected_time":623000000000,"state":"active","ping":64}]},{"server_id":406,"name":"Uncletopia | Seattle | 3 | Stopwatch Beta","name_short":"sea-3","host":"sea-1.us.uncletopia.com","port":27035,"enabled":true,"region":"us-west","cc":"us","latitude":47.608013,"longitude":-122.33517,"reserved":0,"last_update":"0001-01-01T00:00:00Z","name_a2s":"Uncletopia | Seattle | 3 | Stopwatch Beta","protocol":17,"map":"workshop/pl_badwater_pro_v12.ugc2142942074","folder":"tf","game":"Team Fortress","app_id":440,"player_count":0,"max_players":24,"Bots":0,"server_type":"Dedicated","server_os":"Linux","password":true,"vac":true,"version":"7757534","steam_id":85568392924515217,"keywords":["nocrits","nodmgspread","payload","uncletopia"],"game_id":440,"stv_port":27036,"stv_name":"Uncletopia | Seattle | 3 | Stopwatch Beta | STV","players":null},{"server_id":17,"name":"Uncletopia | San Francisco | 1 | All Maps","name_short":"sfo-1","host":"sfo-1.us.uncletopia.com","port":27015,"enabled":true,"region":"us-west","cc":"us","latitude":37.77397,"longitude":-122.4313,"reserved":0,"last_update":"0001-01-01T00:00:00Z","name_a2s":"Uncletopia | San Francisco | 1 | All Maps","protocol":17,"map":"koth_sawmill","folder":"tf","game":"Team Fortress","app_id":440,"player_count":24,"max_players":24,"Bots":0,"server_type":"Dedicated","server_os":"Linux","password":true,"vac":true,"version":"7757534","steam_id":85568392924469999,"keywords":["cp","nocrits","nodmgspread","uncletopia"],"game_id":440,"stv_port":27016,"stv_name":"Uncletopia | San Francisco | 1 | All Maps | STV","players":[{"user_id":23,"name":"Jimmy","steam_id":76561198857959855,"connected_time":3157000000000,"state":"active","ping":50},{"user_id":38,"name":"A Skilled Player","steam_id":76561198075619480,"connected_time":2142000000000,"state":"active","ping":58},{"user_id":68,"name":"Dimmerswitch","steam_id":76561198034782177,"connected_time":317000000000,"state":"active","ping":31},{"user_id":39,"name":"Red.Dude115","steam_id":76561198093069044,"connected_time":2136000000000,"state":"active","ping":93},{"user_id":69,"name":"The Moon","steam_id":76561198082926682,"connected_time":176000000000,"state":"active","ping":56},{"user_id":28,"name":"cookypuss","steam_id":76561197961275239,"connected_time":2661000000000,"state":"active","ping":57},{"user_id":60,"name":"PCFricker","steam_id":76561198064467954,"connected_time":1135000000000,"state":"active","ping":90},{"user_id":40,"name":"Sadodere Grimace","steam_id":76561198008332028,"connected_time":2125000000000,"state":"active","ping":68},{"user_id":70,"name":"Master John Thursday","steam_id":76561197987593154,"connected_time":87000000000,"state":"active","ping":75},{"user_id":53,"name":"Sax","steam_id":76561198055425123,"connected_time":1798000000000,"state":"active","ping":82},{"user_id":58,"name":"Spring Heeled Jack","steam_id":76561198285772643,"connected_time":1248000000000,"state":"active","ping":120},{"user_id":67,"name":"Khronakal","steam_id":76561199047228098,"connected_time":428000000000,"state":"active","ping":80},{"user_id":35,"name":"Leonardo Doujinshi","steam_id":76561198073531273,"connected_time":2308000000000,"state":"active","ping":67},{"user_id":36,"name":"Sports Anime Protagonist","steam_id":76561198112635823,"connected_time":2172000000000,"state":"active","ping":72},{"user_id":37,"name":"Wicki","steam_id":76561198122590990,"connected_time":2161000000000,"state":"active","ping":87},{"user_id":63,"name":"Engynier Gaimeang (F2P)","steam_id":76561199013888779,"connected_time":881000000000,"state":"active","ping":62},{"user_id":64,"name":"cringy","steam_id":76561198323000455,"connected_time":841000000000,"state":"active","ping":72},{"user_id":57,"name":"HeloYeloFelo","steam_id":76561198128628781,"connected_time":1394000000000,"state":"active","ping":119},{"user_id":62,"name":"SAP","steam_id":76561198005186905,"connected_time":1081000000000,"state":"active","ping":82},{"user_id":47,"name":"Ayyyy","steam_id":76561198121729211,"connected_time":1872000000000,"state":"active","ping":58},{"user_id":71,"name":"Mint Jelly","steam_id":76561197991286751,"connected_time":63000000000,"state":"active","ping":91},{"user_id":59,"name":"Flyingcat9000","steam_id":76561198179561797,"connected_time":1247000000000,"state":"active","ping":31},{"user_id":66,"name":"Poop Train Conductor","steam_id":76561198073677619,"connected_time":596000000000,"state":"active","ping":70},{"user_id":55,"name":"RIP Bashar Jackson","steam_id":76561198062940197,"connected_time":1467000000000,"state":"active","ping":63}]},{"server_id":18,"name":"Uncletopia | San Francisco | 2 | All Maps","name_short":"sfo-2","host":"sfo-1.us.uncletopia.com","port":27025,"enabled":true,"region":"us-west","cc":"us","latitude":37.77397,"longitude":-122.4313,"reserved":0,"last_update":"0001-01-01T00:00:00Z","name_a2s":"Uncletopia | San Francisco | 2 | All Maps","protocol":17,"map":"koth_highpass","folder":"tf","game":"Team Fortress","app_id":440,"player_count":1,"max_players":24,"Bots":0,"server_type":"Dedicated","server_os":"Linux","password":true,"vac":true,"version":"7757534","steam_id":85568392924470000,"keywords":["cp","nocrits","nodmgspread","uncletopia"],"game_id":440,"stv_port":27026,"stv_name":"Uncletopia | San Francisco | 2 | All Maps | STV","players":[{"user_id":11,"name":"Dealer","steam_id":76561198801450794,"connected_time":35000000000,"state":"active","ping":107}]},{"server_id":19,"name":"Uncletopia | San Francisco | 3 | Stopwatch Beta","name_short":"sfo-3","host":"sfo-1.us.uncletopia.com","port":27035,"enabled":true,"region":"us-west","cc":"us","latitude":37.77397,"longitude":-122.4313,"reserved":0,"last_update":"0001-01-01T00:00:00Z","name_a2s":"Uncletopia | San Francisco | 3 | Stopwatch Beta","protocol":17,"map":"workshop/koth_clearcut_b15.ugc2107050255","folder":"tf","game":"Team Fortress","app_id":440,"player_count":0,"max_players":24,"Bots":0,"server_type":"Dedicated","server_os":"Linux","password":true,"vac":true,"version":"7757534","steam_id":85568392924742824,"keywords":["cp","nocrits","nodmgspread","uncletopia"],"game_id":440,"stv_port":27036,"stv_name":"Uncletopia | San Francisco | 3 | Stopwatch Beta | STV","players":null},{"server_id":20,"name":"Uncletopia | San Francisco | 4 | Community","name_short":"sfo-4","host":"sfo-1.us.uncletopia.com","port":27045,"enabled":true,"region":"us-west","cc":"us","latitude":37.77397,"longitude":-122.4313,"reserved":0,"last_update":"0001-01-01T00:00:00Z","name_a2s":"Uncletopia | San Francisco | 4 | Community","protocol":17,"map":"workshop/pl_cactuscanyon_redux_final2.ugc2579644293","folder":"tf","game":"Team Fortress","app_id":440,"player_count":0,"max_players":24,"Bots":0,"server_type":"Dedicated","server_os":"Linux","password":true,"vac":true,"version":"7757534","steam_id":85568392924742826,"keywords":["nocrits","nodmgspread","payload","uncletopia"],"game_id":440,"stv_port":27046,"stv_name":"Uncletopia | San Francisco | 4 | Community | STV","players":null},{"server_id":141,"name":"Uncletopia | Sydney | 1 | All Maps","name_short":"syd-1","host":"syd-1.au.uncletopia.com","port":27015,"enabled":true,"region":"au","cc":"au","latitude":-33.865143,"longitude":151.2099,"reserved":0,"last_update":"0001-01-01T00:00:00Z","name_a2s":"Uncletopia | Sydney | 1 | All Maps","protocol":17,"map":"koth_viaduct","folder":"tf","game":"Team Fortress","app_id":440,"player_count":0,"max_players":24,"Bots":0,"server_type":"Dedicated","server_os":"Linux","password":true,"vac":true,"version":"7757534","steam_id":85568392924470001,"keywords":["cp","nocrits","nodmgspread","uncletopia"],"game_id":440,"stv_port":27016,"stv_name":"Uncletopia | Sydney | 1 | All Maps | STV","players":null},{"server_id":123,"name":"Uncletopia | Sydney | 2 | All Maps","name_short":"syd-2","host":"syd-1.au.uncletopia.com","port":27025,"enabled":true,"region":"au","cc":"au","latitude":-33.865143,"longitude":151.2099,"reserved":0,"last_update":"0001-01-01T00:00:00Z","name_a2s":"Uncletopia | Sydney | 2 | All Maps","protocol":17,"map":"koth_highpass","folder":"tf","game":"Team Fortress","app_id":440,"player_count":0,"max_players":24,"Bots":0,"server_type":"Dedicated","server_os":"Linux","password":true,"vac":true,"version":"7757534","steam_id":85568392924470002,"keywords":["cp","nocrits","nodmgspread","uncletopia"],"game_id":440,"stv_port":27026,"stv_name":"Uncletopia | Sydney | 2 | All Maps | STV","players":null},{"server_id":395,"name":"Uncletopia | Sydney | 3 | All Maps","name_short":"syd-3","host":"syd-1.au.uncletopia.com","port":27035,"enabled":true,"region":"au","cc":"au","latitude":-33.865143,"longitude":151.2099,"reserved":0,"last_update":"0001-01-01T00:00:00Z","name_a2s":"Uncletopia | Sydney | 3 | All Maps","protocol":17,"map":"pl_swiftwater_final1","folder":"tf","game":"Team Fortress","app_id":440,"player_count":0,"max_players":24,"Bots":0,"server_type":"Dedicated","server_os":"Linux","password":true,"vac":true,"version":"7757534","steam_id":85568392925194467,"keywords":["nocrits","nodmgspread","payload","uncletopia"],"game_id":440,"stv_port":27036,"stv_name":"Uncletopia | Sydney | 3 | All Maps | STV","players":null},{"server_id":396,"name":"Uncletopia | Sydney | 4 | All Maps","name_short":"syd-4","host":"syd-1.au.uncletopia.com","port":27045,"enabled":true,"region":"au","cc":"au","latitude":-33.865143,"longitude":151.2099,"reserved":0,"last_update":"0001-01-01T00:00:00Z","name_a2s":"Uncletopia | Sydney | 4 | All Maps","protocol":17,"map":"koth_highpass","folder":"tf","game":"Team Fortress","app_id":440,"player_count":0,"max_players":24,"Bots":0,"server_type":"Dedicated","server_os":"Linux","password":true,"vac":true,"version":"7757534","steam_id":85568392925397958,"keywords":["cp","nocrits","nodmgspread","uncletopia"],"game_id":440,"stv_port":27046,"stv_name":"Uncletopia | Sydney | 4 | All Maps | STV","players":null},{"server_id":58,"name":"Uncletopia | Sydney | 5 | Stopwatch Beta","name_short":"syd-5","host":"syd-1.au.uncletopia.com","port":27055,"enabled":true,"region":"au","cc":"au","latitude":-33.865143,"longitude":151.2099,"reserved":0,"last_update":"0001-01-01T00:00:00Z","name_a2s":"Uncletopia | Sydney | 5 | Stopwatch Beta","protocol":17,"map":"koth_cascade","folder":"tf","game":"Team Fortress","app_id":440,"player_count":0,"max_players":24,"Bots":0,"server_type":"Dedicated","server_os":"Linux","password":true,"vac":true,"version":"7757534","steam_id":85568392925397959,"keywords":["cp","nocrits","nodmgspread","uncletopia"],"game_id":440,"stv_port":27056,"stv_name":"Uncletopia | Sydney | 5 | Stopwatch Beta | STV","players":null},{"server_id":59,"name":"Uncletopia | Sydney | 6 | Community","name_short":"syd-6","host":"syd-1.au.uncletopia.com","port":27065,"enabled":true,"region":"au","cc":"au","latitude":-33.865143,"longitude":151.2099,"reserved":0,"last_update":"0001-01-01T00:00:00Z","name_a2s":"Uncletopia | Sydney | 6 | Community","protocol":17,"map":"workshop/cp_mannbase_rc2a.ugc1900737467","folder":"tf","game":"Team Fortress","app_id":440,"player_count":0,"max_players":24,"Bots":0,"server_type":"Dedicated","server_os":"Linux","password":true,"vac":true,"version":"7757534","steam_id":85568392925397960,"keywords":["cp","nocrits","nodmgspread","uncletopia"],"game_id":440,"stv_port":27066,"stv_name":"Uncletopia | Sydney | 6 | Community | STV","players":null},{"server_id":49,"name":"Uncletopia | Warsaw | 1 | All Maps","name_short":"waw-1","host":"waw-1.pl.uncletopia.com","port":27015,"enabled":true,"region":"eu","cc":"pl","latitude":52.2297,"longitude":21.017532,"reserved":0,"last_update":"0001-01-01T00:00:00Z","name_a2s":"","protocol":0,"map":"","folder":"","game":"","app_id":0,"player_count":0,"max_players":0,"Bots":0,"server_type":"","server_os":"","password":false,"vac":false,"version":"","steam_id":0,"keywords":null,"game_id":0,"stv_port":0,"stv_name":"","players":null},{"server_id":50,"name":"Uncletopia | Warsaw | 2 | All Maps","name_short":"waw-2","host":"waw-1.pl.uncletopia.com","port":27025,"enabled":true,"region":"eu","cc":"pl","latitude":52.2297,"longitude":21.017532,"reserved":0,"last_update":"0001-01-01T00:00:00Z","name_a2s":"Uncletopia | Warsaw | 2 | All Maps","protocol":17,"map":"koth_highpass","folder":"tf","game":"Team Fortress","app_id":440,"player_count":0,"max_players":24,"Bots":0,"server_type":"Dedicated","server_os":"Linux","password":true,"vac":true,"version":"7757534","steam_id":85568392925397851,"keywords":["cp","nocrits","nodmgspread","uncletopia"],"game_id":440,"stv_port":27026,"stv_name":"Uncletopia | Warsaw | 2 | All Maps | STV","players":null},{"server_id":51,"name":"Uncletopia | Warsaw | 3 | All Maps","name_short":"waw-3","host":"waw-1.pl.uncletopia.com","port":27035,"enabled":true,"region":"eu","cc":"pl","latitude":52.2297,"longitude":21.017532,"reserved":0,"last_update":"0001-01-01T00:00:00Z","name_a2s":"Uncletopia | Warsaw | 3 | All Maps","protocol":17,"map":"koth_cascade","folder":"tf","game":"Team Fortress","app_id":440,"player_count":0,"max_players":24,"Bots":0,"server_type":"Dedicated","server_os":"Linux","password":true,"vac":true,"version":"7757534","steam_id":85568392925397852,"keywords":["cp","nocrits","nodmgspread","uncletopia"],"game_id":440,"stv_port":27036,"stv_name":"Uncletopia | Warsaw | 3 | All Maps | STV","players":null},{"server_id":52,"name":"Uncletopia | Warsaw | 4 | All Maps","name_short":"waw-4","host":"waw-1.pl.uncletopia.com","port":27045,"enabled":true,"region":"eu","cc":"pl","latitude":52.2297,"longitude":21.017532,"reserved":0,"last_update":"0001-01-01T00:00:00Z","name_a2s":"Uncletopia | Warsaw | 4 | All Maps","protocol":17,"map":"koth_lakeside_final","folder":"tf","game":"Team Fortress","app_id":440,"player_count":0,"max_players":24,"Bots":0,"server_type":"Dedicated","server_os":"Linux","password":true,"vac":true,"version":"7757534","steam_id":85568392925397853,"keywords":["cp","nocrits","nodmgspread","uncletopia"],"game_id":440,"stv_port":27046,"stv_name":"Uncletopia | Warsaw | 4 | All Maps | STV","players":null},{"server_id":53,"name":"Uncletopia | Warsaw | 5 | Stopwatch Beta","name_short":"waw-5","host":"waw-1.pl.uncletopia.com","port":27055,"enabled":true,"region":"eu","cc":"pl","latitude":52.2297,"longitude":21.017532,"reserved":0,"last_update":"0001-01-01T00:00:00Z","name_a2s":"Uncletopia | Warsaw | 5 | Stopwatch Beta","protocol":17,"map":"pl_borneo","folder":"tf","game":"Team Fortress","app_id":440,"player_count":0,"max_players":24,"Bots":0,"server_type":"Dedicated","server_os":"Linux","password":true,"vac":true,"version":"7757534","steam_id":85568392925397854,"keywords":["nocrits","nodmgspread","payload","uncletopia"],"game_id":440,"stv_port":27056,"stv_name":"Uncletopia | Warsaw | 5 | Stopwatch Beta | STV","players":null},{"server_id":54,"name":"Uncletopia | Warsaw | 6 | Community","name_short":"waw-6","host":"waw-1.pl.uncletopia.com","port":27065,"enabled":true,"region":"eu","cc":"pl","latitude":52.2297,"longitude":21.017532,"reserved":0,"last_update":"0001-01-01T00:00:00Z","name_a2s":"Uncletopia | Warsaw | 6 | Community","protocol":17,"map":"workshop/cp_glacier_rc6.ugc2905735376","folder":"tf","game":"Team Fortress","app_id":440,"player_count":0,"max_players":24,"Bots":0,"server_type":"Dedicated","server_os":"Linux","password":true,"vac":true,"version":"7757534","steam_id":85568392925397856,"keywords":["cp","nocrits","nodmgspread","uncletopia"],"game_id":440,"stv_port":27066,"stv_name":"Uncletopia | Warsaw | 6 | Community | STV","players":null}]}