{"status":true,"message":"","result":[{"server_id":9,"name":"Uncletopia | Atlanta | 1 | All Maps","name_short":"atl-1","host":"atl-1.us.uncletopia.com","port":27015,"enabled":true,"region":"us-east","cc":"us","latitude":33.753746,"longitude":-84.38633,"reserved":0,"last_update":"0001-01-01T00:00:00Z","name_a2s":"Uncletopia | Atlanta | 1 | All Maps","protocol":17,"map":"pl_badwater","folder":"tf","game":"Team Fortress","app_id":440,"player_count":21,"max_players":24,"Bots":0,"server_type":"Dedicated","server_os":"Linux","password":true,"vac":true,"version":"7961495","steam_id":85568392924469982,"keywords":["nocrits","nodmgspread","payload","uncletopia"],"game_id":440,"stv_port":27016,"stv_name":"Uncletopia | Atlanta | 1 | All Maps | STV","players":[{"user_id":321,"name":"Vibey","steam_id":76561198342873474,"connected_time":6000000000,"state":"spawning","ping":56},{"user_id":256,"name":"Brown_Dream","steam_id":76561198975766145,"connected_time":7138000000000,"state":"active","ping":70},{"user_id":271,"name":"Sucsubot","steam_id":76561198106456128,"connected_time":5967000000000,"state":"active","ping":49},{"user_id":289,"name":"BIG HOG","steam_id":76561198079923652,"connected_time":2975000000000,"state":"active","ping":63},{"user_id":257,"name":"Intro Bonito","steam_id":76561198119478838,"connected_time":7041000000000,"state":"active","ping":50},{"user_id":320,"name":"Lilith","steam_id":76561198125102885,"connected_time":104000000000,"state":"active","ping":60},{"user_id":306,"name":"Sinta","steam_id":76561198098398841,"connected_time":1449000000000,"state":"active","ping":59},{"user_id":304,"name":"brotalium","steam_id":76561198055439054,"connected_time":1485000000000,"state":"active","ping":60},{"user_id":309,"name":"Sythoo","steam_id":76561198220893788,"connected_time":1227000000000,"state":"active","ping":71},{"user_id":310,"name":"Pango","steam_id":76561198069811545,"connected_time":746000000000,"state":"active","ping":45},{"user_id":302,"name":"dantheman","steam_id":76561199486390813,"connected_time":1548000000000,"state":"active","ping":61},{"user_id":129,"name":"lil hog","steam_id":76561199230929836,"connected_time":17787000000000,"state":"active","ping":85},{"user_id":299,"name":"z","steam_id":76561198377478982,"connected_time":1883000000000,"state":"active","ping":54},{"user_id":317,"name":"Ashes!","steam_id":76561197998475441,"connected_time":188000000000,"state":"active","ping":55},{"user_id":249,"name":"lilac brooch...","steam_id":76561198333718916,"connected_time":7512000000000,"state":"active","ping":51},{"user_id":316,"name":"SexGaming","steam_id":76561198102182937,"connected_time":255000000000,"state":"active","ping":52},{"user_id":315,"name":"chexo4","steam_id":76561198150532531,"connected_time":452000000000,"state":"active","ping":47},{"user_id":311,"name":"godsu","steam_id":76561197992498834,"connected_time":715000000000,"state":"active","ping":64},{"user_id":312,"name":"Woke Bush","steam_id":76561198047994501,"connected_time":583000000000,"state":"active","ping":41},{"user_id":319,"name":"Brim Reaper","steam_id":76561198325549536,"connected_time":155000000000,"state":"active","ping":69},{"user_id":284,"name":"metalfan666","steam_id":76561198386344068,"connected_time":3797000000000,"state":"active","ping":75}]},{"server_id":104,"name":"Uncletopia | Atlanta | 2 | All Maps","name_short":"atl-2","host":"atl-1.us.uncletopia.com","port":27025,"enabled":true,"region":"us-east","cc":"us","latitude":33.753746,"longitude":-84.38633,"reserved":0,"last_update":"0001-01-01T00:00:00Z","name_a2s":"Uncletopia | Atlanta | 2 | All Maps","protocol":17,"map":"cp_yukon_final","folder":"tf","game":"Team Fortress","app_id":440,"player_count":24,"max_players":24,"Bots":0,"server_type":"Dedicated","server_os":"Linux","password":true,"vac":true,"version":"7961495","steam_id":85568392924469983,"keywords":["cp","nocrits","nodmgspread","uncletopia"],"game_id":440,"stv_port":27026,"stv_name":"Uncletopia | Atlanta | 2 | All Maps | STV","players":[{"user_id":100,"name":"Lander","steam_id":76561198188021354,"connected_time":334000000000,"state":"active","ping":60},{"user_id":94,"name":"professionalhoovy54","steam_id":76561199091028565,"connected_time":613000000000,"state":"active","ping":83},{"user_id":84,"name":"mr. nice guy","steam_id":76561198209333517,"connected_time":1353000000000,"state":"active","ping":76},{"user_id":95,"name":"24aidshe","steam_id":76561198850742314,"connected_time":609000000000,"state":"active","ping":81},{"user_id":77,"name":"Boot Scootin Boogie","steam_id":76561198059171120,"connected_time":1838000000000,"state":"active","ping":66},{"user_id":72,"name":"GibbusGod","steam_id":76561199232436690,"connected_time":2129000000000,"state":"active","ping":47},{"user_id":56,"name":"Luxembird","steam_id":76561198079992107,"connected_time":2566000000000,"state":"active","ping":80},{"user_id":78,"name":"Santamen","steam_id":76561198119478199,"connected_time":1832000000000,"state":"active","ping":55},{"user_id":57,"name":"chen","steam_id":76561198064872330,"connected_time":2549000000000,"state":"active","ping":67},{"user_id":88,"name":"CheetoSmoke7","steam_id":76561198095217273,"connected_time":1077000000000,"state":"active","ping":56},{"user_id":51,"name":"vastrobotmax","steam_id":76561198417110724,"connected_time":3218000000000,"state":"active","ping":76},{"user_id":90,"name":"swagerman90020 from oblock","steam_id":76561199196918355,"connected_time":780000000000,"state":"active","ping":67},{"user_id":102,"name":"Mango","steam_id":76561198359318976,"connected_time":36000000000,"state":"active","ping":106},{"user_id":76,"name":"-SL- Jeb Bush Liberation Army","steam_id":76561198046050045,"connected_time":1919000000000,"state":"active","ping":47},{"user_id":58,"name":"Godmode","steam_id":76561198076240365,"connected_time":2530000000000,"state":"active","ping":82},{"user_id":73,"name":"Carson","steam_id":76561198068551867,"connected_time":2128000000000,"state":"active","ping":71},{"user_id":101,"name":"MillerWhite","steam_id":76561198076060357,"connected_time":74000000000,"state":"active","ping":68},{"user_id":96,"name":"Legit_Jaxer","steam_id":76561198172234053,"connected_time":575000000000,"state":"active","ping":111},{"user_id":98,"name":"2020 RX 350","steam_id":76561199123332348,"connected_time":528000000000,"state":"active","ping":55},{"user_id":32,"name":"Cbv isifjfofienentlgod","steam_id":76561198304661367,"connected_time":4972000000000,"state":"active","ping":60},{"user_id":92,"name":"confield","steam_id":76561198004322265,"connected_time":750000000000,"state":"active","ping":52},{"user_id":74,"name":"HollyBlocky","steam_id":76561198030156100,"connected_time":2127000000000,"state":"active","ping":87},{"user_id":89,"name":"Smiles","steam_id":76561198107197973,"connected_time":964000000000,"state":"active","ping":83},{"user_id":103,"name":"inshallah","steam_id":76561198165212575,"connected_time":11000000000,"state":"spawning","ping":84}]},{"server_id":400,"name":"Uncletopia | Atlanta | 3 | Stopwatch","name_short":"atl-3","host":"atl-1.us.uncletopia.com","port":27035,"enabled":true,"region":"us-east","cc":"us","latitude":33.753746,"longitude":-84.38633,"reserved":0,"last_update":"0001-01-01T00:00:00Z","name_a2s":"Uncletopia | Atlanta | 3 | Stopwatch","protocol":17,"map":"workshop/koth_bagel_rc6.ugc2514036946","folder":"tf","game":"Team Fortress","app_id":440,"player_count":0,"max_players":24,"Bots":0,"server_type":"Dedicated","server_os":"Linux","password":true,"vac":true,"version":"7961495","steam_id":85568392924515187,"keywords":["cp","nocrits","nodmgspread","uncletopia"],"game_id":440,"stv_port":27036,"stv_name":"Uncletopia | Atlanta | 3 | Stopwatch | STV","players":null},{"server_id":401,"name":"Uncletopia | Atlanta | 4 | Community","name_short":"atl-4","host":"atl-1.us.uncletopia.com","port":27045,"enabled":true,"region":"us-east","cc":"us","latitude":33.753746,"longitude":-84.38633,"reserved":0,"last_update":"0001-01-01T00:00:00Z","name_a2s":"Uncletopia | Atlanta | 4 | Community","protocol":17,"map":"workshop/koth_slaughter_rc1.ugc1712845210","folder":"tf","game":"Team Fortress","app_id":440,"player_count":0,"max_players":24,"Bots":0,"server_type":"Dedicated","server_os":"Linux","password":true,"vac":true,"version":"7961495","steam_id":85568392924515188,"keywords":["cp","nocrits","nodmgspread","uncletopia"],"game_id":440,"stv_port":27046,"stv_name":"Uncletopia | Atlanta | 4 | Community | STV","players":null},{"server_id":2,"name":"Uncletopia | Chicago | 1 | All Maps","name_short":"chi-1","host":"chi-1.us.uncletopia.com","port":27015,"enabled":true,"region":"us-central","cc":"us","latitude":41.881832,"longitude":-87.62318,"reserved":0,"last_update":"0001-01-01T00:00:00Z","name_a2s":"Uncletopia | Chicago | 1 | All Maps","protocol":17,"map":"cp_steel","folder":"tf","game":"Team Fortress","app_id":440,"player_count":24,"max_players":24,"Bots":0,"server_type":"Dedicated","server_os":"Linux","password":true,"vac":true,"version":"7961495","steam_id":85568392924469984,"keywords":["cp","nocrits","nodmgspread","uncletopia"],"game_id":440,"stv_port":27016,"stv_name":"Uncletopia | Chicago | 1 | All Maps | STV","players":[{"user_id":99,"name":"Rawhide Kobayashi","steam_id":76561198067051062,"connected_time":7247000000000,"state":"active","ping":37},{"user_id":174,"name":"ADrunkCaliburn","steam_id":76561198390889014,"connected_time":1235000000000,"state":"active","ping":45},{"user_id":165,"name":"Emerald_Knight","steam_id":76561198067372868,"connected_time":2054000000000,"state":"active","ping":45},{"user_id":153,"name":"Cyclops_672","steam_id":76561198080169497,"connected_time":2989000000000,"state":"active","ping":48},{"user_id":180,"name":"Sportaflop","steam_id":76561197964085024,"connected_time":1013000000000,"state":"active","ping":54},{"user_id":183,"name":"BigPapaBrogan","steam_id":76561199012814165,"connected_time":535000000000,"state":"active","ping":74},{"user_id":172,"name":"Robotferret87","steam_id":76561198259837716,"connected_time":1276000000000,"state":"active","ping":74},{"user_id":171,"name":"[UHS] Assistant Manager","steam_id":76561199072970627,"connected_time":1294000000000,"state":"active","ping":46},{"user_id":184,"name":"Howl","steam_id":76561198887354079,"connected_time":514000000000,"state":"active","ping":157},{"user_id":169,"name":"TehOneZoot","steam_id":76561198121944243,"connected_time":1337000000000,"state":"active","ping":75},{"user_id":154,"name":"LegendaryMister151","steam_id":76561198064890524,"connected_time":2876000000000,"state":"active","ping":75},{"user_id":173,"name":"Nintenjoe","steam_id":76561198821530178,"connected_time":1262000000000,"state":"active","ping":71},{"user_id":176,"name":"dave strider","steam_id":76561198065112186,"connected_time":1166000000000,"state":"active","ping":79},{"user_id":164,"name":"Ivory","steam_id":76561198978827841,"connected_time":2128000000000,"state":"active","ping":53},{"user_id":145,"name":"Rornir","steam_id":76561198081829615,"connected_time":3732000000000,"state":"active","ping":44},{"user_id":187,"name":"Black Rose Oncore","steam_id":76561198040489960,"connected_time":309000000000,"state":"active","ping":74},{"user_id":182,"name":"am i iron man","steam_id":76561198302492994,"connected_time":665000000000,"state":"active","ping":89},{"user_id":134,"name":"gps","steam_id":76561198067492304,"connected_time":4779000000000,"state":"active","ping":87},{"user_id":185,"name":"sal","steam_id":76561198814096380,"connected_time":507000000000,"state":"active","ping":76},{"user_id":166,"name":"ChocoMcFudgeCake","steam_id":76561197994591295,"connected_time":1952000000000,"state":"active","ping":46},{"user_id":83,"name":"Sanic","steam_id":76561198083124962,"connected_time":8352000000000,"state":"active","ping":101},{"user_id":186,"name":"Ginger Jesus","steam_id":76561198052386458,"connected_time":464000000000,"state":"active","ping":70},{"user_id":179,"name":"LocaKola","steam_id":76561198173435430,"connected_time":1105000000000,"state":"active","ping":67},{"user_id":168,"name":"Wasab1 Racon","steam_id":76561198271698198,"connected_time":1590000000000,"state":"active","ping":72}]},{"server_id":106,"name":"Uncletopia | Chicago | 2 | All Maps","name_short":"chi-2","host":"chi-1.us.uncletopia.com","port":27025,"enabled":true,"region":"us-central","cc":"us","latitude":41.881832,"longitude":-87.62318,"reserved":0,"last_update":"0001-01-01T00:00:00Z","name_a2s":"Uncletopia | Chicago | 2 | All Maps","protocol":17,"map":"pl_badwater","folder":"tf","game":"Team Fortress","app_id":440,"player_count":24,"max_players":24,"Bots":0,"server_type":"Dedicated","server_os":"Linux","password":true,"vac":true,"version":"7961495","steam_id":85568392924469985,"keywords":["nocrits","nodmgspread","payload","uncletopia"],"game_id":440,"stv_port":27026,"stv_name":"Uncletopia | Chicago | 2 | All Maps | STV","players":[{"user_id":467,"name":"IVV4","steam_id":76561198194356583,"connected_time":1069000000000,"state":"active","ping":69},{"user_id":442,"name":"IronicallyMe","steam_id":76561198882111337,"connected_time":3425000000000,"state":"active","ping":78},{"user_id":447,"name":"·πΩ‚ßâ Lojack Porscheman","steam_id":76561198000173889,"connected_time":3025000000000,"state":"active","ping":75},{"user_id":461,"name":"hcpeful","steam_id":76561198989505188,"connected_time":1631000000000,"state":"active","ping":36},{"user_id":446,"name":"mr.edderkopper","steam_id":76561198152614478,"connected_time":3243000000000,"state":"active","ping":48},{"user_id":463,"name":"Bishop","steam_id":76561198033860186,"connected_time":1548000000000,"state":"active","ping":99},{"user_id":473,"name":"Fermenting Kiwi","steam_id":76561198253303497,"connected_time":858000000000,"state":"active","ping":75},{"user_id":420,"name":"purple diesel","steam_id":76561197976548449,"connected_time":4840000000000,"state":"active","ping":76},{"user_id":458,"name":"soup","steam_id":76561198880568662,"connected_time":1938000000000,"state":"active","ping":67},{"user_id":437,"name":"Johnny Lawrence #JohnnyMaxxing","steam_id":76561199367141671,"connected_time":3594000000000,"state":"active","ping":66},{"user_id":474,"name":"chok","steam_id":76561198242016100,"connected_time":531000000000,"state":"active","ping":90},{"user_id":430,"name":"gaming elliptical","steam_id":76561198013456569,"connected_time":4139000000000,"state":"active","ping":46},{"user_id":472,"name":"Deltaco","steam_id":76561198094572694,"connected_time":1000000000000,"state":"active","ping":118},{"user_id":475,"name":"PK","steam_id":76561198368722500,"connected_time":489000000000,"state":"active","ping":62},{"user_id":300,"name":"Chadmander","steam_id":76561197974136337,"connected_time":15553000000000,"state":"active","ping":45},{"user_id":444,"name":"Wierd Round","steam_id":76561197969205852,"connected_time":3356000000000,"state":"active","ping":70},{"user_id":479,"name":"Juice","steam_id":76561198075111427,"connected_time":304000000000,"state":"active","ping":61},{"user_id":448,"name":"Gene Takovic","steam_id":76561198881039861,"connected_time":3022000000000,"state":"active","ping":46},{"user_id":462,"name":"bob leponge","steam_id":76561199490037538,"connected_time":1570000000000,"state":"active","ping":72},{"user_id":451,"name":"blobb","steam_id":76561198950448488,"connected_time":2984000000000,"state":"active","ping":59},{"user_id":452,"name":"Tobo","steam_id":76561198085846393,"connected_time":2786000000000,"state":"active","ping":83},{"user_id":412,"name":"CrŒªf227","steam_id":76561198196211121,"connected_time":5204000000000,"state":"active","ping":92},{"user_id":477,"name":"WaywardFinn","steam_id":76561198040391296,"connected_time":443000000000,"state":"active","ping":76},{"user_id":427,"name":"ark","steam_id":76561198041066271,"connected_time":4763000000000,"state":"active","ping":75}]},{"server_id":402,"name":"Uncletopia | Chicago | 3 | All Maps","name_short":"chi-3","host":"chi-1.us.uncletopia.com","port":27035,"enabled":true,"region":"us-central","cc":"us","latitude":41.881832,"longitude":-87.62318,"reserved":0,"last_update":"0001-01-01T00:00:00Z","name_a2s":"Uncletopia | Chicago | 3 | All Maps","protocol":17,"map":"koth_lakeside_final","folder":"tf","game":"Team Fortress","app_id":440,"player_count":24,"max_players":24,"Bots":0,"server_type":"Dedicated","server_os":"Linux","password":true,"vac":true,"version":"7961495","steam_id":85568392924515191,"keywords":["cp","nocrits","nodmgspread","uncletopia"],"game_id":440,"stv_port":27036,"stv_name":"Uncletopia | Chicago | 3 | All Maps | STV","players":[{"user_id":183,"name":"Little Skull Boi","steam_id":76561198093595888,"connected_time":2758000000000,"state":"active","ping":99},{"user_id":181,"name":"JohnFMX","steam_id":76561198175608097,"connected_time":2838000000000,"state":"active","ping":68},{"user_id":187,"name":"Fuyutake","steam_id":76561199123206779,"connected_time":2277000000000,"state":"active","ping":55},{"user_id":206,"name":"Soy King","steam_id":76561198263025614,"connected_time":986000000000,"state":"active","ping":93},{"user_id":221,"name":"Jacasola","steam_id":76561198055460402,"connected_time":574000000000,"state":"active","ping":105},{"user_id":137,"name":"Sprucelass","steam_id":76561197998391724,"connected_time":6213000000000,"state":"active","ping":56},{"user_id":171,"name":"Mom","steam_id":76561198207936000,"connected_time":3752000000000,"state":"active","ping":90},{"user_id":172,"name":"Siz","steam_id":76561198072962154,"connected_time":3721000000000,"state":"active","ping":61},{"user_id":222,"name":"Ranger","steam_id":76561198064096654,"connected_time":570000000000,"state":"active","ping":48},{"user_id":162,"name":"DeMarc0","steam_id":76561198150900434,"connected_time":4417000000000,"state":"active","ping":64},{"user_id":223,"name":"Goofy","steam_id":76561199258864976,"connected_time":564000000000,"state":"active","ping":63},{"user_id":218,"name":"Scribble","steam_id":76561198046115675,"connected_time":771000000000,"state":"active","ping":63},{"user_id":193,"name":"wendigo","steam_id":76561197994528974,"connected_time":1638000000000,"state":"active","ping":88},{"user_id":210,"name":"Im totally a hacker","steam_id":76561198888005736,"connected_time":897000000000,"state":"active","ping":75},{"user_id":217,"name":"paisano","steam_id":76561198065575472,"connected_time":812000000000,"state":"active","ping":60},{"user_id":226,"name":"rontu","steam_id":76561199488492003,"connected_time":167000000000,"state":"active","ping":56},{"user_id":212,"name":"Mix56374","steam_id":76561199093717909,"connected_time":889000000000,"state":"active","ping":107},{"user_id":225,"name":"Inevitable","steam_id":76561198210050169,"connected_time":386000000000,"state":"active","ping":73},{"user_id":213,"name":"benjamator67","steam_id":76561198209002860,"connected_time":888000000000,"state":"active","ping":36},{"user_id":214,"name":"PeePeePooPooMan","steam_id":76561198081691802,"connected_time":870000000000,"state":"active","ping":69},{"user_id":227,"name":"SD","steam_id":76561198217410988,"connected_time":102000000000,"state":"active","ping":104},{"user_id":216,"name":"Inx Blott","steam_id":76561198044092009,"connected_time":858000000000,"state":"active","ping":96},{"user_id":195,"name":"BOO HAWND","steam_id":76561198141617142,"connected_time":1632000000000,"state":"active","ping":81},{"user_id":196,"name":"Luucyf3r","steam_id":76561198141820085,"connected_time":1604000000000,"state":"active","ping":77}]},{"server_id":403,"name":"Uncletopia | Chicago | 4 | All Maps","name_short":"chi-4","host":"chi-1.us.uncletopia.com","port":27045,"enabled":true,"region":"us-central","cc":"us","latitude":41.881832,"longitude":-87.62318,"reserved":0,"last_update":"0001-01-01T00:00:00Z","name_a2s":"Uncletopia | Chicago | 4 | All Maps","protocol":17,"map":"pl_rumford_event","folder":"tf","game":"Team Fortress","app_id":440,"player_count":0,"max_players":24,"Bots":0,"server_type":"Dedicated","server_os":"Linux","password":true,"vac":true,"version":"7961495","steam_id":85568392924515193,"keywords":["nocrits","nodmgspread","payload","uncletopia"],"game_id":440,"stv_port":27046,"stv_name":"Uncletopia | Chicago | 4 | All Maps | STV","players":null},{"server_id":36,"name":"Uncletopia | Chicago | 5 | All Maps","name_short":"chi-5","host":"chi-2.us.uncletopia.com","port":27015,"enabled":true,"region":"us-central","cc":"us","latitude":41.881832,"longitude":-87.62318,"reserved":0,"last_update":"0001-01-01T00:00:00Z","name_a2s":"Uncletopia | Chicago | 5 | All Maps","protocol":17,"map":"pl_barnblitz","folder":"tf","game":"Team Fortress","app_id":440,"player_count":24,"max_players":24,"Bots":0,"server_type":"Dedicated","server_os":"Linux","password":true,"vac":true,"version":"7961495","steam_id":85568392924866362,"keywords":["nocrits","nodmgspread","payload","uncletopia"],"game_id":440,"stv_port":27016,"stv_name":"Uncletopia | Chicago | 5 | All Maps | STV","players":[{"user_id":503,"name":"Reed","steam_id":76561198102058669,"connected_time":2056000000000,"state":"active","ping":69},{"user_id":457,"name":"Chris P. Bacon","steam_id":76561199083417745,"connected_time":4041000000000,"state":"active","ping":113},{"user_id":535,"name":"monky (funky)","steam_id":76561198350027075,"connected_time":315000000000,"state":"active","ping":59},{"user_id":494,"name":"fish (2:3)","steam_id":76561198134331073,"connected_time":2825000000000,"state":"active","ping":95},{"user_id":502,"name":"Cabbage","steam_id":76561198405573530,"connected_time":2352000000000,"state":"active","ping":56},{"user_id":496,"name":"Captaindux","steam_id":76561198045390541,"connected_time":2731000000000,"state":"active","ping":59},{"user_id":522,"name":"esparz50","steam_id":76561198127117513,"connected_time":868000000000,"state":"active","ping":120},{"user_id":517,"name":"Beast_727","steam_id":76561198390289197,"connected_time":1318000000000,"state":"active","ping":55},{"user_id":518,"name":"Brainrot","steam_id":76561198069185888,"connected_time":1287000000000,"state":"active","ping":68},{"user_id":532,"name":"Grimprr","steam_id":76561198275816797,"connected_time":396000000000,"state":"active","ping":69},{"user_id":466,"name":"Buswolley","steam_id":76561197995205571,"connected_time":3705000000000,"state":"active","ping":89},{"user_id":523,"name":"Plast","steam_id":76561198059668519,"connected_time":838000000000,"state":"active","ping":64},{"user_id":533,"name":"narko","steam_id":76561198215832523,"connected_time":390000000000,"state":"active","ping":100},{"user_id":524,"name":"CyMeryy","steam_id":76561197984986540,"connected_time":824000000000,"state":"active","ping":59},{"user_id":525,"name":"Jango","steam_id":76561198084589742,"connected_time":739000000000,"state":"active","ping":83},{"user_id":530,"name":"TF2 Ham","steam_id":76561199024930552,"connected_time":416000000000,"state":"active","ping":77},{"user_id":432,"name":"nufyivuyda","steam_id":76561199499476489,"connected_time":5479000000000,"state":"active","ping":98},{"user_id":538,"name":"Mel","steam_id":76561198086844531,"connected_time":244000000000,"state":"active","ping":82},{"user_id":514,"name":"Nixon Me, Dixon Me","steam_id":76561198126519537,"connected_time":1392000000000,"state":"active","ping":74},{"user_id":505,"name":"frenemy","steam_id":76561198011363677,"connected_time":1869000000000,"state":"active","ping":62},{"user_id":537,"name":"Supa Dupt","steam_id":76561198166666289,"connected_time":291000000000,"state":"active","ping":79},{"user_id":520,"name":"Gregory","steam_id":76561199070901945,"connected_time":1118000000000,"state":"active","ping":77},{"user_id":513,"name":"Darkshadows","steam_id":76561198051424894,"connected_time":1442000000000,"state":"active","ping":102},{"user_id":534,"name":"Chucklin","steam_id":76561198010823579,"connected_time":386000000000,"state":"active","ping":71}]},{"server_id":37,"name":"Uncletopia | Chicago | 6 | All Maps","name_short":"chi-6","host":"chi-2.us.uncletopia.com","port":27025,"enabled":true,"region":"us-central","cc":"us","latitude":41.881832,"longitude":-87.62318,"reserved":0,"last_update":"0001-01-01T00:00:00Z","name_a2s":"Uncletopia | Chicago | 6 | All Maps","protocol":17,"map":"cp_snakewater_final1","folder":"tf","game":"Team Fortress","app_id":440,"player_count":0,"max_players":24,"Bots":0,"server_type":"Dedicated","server_os":"Linux","password":true,"vac":true,"version":"7961495","steam_id":85568392924866363,"keywords":["cp","nocrits","nodmgspread","uncletopia"],"game_id":440,"stv_port":27026,"stv_name":"Uncletopia | Chicago | 6 | All Maps | STV","players":null},{"server_id":38,"name":"Uncletopia | Chicago | 7 | Stopwatch","name_short":"chi-7","host":"chi-2.us.uncletopia.com","port":27035,"enabled":true,"region":"us-central","cc":"us","latitude":41.881832,"longitude":-87.62318,"reserved":0,"last_update":"0001-01-01T00:00:00Z","name_a2s":"Uncletopia | Chicago | 7 | Stopwatch","protocol":17,"map":"pl_upward","folder":"tf","game":"Team Fortress","app_id":440,"player_count":0,"max_players":24,"Bots":0,"server_type":"Dedicated","server_os":"Linux","password":true,"vac":true,"version":"7961495","steam_id":85568392924866364,"keywords":["nocrits","nodmgspread","payload","uncletopia"],"game_id":440,"stv_port":27036,"stv_name":"Uncletopia | Chicago | 7 | Stopwatch | STV","players":null},{"server_id":39,"name":"Uncletopia | Chicago | 8 | Community","name_short":"chi-8","host":"chi-2.us.uncletopia.com","port":27045,"enabled":true,"region":"us-central","cc":"us","latitude":41.881832,"longitude":-87.62318,"reserved":0,"last_update":"0001-01-01T00:00:00Z","name_a2s":"Uncletopia | Chicago | 8 | Community","protocol":17,"map":"workshop/cp_glassworks_rc7a.ugc454118349","folder":"tf","game":"Team Fortress","app_id":440,"player_count":21,"max_players":24,"Bots":0,"server_type":"Dedicated","server_os":"Linux","password":true,"vac":true,"version":"7961495","steam_id":85568392924866365,"keywords":["cp","nocrits","nodmgspread","uncletopia"],"game_id":440,"stv_port":27046,"stv_name":"Uncletopia | Chicago | 8 | Community | STV","players":[{"user_id":114,"name":"MUG","steam_id":76561199353656571,"connected_time":1230000000000,"state":"active","ping":54},{"user_id":113,"name":"Panzer4000","steam_id":76561198121308618,"connected_time":1436000000000,"state":"active","ping":49},{"user_id":115,"name":"Aeris","steam_id":76561198287271028,"connected_time":1170000000000,"state":"active","ping":49},{"user_id":48,"name":"mothra","steam_id":76561198994634058,"connected_time":5873000000000,"state":"active","ping":71},{"user_id":116,"name":"Nachtigall Honeybeefox","steam_id":76561198322389059,"connected_time":1134000000000,"state":"active","ping":108},{"user_id":117,"name":"dweamy","steam_id":76561198119181880,"connected_time":1128000000000,"state":"active","ping":66},{"user_id":135,"name":"mr, mean","steam_id":76561198095048900,"connected_time":60000000000,"state":"active","ping":46},{"user_id":118,"name":"üÖúüÖîüÖîüÖöüÖ¢üÖ£üÖî\ufffd\ufffd\ufffd","steam_id":76561197999748343,"connected_time":1038000000000,"state":"active","ping":61},{"user_id":130,"name":"jamie ‚õü","steam_id":76561198333032571,"connected_time":288000000000,"state":"active","ping":90},{"user_id":132,"name":"The Glute Guardian","steam_id":76561198189330642,"connected_time":269000000000,"state":"active","ping":103},{"user_id":119,"name":"Blitzy","steam_id":76561198149472890,"connected_time":1007000000000,"state":"active","ping":75},{"user_id":120,"name":"Emails","steam_id":76561198836919458,"connected_time":967000000000,"state":"active","ping":62},{"user_id":121,"name":"suger1316","steam_id":76561199079999423,"connected_time":937000000000,"state":"active","ping":67},{"user_id":98,"name":"damn dude","steam_id":76561198065528284,"connected_time":2979000000000,"state":"active","ping":56},{"user_id":125,"name":"norpy","steam_id":76561198966140552,"connected_time":631000000000,"state":"active","ping":67},{"user_id":138,"name":"Nekomancer","steam_id":76561198063957846,"connected_time":33000000000,"state":"spawning","ping":352},{"user_id":136,"name":"Wescool121","steam_id":76561198351313234,"connected_time":41000000000,"state":"active","ping":96},{"user_id":124,"name":"Jesse Bear","steam_id":76561198217075305,"connected_time":697000000000,"state":"active","ping":75},{"user_id":137,"name":"Odyessy","steam_id":76561198051564419,"connected_time":36000000000,"state":"spawning","ping":336},{"user_id":129,"name":"BEEEEEEEEEEEEEEEES","steam_id":76561199431280503,"connected_time":347000000000,"state":"active","ping":75},{"user_id":139,"name":"Convenient Strip Mall","steam_id":76561198164678062,"connected_time":28000000000,"state":"active","ping":98}]},{"server_id":8,"name":"Uncletopia | Dallas | 1 | All Maps","name_short":"dal-1","host":"dal-1.us.uncletopia.com","port":27015,"enabled":true,"region":"us-central","cc":"us","latitude":32.779167,"longitude":-96.80889,"reserved":0,"last_update":"0001-01-01T00:00:00Z","name_a2s":"Uncletopia | Dallas | 1 | All Maps","protocol":17,"map":"pl_snowycoast","folder":"tf","game":"Team Fortress","app_id":440,"player_count":24,"max_players":24,"Bots":0,"server_type":"Dedicated","server_os":"Linux","password":true,"vac":true,"version":"7961495","steam_id":85568392924469986,"keywords":["nocrits","nodmgspread","payload","uncletopia"],"game_id":440,"stv_port":27016,"stv_name":"Uncletopia | Dallas | 1 | All Maps | STV","players":[{"user_id":49,"name":"Fredrick","steam_id":76561197981419964,"connected_time":565000000000,"state":"active","ping":82},{"user_id":54,"name":"Chai","steam_id":76561198044327873,"connected_time":339000000000,"state":"active","ping":93},{"user_id":15,"name":"HeHedron","steam_id":76561199199667164,"connected_time":2441000000000,"state":"active","ping":60},{"user_id":47,"name":"Mythical Lag","steam_id":76561198347031281,"connected_time":595000000000,"state":"active","ping":56},{"user_id":48,"name":"mousejumper","steam_id":76561198220181353,"connected_time":579000000000,"state":"active","ping":82},{"user_id":44,"name":"Pidgenn","steam_id":76561198367926202,"connected_time":1049000000000,"state":"active","ping":42},{"user_id":19,"name":"FanaticSalt","steam_id":76561199380123059,"connected_time":2176000000000,"state":"active","ping":35},{"user_id":55,"name":"_copkilla.B1G$L1M‚Ç¨.zaddY_","steam_id":76561198283687382,"connected_time":332000000000,"state":"active","ping":80},{"user_id":21,"name":"StudioMania (#SAVETF2)","steam_id":76561198211315795,"connected_time":2151000000000,"state":"active","ping":69},{"user_id":25,"name":"Lord_Manship","steam_id":76561198045168765,"connected_time":1951000000000,"state":"active","ping":98},{"user_id":27,"name":"Splexiey","steam_id":76561199122155213,"connected_time":1745000000000,"state":"active","ping":86},{"user_id":52,"name":"Femboy Garfield","steam_id":76561198356164204,"connected_time":382000000000,"state":"active","ping":86},{"user_id":26,"name":"tsz","steam_id":76561199246231090,"connected_time":1947000000000,"state":"active","ping":67},{"user_id":53,"name":"moe","steam_id":76561198929586245,"connected_time":364000000000,"state":"active","ping":75},{"user_id":51,"name":"dude","steam_id":76561198042851124,"connected_time":437000000000,"state":"active","ping":72},{"user_id":34,"name":"Shark Sandwich","steam_id":76561198025007938,"connected_time":1615000000000,"state":"active","ping":105},{"user_id":31,"name":"Belvidere","steam_id":76561198121336953,"connected_time":1670000000000,"state":"active","ping":84},{"user_id":35,"name":"pup","steam_id":76561198145921847,"connected_time":1615000000000,"state":"active","ping":72},{"user_id":50,"name":"lettuc3","steam_id":76561199120230699,"connected_time":480000000000,"state":"active","ping":90},{"user_id":38,"name":"Sudsen","steam_id":76561198370603787,"connected_time":1560000000000,"state":"active","ping":114},{"user_id":39,"name":"Lain","steam_id":76561198118282205,"connected_time":1555000000000,"state":"active","ping":114},{"user_id":40,"name":"SaaxoM","steam_id":76561198208256603,"connected_time":1552000000000,"state":"active","ping":76},{"user_id":41,"name":"Umbrazeta","steam_id":76561198122650609,"connected_time":1548000000000,"state":"active","ping":56},{"user_id":42,"name":"Hobbes","steam_id":76561198087956236,"connected_time":1548000000000,"state":"active","ping":80}]},{"server_id":108,"name":"Uncletopia | Dallas | 2 | All Maps","name_short":"dal-2","host":"dal-1.us.uncletopia.com","port":27025,"enabled":true,"region":"us-central","cc":"us","latitude":32.779167,"longitude":-96.80889,"reserved":0,"last_update":"0001-01-01T00:00:00Z","name_a2s":"Uncletopia | Dallas | 2 | All Maps","protocol":17,"map":"pl_pier","folder":"tf","game":"Team Fortress","app_id":440,"player_count":24,"max_players":24,"Bots":0,"server_type":"Dedicated","server_os":"Linux","password":true,"vac":true,"version":"7961495","steam_id":85568392924469988,"keywords":["nocrits","nodmgspread","payload","uncletopia"],"game_id":440,"stv_port":27026,"stv_name":"Uncletopia | Dallas | 2 | All Maps | STV","players":[{"user_id":62,"name":"Temujin","steam_id":76561198030936583,"connected_time":1365000000000,"state":"active","ping":75},{"user_id":83,"name":"Gigabars","steam_id":76561198119267479,"connected_time":681000000000,"state":"active","ping":79},{"user_id":63,"name":"DarkFalconDX","steam_id":76561199213908323,"connected_time":1353000000000,"state":"active","ping":52},{"user_id":85,"name":"Gull","steam_id":76561198161560332,"connected_time":658000000000,"state":"active","ping":91},{"user_id":64,"name":"bigchungusgaming(real)","steam_id":76561198273392037,"connected_time":1342000000000,"state":"active","ping":76},{"user_id":74,"name":"peanut butter","steam_id":76561198071834647,"connected_time":725000000000,"state":"active","ping":46},{"user_id":69,"name":"‚ú™·¥ç√∂ Ä·¥ã√∂‚ú™","steam_id":76561198114429501,"connected_time":1071000000000,"state":"active","ping":174},{"user_id":71,"name":"playguy carter","steam_id":76561198080679337,"connected_time":886000000000,"state":"active","ping":83},{"user_id":29,"name":"Uluyo","steam_id":76561198065857148,"connected_time":3230000000000,"state":"active","ping":74},{"user_id":90,"name":"DMM","steam_id":76561198065426171,"connected_time":217000000000,"state":"active","ping":58},{"user_id":32,"name":"American freedom bird","steam_id":76561198366142388,"connected_time":3151000000000,"state":"active","ping":80},{"user_id":34,"name":"Moonflower ‚ú¶","steam_id":76561198191782483,"connected_time":3000000000000,"state":"active","ping":56},{"user_id":36,"name":"Alkimia","steam_id":76561198385763137,"connected_time":2913000000000,"state":"active","ping":105},{"user_id":37,"name":"radical larry","steam_id":76561198172246829,"connected_time":2863000000000,"state":"active","ping":74},{"user_id":95,"name":"fish","steam_id":76561198182052198,"connected_time":56000000000,"state":"active","ping":65},{"user_id":86,"name":"Soma Addict","steam_id":76561198951830050,"connected_time":633000000000,"state":"active","ping":51},{"user_id":66,"name":"Tcmano","steam_id":76561198057233847,"connected_time":1274000000000,"state":"active","ping":85},{"user_id":67,"name":"Mediocre Gaming","steam_id":76561199230467980,"connected_time":1224000000000,"state":"active","ping":75},{"user_id":44,"name":"MangoMaster7834","steam_id":76561199231165397,"connected_time":2765000000000,"state":"active","ping":104},{"user_id":92,"name":"Certified Hood Classic","steam_id":76561199086159354,"connected_time":175000000000,"state":"active","ping":45},{"user_id":88,"name":"on my backup mouse","steam_id":76561198072179483,"connected_time":486000000000,"state":"active","ping":119},{"user_id":68,"name":"CeLeb144","steam_id":76561199089907740,"connected_time":1182000000000,"state":"active","ping":64},{"user_id":58,"name":"Dosux2","steam_id":76561198390916062,"connected_time":2002000000000,"state":"active","ping":137},{"user_id":48,"name":"DreamlessKnight","steam_id":76561198414469325,"connected_time":2742000000000,"state":"active","ping":89}]},{"server_id":404,"name":"Uncletopia | Dallas | 3 | All Maps","name_short":"dal-3","host":"dal-1.us.uncletopia.com","port":27035,"enabled":true,"region":"us-central","cc":"us","latitude":32.779167,"longitude":-96.80889,"reserved":0,"last_update":"0001-01-01T00:00:00Z","name_a2s":"Uncletopia | Dallas | 3 | All Maps","protocol":17,"map":"cp_coldfront","folder":"tf","game":"Team Fortress","app_id":440,"player_count":0,"max_players":24,"Bots":0,"server_type":"Dedicated","server_os":"Linux","password":true,"vac":true,"version":"7961495","steam_id":85568392924515219,"keywords":["cp","nocrits","nodmgspread","uncletopia"],"game_id":440,"stv_port":27036,"stv_name":"Uncletopia | Dallas | 3 | All Maps | STV","players":null},{"server_id":405,"name":"Uncletopia | Dallas | 4 | Community","name_short":"dal-4","host":"dal-1.us.uncletopia.com","port":27045,"enabled":true,"region":"us-central","cc":"us","latitude":32.779167,"longitude":-96.80889,"reserved":0,"last_update":"0001-01-01T00:00:00Z","name_a2s":"Uncletopia | Dallas | 4 | Community","protocol":17,"map":"workshop/koth_ashville_final.ugc2130459942","folder":"tf","game":"Team Fortress","app_id":440,"player_count":0,"max_players":24,"Bots":0,"server_type":"Dedicated","server_os":"Linux","password":true,"vac":true,"version":"7961495","steam_id":85568392924515220,"keywords":["cp","nocrits","nodmgspread","uncletopia"],"game_id":440,"stv_port":27046,"stv_name":"Uncletopia | Dallas | 4 | Community | STV","players":null},{"server_id":5,"name":"Uncletopia | Frankfurt | 1 | All Maps","name_short":"frk-1","host":"frk-1.de.uncletopia.com","port":27015,"enabled":true,"region":"eu","cc":"de","latitude":50.110924,"longitude":8.682127,"reserved":0,"last_update":"0001-01-01T00:00:00Z","name_a2s":"Uncletopia | Frankfurt | 1 | All Maps","protocol":17,"map":"pl_barnblitz","folder":"tf","game":"Team Fortress","app_id":440,"player_count":23,"max_players":24,"Bots":0,"server_type":"Dedicated","server_os":"Linux","password":true,"vac":true,"version":"7961495","steam_id":85568392924469989,"keywords":["nocrits","nodmgspread","payload","uncletopia"],"game_id":440,"stv_port":27016,"stv_name":"Uncletopia | Frankfurt | 1 | All Maps | STV","players":[{"user_id":586,"name":"Hagi","steam_id":76561198011192902,"connected_time":1860000000000,"state":"active","ping":90},{"user_id":583,"name":"ay","steam_id":76561198033695429,"connected_time":1937000000000,"state":"active","ping":51},{"user_id":585,"name":"Mr torque","steam_id":76561198148448716,"connected_time":1865000000000,"state":"active","ping":57},{"user_id":587,"name":"Kevin","steam_id":76561198021280093,"connected_time":1830000000000,"state":"active","ping":96},{"user_id":588,"name":"Dont Beat Me Dad","steam_id":76561198347265410,"connected_time":1814000000000,"state":"active","ping":73},{"user_id":594,"name":"randem_","steam_id":76561198338793755,"connected_time":1527000000000,"state":"active","ping":55},{"user_id":623,"name":"DoctorDrew","steam_id":76561197962400538,"connected_time":216000000000,"state":"active","ping":151},{"user_id":622,"name":"KillerQueen (he/they/she)","steam_id":76561199019399725,"connected_time":246000000000,"state":"active","ping":59},{"user_id":606,"name":"FoOzTV","steam_id":76561197998636728,"connected_time":707000000000,"state":"active","ping":84},{"user_id":619,"name":"[KZ] TenGr1_G4m3r","steam_id":76561198107460765,"connected_time":359000000000,"state":"active","ping":47},{"user_id":576,"name":"0Angel","steam_id":76561197991149080,"connected_time":3221000000000,"state":"active","ping":50},{"user_id":596,"name":"spy","steam_id":76561199402711007,"connected_time":1464000000000,"state":"active","ping":120},{"user_id":597,"name":"monsterISfun","steam_id":76561198121734867,"connected_time":1448000000000,"state":"active","ping":80},{"user_id":615,"name":"Jonas","steam_id":76561199441196540,"connected_time":457000000000,"state":"active","ping":60},{"user_id":598,"name":"minx","steam_id":76561198075551260,"connected_time":1369000000000,"state":"active","ping":101},{"user_id":612,"name":"Agro | KritzKast","steam_id":76561197970498549,"connected_time":508000000000,"state":"active","ping":59},{"user_id":618,"name":"‚òÅ Lou1smeister ‚òÅ","steam_id":76561198004032968,"connected_time":371000000000,"state":"active","ping":74},{"user_id":546,"name":"Carl","steam_id":76561198045638738,"connected_time":6645000000000,"state":"active","ping":56},{"user_id":624,"name":"mq","steam_id":76561198091888948,"connected_time":157000000000,"state":"active","ping":63},{"user_id":614,"name":"redlix","steam_id":76561198119413461,"connected_time":490000000000,"state":"active","ping":51},{"user_id":617,"name":"doktor spiele","steam_id":76561199057953617,"connected_time":380000000000,"state":"active","ping":60},{"user_id":620,"name":"M Nsky","steam_id":76561198011749653,"connected_time":353000000000,"state":"active","ping":62},{"user_id":549,"name":"cheriberry","steam_id":76561198093577036,"connected_time":5531000000000,"state":"active","ping":54}]},{"server_id":110,"name":"Uncletopia | Frankfurt | 2 | All Maps","name_short":"frk-2","host":"frk-1.de.uncletopia.com","port":27025,"enabled":true,"region":"eu","cc":"de","latitude":50.110924,"longitude":8.682127,"reserved":0,"last_update":"0001-01-01T00:00:00Z","name_a2s":"Uncletopia | Frankfurt | 2 | All Maps","protocol":17,"map":"cp_dustbowl","folder":"tf","game":"Team Fortress","app_id":440,"player_count":24,"max_players":24,"Bots":0,"server_type":"Dedicated","server_os":"Linux","password":true,"vac":true,"version":"7961495","steam_id":85568392924469990,"keywords":["cp","nocrits","nodmgspread","uncletopia"],"game_id":440,"stv_port":27026,"stv_name":"Uncletopia | Frankfurt | 2 | All Maps | STV","players":[{"user_id":575,"name":"bongo","steam_id":76561198015489880,"connected_time":2642000000000,"state":"active","ping":53},{"user_id":566,"name":"joachym","steam_id":76561198428579761,"connected_time":3471000000000,"state":"active","ping":53},{"user_id":574,"name":"Mr.Shpee","steam_id":76561198158701474,"connected_time":2798000000000,"state":"active","ping":81},{"user_id":607,"name":"XxBenShapiro420xX","steam_id":76561199229373972,"connected_time":15000000000,"state":"active","ping":67},{"user_id":562,"name":"KlomboFan","steam_id":76561198108851389,"connected_time":3602000000000,"state":"active","ping":62},{"user_id":543,"name":"yeL7owore","steam_id":76561198160173286,"connected_time":4218000000000,"state":"active","ping":87},{"user_id":595,"name":"Lemon","steam_id":76561198188535947,"connected_time":1125000000000,"state":"active","ping":71},{"user_id":606,"name":"The Power","steam_id":76561198060566884,"connected_time":69000000000,"state":"active","ping":41},{"user_id":580,"name":"hgvgdwa","steam_id":76561198156499356,"connected_time":1929000000000,"state":"active","ping":67},{"user_id":581,"name":"fen√≥meno","steam_id":76561198315371425,"connected_time":1920000000000,"state":"active","ping":59},{"user_id":583,"name":"Nico","steam_id":76561197984991962,"connected_time":1785000000000,"state":"active","ping":107},{"user_id":494,"name":"Kriofty","steam_id":76561198811696536,"connected_time":5729000000000,"state":"active","ping":81},{"user_id":545,"name":"compact disc","steam_id":76561198154677956,"connected_time":4134000000000,"state":"active","ping":59},{"user_id":604,"name":"Raptormage","steam_id":76561198135921915,"connected_time":446000000000,"state":"active","ping":67},{"user_id":546,"name":"BL√ÖHAJ","steam_id":76561197996473698,"connected_time":4057000000000,"state":"active","ping":97},{"user_id":598,"name":"Finem Belli","steam_id":76561198227177976,"connected_time":945000000000,"state":"active","ping":50},{"user_id":603,"name":"Para Bellum","steam_id":76561198375413446,"connected_time":619000000000,"state":"active","ping":47},{"user_id":496,"name":"Snowmotion","steam_id":76561198075022454,"connected_time":5715000000000,"state":"active","ping":45},{"user_id":596,"name":"wvillen2","steam_id":76561198116258209,"connected_time":1113000000000,"state":"active","ping":143},{"user_id":600,"name":"Caramel","steam_id":76561198021214844,"connected_time":885000000000,"state":"active","ping":59},{"user_id":599,"name":"maikemi","steam_id":76561197997232219,"connected_time":939000000000,"state":"active","ping":57},{"user_id":590,"name":"Waffel","steam_id":76561198113552009,"connected_time":1607000000000,"state":"active","ping":104},{"user_id":591,"name":"please do not the cat","steam_id":76561198089003514,"connected_time":1597000000000,"state":"active","ping":45},{"user_id":601,"name":"Ball Sniffer 23","steam_id":76561198272318229,"connected_time":696000000000,"state":"active","ping":134}]},{"server_id":308,"name":"Uncletopia | Frankfurt | 3 | All Maps","name_short":"frk-3","host":"frk-1.de.uncletopia.com","port":27035,"enabled":true,"region":"eu","cc":"de","latitude":50.110924,"longitude":8.682127,"reserved":0,"last_update":"0001-01-01T00:00:00Z","name_a2s":"Uncletopia | Frankfurt | 3 | All Maps","protocol":17,"map":"cp_steel","folder":"tf","game":"Team Fortress","app_id":440,"player_count":23,"max_players":24,"Bots":0,"server_type":"Dedicated","server_os":"Linux","password":true,"vac":true,"version":"7961495","steam_id":85568392924504274,"keywords":["cp","nocrits","nodmgspread","uncletopia"],"game_id":440,"stv_port":27036,"stv_name":"Uncletopia | Frankfurt | 3 | All Maps | STV","players":[{"user_id":315,"name":"REN","steam_id":76561198000596385,"connected_time":2108000000000,"state":"active","ping":54},{"user_id":362,"name":"ColdGaming87","steam_id":76561198351431631,"connected_time":29000000000,"state":"connecting","ping":0},{"user_id":337,"name":"Snook","steam_id":76561198086981861,"connected_time":919000000000,"state":"active","ping":75},{"user_id":355,"name":"dfcv rftgvb ghtb","steam_id":76561198397764042,"connected_time":385000000000,"state":"active","ping":73},{"user_id":288,"name":"Meff","steam_id":76561197970610839,"connected_time":3767000000000,"state":"active","ping":45},{"user_id":289,"name":"jon","steam_id":76561198031544468,"connected_time":3761000000000,"state":"active","ping":86},{"user_id":358,"name":"fleeko","steam_id":76561198064899733,"connected_time":269000000000,"state":"active","ping":64},{"user_id":332,"name":"darkusio","steam_id":76561197976493695,"connected_time":1375000000000,"state":"active","ping":62},{"user_id":331,"name":"Seb, Comrade","steam_id":76561198040279587,"connected_time":1509000000000,"state":"active","ping":97},{"user_id":347,"name":"24.99$ IKEA Cabinet","steam_id":76561199345458914,"connected_time":624000000000,"state":"active","ping":137},{"user_id":339,"name":"sleepy","steam_id":76561199013314440,"connected_time":889000000000,"state":"active","ping":127},{"user_id":306,"name":"Razef","steam_id":76561198030309484,"connected_time":3188000000000,"state":"active","ping":75},{"user_id":344,"name":"Salty","steam_id":76561198046333417,"connected_time":684000000000,"state":"active","ping":67},{"user_id":356,"name":"Scr0b  ï·µî·¥•·µî î","steam_id":76561198100855323,"connected_time":378000000000,"state":"active","ping":60},{"user_id":321,"name":"Hann√º","steam_id":76561197969886128,"connected_time":1908000000000,"state":"active","ping":56},{"user_id":345,"name":"luppakorva \u003c3","steam_id":76561198054004758,"connected_time":671000000000,"state":"active","ping":61},{"user_id":346,"name":"r√§ppiraideri @ oulu","steam_id":76561198041283696,"connected_time":664000000000,"state":"active","ping":86},{"user_id":348,"name":"Estamie","steam_id":76561198058527691,"connected_time":623000000000,"state":"active","ping":75},{"user_id":351,"name":"blueninjakillerscp","steam_id":76561199506312505,"connected_time":606000000000,"state":"active","ping":142},{"user_id":325,"name":"Arsonist","steam_id":76561199087953833,"connected_time":1865000000000,"state":"active","ping":108},{"user_id":326,"name":"LivEssense","steam_id":76561198052476979,"connected_time":1833000000000,"state":"active","ping":76},{"user_id":286,"name":"nrvvs","steam_id":76561199134714492,"connected_time":3869000000000,"state":"active","ping":155},{"user_id":330,"name":"Hellheim_Prime","steam_id":76561198379799377,"connected_time":1576000000000,"state":"active","ping":91}]},{"server_id":309,"name":"Uncletopia | Frankfurt | 4 | All Maps","name_short":"frk-4","host":"frk-1.de.uncletopia.com","port":27045,"enabled":true,"region":"eu","cc":"de","latitude":50.110924,"longitude":8.682127,"reserved":0,"last_update":"0001-01-01T00:00:00Z","name_a2s":"Uncletopia | Frankfurt | 4 | All Maps","protocol":17,"map":"cp_snakewater_final1","folder":"tf","game":"Team Fortress","app_id":440,"player_count":24,"max_players":24,"Bots":0,"server_type":"Dedicated","server_os":"Linux","password":true,"vac":true,"version":"7961495","steam_id":85568392924504275,"keywords":["cp","nocrits","nodmgspread","uncletopia"],"game_id":440,"stv_port":27046,"stv_name":"Uncletopia | Frankfurt | 4 | All Maps | STV","players":[{"user_id":407,"name":"Fedm","steam_id":76561199020090514,"connected_time":1463000000000,"state":"active","ping":65},{"user_id":404,"name":"vk rat makes me erect","steam_id":76561198355965587,"connected_time":1560000000000,"state":"active","ping":74},{"user_id":393,"name":"herbal tea","steam_id":76561197980736364,"connected_time":2138000000000,"state":"active","ping":73},{"user_id":427,"name":"muertvu vam mater jebem","steam_id":76561198048029847,"connected_time":107000000000,"state":"active","ping":67},{"user_id":420,"name":"Sugardaddy_pep","steam_id":76561198807512589,"connected_time":1145000000000,"state":"active","ping":61},{"user_id":417,"name":"Dotsya","steam_id":76561198091553935,"connected_time":1226000000000,"state":"active","ping":104},{"user_id":422,"name":"Vince","steam_id":76561199103000131,"connected_time":853000000000,"state":"active","ping":48},{"user_id":408,"name":"Lelleck Maldwin","steam_id":76561198006163836,"connected_time":1451000000000,"state":"active","ping":53},{"user_id":425,"name":"HRTV","steam_id":76561198978457123,"connected_time":409000000000,"state":"active","ping":77},{"user_id":409,"name":"loadsamoney","steam_id":76561198130904722,"connected_time":1444000000000,"state":"active","ping":49},{"user_id":381,"name":"Tre3","steam_id":76561198054795379,"connected_time":2609000000000,"state":"active","ping":53},{"user_id":410,"name":"beau","steam_id":76561198291822771,"connected_time":1430000000000,"state":"active","ping":54},{"user_id":421,"name":"ShadowTwin","steam_id":76561198046658200,"connected_time":1000000000000,"state":"active","ping":61},{"user_id":396,"name":"BriLLz","steam_id":76561198142440806,"connected_time":1824000000000,"state":"active","ping":67},{"user_id":424,"name":"m√ºmq","steam_id":76561198085153806,"connected_time":549000000000,"state":"active","ping":49},{"user_id":416,"name":"thekoolest88","steam_id":76561199022415672,"connected_time":1242000000000,"state":"active","ping":145},{"user_id":418,"name":"hide","steam_id":76561198918282467,"connected_time":1222000000000,"state":"active","ping":52},{"user_id":386,"name":"jeff","steam_id":76561198272815746,"connected_time":2344000000000,"state":"active","ping":85},{"user_id":362,"name":"Isaac Boush","steam_id":76561198179746529,"connected_time":3546000000000,"state":"active","ping":61},{"user_id":419,"name":"Jnet","steam_id":76561198001282720,"connected_time":1198000000000,"state":"active","ping":103},{"user_id":423,"name":"Mitea Sefu NEXUS.NEVERMORE.RO","steam_id":76561197993943996,"connected_time":834000000000,"state":"active","ping":73},{"user_id":399,"name":"Chucky.","steam_id":76561197969361063,"connected_time":1731000000000,"state":"active","ping":91},{"user_id":391,"name":"TidB","steam_id":76561198055342304,"connected_time":2265000000000,"state":"active","ping":55},{"user_id":401,"name":"GogsCrunchyNuts","steam_id":76561198150599213,"connected_time":1673000000000,"state":"active","ping":92}]},{"server_id":310,"name":"Uncletopia | Frankfurt | 5 | All Maps","name_short":"frk-5","host":"frk-1.de.uncletopia.com","port":27055,"enabled":true,"region":"eu","cc":"de","latitude":50.110924,"longitude":8.682127,"reserved":0,"last_update":"0001-01-01T00:00:00Z","name_a2s":"Uncletopia | Frankfurt | 5 | All Maps","protocol":17,"map":"cp_process_final","folder":"tf","game":"Team Fortress","app_id":440,"player_count":0,"max_players":24,"Bots":0,"server_type":"Dedicated","server_os":"Linux","password":true,"vac":true,"version":"7961495","steam_id":85568392924504277,"keywords":["cp","nocrits","nodmgspread","uncletopia"],"game_id":440,"stv_port":27056,"stv_name":"Uncletopia | Frankfurt | 5 | All Maps | STV","players":null},{"server_id":311,"name":"Uncletopia | Frankfurt | 6 | All Maps","name_short":"frk-6","host":"frk-1.de.uncletopia.com","port":27065,"enabled":true,"region":"eu","cc":"de","latitude":50.110924,"longitude":8.682127,"reserved":0,"last_update":"0001-01-01T00:00:00Z","name_a2s":"Uncletopia | Frankfurt | 6 | All Maps","protocol":17,"map":"cp_snakewater_final1","folder":"tf","game":"Team Fortress","app_id":440,"player_count":0,"max_players":24,"Bots":0,"server_type":"Dedicated","server_os":"Linux","password":true,"vac":true,"version":"7961495","steam_id":85568392924504278,"keywords":["cp","nocrits","nodmgspread","uncletopia"],"game_id":440,"stv_port":27066,"stv_name":"Uncletopia | Frankfurt | 6 | All Maps | STV","players":null},{"server_id":23,"name":"Uncletopia | Frankfurt | 7 | Stopwatch","name_short":"frk-7","host":"frk-1.de.uncletopia.com","port":27075,"enabled":true,"region":"eu","cc":"de","latitude":50.110924,"longitude":8.682127,"reserved":0,"last_update":"0001-01-01T00:00:00Z","name_a2s":"Uncletopia | Frankfurt | 7 | Stopwatch","protocol":17,"map":"workshop/koth_ashville_final.ugc2130459942","folder":"tf","game":"Team Fortress","app_id":440,"player_count":0,"max_players":24,"Bots":0,"server_type":"Dedicated","server_os":"Linux","password":true,"vac":true,"version":"7961495","steam_id":85568392924742827,"keywords":["cp","nocrits","nodmgspread","uncletopia"],"game_id":440,"stv_port":27076,"stv_name":"Uncletopia | Frankfurt | 7 | Stopwatch | STV","players":null},{"server_id":24,"name":"Uncletopia | Frankfurt | 8 | Community","name_short":"frk-8","host":"frk-1.de.uncletopia.com","port":27085,"enabled":true,"region":"eu","cc":"de","latitude":50.110924,"longitude":8.682127,"reserved":0,"last_update":"0001-01-01T00:00:00Z","name_a2s":"Uncletopia | Frankfurt | 8 | Community","protocol":17,"map":"workshop/pl_vigil_rc10.ugc1266210012","folder":"tf","game":"Team Fortress","app_id":440,"player_count":0,"max_players":24,"Bots":0,"server_type":"Dedicated","server_os":"Linux","password":true,"vac":true,"version":"7961495","steam_id":85568392924742828,"keywords":["nocrits","nodmgspread","payload","uncletopia"],"game_id":440,"stv_port":27086,"stv_name":"Uncletopia | Frankfurt | 8 | Community | STV","players":null},{"server_id":202,"name":"Uncletopia | Hong Kong | 1 | All Maps","name_short":"hgk-1","host":"hgk-1.hk.uncletopia.com","port":27015,"enabled":true,"region":"asia","cc":"hk","latitude":22.302711,"longitude":114.177216,"reserved":0,"last_update":"0001-01-01T00:00:00Z","name_a2s":"Uncletopia | Hong Kong | 1 | All Maps","protocol":17,"map":"koth_cascade","folder":"tf","game":"Team Fortress","app_id":440,"player_count":2,"max_players":24,"Bots":0,"server_type":"Dedicated","server_os":"Linux","password":true,"vac":true,"version":"7961495","steam_id":85568392924494504,"keywords":["cp","nocrits","nodmgspread","uncletopia"],"game_id":440,"stv_port":27016,"stv_name":"Uncletopia | Hong Kong | 1 | All Maps | STV","players":[{"user_id":483,"name":"Mildly Moronic Person","steam_id":76561199257901343,"connected_time":174000000000,"state":"active","ping":246},{"user_id":484,"name":"The notorious Teks","steam_id":76561199404358064,"connected_time":2000000000,"state":"spawning","ping":288}]},{"server_id":1,"name":"Uncletopia | Los Angeles | 1 | All Maps","name_short":"lax-1","host":"lax-1.us.uncletopia.com","port":27015,"enabled":true,"region":"us-west","cc":"us","latitude":33.94279,"longitude":-118.41004,"reserved":0,"last_update":"0001-01-01T00:00:00Z","name_a2s":"Uncletopia | Los Angeles | 1 | All Maps","protocol":17,"map":"cp_snakewater_final1","folder":"tf","game":"Team Fortress","app_id":440,"player_count":0,"max_players":24,"Bots":0,"server_type":"Dedicated","server_os":"Linux","password":true,"vac":true,"version":"7961495","steam_id":85568392924469991,"keywords":["cp","nocrits","nodmgspread","uncletopia"],"game_id":440,"stv_port":27016,"stv_name":"Uncletopia | Los Angeles | 1 | All Maps | STV","players":null},{"server_id":112,"name":"Uncletopia | Los Angeles | 2 | All Maps","name_short":"lax-2","host":"lax-1.us.uncletopia.com","port":27025,"enabled":true,"region":"us-west","cc":"us","latitude":33.94279,"longitude":-118.41004,"reserved":0,"last_update":"0001-01-01T00:00:00Z","name_a2s":"Uncletopia | Los Angeles | 2 | All Maps","protocol":17,"map":"koth_cascade","folder":"tf","game":"Team Fortress","app_id":440,"player_count":0,"max_players":24,"Bots":0,"server_type":"Dedicated","server_os":"Linux","password":true,"vac":true,"version":"7961495","steam_id":85568392924469992,"keywords":["cp","nocrits","nodmgspread","uncletopia"],"game_id":440,"stv_port":27026,"stv_name":"Uncletopia | Los Angeles | 2 | All Maps | STV","players":null},{"server_id":324,"name":"Uncletopia | Los Angeles | 3 | All Maps","name_short":"lax-3","host":"lax-1.us.uncletopia.com","port":27035,"enabled":true,"region":"us-west","cc":"us","latitude":33.94279,"longitude":-118.41004,"reserved":0,"last_update":"0001-01-01T00:00:00Z","name_a2s":"Uncletopia | Los Angeles | 3 | All Maps","protocol":17,"map":"pl_hoodoo_final","folder":"tf","game":"Team Fortress","app_id":440,"player_count":0,"max_players":24,"Bots":0,"server_type":"Dedicated","server_os":"Linux","password":true,"vac":true,"version":"7961495","steam_id":85568392924510198,"keywords":["nocrits","nodmgspread","payload","uncletopia"],"game_id":440,"stv_port":27036,"stv_name":"Uncletopia | Los Angeles | 3 | All Maps | STV","players":null},{"server_id":25,"name":"Uncletopia | Los Angeles | 4 | Stopwatch","name_short":"lax-4","host":"lax-1.us.uncletopia.com","port":27045,"enabled":true,"region":"us-west","cc":"us","latitude":33.94279,"longitude":-118.41004,"reserved":0,"last_update":"0001-01-01T00:00:00Z","name_a2s":"Uncletopia | Los Angeles | 4 | Stopwatch","protocol":17,"map":"pl_upward","folder":"tf","game":"Team Fortress","app_id":440,"player_count":0,"max_players":24,"Bots":0,"server_type":"Dedicated","server_os":"Linux","password":true,"vac":true,"version":"7961495","steam_id":85568392924510199,"keywords":["nocrits","nodmgspread","payload","uncletopia"],"game_id":440,"stv_port":27046,"stv_name":"Uncletopia | Los Angeles | 4 | Stopwatch | STV","players":null},{"server_id":11,"name":"Uncletopia | London | 1 | All Maps","name_short":"lon-1","host":"lon-1.uk.uncletopia.com","port":27015,"enabled":true,"region":"eu","cc":"gb","latitude":51.509865,"longitude":-0.118092,"reserved":0,"last_update":"0001-01-01T00:00:00Z","name_a2s":"Uncletopia | London | 1 | All Maps","protocol":17,"map":"cp_sunshine","folder":"tf","game":"Team Fortress","app_id":440,"player_count":24,"max_players":24,"Bots":0,"server_type":"Dedicated","server_os":"Linux","password":true,"vac":true,"version":"7961495","steam_id":85568392924367362,"keywords":["cp","nocrits","nodmgspread","uncletopia"],"game_id":440,"stv_port":27016,"stv_name":"Uncletopia | London | 1 | All Maps | STV","players":[{"user_id":712,"name":"T/5. Cernuno [16th IR]","steam_id":76561197977897110,"connected_time":823000000000,"state":"active","ping":73},{"user_id":696,"name":"YMIR","steam_id":76561198968979836,"connected_time":2497000000000,"state":"active","ping":75},{"user_id":705,"name":"Enda","steam_id":76561198202980164,"connected_time":1610000000000,"state":"active","ping":87},{"user_id":698,"name":"Bobirulez","steam_id":76561198009125458,"connected_time":2426000000000,"state":"active","ping":75},{"user_id":724,"name":"Ninjeg","steam_id":76561197995307947,"connected_time":115000000000,"state":"active","ping":47},{"user_id":713,"name":"SparkyDoodles - Artist","steam_id":76561198060128235,"connected_time":822000000000,"state":"active","ping":53},{"user_id":721,"name":"KLAMA  ‚ù§","steam_id":76561198351549661,"connected_time":286000000000,"state":"active","ping":77},{"user_id":699,"name":"Speed-Dial","steam_id":76561198012428315,"connected_time":2109000000000,"state":"active","ping":43},{"user_id":723,"name":"MustangCricket","steam_id":76561197963408317,"connected_time":157000000000,"state":"active","ping":45},{"user_id":677,"name":"SPONGE","steam_id":76561198040933472,"connected_time":3825000000000,"state":"active","ping":61},{"user_id":725,"name":"gibb (heLP HELP HELP)","steam_id":76561198074097655,"connected_time":28000000000,"state":"active","ping":138},{"user_id":714,"name":"Milk","steam_id":76561198125876588,"connected_time":816000000000,"state":"active","ping":40},{"user_id":701,"name":"Gaxkang","steam_id":76561198125768571,"connected_time":1918000000000,"state":"active","ping":48},{"user_id":687,"name":"Fat Pigeon","steam_id":76561198817940142,"connected_time":2725000000000,"state":"active","ping":45},{"user_id":603,"name":"Ullr","steam_id":76561198140547483,"connected_time":10671000000000,"state":"active","ping":42},{"user_id":722,"name":"TomNoSocks","steam_id":76561198114071046,"connected_time":260000000000,"state":"active","ping":49},{"user_id":716,"name":"Scipionemiliano","steam_id":76561198027646559,"connected_time":769000000000,"state":"active","ping":101},{"user_id":719,"name":"quack","steam_id":76561198121003465,"connected_time":676000000000,"state":"active","ping":45},{"user_id":695,"name":"Purps","steam_id":76561198053886680,"connected_time":2540000000000,"state":"active","ping":44},{"user_id":703,"name":"KnugenIV","steam_id":76561198127091993,"connected_time":1626000000000,"state":"active","ping":80},{"user_id":726,"name":"flick","steam_id":76561198083505031,"connected_time":14000000000,"state":"active","ping":40},{"user_id":707,"name":"Mr. Hunts","steam_id":76561197981910397,"connected_time":1300000000000,"state":"active","ping":60},{"user_id":671,"name":",","steam_id":76561199383437138,"connected_time":4988000000000,"state":"active","ping":119},{"user_id":684,"name":"Nittugai","steam_id":76561198067366462,"connected_time":2864000000000,"state":"active","ping":60}]},{"server_id":114,"name":"Uncletopia | London | 2 | All Maps","name_short":"lon-2","host":"lon-1.uk.uncletopia.com","port":27025,"enabled":true,"region":"eu","cc":"gb","latitude":51.509865,"longitude":-0.118092,"reserved":0,"last_update":"0001-01-01T00:00:00Z","name_a2s":"Uncletopia | London | 2 | All Maps","protocol":17,"map":"pl_upward","folder":"tf","game":"Team Fortress","app_id":440,"player_count":24,"max_players":24,"Bots":0,"server_type":"Dedicated","server_os":"Linux","password":true,"vac":true,"version":"7961495","steam_id":85568392924470941,"keywords":["nocrits","nodmgspread","payload","uncletopia"],"game_id":440,"stv_port":27026,"stv_name":"Uncletopia | London | 2 | All Maps | STV","players":[{"user_id":459,"name":"v0ddo","steam_id":76561198092745537,"connected_time":4257000000000,"state":"active","ping":48},{"user_id":497,"name":"Ethee05","steam_id":76561198221013980,"connected_time":2064000000000,"state":"active","ping":45},{"user_id":557,"name":"acskama","steam_id":76561198136743845,"connected_time":324000000000,"state":"active","ping":75},{"user_id":510,"name":"Soyru","steam_id":76561199206153482,"connected_time":1390000000000,"state":"active","ping":40},{"user_id":558,"name":"Atari Lynx","steam_id":76561198131764464,"connected_time":318000000000,"state":"active","ping":55},{"user_id":498,"name":"---","steam_id":76561198092283741,"connected_time":2051000000000,"state":"active","ping":55},{"user_id":490,"name":"em ‚ù§","steam_id":76561198156678840,"connected_time":2336000000000,"state":"active","ping":43},{"user_id":503,"name":"Destinys","steam_id":76561198056132894,"connected_time":1467000000000,"state":"active","ping":60},{"user_id":559,"name":"BeefHammer","steam_id":76561198078426223,"connected_time":311000000000,"state":"active","ping":89},{"user_id":479,"name":"dsbb","steam_id":76561198199790361,"connected_time":3132000000000,"state":"active","ping":45},{"user_id":564,"name":"Peekatew","steam_id":76561198024712439,"connected_time":114000000000,"state":"active","ping":39},{"user_id":506,"name":"ScapeGoat","steam_id":76561198137868829,"connected_time":1409000000000,"state":"active","ping":42},{"user_id":502,"name":"opportunity uteliser","steam_id":76561198051685232,"connected_time":1571000000000,"state":"active","ping":58},{"user_id":560,"name":"three rats in a trenchcoat","steam_id":76561197983889333,"connected_time":298000000000,"state":"active","ping":61},{"user_id":501,"name":"cister0","steam_id":76561198130195469,"connected_time":1791000000000,"state":"active","ping":71},{"user_id":507,"name":"Kenshi","steam_id":76561198068966720,"connected_time":1402000000000,"state":"active","ping":45},{"user_id":548,"name":"Dozer","steam_id":76561197998742338,"connected_time":638000000000,"state":"active","ping":59},{"user_id":565,"name":"frbuz (ÿπ)","steam_id":76561198327135462,"connected_time":90000000000,"state":"active","ping":183},{"user_id":451,"name":"Houlles","steam_id":76561198095277383,"connected_time":4490000000000,"state":"active","ping":59},{"user_id":500,"name":"Kaza","steam_id":76561198033509686,"connected_time":1943000000000,"state":"active","ping":48},{"user_id":561,"name":"A.D.H.|Artem","steam_id":76561198041801369,"connected_time":260000000000,"state":"active","ping":90},{"user_id":513,"name":"Aftiks","steam_id":76561198875182686,"connected_time":1264000000000,"state":"active","ping":93},{"user_id":566,"name":"toki","steam_id":76561198963599425,"connected_time":87000000000,"state":"active","ping":67},{"user_id":494,"name":"maniac-baker","steam_id":76561198076966730,"connected_time":2271000000000,"state":"active","ping":45}]},{"server_id":320,"name":"Uncletopia | London | 3 | All Maps","name_short":"lon-3","host":"lon-1.uk.uncletopia.com","port":27035,"enabled":true,"region":"eu","cc":"gb","latitude":51.509865,"longitude":-0.118092,"reserved":0,"last_update":"0001-01-01T00:00:00Z","name_a2s":"Uncletopia | London | 3 | All Maps","protocol":17,"map":"pl_thundermountain","folder":"tf","game":"Team Fortress","app_id":440,"player_count":23,"max_players":24,"Bots":0,"server_type":"Dedicated","server_os":"Linux","password":true,"vac":true,"version":"7961495","steam_id":85568392924510192,"keywords":["nocrits","nodmgspread","payload","uncletopia"],"game_id":440,"stv_port":27036,"stv_name":"Uncletopia | London | 3 | All Maps | STV","players":[{"user_id":318,"name":"Windows Vista Cruiser","steam_id":76561198064102233,"connected_time":963000000000,"state":"active","ping":59},{"user_id":292,"name":"sticks","steam_id":76561198127099299,"connected_time":2410000000000,"state":"active","ping":45},{"user_id":314,"name":"John_Fish","steam_id":76561198046587829,"connected_time":1057000000000,"state":"active","ping":51},{"user_id":311,"name":"A Table","steam_id":76561198056456470,"connected_time":1552000000000,"state":"active","ping":61},{"user_id":261,"name":"Pixar Cars on the PS2","steam_id":76561198079386295,"connected_time":3675000000000,"state":"active","ping":48},{"user_id":329,"name":"Fancy Raccoon","steam_id":76561198176331663,"connected_time":79000000000,"state":"active","ping":61},{"user_id":325,"name":"Viewie","steam_id":76561198280108853,"connected_time":540000000000,"state":"active","ping":128},{"user_id":320,"name":"JujuBalu","steam_id":76561198207253071,"connected_time":954000000000,"state":"active","ping":33},{"user_id":326,"name":"Carol Olston","steam_id":76561198080257273,"connected_time":478000000000,"state":"active","ping":43},{"user_id":240,"name":"Mirce","steam_id":76561198100889621,"connected_time":5169000000000,"state":"active","ping":113},{"user_id":298,"name":"≈†varcas","steam_id":76561198841646694,"connected_time":2148000000000,"state":"active","ping":79},{"user_id":327,"name":"Shillagh","steam_id":76561197979530383,"connected_time":211000000000,"state":"active","ping":80},{"user_id":322,"name":"fernandobmwm355555","steam_id":76561198086609447,"connected_time":823000000000,"state":"active","ping":62},{"user_id":278,"name":"Sodium Inhaler","steam_id":76561198110912558,"connected_time":3088000000000,"state":"active","ping":80},{"user_id":307,"name":"xx_soy_xx","steam_id":76561198333779084,"connected_time":1881000000000,"state":"active","ping":75},{"user_id":330,"name":"Jesus shredding for your sins","steam_id":76561198042438709,"connected_time":18000000000,"state":"spawning","ping":90},{"user_id":323,"name":"alpha","steam_id":76561198250491640,"connected_time":637000000000,"state":"active","ping":31},{"user_id":324,"name":"Drillboy Jenkins","steam_id":76561198160497421,"connected_time":628000000000,"state":"active","ping":83},{"user_id":319,"name":"Saucisse","steam_id":76561198119955969,"connected_time":962000000000,"state":"active","ping":46},{"user_id":321,"name":"ZePequenio","steam_id":76561197968506094,"connected_time":941000000000,"state":"active","ping":52},{"user_id":281,"name":"Jussukka","steam_id":76561198122894683,"connected_time":2947000000000,"state":"active","ping":83},{"user_id":277,"name":"Jag √§r ett anka","steam_id":76561198059978438,"connected_time":3148000000000,"state":"active","ping":62},{"user_id":289,"name":"sloppy transgirl toppy","steam_id":76561198057092208,"connected_time":2777000000000,"state":"active","ping":74}]},{"server_id":321,"name":"Uncletopia | London | 4 | All Maps","name_short":"lon-4","host":"lon-1.uk.uncletopia.com","port":27045,"enabled":true,"region":"eu","cc":"gb","latitude":51.509865,"longitude":-0.118092,"reserved":0,"last_update":"0001-01-01T00:00:00Z","name_a2s":"Uncletopia | London | 4 | All Maps","protocol":17,"map":"pl_snowycoast","folder":"tf","game":"Team Fortress","app_id":440,"player_count":23,"max_players":24,"Bots":0,"server_type":"Dedicated","server_os":"Linux","password":true,"vac":true,"version":"7961495","steam_id":85568392924510193,"keywords":["nocrits","nodmgspread","payload","uncletopia"],"game_id":440,"stv_port":27046,"stv_name":"Uncletopia | London | 4 | All Maps | STV","players":[{"user_id":339,"name":"Gen","steam_id":76561198021775885,"connected_time":1134000000000,"state":"active","ping":75},{"user_id":302,"name":"kurd","steam_id":76561198116530769,"connected_time":5038000000000,"state":"active","ping":102},{"user_id":350,"name":"ROX","steam_id":76561198272289320,"connected_time":237000000000,"state":"active","ping":47},{"user_id":307,"name":"H-say","steam_id":76561198177400362,"connected_time":4241000000000,"state":"active","ping":77},{"user_id":332,"name":"AI | Davidoscki","steam_id":76561198129166046,"connected_time":2720000000000,"state":"active","ping":94},{"user_id":289,"name":"LuckyHappyGuy","steam_id":76561198353023996,"connected_time":6095000000000,"state":"active","ping":60},{"user_id":354,"name":"Bonca","steam_id":76561198137503531,"connected_time":89000000000,"state":"active","ping":75},{"user_id":344,"name":"tone' (real)","steam_id":76561198055552635,"connected_time":672000000000,"state":"active","ping":53},{"user_id":317,"name":"Dei Genetrix","steam_id":76561198305678122,"connected_time":3717000000000,"state":"active","ping":47},{"user_id":263,"name":"Dr. Mario","steam_id":76561198134378108,"connected_time":7536000000000,"state":"active","ping":70},{"user_id":345,"name":"Hank J Wimbleton","steam_id":76561198408623293,"connected_time":446000000000,"state":"active","ping":56},{"user_id":243,"name":"yuno appreciator","steam_id":76561198083286511,"connected_time":9136000000000,"state":"active","ping":41},{"user_id":341,"name":"skelebin","steam_id":76561199480942903,"connected_time":1096000000000,"state":"active","ping":77},{"user_id":346,"name":"TreatFly","steam_id":76561198069707362,"connected_time":433000000000,"state":"active","ping":44},{"user_id":351,"name":"Darkmaen","steam_id":76561198060543390,"connected_time":221000000000,"state":"active","ping":60},{"user_id":352,"name":"UltimateAura","steam_id":76561198338361324,"connected_time":206000000000,"state":"active","ping":46},{"user_id":337,"name":"xavier","steam_id":76561198076494034,"connected_time":2021000000000,"state":"active","ping":54},{"user_id":303,"name":"I sell exotic parrots","steam_id":76561199192434258,"connected_time":4724000000000,"state":"active","ping":93},{"user_id":282,"name":"lillunya ‚ô°","steam_id":76561198330418866,"connected_time":6586000000000,"state":"active","ping":59},{"user_id":306,"name":"syms","steam_id":76561198066679812,"connected_time":4333000000000,"state":"active","ping":76},{"user_id":353,"name":"Gnarville","steam_id":76561198006373329,"connected_time":187000000000,"state":"active","ping":52},{"user_id":349,"name":"hawkblob","steam_id":76561198803720565,"connected_time":306000000000,"state":"active","ping":76},{"user_id":321,"name":"Hotdogs","steam_id":76561199112737347,"connected_time":3279000000000,"state":"active","ping":60}]},{"server_id":21,"name":"Uncletopia | London | 5 | All Maps","name_short":"lon-5","host":"lon-1.uk.uncletopia.com","port":27055,"enabled":true,"region":"eu","cc":"gb","latitude":51.509865,"longitude":-0.118092,"reserved":0,"last_update":"0001-01-01T00:00:00Z","name_a2s":"Uncletopia | London | 5 | All Maps","protocol":17,"map":"pl_swiftwater_final1","folder":"tf","game":"Team Fortress","app_id":440,"player_count":17,"max_players":24,"Bots":0,"server_type":"Dedicated","server_os":"Linux","password":true,"vac":true,"version":"7961495","steam_id":85568392924742829,"keywords":["nocrits","nodmgspread","payload","uncletopia"],"game_id":440,"stv_port":27056,"stv_name":"Uncletopia | London | 5 | All Maps | STV","players":[{"user_id":201,"name":"Joejee","steam_id":76561199122423976,"connected_time":47000000000,"state":"spawning","ping":51},{"user_id":179,"name":"Sabour","steam_id":76561197963965445,"connected_time":2826000000000,"state":"active","ping":57},{"user_id":194,"name":"shenanigan","steam_id":76561198043452925,"connected_time":792000000000,"state":"active","ping":84},{"user_id":198,"name":"Bonduelle#Savetf2","steam_id":76561199041992422,"connected_time":281000000000,"state":"active","ping":153},{"user_id":200,"name":"ZATAX_SV","steam_id":76561199096248994,"connected_time":236000000000,"state":"active","ping":198},{"user_id":199,"name":"*Stare*","steam_id":76561199072209884,"connected_time":264000000000,"state":"active","ping":44},{"user_id":174,"name":"Zamorocian","steam_id":76561198076604017,"connected_time":3364000000000,"state":"active","ping":44},{"user_id":167,"name":":3","steam_id":76561198169471853,"connected_time":3923000000000,"state":"active","ping":132},{"user_id":196,"name":"Sang","steam_id":76561198008510868,"connected_time":765000000000,"state":"active","ping":75},{"user_id":164,"name":"Sicmendor Obscurox","steam_id":76561197962107049,"connected_time":4124000000000,"state":"active","ping":68},{"user_id":185,"name":"Stefman","steam_id":76561199025104038,"connected_time":2088000000000,"state":"active","ping":42},{"user_id":113,"name":"Hydrate","steam_id":76561198128935775,"connected_time":8034000000000,"state":"active","ping":88},{"user_id":176,"name":"Dr. Robotnik's Nice Rice Device","steam_id":76561198027393309,"connected_time":3344000000000,"state":"active","ping":45},{"user_id":178,"name":"sniper's kangaroo wife","steam_id":76561198334042273,"connected_time":3195000000000,"state":"active","ping":42},{"user_id":118,"name":"TurnaJ","steam_id":76561198189223495,"connected_time":7633000000000,"state":"active","ping":62},{"user_id":189,"name":"Silver\u003c3 (12k hours and trash)","steam_id":76561198022351828,"connected_time":2032000000000,"state":"active","ping":45},{"user_id":192,"name":"Wallnut","steam_id":76561198290857706,"connected_time":951000000000,"state":"active","ping":131}]},{"server_id":22,"name":"Uncletopia | London | 6 | All Maps","name_short":"lon-6","host":"lon-1.uk.uncletopia.com","port":27065,"enabled":true,"region":"eu","cc":"gb","latitude":51.509865,"longitude":-0.118092,"reserved":0,"last_update":"0001-01-01T00:00:00Z","name_a2s":"Uncletopia | London | 6 | All Maps","protocol":17,"map":"cp_snakewater_final1","folder":"tf","game":"Team Fortress","app_id":440,"player_count":10,"max_players":24,"Bots":0,"server_type":"Dedicated","server_os":"Linux","password":true,"vac":true,"version":"7961495","steam_id":85568392924742830,"keywords":["cp","nocrits","nodmgspread","uncletopia"],"game_id":440,"stv_port":27066,"stv_name":"Uncletopia | London | 6 | All Maps | STV","players":[{"user_id":125,"name":"smiley","steam_id":76561198042245117,"connected_time":2605000000000,"state":"active","ping":51},{"user_id":142,"name":"A Wild Ferrothorn","steam_id":76561198042261828,"connected_time":2054000000000,"state":"active","ping":52},{"user_id":165,"name":"Salt_Shaker309","steam_id":76561198086931010,"connected_time":477000000000,"state":"active","ping":64},{"user_id":154,"name":"\u003cGNGWD\u003e Neonicus","steam_id":76561197992607709,"connected_time":1164000000000,"state":"active","ping":61},{"user_id":166,"name":"gitlitwitit","steam_id":76561197980019054,"connected_time":462000000000,"state":"active","ping":60},{"user_id":167,"name":"Swedde","steam_id":76561198297296440,"connected_time":228000000000,"state":"active","ping":45},{"user_id":159,"name":"Liamish11","steam_id":76561198176235318,"connected_time":896000000000,"state":"active","ping":79},{"user_id":117,"name":"armadillo","steam_id":76561198324656652,"connected_time":2879000000000,"state":"active","ping":57},{"user_id":140,"name":"–∫–∞—Ä–∞—Å–∏–∫","steam_id":76561197971140507,"connected_time":2123000000000,"state":"active","ping":84},{"user_id":150,"name":"Paradox_Stealth","steam_id":76561198373640872,"connected_time":1733000000000,"state":"active","ping":110}]},{"server_id":40,"name":"Uncletopia | London | 7 | Stopwatch","name_short":"lon-7","host":"lon-1.uk.uncletopia.com","port":27075,"enabled":true,"region":"eu","cc":"gb","latitude":51.509865,"longitude":-0.118092,"reserved":0,"last_update":"0001-01-01T00:00:00Z","name_a2s":"Uncletopia | London | 7 | Stopwatch","protocol":17,"map":"workshop/pl_badwater_pro_v12.ugc2142942074","folder":"tf","game":"Team Fortress","app_id":440,"player_count":0,"max_players":24,"Bots":0,"server_type":"Dedicated","server_os":"Linux","password":true,"vac":true,"version":"7961495","steam_id":85568392924964314,"keywords":["nocrits","nodmgspread","payload","uncletopia"],"game_id":440,"stv_port":27076,"stv_name":"Uncletopia | London | 7 | Stopwatch | STV","players":null},{"server_id":41,"name":"Uncletopia | London | 8 | Community","name_short":"lon-8","host":"lon-1.uk.uncletopia.com","port":27085,"enabled":true,"region":"eu","cc":"gb","latitude":51.509865,"longitude":-0.118092,"reserved":0,"last_update":"0001-01-01T00:00:00Z","name_a2s":"Uncletopia | London | 8 | Community","protocol":17,"map":"workshop/cp_overgrown_rc8.ugc503939302","folder":"tf","game":"Team Fortress","app_id":440,"player_count":0,"max_players":24,"Bots":0,"server_type":"Dedicated","server_os":"Linux","password":true,"vac":true,"version":"7961495","steam_id":85568392924964315,"keywords":["cp","nocrits","nodmgspread","uncletopia"],"game_id":440,"stv_port":27086,"stv_name":"Uncletopia | London | 8 | Community | STV","players":null},{"server_id":300,"name":"Uncletopia | Montr√©al | 1 | One Thousand Uncles","name_short":"mtl-1","host":"mtl-1.ca.uncletopia.com","port":27015,"enabled":true,"region":"us-east","cc":"ca","latitude":45.50889,"longitude":-73.56167,"reserved":0,"last_update":"0001-01-01T00:00:00Z","name_a2s":"Uncletopia | Montr√©al | 1 | One Thousand Uncles","protocol":17,"map":"pl_goldrush","folder":"tf","game":"Team Fortress","app_id":440,"player_count":18,"max_players":32,"Bots":16,"server_type":"Dedicated","server_os":"Linux","password":true,"vac":true,"version":"7961495","steam_id":85568392924500087,"keywords":["alltalk","bots","danepve","increased_maxplayers","norespawntime","payload","uncletopia"],"game_id":440,"stv_port":0,"stv_name":"","players":[{"user_id":270,"name":"teoisaverycoolguy","steam_id":76561199434109034,"connected_time":108000000000,"state":"active","ping":161},{"user_id":287,"name":"XKYGUX","steam_id":76561198144857742,"connected_time":2000000000,"state":"spawning","ping":48}]},{"server_id":301,"name":"Uncletopia | Montr√©al | 2 | One Thousand Uncles","name_short":"mtl-2","host":"mtl-1.ca.uncletopia.com","port":27025,"enabled":true,"region":"us-east","cc":"ca","latitude":45.50889,"longitude":-73.56167,"reserved":0,"last_update":"0001-01-01T00:00:00Z","name_a2s":"Uncletopia | Montr√©al | 2 | One Thousand Uncles","protocol":17,"map":"pl_chilly","folder":"tf","game":"Team Fortress","app_id":440,"player_count":0,"max_players":32,"Bots":0,"server_type":"Dedicated","server_os":"Linux","password":true,"vac":true,"version":"7961495","steam_id":85568392924500088,"keywords":["alltalk","danepve","increased_maxplayers","norespawntime","payload","uncletopia"],"game_id":440,"stv_port":0,"stv_name":"","players":null},{"server_id":302,"name":"Uncletopia | Montr√©al | 3 | One Thousand Uncles","name_short":"mtl-3","host":"mtl-1.ca.uncletopia.com","port":27035,"enabled":true,"region":"us-east","cc":"ca","latitude":45.50889,"longitude":-73.56167,"reserved":0,"last_update":"0001-01-01T00:00:00Z","name_a2s":"Uncletopia | Montr√©al | 3 | One Thousand Uncles","protocol":17,"map":"pl_hoodoo_final","folder":"tf","game":"Team Fortress","app_id":440,"player_count":17,"max_players":32,"Bots":16,"server_type":"Dedicated","server_os":"Linux","password":true,"vac":true,"version":"7961495","steam_id":85568392924500089,"keywords":["alltalk","bots","danepve","increased_maxplayers","norespawntime","payload","uncletopia"],"game_id":440,"stv_port":0,"stv_name":"","players":[{"user_id":118,"name":"3thernet jak","steam_id":76561198327395213,"connected_time":3464000000000,"state":"active","ping":47}]},{"server_id":13,"name":"Uncletopia | New York City | 1 | All Maps","name_short":"nyc-1","host":"nyc-1.us.uncletopia.com","port":27015,"enabled":true,"region":"us-east","cc":"us","latitude":40.73061,"longitude":-73.93524,"reserved":0,"last_update":"0001-01-01T00:00:00Z","name_a2s":"Uncletopia | New York City | 1 | All Maps","protocol":17,"map":"cp_mountainlab","folder":"tf","game":"Team Fortress","app_id":440,"player_count":23,"max_players":24,"Bots":0,"server_type":"Dedicated","server_os":"Linux","password":true,"vac":true,"version":"7961495","steam_id":85568392924469993,"keywords":["cp","nocrits","nodmgspread","uncletopia"],"game_id":440,"stv_port":27016,"stv_name":"Uncletopia | New York City | 1 | All Maps | STV","players":[{"user_id":187,"name":"sithreis","steam_id":76561198000564263,"connected_time":293000000000,"state":"active","ping":72},{"user_id":181,"name":"Tokyo_Timeshift_","steam_id":76561198048677523,"connected_time":1190000000000,"state":"active","ping":60},{"user_id":166,"name":"bimbo blow up doll! \u003c3","steam_id":76561198959541006,"connected_time":2655000000000,"state":"active","ping":36},{"user_id":170,"name":"Hatty","steam_id":76561198043028227,"connected_time":1910000000000,"state":"active","ping":45},{"user_id":188,"name":"lanoc","steam_id":76561198055415367,"connected_time":287000000000,"state":"active","ping":59},{"user_id":99,"name":"super clickteam fusion","steam_id":76561198275101482,"connected_time":9054000000000,"state":"active","ping":125},{"user_id":189,"name":"lethargy incarnate","steam_id":76561198072095399,"connected_time":253000000000,"state":"active","ping":42},{"user_id":184,"name":"MaxPropaganda","steam_id":76561198860163436,"connected_time":797000000000,"state":"active","ping":43},{"user_id":129,"name":"TheGerg","steam_id":76561198257099217,"connected_time":6041000000000,"state":"active","ping":68},{"user_id":197,"name":"your last GRAPE","steam_id":76561198929111933,"connected_time":95000000000,"state":"spawning","ping":93},{"user_id":185,"name":"Chezaus","steam_id":76561198317397837,"connected_time":527000000000,"state":"active","ping":64},{"user_id":182,"name":"Strange Diplomat","steam_id":76561198428191920,"connected_time":973000000000,"state":"active","ping":48},{"user_id":142,"name":"celestia ludenberg","steam_id":76561199196437823,"connected_time":4701000000000,"state":"active","ping":116},{"user_id":190,"name":"closer","steam_id":76561198042848500,"connected_time":245000000000,"state":"active","ping":61},{"user_id":168,"name":"Raizen","steam_id":76561199092445367,"connected_time":2479000000000,"state":"active","ping":56},{"user_id":180,"name":"yer_nerd","steam_id":76561199435454093,"connected_time":1221000000000,"state":"active","ping":50},{"user_id":194,"name":"listerine","steam_id":76561198041104084,"connected_time":167000000000,"state":"active","ping":54},{"user_id":193,"name":"N4G4S4K1 1S K4RK4L1C1OUS","steam_id":76561199031772797,"connected_time":197000000000,"state":"active","ping":75},{"user_id":195,"name":"Ratlympics Gold Medalist","steam_id":76561198064981004,"connected_time":161000000000,"state":"active","ping":60},{"user_id":183,"name":"Bee_Pirate","steam_id":76561199000599111,"connected_time":955000000000,"state":"active","ping":63},{"user_id":196,"name":"doop","steam_id":76561198370487545,"connected_time":155000000000,"state":"active","ping":48},{"user_id":127,"name":"ndvr (femboy (REAL))","steam_id":76561199379200102,"connected_time":6201000000000,"state":"active","ping":39},{"user_id":134,"name":"theartistnathan","steam_id":76561198833787452,"connected_time":5347000000000,"state":"active","ping":77}]},{"server_id":14,"name":"Uncletopia | New York City | 2 | All Maps","name_short":"nyc-2","host":"nyc-1.us.uncletopia.com","port":27025,"enabled":true,"region":"us-east","cc":"us","latitude":40.73061,"longitude":-73.93524,"reserved":0,"last_update":"0001-01-01T00:00:00Z","name_a2s":"Uncletopia | New York City | 2 | All Maps","protocol":17,"map":"pl_upward","folder":"tf","game":"Team Fortress","app_id":440,"player_count":23,"max_players":24,"Bots":0,"server_type":"Dedicated","server_os":"Linux","password":true,"vac":true,"version":"7961495","steam_id":85568392924469994,"keywords":["nocrits","nodmgspread","payload","uncletopia"],"game_id":440,"stv_port":27026,"stv_name":"Uncletopia | New York City | 2 | All Maps | STV","players":[{"user_id":308,"name":"Novu","steam_id":76561198886997024,"connected_time":3000000000,"state":"spawning","ping":59},{"user_id":306,"name":"Baron von Whoopsie","steam_id":76561197996691013,"connected_time":58000000000,"state":"active","ping":47},{"user_id":238,"name":"You Don't Nomi.","steam_id":76561197969137836,"connected_time":4523000000000,"state":"active","ping":29},{"user_id":280,"name":"chunger","steam_id":76561198107931997,"connected_time":1288000000000,"state":"active","ping":56},{"user_id":303,"name":"incredirocks","steam_id":76561198061079993,"connected_time":228000000000,"state":"active","ping":64},{"user_id":286,"name":"JustAnotherHuman","steam_id":76561199018122924,"connected_time":1092000000000,"state":"active","ping":119},{"user_id":257,"name":"Jazz2T","steam_id":76561198154418867,"connected_time":3094000000000,"state":"active","ping":105},{"user_id":295,"name":"comet sooicidy","steam_id":76561198025173479,"connected_time":647000000000,"state":"active","ping":71},{"user_id":287,"name":"HatManZ1","steam_id":76561199177173758,"connected_time":1088000000000,"state":"active","ping":65},{"user_id":309,"name":"Im Groot","steam_id":76561198294943420,"connected_time":3000000000,"state":"spawning","ping":92},{"user_id":288,"name":"Error","steam_id":76561199215193609,"connected_time":1075000000000,"state":"active","ping":62},{"user_id":292,"name":"ÊúàË™≠","steam_id":76561198154020827,"connected_time":920000000000,"state":"active","ping":149},{"user_id":271,"name":"AndrewTron","steam_id":76561198301605457,"connected_time":2230000000000,"state":"active","ping":60},{"user_id":310,"name":"oppenheimer style","steam_id":76561198026664629,"connected_time":2000000000,"state":"spawning","ping":33},{"user_id":304,"name":"corntent","steam_id":76561198824847948,"connected_time":220000000000,"state":"active","ping":40},{"user_id":301,"name":"wes","steam_id":76561198273536400,"connected_time":292000000000,"state":"active","ping":45},{"user_id":302,"name":"starfungus","steam_id":76561198158312789,"connected_time":275000000000,"state":"spawning","ping":44},{"user_id":311,"name":"Tylogaming","steam_id":76561198025181395,"connected_time":0,"state":"spawning","ping":32},{"user_id":290,"name":":o","steam_id":76561198964101426,"connected_time":1037000000000,"state":"active","ping":39},{"user_id":305,"name":"mr poop","steam_id":76561199195196632,"connected_time":137000000000,"state":"active","ping":83},{"user_id":276,"name":"bobbymcbobington","steam_id":76561199089411172,"connected_time":1830000000000,"state":"active","ping":108},{"user_id":294,"name":"Purple Guy","steam_id":76561199045075356,"connected_time":786000000000,"state":"active","ping":71},{"user_id":284,"name":"Forge","steam_id":76561198042751067,"connected_time":1270000000000,"state":"active","ping":38}]},{"server_id":15,"name":"Uncletopia | New York City | 3 | Stopwatch","name_short":"nyc-3","host":"nyc-1.us.uncletopia.com","port":27035,"enabled":true,"region":"us-east","cc":"us","latitude":40.73061,"longitude":-73.93524,"reserved":0,"last_update":"0001-01-01T00:00:00Z","name_a2s":"Uncletopia | New York City | 3 | Stopwatch","protocol":17,"map":"workshop/pl_barnblitz_pro7.ugc582280235","folder":"tf","game":"Team Fortress","app_id":440,"player_count":0,"max_players":24,"Bots":0,"server_type":"Dedicated","server_os":"Linux","password":true,"vac":true,"version":"7961495","steam_id":85568392924742820,"keywords":["nocrits","nodmgspread","payload","uncletopia"],"game_id":440,"stv_port":27036,"stv_name":"Uncletopia | New York City | 3 | Stopwatch | STV","players":null},{"server_id":16,"name":"Uncletopia | New York City | 4 | Community","name_short":"nyc-4","host":"nyc-1.us.uncletopia.com","port":27045,"enabled":true,"region":"us-east","cc":"us","latitude":40.73061,"longitude":-73.93524,"reserved":0,"last_update":"0001-01-01T00:00:00Z","name_a2s":"Uncletopia | New York City | 4 | Community","protocol":17,"map":"workshop/cp_indulge.ugc528106646","folder":"tf","game":"Team Fortress","app_id":440,"player_count":0,"max_players":24,"Bots":0,"server_type":"Dedicated","server_os":"Linux","password":true,"vac":true,"version":"7961495","steam_id":85568392924742821,"keywords":["cp","nocrits","nodmgspread","uncletopia"],"game_id":440,"stv_port":27046,"stv_name":"Uncletopia | New York City | 4 | Community | STV","players":null},{"server_id":142,"name":"Uncletopia | S√£o Paulo | 1 | All Maps","name_short":"sao-1","host":"sao-1.br.uncletopia.com","port":27015,"enabled":true,"region":"sa","cc":"br","latitude":-23.533773,"longitude":-46.62529,"reserved":0,"last_update":"0001-01-01T00:00:00Z","name_a2s":"Uncletopia | S√£o Paulo | 1 | All Maps","protocol":17,"map":"koth_viaduct","folder":"tf","game":"Team Fortress","app_id":440,"player_count":0,"max_players":24,"Bots":0,"server_type":"Dedicated","server_os":"Linux","password":true,"vac":true,"version":"7961495","steam_id":85568392924469996,"keywords":["cp","nocrits","nodmgspread","uncletopia"],"game_id":440,"stv_port":27016,"stv_name":"Uncletopia | S√£o Paulo | 1 | All Maps | STV","players":null},{"server_id":143,"name":"Uncletopia | S√£o Paulo | 2 | Community","name_short":"sao-2","host":"sao-2.br.uncletopia.com","port":27015,"enabled":true,"region":"sa","cc":"br","latitude":-23.533773,"longitude":-46.62529,"reserved":0,"last_update":"0001-01-01T00:00:00Z","name_a2s":"Uncletopia | S√£o Paulo | 2 | Community","protocol":17,"map":"workshop/koth_product_final.ugc454272353","folder":"tf","game":"Team Fortress","app_id":440,"player_count":0,"max_players":24,"Bots":0,"server_type":"Dedicated","server_os":"Linux","password":true,"vac":true,"version":"7961495","steam_id":85568392924485349,"keywords":["cp","nocrits","nodmgspread","uncletopia"],"game_id":440,"stv_port":27016,"stv_name":"Uncletopia | S√£o Paulo | 2 | Community | STV","players":null},{"server_id":7,"name":"Uncletopia | Seattle | 1 | All Maps","name_short":"sea-1","host":"sea-1.us.uncletopia.com","port":27015,"enabled":true,"region":"us-west","cc":"us","latitude":47.608013,"longitude":-122.33517,"reserved":0,"last_update":"0001-01-01T00:00:00Z","name_a2s":"Uncletopia | Seattle | 1 | All Maps","protocol":17,"map":"pl_borneo","folder":"tf","game":"Team Fortress","app_id":440,"player_count":24,"max_players":24,"Bots":0,"server_type":"Dedicated","server_os":"Linux","password":true,"vac":true,"version":"7961495","steam_id":85568392924469997,"keywords":["nocrits","nodmgspread","payload","uncletopia"],"game_id":440,"stv_port":27016,"stv_name":"Uncletopia | Seattle | 1 | All Maps | STV","players":[{"user_id":350,"name":"Zobozo","steam_id":76561198028954297,"connected_time":921000000000,"state":"active","ping":75},{"user_id":353,"name":"bottom pride burger","steam_id":76561198322247602,"connected_time":911000000000,"state":"active","ping":85},{"user_id":326,"name":"Confirmed Bachelor","steam_id":76561198441041496,"connected_time":2820000000000,"state":"active","ping":42},{"user_id":354,"name":"peachy","steam_id":76561198028721790,"connected_time":905000000000,"state":"active","ping":62},{"user_id":327,"name":"a chicken","steam_id":76561198313121580,"connected_time":2819000000000,"state":"active","ping":75},{"user_id":335,"name":"2 Point Tom","steam_id":76561198087617008,"connected_time":2358000000000,"state":"active","ping":55},{"user_id":356,"name":"T√ºCold","steam_id":76561198111278197,"connected_time":216000000000,"state":"active","ping":40},{"user_id":345,"name":"Cosmo","steam_id":76561199085643398,"connected_time":1140000000000,"state":"active","ping":76},{"user_id":357,"name":"Laxoloni","steam_id":76561199197045700,"connected_time":183000000000,"state":"active","ping":76},{"user_id":342,"name":"Just a Good Friend","steam_id":76561198140052403,"connected_time":1287000000000,"state":"active","ping":60},{"user_id":328,"name":"strawberry milk","steam_id":76561198025514255,"connected_time":2816000000000,"state":"active","ping":63},{"user_id":338,"name":"Username","steam_id":76561199033122306,"connected_time":1889000000000,"state":"active","ping":146},{"user_id":334,"name":"Cuno Doesn't Care!","steam_id":76561198007372782,"connected_time":2434000000000,"state":"active","ping":62},{"user_id":355,"name":"Windows Vista Home Premium","steam_id":76561198043764863,"connected_time":501000000000,"state":"active","ping":70},{"user_id":343,"name":"Aardappel","steam_id":76561198030894676,"connected_time":1246000000000,"state":"active","ping":62},{"user_id":347,"name":"trackpad gaming | f2p","steam_id":76561198840414371,"connected_time":950000000000,"state":"active","ping":52},{"user_id":346,"name":"Mexican Elvis","steam_id":76561198165100210,"connected_time":1061000000000,"state":"active","ping":84},{"user_id":339,"name":"hatred","steam_id":76561198904209270,"connected_time":1339000000000,"state":"active","ping":58},{"user_id":298,"name":"X-Parasite","steam_id":76561198111178095,"connected_time":4816000000000,"state":"active","ping":87},{"user_id":341,"name":"DaBigA","steam_id":76561198326492538,"connected_time":1303000000000,"state":"active","ping":41},{"user_id":306,"name":"Tmiracle","steam_id":76561198052375275,"connected_time":4480000000000,"state":"active","ping":88},{"user_id":352,"name":"Dim","steam_id":76561198061411324,"connected_time":918000000000,"state":"active","ping":136},{"user_id":285,"name":"Eden","steam_id":76561198081284664,"connected_time":5993000000000,"state":"active","ping":75},{"user_id":324,"name":"you just got dyked on","steam_id":76561198018977723,"connected_time":2841000000000,"state":"active","ping":46}]},{"server_id":119,"name":"Uncletopia | Seattle | 2 | All Maps","name_short":"sea-2","host":"sea-1.us.uncletopia.com","port":27025,"enabled":true,"region":"us-west","cc":"us","latitude":47.608013,"longitude":-122.33517,"reserved":0,"last_update":"0001-01-01T00:00:00Z","name_a2s":"Uncletopia | Seattle | 2 | All Maps","protocol":17,"map":"koth_cascade","folder":"tf","game":"Team Fortress","app_id":440,"player_count":0,"max_players":24,"Bots":0,"server_type":"Dedicated","server_os":"Linux","password":true,"vac":true,"version":"7961495","steam_id":85568392924469998,"keywords":["cp","nocrits","nodmgspread","uncletopia"],"game_id":440,"stv_port":27026,"stv_name":"Uncletopia | Seattle | 2 | All Maps | STV","players":null},{"server_id":406,"name":"Uncletopia | Seattle | 3 | Stopwatch","name_short":"sea-3","host":"sea-1.us.uncletopia.com","port":27035,"enabled":true,"region":"us-west","cc":"us","latitude":47.608013,"longitude":-122.33517,"reserved":0,"last_update":"0001-01-01T00:00:00Z","name_a2s":"Uncletopia | Seattle | 3 | Stopwatch","protocol":17,"map":"workshop/pl_summercoast_rc8e.ugc1761528829","folder":"tf","game":"Team Fortress","app_id":440,"player_count":0,"max_players":24,"Bots":0,"server_type":"Dedicated","server_os":"Linux","password":true,"vac":true,"version":"7961495","steam_id":85568392924515217,"keywords":["nocrits","nodmgspread","payload","uncletopia"],"game_id":440,"stv_port":27036,"stv_name":"Uncletopia | Seattle | 3 | Stopwatch | STV","players":null},{"server_id":17,"name":"Uncletopia | San Francisco | 1 | All Maps","name_short":"sfo-1","host":"sfo-1.us.uncletopia.com","port":27015,"enabled":true,"region":"us-west","cc":"us","latitude":37.77397,"longitude":-122.4313,"reserved":0,"last_update":"0001-01-01T00:00:00Z","name_a2s":"Uncletopia | San Francisco | 1 | All Maps","protocol":17,"map":"koth_highpass","folder":"tf","game":"Team Fortress","app_id":440,"player_count":0,"max_players":24,"Bots":0,"server_type":"Dedicated","server_os":"Linux","password":true,"vac":true,"version":"7961495","steam_id":85568392924469999,"keywords":["cp","nocrits","nodmgspread","uncletopia"],"game_id":440,"stv_port":27016,"stv_name":"Uncletopia | San Francisco | 1 | All Maps | STV","players":null},{"server_id":18,"name":"Uncletopia | San Francisco | 2 | All Maps","name_short":"sfo-2","host":"sfo-1.us.uncletopia.com","port":27025,"enabled":true,"region":"us-west","cc":"us","latitude":37.77397,"longitude":-122.4313,"reserved":0,"last_update":"0001-01-01T00:00:00Z","name_a2s":"Uncletopia | San Francisco | 2 | All Maps","protocol":17,"map":"cp_freight_final1","folder":"tf","game":"Team Fortress","app_id":440,"player_count":0,"max_players":24,"Bots":0,"server_type":"Dedicated","server_os":"Linux","password":true,"vac":true,"version":"7961495","steam_id":85568392924470000,"keywords":["cp","nocrits","nodmgspread","uncletopia"],"game_id":440,"stv_port":27026,"stv_name":"Uncletopia | San Francisco | 2 | All Maps | STV","players":null},{"server_id":19,"name":"Uncletopia | San Francisco | 3 | Stopwatch","name_short":"sfo-3","host":"sfo-1.us.uncletopia.com","port":27035,"enabled":true,"region":"us-west","cc":"us","latitude":37.77397,"longitude":-122.4313,"reserved":0,"last_update":"0001-01-01T00:00:00Z","name_a2s":"Uncletopia | San Francisco | 3 | Stopwatch","protocol":17,"map":"workshop/koth_jamram_rc1a.ugc2964065613","folder":"tf","game":"Team Fortress","app_id":440,"player_count":0,"max_players":24,"Bots":0,"server_type":"Dedicated","server_os":"Linux","password":true,"vac":true,"version":"7961495","steam_id":85568392924742824,"keywords":["cp","nocrits","nodmgspread","uncletopia"],"game_id":440,"stv_port":27036,"stv_name":"Uncletopia | San Francisco | 3 | Stopwatch | STV","players":null},{"server_id":20,"name":"Uncletopia | San Francisco | 4 | Community","name_short":"sfo-4","host":"sfo-1.us.uncletopia.com","port":27045,"enabled":true,"region":"us-west","cc":"us","latitude":37.77397,"longitude":-122.4313,"reserved":0,"last_update":"0001-01-01T00:00:00Z","name_a2s":"Uncletopia | San Francisco | 4 | Community","protocol":17,"map":"workshop/pl_cactuscanyon_redux_final2.ugc2579644293","folder":"tf","game":"Team Fortress","app_id":440,"player_count":0,"max_players":24,"Bots":0,"server_type":"Dedicated","server_os":"Linux","password":true,"vac":true,"version":"7961495","steam_id":85568392924742826,"keywords":["nocrits","nodmgspread","payload","uncletopia"],"game_id":440,"stv_port":27046,"stv_name":"Uncletopia | San Francisco | 4 | Community | STV","players":null},{"server_id":141,"name":"Uncletopia | Sydney | 1 | All Maps","name_short":"syd-1","host":"syd-1.au.uncletopia.com","port":27015,"enabled":true,"region":"au","cc":"au","latitude":-33.865143,"longitude":151.2099,"reserved":0,"last_update":"0001-01-01T00:00:00Z","name_a2s":"Uncletopia | Sydney | 1 | All Maps","protocol":17,"map":"koth_nucleus","folder":"tf","game":"Team Fortress","app_id":440,"player_count":0,"max_players":24,"Bots":0,"server_type":"Dedicated","server_os":"Linux","password":true,"vac":true,"version":"7961495","steam_id":85568392924470001,"keywords":["cp","nocrits","nodmgspread","uncletopia"],"game_id":440,"stv_port":27016,"stv_name":"Uncletopia | Sydney | 1 | All Maps | STV","players":null},{"server_id":123,"name":"Uncletopia | Sydney | 2 | All Maps","name_short":"syd-2","host":"syd-1.au.uncletopia.com","port":27025,"enabled":true,"region":"au","cc":"au","latitude":-33.865143,"longitude":151.2099,"reserved":0,"last_update":"0001-01-01T00:00:00Z","name_a2s":"Uncletopia | Sydney | 2 | All Maps","protocol":17,"map":"cp_fastlane","folder":"tf","game":"Team Fortress","app_id":440,"player_count":0,"max_players":24,"Bots":0,"server_type":"Dedicated","server_os":"Linux","password":true,"vac":true,"version":"7961495","steam_id":85568392924470002,"keywords":["cp","nocrits","nodmgspread","uncletopia"],"game_id":440,"stv_port":27026,"stv_name":"Uncletopia | Sydney | 2 | All Maps | STV","players":null},{"server_id":395,"name":"Uncletopia | Sydney | 3 | All Maps","name_short":"syd-3","host":"syd-1.au.uncletopia.com","port":27035,"enabled":true,"region":"au","cc":"au","latitude":-33.865143,"longitude":151.2099,"reserved":0,"last_update":"0001-01-01T00:00:00Z","name_a2s":"Uncletopia | Sydney | 3 | All Maps","protocol":17,"map":"cp_metalworks","folder":"tf","game":"Team Fortress","app_id":440,"player_count":0,"max_players":24,"Bots":0,"server_type":"Dedicated","server_os":"Linux","password":true,"vac":true,"version":"7961495","steam_id":85568392925194467,"keywords":["cp","nocrits","nodmgspread","uncletopia"],"game_id":440,"stv_port":27036,"stv_name":"Uncletopia | Sydney | 3 | All Maps | STV","players":null},{"server_id":396,"name":"Uncletopia | Sydney | 4 | All Maps","name_short":"syd-4","host":"syd-1.au.uncletopia.com","port":27045,"enabled":true,"region":"au","cc":"au","latitude":-33.865143,"longitude":151.2099,"reserved":0,"last_update":"0001-01-01T00:00:00Z","name_a2s":"Uncletopia | Sydney | 4 | All Maps","protocol":17,"map":"koth_cascade","folder":"tf","game":"Team Fortress","app_id":440,"player_count":0,"max_players":24,"Bots":0,"server_type":"Dedicated","server_os":"Linux","password":true,"vac":true,"version":"7961495","steam_id":85568392925397958,"keywords":["cp","nocrits","nodmgspread","uncletopia"],"game_id":440,"stv_port":27046,"stv_name":"Uncletopia | Sydney | 4 | All Maps | STV","players":null},{"server_id":58,"name":"Uncletopia | Sydney | 5 | Stopwatch","name_short":"syd-5","host":"syd-1.au.uncletopia.com","port":27055,"enabled":true,"region":"au","cc":"au","latitude":-33.865143,"longitude":151.2099,"reserved":0,"last_update":"0001-01-01T00:00:00Z","name_a2s":"Uncletopia | Sydney | 5 | Stopwatch","protocol":17,"map":"workshop/koth_product_final.ugc454272353","folder":"tf","game":"Team Fortress","app_id":440,"player_count":0,"max_players":24,"Bots":0,"server_type":"Dedicated","server_os":"Linux","password":true,"vac":true,"version":"7961495","steam_id":85568392925397959,"keywords":["cp","nocrits","nodmgspread","uncletopia"],"game_id":440,"stv_port":27056,"stv_name":"Uncletopia | Sydney | 5 | Stopwatch | STV","players":null},{"server_id":59,"name":"Uncletopia | Sydney | 6 | Community","name_short":"syd-6","host":"syd-1.au.uncletopia.com","port":27065,"enabled":true,"region":"au","cc":"au","latitude":-33.865143,"longitude":151.2099,"reserved":0,"last_update":"0001-01-01T00:00:00Z","name_a2s":"Uncletopia | Sydney | 6 | Community","protocol":17,"map":"workshop/koth_trenchfoot_ab1.ugc731436616","folder":"tf","game":"Team Fortress","app_id":440,"player_count":0,"max_players":24,"Bots":0,"server_type":"Dedicated","server_os":"Linux","password":true,"vac":true,"version":"7961495","steam_id":85568392925397960,"keywords":["cp","nocrits","nodmgspread","uncletopia"],"game_id":440,"stv_port":27066,"stv_name":"Uncletopia | Sydney | 6 | Community | STV","players":null},{"server_id":49,"name":"Uncletopia | Warsaw | 1 | One Thousand Uncles","name_short":"waw-1","host":"waw-1.pl.uncletopia.com","port":27015,"enabled":true,"region":"eu","cc":"pl","latitude":52.2297,"longitude":21.017532,"reserved":0,"last_update":"0001-01-01T00:00:00Z","name_a2s":"Uncletopia | Warsaw | 1 | One Thousand Uncles","protocol":17,"map":"pl_thundermountain","folder":"tf","game":"Team Fortress","app_id":440,"player_count":24,"max_players":32,"Bots":16,"server_type":"Dedicated","server_os":"Linux","password":true,"vac":true,"version":"7961495","steam_id":85568392925397850,"keywords":["alltalk","bots","danepve","increased_maxplayers","norespawntime","payload","uncletopia"],"game_id":440,"stv_port":0,"stv_name":"","players":[{"user_id":745,"name":"Doofin","steam_id":76561198114424776,"connected_time":83000000000,"state":"spawning","ping":104},{"user_id":744,"name":"Tispy","steam_id":76561199207410049,"connected_time":344000000000,"state":"active","ping":187},{"user_id":742,"name":"Voxiit","steam_id":76561198060319116,"connected_time":463000000000,"state":"active","ping":69},{"user_id":739,"name":"Mr.J","steam_id":76561199127439080,"connected_time":3161000000000,"state":"active","ping":92},{"user_id":743,"name":"Zodaick","steam_id":76561198083662129,"connected_time":432000000000,"state":"active","ping":73},{"user_id":733,"name":"Jared","steam_id":76561198020432651,"connected_time":3662000000000,"state":"active","ping":149},{"user_id":735,"name":"SHIZA69 [SGR]","steam_id":76561199104086365,"connected_time":3565000000000,"state":"active","ping":82},{"user_id":712,"name":"serbanstein","steam_id":76561199112672194,"connected_time":4809000000000,"state":"active","ping":89}]},{"server_id":50,"name":"Uncletopia | Warsaw | 2 | One Thousand Uncles","name_short":"waw-2","host":"waw-1.pl.uncletopia.com","port":27025,"enabled":true,"region":"eu","cc":"pl","latitude":52.2297,"longitude":21.017532,"reserved":0,"last_update":"0001-01-01T00:00:00Z","name_a2s":"Uncletopia | Warsaw | 2 | One Thousand Uncles","protocol":17,"map":"pl_upward","folder":"tf","game":"Team Fortress","app_id":440,"player_count":17,"max_players":32,"Bots":16,"server_type":"Dedicated","server_os":"Linux","password":true,"vac":true,"version":"7961495","steam_id":85568392925397851,"keywords":["alltalk","bots","danepve","increased_maxplayers","norespawntime","payload","uncletopia"],"game_id":440,"stv_port":0,"stv_name":"","players":[{"user_id":88,"name":"ViPower","steam_id":76561198882928076,"connected_time":7884000000000,"state":"active","ping":55}]},{"server_id":51,"name":"Uncletopia | Warsaw | 3 | All Maps","name_short":"waw-3","host":"waw-1.pl.uncletopia.com","port":27035,"enabled":true,"region":"eu","cc":"pl","latitude":52.2297,"longitude":21.017532,"reserved":0,"last_update":"0001-01-01T00:00:00Z","name_a2s":"Uncletopia | Warsaw | 3 | All Maps","protocol":17,"map":"cp_sunshine","folder":"tf","game":"Team Fortress","app_id":440,"player_count":0,"max_players":24,"Bots":0,"server_type":"Dedicated","server_os":"Linux","password":true,"vac":true,"version":"7961495","steam_id":85568392925397852,"keywords":["cp","nocrits","nodmgspread","uncletopia"],"game_id":440,"stv_port":27036,"stv_name":"Uncletopia | Warsaw | 3 | All Maps | STV","players":null},{"server_id":52,"name":"Uncletopia | Warsaw | 4 | All Maps","name_short":"waw-4","host":"waw-1.pl.uncletopia.com","port":27045,"enabled":true,"region":"eu","cc":"pl","latitude":52.2297,"longitude":21.017532,"reserved":0,"last_update":"0001-01-01T00:00:00Z","name_a2s":"Uncletopia | Warsaw | 4 | All Maps","protocol":17,"map":"cp_snakewater_final1","folder":"tf","game":"Team Fortress","app_id":440,"player_count":0,"max_players":24,"Bots":0,"server_type":"Dedicated","server_os":"Linux","password":true,"vac":true,"version":"7961495","steam_id":85568392925397853,"keywords":["cp","nocrits","nodmgspread","uncletopia"],"game_id":440,"stv_port":27046,"stv_name":"Uncletopia | Warsaw | 4 | All Maps | STV","players":null},{"server_id":53,"name":"Uncletopia | Warsaw | 5 | Stopwatch","name_short":"waw-5","host":"waw-1.pl.uncletopia.com","port":27055,"enabled":true,"region":"eu","cc":"pl","latitude":52.2297,"longitude":21.017532,"reserved":0,"last_update":"0001-01-01T00:00:00Z","name_a2s":"Uncletopia | Warsaw | 5 | Stopwatch","protocol":17,"map":"workshop/koth_product_final.ugc454272353","folder":"tf","game":"Team Fortress","app_id":440,"player_count":0,"max_players":24,"Bots":0,"server_type":"Dedicated","server_os":"Linux","password":true,"vac":true,"version":"7961495","steam_id":85568392925397854,"keywords":["cp","nocrits","nodmgspread","uncletopia"],"game_id":440,"stv_port":27056,"stv_name":"Uncletopia | Warsaw | 5 | Stopwatch | STV","players":null},{"server_id":54,"name":"Uncletopia | Warsaw | 6 | Community","name_short":"waw-6","host":"waw-1.pl.uncletopia.com","port":27065,"enabled":true,"region":"eu","cc":"pl","latitude":52.2297,"longitude":21.017532,"reserved":0,"last_update":"0001-01-01T00:00:00Z","name_a2s":"Uncletopia | Warsaw | 6 | Community","protocol":17,"map":"workshop/cp_caldera_rc3.ugc2834196889","folder":"tf","game":"Team Fortress","app_id":440,"player_count":0,"max_players":24,"Bots":0,"server_type":"Dedicated","server_os":"Linux","password":true,"vac":true,"version":"7961495","steam_id":85568392925397856,"keywords":["cp","nocrits","nodmgspread","uncletopia"],"game_id":440,"stv_port":27066,"stv_name":"Uncletopia | Warsaw | 6 | Community | STV","players":null}]}