{"status":true,"message":"","result":[{"server_id":9,"name":"Uncletopia | Atlanta | 1 | All Maps","name_short":"atl-1","host":"atl-1.us.uncletopia.com","port":27015,"enabled":true,"region":"us-east","cc":"us","latitude":33.753746,"longitude":-84.38633,"reserved":0,"last_update":"0001-01-01T00:00:00Z","name_a2s":"Uncletopia | Atlanta | 1 | All Maps","protocol":17,"map":"cp_mountainlab","folder":"tf","game":"Team Fortress","app_id":440,"player_count":24,"max_players":24,"Bots":0,"server_type":"Dedicated","server_os":"Linux","password":true,"vac":true,"version":"7961495","steam_id":85568392924469982,"keywords":["cp","nocrits","nodmgspread","uncletopia"],"game_id":440,"stv_port":27016,"stv_name":"Uncletopia | Atlanta | 1 | All Maps | STV","players":null},{"server_id":104,"name":"Uncletopia | Atlanta | 2 | All Maps","name_short":"atl-2","host":"atl-1.us.uncletopia.com","port":27025,"enabled":true,"region":"us-east","cc":"us","latitude":33.753746,"longitude":-84.38633,"reserved":0,"last_update":"0001-01-01T00:00:00Z","name_a2s":"Uncletopia | Atlanta | 2 | All Maps","protocol":17,"map":"koth_nucleus","folder":"tf","game":"Team Fortress","app_id":440,"player_count":24,"max_players":24,"Bots":0,"server_type":"Dedicated","server_os":"Linux","password":true,"vac":true,"version":"7961495","steam_id":85568392924469983,"keywords":["cp","nocrits","nodmgspread","uncletopia"],"game_id":440,"stv_port":27026,"stv_name":"Uncletopia | Atlanta | 2 | All Maps | STV","players":null},{"server_id":400,"name":"Uncletopia | Atlanta | 3 | All Maps","name_short":"atl-3","host":"atl-1.us.uncletopia.com","port":27035,"enabled":true,"region":"us-east","cc":"us","latitude":33.753746,"longitude":-84.38633,"reserved":0,"last_update":"0001-01-01T00:00:00Z","name_a2s":"Uncletopia | Atlanta | 3 | All Maps","protocol":17,"map":"pl_snowycoast","folder":"tf","game":"Team Fortress","app_id":440,"player_count":23,"max_players":24,"Bots":0,"server_type":"Dedicated","server_os":"Linux","password":true,"vac":true,"version":"7961495","steam_id":85568392924515187,"keywords":["nocrits","nodmgspread","payload","uncletopia"],"game_id":440,"stv_port":27036,"stv_name":"Uncletopia | Atlanta | 3 | All Maps | STV","players":null},{"server_id":401,"name":"Uncletopia | Atlanta | 4 | Community","name_short":"atl-4","host":"atl-1.us.uncletopia.com","port":27045,"enabled":true,"region":"us-east","cc":"us","latitude":33.753746,"longitude":-84.38633,"reserved":0,"last_update":"0001-01-01T00:00:00Z","name_a2s":"Uncletopia | Atlanta | 4 | Community","protocol":17,"map":"koth_trenchfoot_b1a","folder":"tf","game":"Team Fortress","app_id":440,"player_count":0,"max_players":24,"Bots":0,"server_type":"Dedicated","server_os":"Linux","password":true,"vac":true,"version":"7961495","steam_id":85568392924515188,"keywords":["cp","nocrits","nodmgspread","uncletopia"],"game_id":440,"stv_port":27046,"stv_name":"Uncletopia | Atlanta | 4 | Community | STV","players":null},{"server_id":2,"name":"Uncletopia | Chicago | 1 | All Maps","name_short":"chi-1","host":"chi-1.us.uncletopia.com","port":27015,"enabled":true,"region":"us-central","cc":"us","latitude":41.881832,"longitude":-87.62318,"reserved":0,"last_update":"0001-01-01T00:00:00Z","name_a2s":"Uncletopia | Chicago | 1 | All Maps","protocol":17,"map":"pl_upward","folder":"tf","game":"Team Fortress","app_id":440,"player_count":24,"max_players":24,"Bots":0,"server_type":"Dedicated","server_os":"Linux","password":true,"vac":true,"version":"7961495","steam_id":85568392924469984,"keywords":["nocrits","nodmgspread","payload","uncletopia"],"game_id":440,"stv_port":27016,"stv_name":"Uncletopia | Chicago | 1 | All Maps | STV","players":[{"user_id":382,"name":"Flaco","steam_id":76561198356923745,"connected_time":2879000000000,"state":"active","ping":87},{"user_id":405,"name":"Rneak","steam_id":76561199102075970,"connected_time":1496000000000,"state":"active","ping":89},{"user_id":393,"name":"Craig Isonychia","steam_id":76561198272013678,"connected_time":2251000000000,"state":"active","ping":70},{"user_id":415,"name":"derz","steam_id":76561198010742216,"connected_time":872000000000,"state":"active","ping":54},{"user_id":378,"name":"Notsocreative","steam_id":76561198236372202,"connected_time":2977000000000,"state":"active","ping":74},{"user_id":426,"name":"Super3D","steam_id":76561199297779078,"connected_time":785000000000,"state":"active","ping":60},{"user_id":416,"name":"Joseph Bidomeus","steam_id":76561198389177376,"connected_time":870000000000,"state":"active","ping":48},{"user_id":411,"name":"ATL69 | weewa","steam_id":76561198064876090,"connected_time":900000000000,"state":"active","ping":74},{"user_id":400,"name":"Crazalicious","steam_id":76561198125679260,"connected_time":1698000000000,"state":"active","ping":54},{"user_id":417,"name":"TheZan","steam_id":76561199103556115,"connected_time":867000000000,"state":"active","ping":108},{"user_id":380,"name":"Potet","steam_id":76561198167547789,"connected_time":2901000000000,"state":"active","ping":57},{"user_id":402,"name":"Giorno Giovanna","steam_id":76561198044106874,"connected_time":1638000000000,"state":"active","ping":94},{"user_id":391,"name":"harley","steam_id":76561198799384110,"connected_time":2340000000000,"state":"active","ping":91},{"user_id":414,"name":"Crazed Scout","steam_id":76561199225051768,"connected_time":884000000000,"state":"active","ping":59},{"user_id":428,"name":"m yfrogs","steam_id":76561198371149432,"connected_time":21000000000,"state":"active","ping":48},{"user_id":412,"name":"Captain Bug","steam_id":76561198137763878,"connected_time":893000000000,"state":"active","ping":84},{"user_id":427,"name":"gary","steam_id":76561198140226890,"connected_time":580000000000,"state":"active","ping":85},{"user_id":413,"name":"Sanic_Bum","steam_id":76561198094179822,"connected_time":890000000000,"state":"active","ping":56},{"user_id":374,"name":"Mank","steam_id":76561198189421005,"connected_time":3152000000000,"state":"active","ping":46},{"user_id":424,"name":"Hank_Bakon","steam_id":76561198950301425,"connected_time":817000000000,"state":"active","ping":101},{"user_id":420,"name":"❤ Ashley ❤","steam_id":76561198056428303,"connected_time":843000000000,"state":"active","ping":103},{"user_id":422,"name":"whalemart","steam_id":76561198203395648,"connected_time":825000000000,"state":"active","ping":70},{"user_id":425,"name":"Ball_Kicker","steam_id":76561199367093454,"connected_time":815000000000,"state":"active","ping":193},{"user_id":407,"name":"reymundo","steam_id":76561197989412830,"connected_time":1470000000000,"state":"active","ping":117}]},{"server_id":106,"name":"Uncletopia | Chicago | 2 | All Maps","name_short":"chi-2","host":"chi-1.us.uncletopia.com","port":27025,"enabled":true,"region":"us-central","cc":"us","latitude":41.881832,"longitude":-87.62318,"reserved":0,"last_update":"0001-01-01T00:00:00Z","name_a2s":"Uncletopia | Chicago | 2 | All Maps","protocol":17,"map":"pl_swiftwater_final1","folder":"tf","game":"Team Fortress","app_id":440,"player_count":24,"max_players":24,"Bots":0,"server_type":"Dedicated","server_os":"Linux","password":true,"vac":true,"version":"7961495","steam_id":85568392924469985,"keywords":["nocrits","nodmgspread","payload","uncletopia"],"game_id":440,"stv_port":27026,"stv_name":"Uncletopia | Chicago | 2 | All Maps | STV","players":[{"user_id":536,"name":"Nerf Clean Hit","steam_id":76561198257691881,"connected_time":1656000000000,"state":"active","ping":88},{"user_id":537,"name":"Whale = Fish","steam_id":76561198007792525,"connected_time":1655000000000,"state":"active","ping":121},{"user_id":531,"name":"venomew2","steam_id":76561198327081077,"connected_time":1893000000000,"state":"active","ping":82},{"user_id":546,"name":"gg personally","steam_id":76561199011185438,"connected_time":1451000000000,"state":"active","ping":44},{"user_id":533,"name":"1-800-GHOST-DANCE","steam_id":76561198835430429,"connected_time":1761000000000,"state":"active","ping":76},{"user_id":527,"name":"Hugs","steam_id":76561198214584133,"connected_time":2679000000000,"state":"active","ping":114},{"user_id":532,"name":"Nelson TF2EASY.COM","steam_id":76561198850327678,"connected_time":1762000000000,"state":"active","ping":94},{"user_id":556,"name":"Nite","steam_id":76561199014777092,"connected_time":1075000000000,"state":"active","ping":60},{"user_id":547,"name":"esog","steam_id":76561198250069226,"connected_time":1446000000000,"state":"active","ping":62},{"user_id":515,"name":"Chucklin","steam_id":76561198010823579,"connected_time":3477000000000,"state":"active","ping":90},{"user_id":542,"name":"sammy","steam_id":76561199001307670,"connected_time":1524000000000,"state":"active","ping":90},{"user_id":548,"name":"Mehman","steam_id":76561199020244051,"connected_time":1434000000000,"state":"active","ping":87},{"user_id":558,"name":"Sicko Mode (Chris Pratt Cover)","steam_id":76561198315786174,"connected_time":54000000000,"state":"active","ping":86},{"user_id":545,"name":"Shalom","steam_id":76561198410005222,"connected_time":1488000000000,"state":"active","ping":55},{"user_id":470,"name":"Netter","steam_id":76561198086309544,"connected_time":6504000000000,"state":"active","ping":84},{"user_id":557,"name":"Autogyro","steam_id":76561198047943679,"connected_time":110000000000,"state":"active","ping":59},{"user_id":554,"name":"ShortenedName","steam_id":76561198079337360,"connected_time":1241000000000,"state":"active","ping":71},{"user_id":559,"name":"engiqueer69","steam_id":76561199153261850,"connected_time":10000000000,"state":"spawning","ping":396},{"user_id":529,"name":"RyInc","steam_id":76561198874261643,"connected_time":2497000000000,"state":"active","ping":44},{"user_id":553,"name":"Galaxy_42","steam_id":76561198845514831,"connected_time":1338000000000,"state":"active","ping":69},{"user_id":526,"name":"Dabbot","steam_id":76561199417800581,"connected_time":3338000000000,"state":"active","ping":65},{"user_id":496,"name":"Smiles","steam_id":76561198107197973,"connected_time":4682000000000,"state":"active","ping":59},{"user_id":552,"name":"Ja","steam_id":76561198396340174,"connected_time":1397000000000,"state":"active","ping":67}]},{"server_id":402,"name":"Uncletopia | Chicago | 3 | All Maps","name_short":"chi-3","host":"chi-1.us.uncletopia.com","port":27035,"enabled":true,"region":"us-central","cc":"us","latitude":41.881832,"longitude":-87.62318,"reserved":0,"last_update":"0001-01-01T00:00:00Z","name_a2s":"Uncletopia | Chicago | 3 | All Maps","protocol":17,"map":"pl_borneo","folder":"tf","game":"Team Fortress","app_id":440,"player_count":24,"max_players":24,"Bots":0,"server_type":"Dedicated","server_os":"Linux","password":true,"vac":true,"version":"7961495","steam_id":85568392924515191,"keywords":["nocrits","nodmgspread","payload","uncletopia"],"game_id":440,"stv_port":27036,"stv_name":"Uncletopia | Chicago | 3 | All Maps | STV","players":[{"user_id":42,"name":"theduckgoesmoo","steam_id":76561198232695752,"connected_time":1594000000000,"state":"active","ping":71},{"user_id":43,"name":"Cherry Juice","steam_id":76561198366570108,"connected_time":1590000000000,"state":"active","ping":50},{"user_id":44,"name":"GameBearAdvanced","steam_id":76561198128561998,"connected_time":1586000000000,"state":"active","ping":53},{"user_id":45,"name":"Orange Juice","steam_id":76561198287860804,"connected_time":1585000000000,"state":"active","ping":65},{"user_id":46,"name":"Chuck Tucker the Truck Fucker","steam_id":76561198267520577,"connected_time":1582000000000,"state":"active","ping":90},{"user_id":47,"name":"XuMuK","steam_id":76561198102102340,"connected_time":1580000000000,"state":"active","ping":166},{"user_id":48,"name":"bat","steam_id":76561198846009923,"connected_time":1576000000000,"state":"active","ping":81},{"user_id":49,"name":"Armoured Bear","steam_id":76561198081552558,"connected_time":1575000000000,"state":"active","ping":170},{"user_id":50,"name":"luster105","steam_id":76561198277487103,"connected_time":1545000000000,"state":"active","ping":121},{"user_id":51,"name":"ZeroX","steam_id":76561198980510227,"connected_time":1539000000000,"state":"active","ping":64},{"user_id":52,"name":"megalootbags","steam_id":76561198846823332,"connected_time":1534000000000,"state":"active","ping":72},{"user_id":53,"name":"Spy TF2","steam_id":76561198824209727,"connected_time":1518000000000,"state":"active","ping":181},{"user_id":54,"name":"Psychosis","steam_id":76561198078659070,"connected_time":1507000000000,"state":"active","ping":73},{"user_id":62,"name":"Crimson","steam_id":76561198129326627,"connected_time":1403000000000,"state":"active","ping":82},{"user_id":78,"name":"DaGaminBurrito844","steam_id":76561199015200316,"connected_time":168000000000,"state":"active","ping":68},{"user_id":79,"name":"Project_Counter","steam_id":76561198152786076,"connected_time":159000000000,"state":"active","ping":76},{"user_id":74,"name":"The Ham Man","steam_id":76561198882957881,"connected_time":396000000000,"state":"active","ping":145},{"user_id":61,"name":"Space Duster","steam_id":76561198196490638,"connected_time":1431000000000,"state":"active","ping":158},{"user_id":63,"name":"ameritech","steam_id":76561198064769089,"connected_time":1380000000000,"state":"active","ping":56},{"user_id":69,"name":"DonoC","steam_id":76561198274473338,"connected_time":1244000000000,"state":"active","ping":76},{"user_id":66,"name":"iluvtopoo","steam_id":76561198843522498,"connected_time":1291000000000,"state":"active","ping":158},{"user_id":72,"name":"[TMG] Lemony zest","steam_id":76561198826771898,"connected_time":770000000000,"state":"active","ping":160},{"user_id":76,"name":"SSBlue","steam_id":76561198126300243,"connected_time":372000000000,"state":"active","ping":105},{"user_id":77,"name":"dood","steam_id":76561198056930504,"connected_time":364000000000,"state":"active","ping":143}]},{"server_id":403,"name":"Uncletopia | Chicago | 4 | All Maps","name_short":"chi-4","host":"chi-1.us.uncletopia.com","port":27045,"enabled":true,"region":"us-central","cc":"us","latitude":41.881832,"longitude":-87.62318,"reserved":0,"last_update":"0001-01-01T00:00:00Z","name_a2s":"Uncletopia | Chicago | 4 | All Maps","protocol":17,"map":"cp_sunshine","folder":"tf","game":"Team Fortress","app_id":440,"player_count":0,"max_players":24,"Bots":0,"server_type":"Dedicated","server_os":"Linux","password":true,"vac":true,"version":"7961495","steam_id":85568392924515193,"keywords":["cp","nocrits","nodmgspread","uncletopia"],"game_id":440,"stv_port":27046,"stv_name":"Uncletopia | Chicago | 4 | All Maps | STV","players":null},{"server_id":36,"name":"Uncletopia | Chicago | 5 | All Maps","name_short":"chi-5","host":"chi-2.us.uncletopia.com","port":27015,"enabled":true,"region":"us-central","cc":"us","latitude":41.881832,"longitude":-87.62318,"reserved":0,"last_update":"0001-01-01T00:00:00Z","name_a2s":"Uncletopia | Chicago | 5 | All Maps","protocol":17,"map":"cp_mountainlab","folder":"tf","game":"Team Fortress","app_id":440,"player_count":24,"max_players":24,"Bots":0,"server_type":"Dedicated","server_os":"Linux","password":true,"vac":true,"version":"7961495","steam_id":85568392924866362,"keywords":["cp","nocrits","nodmgspread","uncletopia"],"game_id":440,"stv_port":27016,"stv_name":"Uncletopia | Chicago | 5 | All Maps | STV","players":[{"user_id":288,"name":"Mr.Bones","steam_id":76561198205170595,"connected_time":1699000000000,"state":"active","ping":90},{"user_id":292,"name":"carrot cake","steam_id":76561198055174915,"connected_time":1298000000000,"state":"active","ping":64},{"user_id":307,"name":"Fat Kid In a Dragonball T-Shirt","steam_id":76561198182589975,"connected_time":438000000000,"state":"active","ping":85},{"user_id":308,"name":"㋛ countblanc","steam_id":76561197993171771,"connected_time":425000000000,"state":"active","ping":71},{"user_id":317,"name":"CyberZayne","steam_id":76561198002351356,"connected_time":246000000000,"state":"active","ping":119},{"user_id":257,"name":"evilclownattack","steam_id":76561198001627114,"connected_time":3531000000000,"state":"active","ping":108},{"user_id":323,"name":"Master Oogway","steam_id":76561198051869638,"connected_time":54000000000,"state":"active","ping":63},{"user_id":319,"name":"boe jiden","steam_id":76561198041048289,"connected_time":168000000000,"state":"active","ping":59},{"user_id":235,"name":"CoffeeZombee","steam_id":76561198172708053,"connected_time":4929000000000,"state":"active","ping":84},{"user_id":305,"name":"Preacher","steam_id":76561198022215764,"connected_time":495000000000,"state":"active","ping":73},{"user_id":224,"name":"Snazzy Salamander","steam_id":76561198144534560,"connected_time":5840000000000,"state":"active","ping":44},{"user_id":310,"name":"feudalism (real)","steam_id":76561198057374871,"connected_time":418000000000,"state":"active","ping":61},{"user_id":287,"name":"GalacticHero2068","steam_id":76561199063612661,"connected_time":1800000000000,"state":"active","ping":95},{"user_id":315,"name":"showblown","steam_id":76561199211861730,"connected_time":312000000000,"state":"active","ping":108},{"user_id":290,"name":"aiden","steam_id":76561198449527009,"connected_time":1657000000000,"state":"active","ping":101},{"user_id":189,"name":"An Erect Penis :)","steam_id":76561198086477485,"connected_time":8175000000000,"state":"active","ping":42},{"user_id":302,"name":"gnarly","steam_id":76561198253744092,"connected_time":605000000000,"state":"active","ping":56},{"user_id":282,"name":"CrazyKermitRubes","steam_id":76561198009065204,"connected_time":2491000000000,"state":"active","ping":84},{"user_id":320,"name":"f","steam_id":76561198054534720,"connected_time":155000000000,"state":"active","ping":54},{"user_id":250,"name":"Onyxmanticore","steam_id":76561198827481986,"connected_time":3757000000000,"state":"active","ping":81},{"user_id":312,"name":"wolfgrey139","steam_id":76561199206554751,"connected_time":395000000000,"state":"active","ping":72},{"user_id":273,"name":"Tupac Shakur","steam_id":76561198247651486,"connected_time":2915000000000,"state":"active","ping":49},{"user_id":324,"name":"Jack-O-Bonnie Gaming","steam_id":76561199122465263,"connected_time":52000000000,"state":"active","ping":66},{"user_id":325,"name":"CEO of Sex","steam_id":76561199331620180,"connected_time":8000000000,"state":"spawning","ping":48}]},{"server_id":37,"name":"Uncletopia | Chicago | 6 | All Maps","name_short":"chi-6","host":"chi-2.us.uncletopia.com","port":27025,"enabled":true,"region":"us-central","cc":"us","latitude":41.881832,"longitude":-87.62318,"reserved":0,"last_update":"0001-01-01T00:00:00Z","name_a2s":"Uncletopia | Chicago | 6 | All Maps","protocol":17,"map":"koth_harvest_final","folder":"tf","game":"Team Fortress","app_id":440,"player_count":24,"max_players":24,"Bots":0,"server_type":"Dedicated","server_os":"Linux","password":true,"vac":true,"version":"7961495","steam_id":85568392924866363,"keywords":["cp","nocrits","nodmgspread","uncletopia"],"game_id":440,"stv_port":27026,"stv_name":"Uncletopia | Chicago | 6 | All Maps | STV","players":[{"user_id":397,"name":"alolan duntski","steam_id":76561198038826744,"connected_time":2012000000000,"state":"active","ping":48},{"user_id":366,"name":"Rec","steam_id":76561198022813906,"connected_time":3444000000000,"state":"active","ping":46},{"user_id":428,"name":"smokecloud","steam_id":76561198136296903,"connected_time":275000000000,"state":"active","ping":80},{"user_id":395,"name":"TheDude","steam_id":76561198314764519,"connected_time":2059000000000,"state":"active","ping":107},{"user_id":412,"name":"shadow6","steam_id":76561197979807910,"connected_time":1453000000000,"state":"active","ping":89},{"user_id":414,"name":"Kirby.exe","steam_id":76561198242714582,"connected_time":1344000000000,"state":"active","ping":60},{"user_id":364,"name":"Apple Zoo","steam_id":76561198013732450,"connected_time":3568000000000,"state":"active","ping":52},{"user_id":427,"name":"lutican","steam_id":76561198215383452,"connected_time":444000000000,"state":"active","ping":55},{"user_id":380,"name":"Lucon","steam_id":76561198067147724,"connected_time":2786000000000,"state":"active","ping":56},{"user_id":430,"name":"Zadrave","steam_id":76561198035785804,"connected_time":87000000000,"state":"active","ping":74},{"user_id":416,"name":"büddeh","steam_id":76561198070735936,"connected_time":1276000000000,"state":"active","ping":57},{"user_id":365,"name":"jolo","steam_id":76561198042831480,"connected_time":3500000000000,"state":"active","ping":66},{"user_id":389,"name":"󠁳 ⁧Argo","steam_id":76561198353725622,"connected_time":2309000000000,"state":"active","ping":77},{"user_id":417,"name":"sketch","steam_id":76561198800087810,"connected_time":1275000000000,"state":"active","ping":67},{"user_id":390,"name":"Chestnnut","steam_id":76561198077782729,"connected_time":2191000000000,"state":"active","ping":72},{"user_id":392,"name":"Kazmirl","steam_id":76561198116008410,"connected_time":2161000000000,"state":"active","ping":105},{"user_id":418,"name":"Yeetachu","steam_id":76561199477430076,"connected_time":1268000000000,"state":"active","ping":59},{"user_id":420,"name":"shogn","steam_id":76561198443397199,"connected_time":1245000000000,"state":"active","ping":108},{"user_id":426,"name":"pinky","steam_id":76561199109784776,"connected_time":572000000000,"state":"active","ping":56},{"user_id":429,"name":"Dips","steam_id":76561198251975850,"connected_time":259000000000,"state":"active","ping":85},{"user_id":391,"name":"ulti_fd","steam_id":76561198050926014,"connected_time":2168000000000,"state":"active","ping":63},{"user_id":425,"name":"TG_16","steam_id":76561199109196768,"connected_time":902000000000,"state":"active","ping":58},{"user_id":405,"name":"dewey.","steam_id":76561198138325039,"connected_time":1842000000000,"state":"active","ping":95},{"user_id":354,"name":"Jak(i)","steam_id":76561198076823144,"connected_time":4275000000000,"state":"active","ping":68}]},{"server_id":38,"name":"Uncletopia | Chicago | 7 | Stopwatch Beta","name_short":"chi-7","host":"chi-2.us.uncletopia.com","port":27035,"enabled":true,"region":"us-central","cc":"us","latitude":41.881832,"longitude":-87.62318,"reserved":0,"last_update":"0001-01-01T00:00:00Z","name_a2s":"Uncletopia | Chicago | 7 | Stopwatch Beta","protocol":17,"map":"pl_badwater","folder":"tf","game":"Team Fortress","app_id":440,"player_count":0,"max_players":24,"Bots":0,"server_type":"Dedicated","server_os":"Linux","password":true,"vac":true,"version":"7961495","steam_id":85568392924866364,"keywords":["nocrits","nodmgspread","payload","uncletopia"],"game_id":440,"stv_port":27036,"stv_name":"Uncletopia | Chicago | 7 | Stopwatch Beta | STV","players":null},{"server_id":39,"name":"Uncletopia | Chicago | 8 | Community","name_short":"chi-8","host":"chi-2.us.uncletopia.com","port":27045,"enabled":true,"region":"us-central","cc":"us","latitude":41.881832,"longitude":-87.62318,"reserved":0,"last_update":"0001-01-01T00:00:00Z","name_a2s":"Uncletopia | Chicago | 8 | Community","protocol":17,"map":"workshop/pl_vigil_rc9.ugc1266210012","folder":"tf","game":"Team Fortress","app_id":440,"player_count":24,"max_players":24,"Bots":0,"server_type":"Dedicated","server_os":"Linux","password":true,"vac":true,"version":"7961495","steam_id":85568392924866365,"keywords":["nocrits","nodmgspread","payload","uncletopia"],"game_id":440,"stv_port":27046,"stv_name":"Uncletopia | Chicago | 8 | Community | STV","players":[{"user_id":336,"name":"LILGI4THAW","steam_id":76561198403803842,"connected_time":839000000000,"state":"spawning","ping":354},{"user_id":337,"name":"DN32_","steam_id":76561199389043903,"connected_time":667000000000,"state":"connecting","ping":366},{"user_id":308,"name":"sambrozee","steam_id":76561199160733886,"connected_time":2981000000000,"state":"spawning","ping":238},{"user_id":310,"name":"JAKe","steam_id":76561199237533332,"connected_time":2822000000000,"state":"spawning","ping":66},{"user_id":360,"name":"Acro","steam_id":76561198092451804,"connected_time":37000000000,"state":"connecting","ping":182},{"user_id":338,"name":"atomicvortez","steam_id":76561199275958875,"connected_time":661000000000,"state":"spawning","ping":171},{"user_id":355,"name":"Danger Daniel","steam_id":76561199085838474,"connected_time":240000000000,"state":"active","ping":96},{"user_id":340,"name":"Krustytoepaste","steam_id":76561198320265524,"connected_time":561000000000,"state":"active","ping":101},{"user_id":358,"name":"ly_dee","steam_id":76561198074956732,"connected_time":49000000000,"state":"active","ping":133},{"user_id":359,"name":"Gerald","steam_id":76561199024467864,"connected_time":43000000000,"state":"spawning","ping":135},{"user_id":361,"name":"Eomy","steam_id":76561198297783627,"connected_time":23000000000,"state":"spawning","ping":194},{"user_id":354,"name":"Poberl","steam_id":76561198823051158,"connected_time":282000000000,"state":"spawning","ping":51},{"user_id":344,"name":"SilverLife25","steam_id":76561198392015722,"connected_time":547000000000,"state":"spawning","ping":143},{"user_id":345,"name":"Nova","steam_id":76561198296902861,"connected_time":543000000000,"state":"active","ping":106},{"user_id":353,"name":"Bheem","steam_id":76561198170453459,"connected_time":290000000000,"state":"active","ping":76},{"user_id":350,"name":"lego star wars on the psp","steam_id":76561198148014773,"connected_time":351000000000,"state":"active","ping":103},{"user_id":320,"name":"Zhenaj","steam_id":76561199209016136,"connected_time":2212000000000,"state":"active","ping":53},{"user_id":357,"name":"big chalupa gaming","steam_id":76561198153504932,"connected_time":196000000000,"state":"active","ping":65},{"user_id":351,"name":"Rockhead","steam_id":76561197995196535,"connected_time":309000000000,"state":"active","ping":84},{"user_id":334,"name":"Dive(z)","steam_id":76561198140843225,"connected_time":1546000000000,"state":"spawning","ping":190},{"user_id":362,"name":"Walkiing","steam_id":76561198074473413,"connected_time":3000000000,"state":"spawning","ping":29},{"user_id":327,"name":"Vegemate","steam_id":76561199088297770,"connected_time":1946000000000,"state":"spawning","ping":155},{"user_id":356,"name":"i'm literally a gymnast","steam_id":76561198043873119,"connected_time":228000000000,"state":"active","ping":71},{"user_id":239,"name":"Neophyte","steam_id":76561198027183394,"connected_time":9141000000000,"state":"spawning","ping":345}]},{"server_id":8,"name":"Uncletopia | Dallas | 1 | All Maps","name_short":"dal-1","host":"dal-1.us.uncletopia.com","port":27015,"enabled":true,"region":"us-central","cc":"us","latitude":32.779167,"longitude":-96.80889,"reserved":0,"last_update":"0001-01-01T00:00:00Z","name_a2s":"Uncletopia | Dallas | 1 | All Maps","protocol":17,"map":"cp_sunshine","folder":"tf","game":"Team Fortress","app_id":440,"player_count":23,"max_players":24,"Bots":0,"server_type":"Dedicated","server_os":"Linux","password":true,"vac":true,"version":"7961495","steam_id":85568392924469986,"keywords":["cp","nocrits","nodmgspread","uncletopia"],"game_id":440,"stv_port":27016,"stv_name":"Uncletopia | Dallas | 1 | All Maps | STV","players":[{"user_id":470,"name":"corned beef","steam_id":76561199366782761,"connected_time":425000000000,"state":"active","ping":148},{"user_id":384,"name":"king of eblock","steam_id":76561198800324957,"connected_time":6365000000000,"state":"active","ping":64},{"user_id":460,"name":"Captain Buggy","steam_id":76561198024444448,"connected_time":1251000000000,"state":"active","ping":94},{"user_id":426,"name":"Gelliterate","steam_id":76561198107233070,"connected_time":3949000000000,"state":"active","ping":48},{"user_id":473,"name":"John CounterStrike","steam_id":76561198129346110,"connected_time":99000000000,"state":"active","ping":55},{"user_id":458,"name":"Moon Sugar Dealer","steam_id":76561198095634877,"connected_time":1305000000000,"state":"active","ping":108},{"user_id":467,"name":"BLUHeavy","steam_id":76561199493213821,"connected_time":517000000000,"state":"active","ping":99},{"user_id":463,"name":"Nemir","steam_id":76561198063123150,"connected_time":1180000000000,"state":"active","ping":44},{"user_id":453,"name":"Boomer Gaming","steam_id":76561198037803087,"connected_time":1768000000000,"state":"active","ping":63},{"user_id":474,"name":"dog","steam_id":76561198263873491,"connected_time":74000000000,"state":"active","ping":60},{"user_id":468,"name":"NooseNeck","steam_id":76561198202416199,"connected_time":472000000000,"state":"active","ping":50},{"user_id":425,"name":"Gamerfan64","steam_id":76561198801410962,"connected_time":4006000000000,"state":"active","ping":40},{"user_id":393,"name":"Faerun_F","steam_id":76561198443906094,"connected_time":6205000000000,"state":"active","ping":62},{"user_id":442,"name":"JtsRes","steam_id":76561197994809241,"connected_time":2377000000000,"state":"active","ping":59},{"user_id":415,"name":"m1 garand gaming","steam_id":76561199026721822,"connected_time":4868000000000,"state":"active","ping":85},{"user_id":414,"name":"FanaticSalt","steam_id":76561199380123059,"connected_time":5083000000000,"state":"active","ping":51},{"user_id":461,"name":"GROOVYROOM","steam_id":76561199153684166,"connected_time":1239000000000,"state":"active","ping":71},{"user_id":469,"name":"Rob","steam_id":76561199187786660,"connected_time":441000000000,"state":"active","ping":54},{"user_id":447,"name":"Boone","steam_id":76561198398931575,"connected_time":2209000000000,"state":"active","ping":90},{"user_id":452,"name":"Foxyz","steam_id":76561198040642992,"connected_time":2004000000000,"state":"active","ping":165},{"user_id":472,"name":"Stillkill","steam_id":76561198065069057,"connected_time":174000000000,"state":"active","ping":40},{"user_id":450,"name":"jordanddean2016","steam_id":76561198323772677,"connected_time":2050000000000,"state":"active","ping":118},{"user_id":465,"name":"webaline :3","steam_id":76561199052450127,"connected_time":779000000000,"state":"active","ping":80}]},{"server_id":108,"name":"Uncletopia | Dallas | 2 | All Maps","name_short":"dal-2","host":"dal-1.us.uncletopia.com","port":27025,"enabled":true,"region":"us-central","cc":"us","latitude":32.779167,"longitude":-96.80889,"reserved":0,"last_update":"0001-01-01T00:00:00Z","name_a2s":"Uncletopia | Dallas | 2 | All Maps","protocol":17,"map":"pl_badwater","folder":"tf","game":"Team Fortress","app_id":440,"player_count":24,"max_players":24,"Bots":0,"server_type":"Dedicated","server_os":"Linux","password":true,"vac":true,"version":"7961495","steam_id":85568392924469988,"keywords":["nocrits","nodmgspread","payload","uncletopia"],"game_id":440,"stv_port":27026,"stv_name":"Uncletopia | Dallas | 2 | All Maps | STV","players":[{"user_id":145,"name":"oph","steam_id":76561198130182991,"connected_time":951000000000,"state":"active","ping":91},{"user_id":158,"name":"Voodo133","steam_id":76561198042670351,"connected_time":129000000000,"state":"active","ping":104},{"user_id":121,"name":"Nice \u003e:]","steam_id":76561198297163650,"connected_time":1840000000000,"state":"active","ping":47},{"user_id":140,"name":"Bamboo","steam_id":76561198043139553,"connected_time":1255000000000,"state":"active","ping":90},{"user_id":139,"name":"Sup m8","steam_id":76561198081659121,"connected_time":1292000000000,"state":"active","ping":44},{"user_id":48,"name":"angry loser","steam_id":76561198128363064,"connected_time":7532000000000,"state":"active","ping":87},{"user_id":109,"name":"Von Neumann","steam_id":76561199395843187,"connected_time":2554000000000,"state":"active","ping":103},{"user_id":123,"name":"Midnight-AG","steam_id":76561198115714484,"connected_time":1790000000000,"state":"active","ping":150},{"user_id":148,"name":"The Coon","steam_id":76561199015533703,"connected_time":788000000000,"state":"active","ping":79},{"user_id":151,"name":"Courtney Dickinson","steam_id":76561198061528590,"connected_time":506000000000,"state":"active","ping":101},{"user_id":124,"name":"P373R.","steam_id":76561198216652716,"connected_time":1745000000000,"state":"active","ping":118},{"user_id":42,"name":"souVern","steam_id":76561198046940771,"connected_time":7746000000000,"state":"active","ping":79},{"user_id":149,"name":"JayRawgTV","steam_id":76561198044402840,"connected_time":585000000000,"state":"active","ping":47},{"user_id":154,"name":"jimmythemathwise","steam_id":76561199265872720,"connected_time":334000000000,"state":"active","ping":91},{"user_id":153,"name":"Five","steam_id":76561198026640473,"connected_time":344000000000,"state":"active","ping":71},{"user_id":150,"name":"Mediocre Gaming","steam_id":76561199230467980,"connected_time":509000000000,"state":"active","ping":91},{"user_id":155,"name":"hart","steam_id":76561198094780633,"connected_time":330000000000,"state":"active","ping":69},{"user_id":59,"name":"motherfucker 2.0","steam_id":76561198141189209,"connected_time":6897000000000,"state":"active","ping":45},{"user_id":127,"name":"Bocchers From Bocchi The Rock","steam_id":76561198986388085,"connected_time":1681000000000,"state":"active","ping":108},{"user_id":130,"name":"Aero","steam_id":76561199159006123,"connected_time":1644000000000,"state":"active","ping":77},{"user_id":152,"name":"slowdance","steam_id":76561198097427947,"connected_time":490000000000,"state":"active","ping":127},{"user_id":157,"name":"Skelebob","steam_id":76561198880649335,"connected_time":252000000000,"state":"active","ping":64},{"user_id":156,"name":"Night Star","steam_id":76561198084154190,"connected_time":329000000000,"state":"active","ping":106},{"user_id":136,"name":"Mephistopheles","steam_id":76561198253731826,"connected_time":1451000000000,"state":"active","ping":94}]},{"server_id":404,"name":"Uncletopia | Dallas | 3 | All Maps","name_short":"dal-3","host":"dal-1.us.uncletopia.com","port":27035,"enabled":true,"region":"us-central","cc":"us","latitude":32.779167,"longitude":-96.80889,"reserved":0,"last_update":"0001-01-01T00:00:00Z","name_a2s":"Uncletopia | Dallas | 3 | All Maps","protocol":17,"map":"pl_frontier_final","folder":"tf","game":"Team Fortress","app_id":440,"player_count":0,"max_players":24,"Bots":0,"server_type":"Dedicated","server_os":"Linux","password":true,"vac":true,"version":"7961495","steam_id":85568392924515219,"keywords":["nocrits","nodmgspread","payload","uncletopia"],"game_id":440,"stv_port":27036,"stv_name":"Uncletopia | Dallas | 3 | All Maps | STV","players":null},{"server_id":405,"name":"Uncletopia | Dallas | 4 | Community","name_short":"dal-4","host":"dal-1.us.uncletopia.com","port":27045,"enabled":true,"region":"us-central","cc":"us","latitude":32.779167,"longitude":-96.80889,"reserved":0,"last_update":"0001-01-01T00:00:00Z","name_a2s":"Uncletopia | Dallas | 4 | Community","protocol":17,"map":"workshop/pl_badwater_pro_v12.ugc2142942074","folder":"tf","game":"Team Fortress","app_id":440,"player_count":0,"max_players":24,"Bots":0,"server_type":"Dedicated","server_os":"Linux","password":true,"vac":true,"version":"7961495","steam_id":85568392924515220,"keywords":["nocrits","nodmgspread","payload","uncletopia"],"game_id":440,"stv_port":27046,"stv_name":"Uncletopia | Dallas | 4 | Community | STV","players":null},{"server_id":5,"name":"Uncletopia | Frankfurt | 1 | All Maps","name_short":"frk-1","host":"frk-1.de.uncletopia.com","port":27015,"enabled":true,"region":"eu","cc":"de","latitude":50.110924,"longitude":8.682127,"reserved":0,"last_update":"0001-01-01T00:00:00Z","name_a2s":"Uncletopia | Frankfurt | 1 | All Maps","protocol":17,"map":"pl_upward","folder":"tf","game":"Team Fortress","app_id":440,"player_count":24,"max_players":24,"Bots":0,"server_type":"Dedicated","server_os":"Linux","password":true,"vac":true,"version":"7961495","steam_id":85568392924469989,"keywords":["nocrits","nodmgspread","payload","uncletopia"],"game_id":440,"stv_port":27016,"stv_name":"Uncletopia | Frankfurt | 1 | All Maps | STV","players":[{"user_id":564,"name":"i want to sewaside","steam_id":76561198242482338,"connected_time":483000000000,"state":"active","ping":68},{"user_id":545,"name":"Kaktus_kak","steam_id":76561198250938524,"connected_time":2878000000000,"state":"active","ping":54},{"user_id":565,"name":"Femboy Silly ❤","steam_id":76561198972654736,"connected_time":432000000000,"state":"active","ping":77},{"user_id":559,"name":"KrevTiz","steam_id":76561199043366861,"connected_time":1257000000000,"state":"active","ping":86},{"user_id":492,"name":"Sheen (Khang)","steam_id":76561198371062974,"connected_time":6839000000000,"state":"active","ping":78},{"user_id":364,"name":"Engie's best friend","steam_id":76561197961707932,"connected_time":17037000000000,"state":"active","ping":51},{"user_id":532,"name":"avanaR","steam_id":76561198132062124,"connected_time":3944000000000,"state":"active","ping":60},{"user_id":542,"name":"Cream","steam_id":76561198204266952,"connected_time":2917000000000,"state":"active","ping":107},{"user_id":561,"name":"SCIENCE","steam_id":76561198154679958,"connected_time":1199000000000,"state":"active","ping":66},{"user_id":512,"name":"Francium Swallower","steam_id":76561199480414924,"connected_time":4588000000000,"state":"active","ping":73},{"user_id":547,"name":"IxTrex","steam_id":76561198069231001,"connected_time":2442000000000,"state":"active","ping":42},{"user_id":498,"name":"mlemdic","steam_id":76561198090001673,"connected_time":6156000000000,"state":"active","ping":125},{"user_id":556,"name":"Antondi","steam_id":76561198123140065,"connected_time":1364000000000,"state":"active","ping":58},{"user_id":534,"name":"Finn","steam_id":76561198179960193,"connected_time":3846000000000,"state":"active","ping":56},{"user_id":554,"name":"StingyLettuce","steam_id":76561199010337406,"connected_time":1644000000000,"state":"active","ping":112},{"user_id":476,"name":"vMatyn","steam_id":76561198438929275,"connected_time":8247000000000,"state":"active","ping":64},{"user_id":566,"name":"Genesis","steam_id":76561198999652040,"connected_time":418000000000,"state":"active","ping":45},{"user_id":562,"name":"Rubikskubbakall29","steam_id":76561198861495164,"connected_time":1196000000000,"state":"active","ping":109},{"user_id":538,"name":"kana","steam_id":76561198002343512,"connected_time":3469000000000,"state":"active","ping":82},{"user_id":567,"name":"Mruczysław","steam_id":76561198801851780,"connected_time":379000000000,"state":"active","ping":67},{"user_id":535,"name":"sarii ☆","steam_id":76561199155102111,"connected_time":3833000000000,"state":"active","ping":84},{"user_id":546,"name":"Saxo","steam_id":76561198129866691,"connected_time":2769000000000,"state":"active","ping":78},{"user_id":563,"name":"誰かが見ている","steam_id":76561198834913692,"connected_time":567000000000,"state":"active","ping":70},{"user_id":537,"name":"pharmacist","steam_id":76561198274424248,"connected_time":3770000000000,"state":"active","ping":105}]},{"server_id":110,"name":"Uncletopia | Frankfurt | 2 | All Maps","name_short":"frk-2","host":"frk-1.de.uncletopia.com","port":27025,"enabled":true,"region":"eu","cc":"de","latitude":50.110924,"longitude":8.682127,"reserved":0,"last_update":"0001-01-01T00:00:00Z","name_a2s":"Uncletopia | Frankfurt | 2 | All Maps","protocol":17,"map":"koth_highpass","folder":"tf","game":"Team Fortress","app_id":440,"player_count":18,"max_players":24,"Bots":0,"server_type":"Dedicated","server_os":"Linux","password":true,"vac":true,"version":"7961495","steam_id":85568392924469990,"keywords":["cp","nocrits","nodmgspread","uncletopia"],"game_id":440,"stv_port":27026,"stv_name":"Uncletopia | Frankfurt | 2 | All Maps | STV","players":[{"user_id":477,"name":"footballween","steam_id":76561198796143531,"connected_time":870000000000,"state":"active","ping":58},{"user_id":451,"name":"agent youppii","steam_id":76561198055264447,"connected_time":2736000000000,"state":"active","ping":77},{"user_id":482,"name":"Durin sein Vater","steam_id":76561198021246713,"connected_time":240000000000,"state":"active","ping":39},{"user_id":485,"name":"dollerboy","steam_id":76561199246428577,"connected_time":152000000000,"state":"active","ping":93},{"user_id":484,"name":"zeen","steam_id":76561198141020179,"connected_time":187000000000,"state":"active","ping":74},{"user_id":435,"name":"balanced diet","steam_id":76561198240320806,"connected_time":3645000000000,"state":"active","ping":69},{"user_id":483,"name":"knyazF","steam_id":76561198163278585,"connected_time":199000000000,"state":"active","ping":67},{"user_id":473,"name":"Smuggs","steam_id":76561197999456003,"connected_time":1477000000000,"state":"active","ping":55},{"user_id":474,"name":"Aven","steam_id":76561198974343597,"connected_time":1101000000000,"state":"active","ping":87},{"user_id":419,"name":"Lorenzo Lovers","steam_id":76561198073973581,"connected_time":5311000000000,"state":"active","ping":75},{"user_id":475,"name":"TidB","steam_id":76561198055342304,"connected_time":1101000000000,"state":"active","ping":59},{"user_id":480,"name":"2BCD","steam_id":76561198178254946,"connected_time":384000000000,"state":"active","ping":67},{"user_id":387,"name":"xavier","steam_id":76561198076494034,"connected_time":8843000000000,"state":"active","ping":58},{"user_id":413,"name":"Jon","steam_id":76561198148858397,"connected_time":5592000000000,"state":"active","ping":72},{"user_id":443,"name":"Wilderhammer","steam_id":76561198132133702,"connected_time":3203000000000,"state":"active","ping":44},{"user_id":369,"name":"hananamanna","steam_id":76561198006570285,"connected_time":10264000000000,"state":"active","ping":119},{"user_id":390,"name":"Vershal Smershal","steam_id":76561198116223995,"connected_time":8568000000000,"state":"active","ping":58},{"user_id":468,"name":"Random","steam_id":76561199079951047,"connected_time":1958000000000,"state":"active","ping":95}]},{"server_id":308,"name":"Uncletopia | Frankfurt | 3 | All Maps","name_short":"frk-3","host":"frk-1.de.uncletopia.com","port":27035,"enabled":true,"region":"eu","cc":"de","latitude":50.110924,"longitude":8.682127,"reserved":0,"last_update":"0001-01-01T00:00:00Z","name_a2s":"Uncletopia | Frankfurt | 3 | All Maps","protocol":17,"map":"pl_barnblitz","folder":"tf","game":"Team Fortress","app_id":440,"player_count":24,"max_players":24,"Bots":0,"server_type":"Dedicated","server_os":"Linux","password":true,"vac":true,"version":"7961495","steam_id":85568392924504274,"keywords":["nocrits","nodmgspread","payload","uncletopia"],"game_id":440,"stv_port":27036,"stv_name":"Uncletopia | Frankfurt | 3 | All Maps | STV","players":[{"user_id":489,"name":"N3lly","steam_id":76561198815271970,"connected_time":1782000000000,"state":"active","ping":65},{"user_id":509,"name":"mangoface","steam_id":76561199028760996,"connected_time":364000000000,"state":"active","ping":69},{"user_id":484,"name":"Brian","steam_id":76561198077756206,"connected_time":1962000000000,"state":"active","ping":53},{"user_id":500,"name":"kowal94","steam_id":76561198317737261,"connected_time":822000000000,"state":"active","ping":58},{"user_id":451,"name":"mohemmedmokhter2005","steam_id":76561199197650506,"connected_time":4213000000000,"state":"active","ping":104},{"user_id":431,"name":"yuck","steam_id":76561197987249568,"connected_time":5411000000000,"state":"active","ping":105},{"user_id":464,"name":"that fat croc from donkey kong","steam_id":76561198159172495,"connected_time":3577000000000,"state":"active","ping":79},{"user_id":418,"name":"badrobot","steam_id":76561198322878356,"connected_time":6259000000000,"state":"active","ping":105},{"user_id":507,"name":"elwen","steam_id":76561198025282054,"connected_time":664000000000,"state":"active","ping":76},{"user_id":499,"name":"MK-Ultra Violence","steam_id":76561198081328238,"connected_time":936000000000,"state":"active","ping":82},{"user_id":485,"name":"socks","steam_id":76561198028520603,"connected_time":1940000000000,"state":"active","ping":63},{"user_id":513,"name":"Karl Marxman","steam_id":76561197988226117,"connected_time":29000000000,"state":"active","ping":77},{"user_id":471,"name":"당신은 보노보입니다","steam_id":76561198017114970,"connected_time":2665000000000,"state":"active","ping":53},{"user_id":496,"name":"highest noon","steam_id":76561199103959197,"connected_time":1097000000000,"state":"active","ping":87},{"user_id":502,"name":"Urfangonultasadana","steam_id":76561199389286151,"connected_time":821000000000,"state":"active","ping":93},{"user_id":503,"name":"Lilypadio","steam_id":76561198090146457,"connected_time":813000000000,"state":"active","ping":57},{"user_id":504,"name":"E² FTH","steam_id":76561198066287815,"connected_time":788000000000,"state":"active","ping":120},{"user_id":492,"name":"Scottish Resistance","steam_id":76561198071360214,"connected_time":1649000000000,"state":"active","ping":48},{"user_id":420,"name":"Dandroid7","steam_id":76561198947673092,"connected_time":5895000000000,"state":"active","ping":48},{"user_id":505,"name":"BACK PROBLEMS","steam_id":76561198798803845,"connected_time":775000000000,"state":"active","ping":49},{"user_id":514,"name":"Gety0","steam_id":76561198044387185,"connected_time":19000000000,"state":"active","ping":88},{"user_id":508,"name":"galaxy","steam_id":76561198075450477,"connected_time":479000000000,"state":"active","ping":66},{"user_id":479,"name":"Alpha","steam_id":76561198133229149,"connected_time":2261000000000,"state":"active","ping":96},{"user_id":441,"name":"mr.resetti","steam_id":76561198974520642,"connected_time":4867000000000,"state":"active","ping":61}]},{"server_id":309,"name":"Uncletopia | Frankfurt | 4 | All Maps","name_short":"frk-4","host":"frk-1.de.uncletopia.com","port":27045,"enabled":true,"region":"eu","cc":"de","latitude":50.110924,"longitude":8.682127,"reserved":0,"last_update":"0001-01-01T00:00:00Z","name_a2s":"Uncletopia | Frankfurt | 4 | All Maps","protocol":17,"map":"pl_pier","folder":"tf","game":"Team Fortress","app_id":440,"player_count":21,"max_players":24,"Bots":0,"server_type":"Dedicated","server_os":"Linux","password":true,"vac":true,"version":"7961495","steam_id":85568392924504275,"keywords":["nocrits","nodmgspread","payload","uncletopia"],"game_id":440,"stv_port":27046,"stv_name":"Uncletopia | Frankfurt | 4 | All Maps | STV","players":[{"user_id":541,"name":"Karl Gaming","steam_id":76561198253654473,"connected_time":804000000000,"state":"active","ping":69},{"user_id":546,"name":"JujuBalu","steam_id":76561198207253071,"connected_time":641000000000,"state":"active","ping":48},{"user_id":484,"name":"Mata_FM","steam_id":76561198044824504,"connected_time":5123000000000,"state":"active","ping":60},{"user_id":547,"name":"The Lady","steam_id":76561198029895809,"connected_time":627000000000,"state":"active","ping":74},{"user_id":548,"name":"Air","steam_id":76561198271025518,"connected_time":613000000000,"state":"active","ping":97},{"user_id":509,"name":"chrząszcz","steam_id":76561198358887237,"connected_time":3651000000000,"state":"active","ping":62},{"user_id":554,"name":"Eric Catman","steam_id":76561198802117294,"connected_time":553000000000,"state":"active","ping":84},{"user_id":550,"name":"nug","steam_id":76561198055396568,"connected_time":596000000000,"state":"active","ping":60},{"user_id":498,"name":"spinning on uncletopia","steam_id":76561199233979726,"connected_time":3817000000000,"state":"active","ping":85},{"user_id":551,"name":"kastanomata","steam_id":76561198271832763,"connected_time":586000000000,"state":"active","ping":77},{"user_id":538,"name":"chonkster","steam_id":76561198316059681,"connected_time":1163000000000,"state":"active","ping":46},{"user_id":558,"name":"flr","steam_id":76561198249327786,"connected_time":470000000000,"state":"active","ping":74},{"user_id":533,"name":"Fredde5","steam_id":76561198102482063,"connected_time":1731000000000,"state":"active","ping":67},{"user_id":506,"name":"Carl Gustav Jung","steam_id":76561198284558039,"connected_time":3731000000000,"state":"active","ping":113},{"user_id":556,"name":"zero","steam_id":76561198167828355,"connected_time":539000000000,"state":"active","ping":51},{"user_id":534,"name":"elite77","steam_id":76561199444615013,"connected_time":1722000000000,"state":"active","ping":74},{"user_id":535,"name":"mob","steam_id":76561198099696876,"connected_time":1684000000000,"state":"active","ping":64},{"user_id":519,"name":"Dokuro","steam_id":76561198005413903,"connected_time":3100000000000,"state":"active","ping":70},{"user_id":489,"name":"Condemned B3 Expert","steam_id":76561198248411522,"connected_time":4897000000000,"state":"active","ping":73},{"user_id":492,"name":"Zerfesh","steam_id":76561198117534358,"connected_time":4425000000000,"state":"active","ping":90},{"user_id":544,"name":"Pershing[GER]","steam_id":76561197970330818,"connected_time":681000000000,"state":"active","ping":62}]},{"server_id":310,"name":"Uncletopia | Frankfurt | 5 | All Maps","name_short":"frk-5","host":"frk-1.de.uncletopia.com","port":27055,"enabled":true,"region":"eu","cc":"de","latitude":50.110924,"longitude":8.682127,"reserved":0,"last_update":"0001-01-01T00:00:00Z","name_a2s":"Uncletopia | Frankfurt | 5 | All Maps","protocol":17,"map":"cp_process_final","folder":"tf","game":"Team Fortress","app_id":440,"player_count":24,"max_players":24,"Bots":0,"server_type":"Dedicated","server_os":"Linux","password":true,"vac":true,"version":"7961495","steam_id":85568392924504277,"keywords":["cp","nocrits","nodmgspread","uncletopia"],"game_id":440,"stv_port":27056,"stv_name":"Uncletopia | Frankfurt | 5 | All Maps | STV","players":[{"user_id":519,"name":"Ottsmoon chill","steam_id":76561198271824131,"connected_time":195000000000,"state":"active","ping":54},{"user_id":512,"name":"Garth Marenghi","steam_id":76561198009830164,"connected_time":781000000000,"state":"active","ping":62},{"user_id":470,"name":"giclure :;","steam_id":76561197986362828,"connected_time":4173000000000,"state":"active","ping":57},{"user_id":505,"name":"gothmoth","steam_id":76561198386910896,"connected_time":1316000000000,"state":"active","ping":59},{"user_id":487,"name":"Быдла вой","steam_id":76561198041371314,"connected_time":2878000000000,"state":"active","ping":120},{"user_id":499,"name":"Sakuya Izayoi","steam_id":76561198030593616,"connected_time":1519000000000,"state":"active","ping":63},{"user_id":501,"name":"Gibby","steam_id":76561198048213112,"connected_time":1472000000000,"state":"active","ping":51},{"user_id":515,"name":"ThunderCluckz","steam_id":76561198055066162,"connected_time":762000000000,"state":"active","ping":78},{"user_id":425,"name":"n-ski","steam_id":76561198020550849,"connected_time":8541000000000,"state":"active","ping":79},{"user_id":518,"name":"the_Bulgarian_Badger","steam_id":76561199067348424,"connected_time":219000000000,"state":"active","ping":99},{"user_id":421,"name":"Ixsus\u003c3","steam_id":76561198094756869,"connected_time":8724000000000,"state":"active","ping":60},{"user_id":507,"name":"ERBLIN011","steam_id":76561198302006065,"connected_time":1252000000000,"state":"active","ping":91},{"user_id":488,"name":"[V.G.T.41] Seva the Gnome","steam_id":76561198951268072,"connected_time":2872000000000,"state":"active","ping":90},{"user_id":502,"name":"my mom","steam_id":76561199225201569,"connected_time":1449000000000,"state":"active","ping":141},{"user_id":456,"name":"ozz-man","steam_id":76561198084676522,"connected_time":5936000000000,"state":"active","ping":90},{"user_id":468,"name":"topiesie","steam_id":76561198338099207,"connected_time":4238000000000,"state":"active","ping":240},{"user_id":435,"name":"Alibi","steam_id":76561198061845595,"connected_time":6959000000000,"state":"active","ping":63},{"user_id":483,"name":"dotdotdot","steam_id":76561198057628751,"connected_time":3098000000000,"state":"active","ping":65},{"user_id":513,"name":"Aarquus","steam_id":76561198006689878,"connected_time":775000000000,"state":"active","ping":74},{"user_id":496,"name":"CallMeJacob","steam_id":76561199110033123,"connected_time":1782000000000,"state":"active","ping":79},{"user_id":514,"name":"God's Drunkest Driver","steam_id":76561198044588979,"connected_time":766000000000,"state":"active","ping":79},{"user_id":520,"name":"Sebiromanes (Spookmáster)","steam_id":76561198112800408,"connected_time":67000000000,"state":"active","ping":108},{"user_id":492,"name":"Hito","steam_id":76561198439543536,"connected_time":2464000000000,"state":"active","ping":171},{"user_id":474,"name":"Aynas Slayerow","steam_id":76561198122300668,"connected_time":4109000000000,"state":"active","ping":96}]},{"server_id":311,"name":"Uncletopia | Frankfurt | 6 | All Maps","name_short":"frk-6","host":"frk-1.de.uncletopia.com","port":27065,"enabled":true,"region":"eu","cc":"de","latitude":50.110924,"longitude":8.682127,"reserved":0,"last_update":"0001-01-01T00:00:00Z","name_a2s":"Uncletopia | Frankfurt | 6 | All Maps","protocol":17,"map":"cp_sunshine","folder":"tf","game":"Team Fortress","app_id":440,"player_count":24,"max_players":24,"Bots":0,"server_type":"Dedicated","server_os":"Linux","password":true,"vac":true,"version":"7961495","steam_id":85568392924504278,"keywords":["cp","nocrits","nodmgspread","uncletopia"],"game_id":440,"stv_port":27066,"stv_name":"Uncletopia | Frankfurt | 6 | All Maps | STV","players":[{"user_id":160,"name":"Michael Jesus","steam_id":76561198060895626,"connected_time":938000000000,"state":"active","ping":72},{"user_id":152,"name":"Easter Ben","steam_id":76561198043678695,"connected_time":1346000000000,"state":"active","ping":69},{"user_id":129,"name":"Sabour","steam_id":76561197963965445,"connected_time":2705000000000,"state":"active","ping":64},{"user_id":179,"name":"Laur","steam_id":76561198201866574,"connected_time":123000000000,"state":"active","ping":88},{"user_id":177,"name":"Evil Activities","steam_id":76561198093170043,"connected_time":250000000000,"state":"active","ping":61},{"user_id":149,"name":"hisham","steam_id":76561198414437290,"connected_time":1779000000000,"state":"active","ping":108},{"user_id":175,"name":"Vince","steam_id":76561199103000131,"connected_time":475000000000,"state":"active","ping":60},{"user_id":154,"name":"Misohorni","steam_id":76561198057911334,"connected_time":1251000000000,"state":"active","ping":45},{"user_id":157,"name":"Comorito","steam_id":76561198183143669,"connected_time":1049000000000,"state":"active","ping":74},{"user_id":131,"name":"the eye DROP.SKIN","steam_id":76561198973555649,"connected_time":2584000000000,"state":"active","ping":84},{"user_id":156,"name":"I have covid :(","steam_id":76561198091736413,"connected_time":1171000000000,"state":"active","ping":55},{"user_id":158,"name":"Maxwell","steam_id":76561198088925893,"connected_time":1012000000000,"state":"active","ping":85},{"user_id":159,"name":"Marlling","steam_id":76561198082118823,"connected_time":1007000000000,"state":"active","ping":113},{"user_id":169,"name":"ScottishWolf141","steam_id":76561199122304112,"connected_time":743000000000,"state":"active","ping":102},{"user_id":162,"name":"zak","steam_id":76561197998895428,"connected_time":863000000000,"state":"active","ping":49},{"user_id":146,"name":"tralalaOuiOui","steam_id":76561197963471507,"connected_time":2079000000000,"state":"active","ping":57},{"user_id":163,"name":"NightOmega","steam_id":76561198323608522,"connected_time":854000000000,"state":"active","ping":59},{"user_id":133,"name":"iiiiiii","steam_id":76561199082156030,"connected_time":2487000000000,"state":"active","ping":74},{"user_id":80,"name":"Firiak","steam_id":76561198050216930,"connected_time":5327000000000,"state":"active","ping":60},{"user_id":170,"name":"R@DIO","steam_id":76561197995533046,"connected_time":713000000000,"state":"active","ping":76},{"user_id":176,"name":"DrNobody","steam_id":76561198358529983,"connected_time":455000000000,"state":"active","ping":90},{"user_id":172,"name":"dumb idiot moron","steam_id":76561198053929269,"connected_time":684000000000,"state":"active","ping":90},{"user_id":180,"name":"ducks","steam_id":76561198166148685,"connected_time":100000000000,"state":"active","ping":40},{"user_id":120,"name":"KierUK |","steam_id":76561198119447994,"connected_time":3835000000000,"state":"active","ping":61}]},{"server_id":23,"name":"Uncletopia | Frankfurt | 7 | Stopwatch Beta","name_short":"frk-7","host":"frk-1.de.uncletopia.com","port":27075,"enabled":true,"region":"eu","cc":"de","latitude":50.110924,"longitude":8.682127,"reserved":0,"last_update":"0001-01-01T00:00:00Z","name_a2s":"Uncletopia | Frankfurt | 7 | Stopwatch Beta","protocol":17,"map":"workshop/koth_ashville_final.ugc2130459942","folder":"tf","game":"Team Fortress","app_id":440,"player_count":0,"max_players":24,"Bots":0,"server_type":"Dedicated","server_os":"Linux","password":true,"vac":true,"version":"7961495","steam_id":85568392924742827,"keywords":["cp","nocrits","nodmgspread","uncletopia"],"game_id":440,"stv_port":27076,"stv_name":"Uncletopia | Frankfurt | 7 | Stopwatch Beta | STV","players":null},{"server_id":24,"name":"Uncletopia | Frankfurt | 8 | Community","name_short":"frk-8","host":"frk-1.de.uncletopia.com","port":27085,"enabled":true,"region":"eu","cc":"de","latitude":50.110924,"longitude":8.682127,"reserved":0,"last_update":"0001-01-01T00:00:00Z","name_a2s":"Uncletopia | Frankfurt | 8 | Community","protocol":17,"map":"workshop/koth_synthetic_rc6a.ugc1549817316","folder":"tf","game":"Team Fortress","app_id":440,"player_count":0,"max_players":24,"Bots":0,"server_type":"Dedicated","server_os":"Linux","password":true,"vac":true,"version":"7961495","steam_id":85568392924742828,"keywords":["cp","nocrits","nodmgspread","uncletopia"],"game_id":440,"stv_port":27086,"stv_name":"Uncletopia | Frankfurt | 8 | Community | STV","players":null},{"server_id":202,"name":"Uncletopia | Hong Kong | 1 | All Maps","name_short":"hgk-1","host":"hgk-1.hk.uncletopia.com","port":27015,"enabled":true,"region":"asia","cc":"hk","latitude":22.302711,"longitude":114.177216,"reserved":0,"last_update":"0001-01-01T00:00:00Z","name_a2s":"Uncletopia | Hong Kong | 1 | All Maps","protocol":17,"map":"pl_badwater","folder":"tf","game":"Team Fortress","app_id":440,"player_count":0,"max_players":24,"Bots":0,"server_type":"Dedicated","server_os":"Linux","password":true,"vac":true,"version":"7961495","steam_id":85568392924494504,"keywords":["nocrits","nodmgspread","payload","uncletopia"],"game_id":440,"stv_port":27016,"stv_name":"Uncletopia | Hong Kong | 1 | All Maps | STV","players":null},{"server_id":1,"name":"Uncletopia | Los Angeles | 1 | All Maps","name_short":"lax-1","host":"lax-1.us.uncletopia.com","port":27015,"enabled":true,"region":"us-west","cc":"us","latitude":33.94279,"longitude":-118.41004,"reserved":0,"last_update":"0001-01-01T00:00:00Z","name_a2s":"Uncletopia | Los Angeles | 1 | All Maps","protocol":17,"map":"pl_barnblitz","folder":"tf","game":"Team Fortress","app_id":440,"player_count":24,"max_players":24,"Bots":0,"server_type":"Dedicated","server_os":"Linux","password":true,"vac":true,"version":"7961495","steam_id":85568392924469991,"keywords":["nocrits","nodmgspread","payload","uncletopia"],"game_id":440,"stv_port":27016,"stv_name":"Uncletopia | Los Angeles | 1 | All Maps | STV","players":[{"user_id":261,"name":"Neggo","steam_id":76561198233174084,"connected_time":289000000000,"state":"active","ping":57},{"user_id":268,"name":"hazel","steam_id":76561198447244031,"connected_time":39000000000,"state":"spawning","ping":92},{"user_id":243,"name":"Space360","steam_id":76561198106743284,"connected_time":1217000000000,"state":"active","ping":70},{"user_id":264,"name":"Bunchofbananas64","steam_id":76561198354306403,"connected_time":192000000000,"state":"active","ping":47},{"user_id":241,"name":"FI LO","steam_id":76561198976530881,"connected_time":1396000000000,"state":"active","ping":34},{"user_id":258,"name":"Pinky","steam_id":76561198281968187,"connected_time":602000000000,"state":"active","ping":61},{"user_id":248,"name":"KnockOutClock","steam_id":76561199436877307,"connected_time":1047000000000,"state":"active","ping":47},{"user_id":206,"name":"shakoiwa","steam_id":76561199059441773,"connected_time":5083000000000,"state":"active","ping":55},{"user_id":265,"name":"cbt youtube tutorial","steam_id":76561199122915452,"connected_time":167000000000,"state":"active","ping":108},{"user_id":251,"name":"choi","steam_id":76561198053669887,"connected_time":793000000000,"state":"active","ping":58},{"user_id":232,"name":"SanitysEdge","steam_id":76561198130732813,"connected_time":2808000000000,"state":"active","ping":47},{"user_id":246,"name":"GLXy","steam_id":76561198207551544,"connected_time":1128000000000,"state":"active","ping":74},{"user_id":252,"name":"moe","steam_id":76561198929586245,"connected_time":776000000000,"state":"active","ping":40},{"user_id":260,"name":"K2f","steam_id":76561198049600563,"connected_time":302000000000,"state":"active","ping":48},{"user_id":266,"name":"bleach₪","steam_id":76561198004482768,"connected_time":119000000000,"state":"active","ping":47},{"user_id":262,"name":"Higuma","steam_id":76561198375229012,"connected_time":284000000000,"state":"active","ping":62},{"user_id":254,"name":"Aclexu","steam_id":76561198927090219,"connected_time":757000000000,"state":"active","ping":44},{"user_id":249,"name":"samvaluez","steam_id":76561199213743808,"connected_time":998000000000,"state":"active","ping":64},{"user_id":179,"name":"weed.fucker.2000","steam_id":76561198338739253,"connected_time":6671000000000,"state":"active","ping":53},{"user_id":255,"name":"evil","steam_id":76561199001918194,"connected_time":750000000000,"state":"active","ping":59},{"user_id":240,"name":"☭Borris☭","steam_id":76561198011136886,"connected_time":1717000000000,"state":"active","ping":71},{"user_id":267,"name":"urine trouble","steam_id":76561199013266640,"connected_time":89000000000,"state":"active","ping":96},{"user_id":247,"name":"bobbymcbobington","steam_id":76561199089411172,"connected_time":1091000000000,"state":"active","ping":144},{"user_id":257,"name":"Santa Carl","steam_id":76561198058349172,"connected_time":719000000000,"state":"active","ping":49}]},{"server_id":112,"name":"Uncletopia | Los Angeles | 2 | All Maps","name_short":"lax-2","host":"lax-1.us.uncletopia.com","port":27025,"enabled":true,"region":"us-west","cc":"us","latitude":33.94279,"longitude":-118.41004,"reserved":0,"last_update":"0001-01-01T00:00:00Z","name_a2s":"Uncletopia | Los Angeles | 2 | All Maps","protocol":17,"map":"pl_swiftwater_final1","folder":"tf","game":"Team Fortress","app_id":440,"player_count":0,"max_players":24,"Bots":0,"server_type":"Dedicated","server_os":"Linux","password":true,"vac":true,"version":"7961495","steam_id":85568392924469992,"keywords":["nocrits","nodmgspread","payload","uncletopia"],"game_id":440,"stv_port":27026,"stv_name":"Uncletopia | Los Angeles | 2 | All Maps | STV","players":null},{"server_id":324,"name":"Uncletopia | Los Angeles | 3 | All Maps","name_short":"lax-3","host":"lax-1.us.uncletopia.com","port":27035,"enabled":true,"region":"us-west","cc":"us","latitude":33.94279,"longitude":-118.41004,"reserved":0,"last_update":"0001-01-01T00:00:00Z","name_a2s":"Uncletopia | Los Angeles | 3 | All Maps","protocol":17,"map":"pl_badwater","folder":"tf","game":"Team Fortress","app_id":440,"player_count":24,"max_players":24,"Bots":0,"server_type":"Dedicated","server_os":"Linux","password":true,"vac":true,"version":"7961495","steam_id":85568392924510198,"keywords":["nocrits","nodmgspread","payload","uncletopia"],"game_id":440,"stv_port":27036,"stv_name":"Uncletopia | Los Angeles | 3 | All Maps | STV","players":[{"user_id":419,"name":"sauce","steam_id":76561198155481540,"connected_time":1530000000000,"state":"active","ping":47},{"user_id":4,"name":"Biden Blast","steam_id":76561198366729030,"connected_time":30960000000000,"state":"active","ping":44},{"user_id":422,"name":"Praphu","steam_id":76561198799298570,"connected_time":1354000000000,"state":"active","ping":90},{"user_id":421,"name":"Epifiny","steam_id":76561198027958086,"connected_time":1376000000000,"state":"active","ping":117},{"user_id":440,"name":"golia","steam_id":76561198000264266,"connected_time":222000000000,"state":"active","ping":63},{"user_id":415,"name":"Crustacean Daddy","steam_id":76561198993807061,"connected_time":2473000000000,"state":"active","ping":40},{"user_id":436,"name":"yes i crank it erry day","steam_id":76561198068257774,"connected_time":267000000000,"state":"active","ping":76},{"user_id":437,"name":"nae nae goblin68","steam_id":76561199115259028,"connected_time":258000000000,"state":"active","ping":88},{"user_id":418,"name":"domestic terrorist","steam_id":76561198950273742,"connected_time":2243000000000,"state":"active","ping":50},{"user_id":435,"name":"I just joined","steam_id":76561198057999536,"connected_time":701000000000,"state":"active","ping":59},{"user_id":431,"name":"tomandjerry085","steam_id":76561198800789071,"connected_time":914000000000,"state":"active","ping":59},{"user_id":420,"name":"Silvermace","steam_id":76561198090696843,"connected_time":1527000000000,"state":"active","ping":45},{"user_id":428,"name":"Jonestown","steam_id":76561198200983726,"connected_time":1065000000000,"state":"active","ping":82},{"user_id":434,"name":"rad killl raccoon","steam_id":76561198980975595,"connected_time":772000000000,"state":"active","ping":99},{"user_id":414,"name":"triph","steam_id":76561198067196509,"connected_time":2535000000000,"state":"active","ping":42},{"user_id":438,"name":"Lou Brickent","steam_id":76561199071302438,"connected_time":257000000000,"state":"active","ping":107},{"user_id":404,"name":"4 life","steam_id":76561198175961598,"connected_time":3055000000000,"state":"active","ping":59},{"user_id":423,"name":"Dr. Zoidberg","steam_id":76561198174593497,"connected_time":1348000000000,"state":"active","ping":87},{"user_id":407,"name":"DRI","steam_id":76561198157076858,"connected_time":2932000000000,"state":"active","ping":70},{"user_id":439,"name":"August West","steam_id":76561197995068347,"connected_time":249000000000,"state":"active","ping":110},{"user_id":351,"name":"GH578","steam_id":76561199493262585,"connected_time":6488000000000,"state":"active","ping":84},{"user_id":409,"name":"Ockulus","steam_id":76561199069638460,"connected_time":2839000000000,"state":"active","ping":38},{"user_id":432,"name":"Tom","steam_id":76561198139202942,"connected_time":869000000000,"state":"active","ping":130},{"user_id":426,"name":"smiley","steam_id":76561199152462800,"connected_time":1194000000000,"state":"active","ping":88}]},{"server_id":25,"name":"Uncletopia | Los Angeles | 4 | Stopwatch Beta","name_short":"lax-4","host":"lax-1.us.uncletopia.com","port":27045,"enabled":true,"region":"us-west","cc":"us","latitude":33.94279,"longitude":-118.41004,"reserved":0,"last_update":"0001-01-01T00:00:00Z","name_a2s":"Uncletopia | Los Angeles | 4 | Stopwatch Beta","protocol":17,"map":"pl_upward","folder":"tf","game":"Team Fortress","app_id":440,"player_count":0,"max_players":24,"Bots":0,"server_type":"Dedicated","server_os":"Linux","password":true,"vac":true,"version":"7961495","steam_id":85568392924510199,"keywords":["nocrits","nodmgspread","payload","uncletopia"],"game_id":440,"stv_port":27046,"stv_name":"Uncletopia | Los Angeles | 4 | Stopwatch Beta | STV","players":null},{"server_id":11,"name":"Uncletopia | London | 1 | All Maps","name_short":"lon-1","host":"lon-1.uk.uncletopia.com","port":27015,"enabled":true,"region":"eu","cc":"gb","latitude":51.509865,"longitude":-0.118092,"reserved":0,"last_update":"0001-01-01T00:00:00Z","name_a2s":"Uncletopia | London | 1 | All Maps","protocol":17,"map":"pl_swiftwater_final1","folder":"tf","game":"Team Fortress","app_id":440,"player_count":24,"max_players":24,"Bots":0,"server_type":"Dedicated","server_os":"Linux","password":true,"vac":true,"version":"7961495","steam_id":85568392924367362,"keywords":["nocrits","nodmgspread","payload","uncletopia"],"game_id":440,"stv_port":27016,"stv_name":"Uncletopia | London | 1 | All Maps | STV","players":[{"user_id":564,"name":"exRage","steam_id":76561198449953655,"connected_time":1525000000000,"state":"active","ping":57},{"user_id":558,"name":"❤ Sparx ❤","steam_id":76561198095009261,"connected_time":2003000000000,"state":"active","ping":54},{"user_id":532,"name":"krayy (she/her)","steam_id":76561198035037830,"connected_time":3552000000000,"state":"active","ping":48},{"user_id":554,"name":"KermSlinger","steam_id":76561198854027069,"connected_time":2219000000000,"state":"active","ping":73},{"user_id":561,"name":"shadow wizard money gang","steam_id":76561199062586342,"connected_time":1859000000000,"state":"active","ping":65},{"user_id":563,"name":"dec","steam_id":76561198009660168,"connected_time":1549000000000,"state":"active","ping":51},{"user_id":573,"name":"GarGar","steam_id":76561198076716157,"connected_time":181000000000,"state":"active","ping":61},{"user_id":556,"name":"yup that extream78711","steam_id":76561198106049954,"connected_time":2158000000000,"state":"active","ping":149},{"user_id":523,"name":"Kachigga","steam_id":76561198273112995,"connected_time":4694000000000,"state":"active","ping":58},{"user_id":578,"name":"Emerald","steam_id":76561199141384216,"connected_time":75000000000,"state":"active","ping":46},{"user_id":557,"name":"one spliff sesh","steam_id":76561198101292843,"connected_time":2106000000000,"state":"active","ping":47},{"user_id":570,"name":"ThatKetos","steam_id":76561198989682540,"connected_time":463000000000,"state":"active","ping":59},{"user_id":569,"name":"sora","steam_id":76561198096547662,"connected_time":936000000000,"state":"active","ping":51},{"user_id":576,"name":"MILK cheyk","steam_id":76561198035380064,"connected_time":124000000000,"state":"active","ping":57},{"user_id":574,"name":"Flashback","steam_id":76561197973978552,"connected_time":171000000000,"state":"active","ping":56},{"user_id":572,"name":"Aaron","steam_id":76561197990046953,"connected_time":200000000000,"state":"active","ping":51},{"user_id":555,"name":"Vivian From Paper Mario","steam_id":76561198077624205,"connected_time":2195000000000,"state":"active","ping":69},{"user_id":543,"name":"Kahvi","steam_id":76561198723244199,"connected_time":3268000000000,"state":"active","ping":74},{"user_id":566,"name":"Mr. Pinkie","steam_id":76561198002258053,"connected_time":1161000000000,"state":"active","ping":69},{"user_id":577,"name":"(1)Snake-chan","steam_id":76561199044755854,"connected_time":115000000000,"state":"active","ping":79},{"user_id":546,"name":"Kphi(i)","steam_id":76561198970587061,"connected_time":2993000000000,"state":"active","ping":58},{"user_id":454,"name":"fence_","steam_id":76561198150386379,"connected_time":10252000000000,"state":"active","ping":46},{"user_id":579,"name":"ArturMc","steam_id":76561198015262214,"connected_time":51000000000,"state":"active","ping":77},{"user_id":525,"name":"Beh","steam_id":76561198251208926,"connected_time":4676000000000,"state":"active","ping":53}]},{"server_id":114,"name":"Uncletopia | London | 2 | All Maps","name_short":"lon-2","host":"lon-1.uk.uncletopia.com","port":27025,"enabled":true,"region":"eu","cc":"gb","latitude":51.509865,"longitude":-0.118092,"reserved":0,"last_update":"0001-01-01T00:00:00Z","name_a2s":"Uncletopia | London | 2 | All Maps","protocol":17,"map":"pl_badwater","folder":"tf","game":"Team Fortress","app_id":440,"player_count":24,"max_players":24,"Bots":0,"server_type":"Dedicated","server_os":"Linux","password":true,"vac":true,"version":"7961495","steam_id":85568392924470941,"keywords":["nocrits","nodmgspread","payload","uncletopia"],"game_id":440,"stv_port":27026,"stv_name":"Uncletopia | London | 2 | All Maps | STV","players":[{"user_id":634,"name":"ʲᶠᵍ ♛","steam_id":76561199062437546,"connected_time":3563000000000,"state":"active","ping":55},{"user_id":626,"name":"ne0n","steam_id":76561198032101031,"connected_time":4076000000000,"state":"active","ping":104},{"user_id":668,"name":"fuck me dead","steam_id":76561198030155915,"connected_time":1278000000000,"state":"active","ping":61},{"user_id":676,"name":"Mannequin","steam_id":76561198128833974,"connected_time":674000000000,"state":"active","ping":52},{"user_id":677,"name":"Tout Petit Cerveau","steam_id":76561198120837915,"connected_time":480000000000,"state":"active","ping":28},{"user_id":490,"name":"MaeMae","steam_id":76561198252524452,"connected_time":11116000000000,"state":"active","ping":46},{"user_id":678,"name":"Swift","steam_id":76561199095622589,"connected_time":462000000000,"state":"active","ping":77},{"user_id":666,"name":"LimaAlphaNovemberGolfEchoRomeo","steam_id":76561198087377610,"connected_time":1565000000000,"state":"active","ping":74},{"user_id":661,"name":"laser","steam_id":76561198036030697,"connected_time":1691000000000,"state":"active","ping":71},{"user_id":671,"name":"Abbiz","steam_id":76561197996978025,"connected_time":998000000000,"state":"active","ping":61},{"user_id":628,"name":"Tekky☻","steam_id":76561197990987315,"connected_time":3820000000000,"state":"active","ping":38},{"user_id":635,"name":"Bartツ","steam_id":76561198164718893,"connected_time":3559000000000,"state":"active","ping":41},{"user_id":662,"name":"ThatTFguy","steam_id":76561198056794321,"connected_time":1662000000000,"state":"active","ping":57},{"user_id":682,"name":"Sir William Gaming","steam_id":76561198037676472,"connected_time":292000000000,"state":"active","ping":67},{"user_id":658,"name":"someone","steam_id":76561199471582243,"connected_time":2002000000000,"state":"active","ping":98},{"user_id":667,"name":"SeaKane","steam_id":76561198165453318,"connected_time":1406000000000,"state":"active","ping":59},{"user_id":637,"name":"Tengen","steam_id":76561199356990346,"connected_time":3454000000000,"state":"active","ping":103},{"user_id":642,"name":"mister squibward","steam_id":76561198718760200,"connected_time":3403000000000,"state":"active","ping":59},{"user_id":680,"name":"_420_StopItDudeCmon","steam_id":76561197997146481,"connected_time":425000000000,"state":"active","ping":63},{"user_id":681,"name":"Pierdu","steam_id":76561198028705770,"connected_time":412000000000,"state":"active","ping":71},{"user_id":664,"name":"Welder","steam_id":76561198355300561,"connected_time":1625000000000,"state":"active","ping":72},{"user_id":683,"name":"Zoppox","steam_id":76561198033930332,"connected_time":37000000000,"state":"active","ping":84},{"user_id":675,"name":"SprintSnail","steam_id":76561198037950814,"connected_time":764000000000,"state":"active","ping":59},{"user_id":665,"name":"DigyB","steam_id":76561198014442345,"connected_time":1621000000000,"state":"active","ping":60}]},{"server_id":320,"name":"Uncletopia | London | 3 | All Maps","name_short":"lon-3","host":"lon-1.uk.uncletopia.com","port":27035,"enabled":true,"region":"eu","cc":"gb","latitude":51.509865,"longitude":-0.118092,"reserved":0,"last_update":"0001-01-01T00:00:00Z","name_a2s":"Uncletopia | London | 3 | All Maps","protocol":17,"map":"pl_badwater","folder":"tf","game":"Team Fortress","app_id":440,"player_count":18,"max_players":24,"Bots":0,"server_type":"Dedicated","server_os":"Linux","password":true,"vac":true,"version":"7961495","steam_id":85568392924510192,"keywords":["nocrits","nodmgspread","payload","uncletopia"],"game_id":440,"stv_port":27036,"stv_name":"Uncletopia | London | 3 | All Maps | STV","players":[{"user_id":276,"name":"donkeyballs2007","steam_id":76561199466298683,"connected_time":380000000000,"state":"active","ping":184},{"user_id":279,"name":"hbivnm","steam_id":76561197996468677,"connected_time":174000000000,"state":"active","ping":59},{"user_id":270,"name":"Cheshireycat","steam_id":76561198067204908,"connected_time":987000000000,"state":"active","ping":51},{"user_id":262,"name":"NeoTheOwl","steam_id":76561198146962506,"connected_time":1263000000000,"state":"active","ping":66},{"user_id":258,"name":"pezza","steam_id":76561197995173247,"connected_time":2005000000000,"state":"active","ping":64},{"user_id":280,"name":"DJ_Not_Guilty","steam_id":76561198074369317,"connected_time":119000000000,"state":"active","ping":67},{"user_id":264,"name":"Robotomatique","steam_id":76561198354793952,"connected_time":1112000000000,"state":"active","ping":49},{"user_id":282,"name":"Stick","steam_id":76561198001509374,"connected_time":26000000000,"state":"active","ping":150},{"user_id":267,"name":"ByggeSimon","steam_id":76561198134789176,"connected_time":1016000000000,"state":"active","ping":69},{"user_id":247,"name":"Beetle God","steam_id":76561198119353053,"connected_time":3091000000000,"state":"active","ping":85},{"user_id":251,"name":"ZePequenio","steam_id":76561197968506094,"connected_time":2806000000000,"state":"active","ping":64},{"user_id":221,"name":"Nathan","steam_id":76561198394485387,"connected_time":5458000000000,"state":"active","ping":68},{"user_id":269,"name":"pizzaboob","steam_id":76561198097507847,"connected_time":990000000000,"state":"active","ping":86},{"user_id":250,"name":"Galex","steam_id":76561198045637579,"connected_time":2928000000000,"state":"active","ping":61},{"user_id":271,"name":"My penis is small","steam_id":76561198370981724,"connected_time":952000000000,"state":"active","ping":64},{"user_id":274,"name":"big heavy is heavy heavy","steam_id":76561198300059652,"connected_time":768000000000,"state":"active","ping":68},{"user_id":235,"name":"aimer","steam_id":76561198324357479,"connected_time":4533000000000,"state":"active","ping":83},{"user_id":249,"name":"Cosmic Gamer","steam_id":76561198027357981,"connected_time":3073000000000,"state":"active","ping":100}]},{"server_id":321,"name":"Uncletopia | London | 4 | All Maps","name_short":"lon-4","host":"lon-1.uk.uncletopia.com","port":27045,"enabled":true,"region":"eu","cc":"gb","latitude":51.509865,"longitude":-0.118092,"reserved":0,"last_update":"0001-01-01T00:00:00Z","name_a2s":"Uncletopia | London | 4 | All Maps","protocol":17,"map":"pl_goldrush","folder":"tf","game":"Team Fortress","app_id":440,"player_count":15,"max_players":24,"Bots":0,"server_type":"Dedicated","server_os":"Linux","password":true,"vac":true,"version":"7961495","steam_id":85568392924510193,"keywords":["nocrits","nodmgspread","payload","uncletopia"],"game_id":440,"stv_port":27046,"stv_name":"Uncletopia | London | 4 | All Maps | STV","players":[{"user_id":514,"name":"Soerlssoelssöen","steam_id":76561197993060585,"connected_time":2152000000000,"state":"active","ping":80},{"user_id":520,"name":"Blurry","steam_id":76561198115918417,"connected_time":1367000000000,"state":"active","ping":65},{"user_id":519,"name":"Houlles","steam_id":76561198095277383,"connected_time":2033000000000,"state":"active","ping":45},{"user_id":312,"name":"Kiogeki","steam_id":76561197996707843,"connected_time":17335000000000,"state":"active","ping":44},{"user_id":538,"name":"Salih","steam_id":76561198287934839,"connected_time":74000000000,"state":"active","ping":65},{"user_id":530,"name":"roLab","steam_id":76561198002416756,"connected_time":1072000000000,"state":"active","ping":90},{"user_id":532,"name":"Nawias","steam_id":76561198058770748,"connected_time":1003000000000,"state":"active","ping":82},{"user_id":359,"name":"apetor rip","steam_id":76561198140517762,"connected_time":14070000000000,"state":"active","ping":68},{"user_id":526,"name":"joni","steam_id":76561197997323419,"connected_time":1288000000000,"state":"active","ping":78},{"user_id":528,"name":"Rokzabg","steam_id":76561198849583041,"connected_time":1196000000000,"state":"active","ping":80},{"user_id":529,"name":"Jeerven","steam_id":76561198259189841,"connected_time":1160000000000,"state":"active","ping":60},{"user_id":361,"name":"finbar","steam_id":76561198056812396,"connected_time":13733000000000,"state":"active","ping":84},{"user_id":521,"name":"LSKi","steam_id":76561198215470228,"connected_time":1367000000000,"state":"active","ping":71},{"user_id":490,"name":"I am speed","steam_id":76561199141290973,"connected_time":4472000000000,"state":"active","ping":94},{"user_id":513,"name":"Average Medic Enjoyer","steam_id":76561198048867302,"connected_time":2428000000000,"state":"active","ping":61}]},{"server_id":21,"name":"Uncletopia | London | 5 | All Maps","name_short":"lon-5","host":"lon-1.uk.uncletopia.com","port":27055,"enabled":true,"region":"eu","cc":"gb","latitude":51.509865,"longitude":-0.118092,"reserved":0,"last_update":"0001-01-01T00:00:00Z","name_a2s":"Uncletopia | London | 5 | All Maps","protocol":17,"map":"pl_upward","folder":"tf","game":"Team Fortress","app_id":440,"player_count":16,"max_players":24,"Bots":0,"server_type":"Dedicated","server_os":"Linux","password":true,"vac":true,"version":"7961495","steam_id":85568392924742829,"keywords":["nocrits","nodmgspread","payload","uncletopia"],"game_id":440,"stv_port":27056,"stv_name":"Uncletopia | London | 5 | All Maps | STV","players":[{"user_id":550,"name":"LuddeKudde","steam_id":76561198394550832,"connected_time":135000000000,"state":"active","ping":70},{"user_id":544,"name":"prophits","steam_id":76561198011854314,"connected_time":415000000000,"state":"active","ping":61},{"user_id":542,"name":"Woad Raider","steam_id":76561198215485788,"connected_time":682000000000,"state":"active","ping":81},{"user_id":551,"name":"Ωmega","steam_id":76561198142672787,"connected_time":41000000000,"state":"active","ping":48},{"user_id":513,"name":"Spooked","steam_id":76561198138287615,"connected_time":3012000000000,"state":"active","ping":57},{"user_id":508,"name":"Simon","steam_id":76561199122086348,"connected_time":3139000000000,"state":"active","ping":113},{"user_id":527,"name":"guildyfan2001","steam_id":76561198038827937,"connected_time":2560000000000,"state":"active","ping":47},{"user_id":486,"name":"benry1964","steam_id":76561198008795422,"connected_time":4248000000000,"state":"active","ping":61},{"user_id":533,"name":"Sammi The Hylir","steam_id":76561198129848053,"connected_time":1263000000000,"state":"active","ping":78},{"user_id":498,"name":"rada❤","steam_id":76561198062362168,"connected_time":3572000000000,"state":"active","ping":66},{"user_id":534,"name":"Qwerty","steam_id":76561198023525894,"connected_time":1147000000000,"state":"active","ping":83},{"user_id":539,"name":"SlonkyDonky","steam_id":76561198425787528,"connected_time":876000000000,"state":"active","ping":57},{"user_id":535,"name":"Swift_Baguette","steam_id":76561199230477090,"connected_time":1133000000000,"state":"active","ping":55},{"user_id":549,"name":"Avast AntiPony 9445","steam_id":76561197992046533,"connected_time":200000000000,"state":"active","ping":59},{"user_id":531,"name":"Green","steam_id":76561198183580019,"connected_time":1804000000000,"state":"active","ping":74},{"user_id":543,"name":"markotrichko4238","steam_id":76561199125036759,"connected_time":649000000000,"state":"active","ping":114}]},{"server_id":22,"name":"Uncletopia | London | 6 | All Maps","name_short":"lon-6","host":"lon-1.uk.uncletopia.com","port":27065,"enabled":true,"region":"eu","cc":"gb","latitude":51.509865,"longitude":-0.118092,"reserved":0,"last_update":"0001-01-01T00:00:00Z","name_a2s":"Uncletopia | London | 6 | All Maps","protocol":17,"map":"cp_sunshine","folder":"tf","game":"Team Fortress","app_id":440,"player_count":23,"max_players":24,"Bots":0,"server_type":"Dedicated","server_os":"Linux","password":true,"vac":true,"version":"7961495","steam_id":85568392924742830,"keywords":["cp","nocrits","nodmgspread","uncletopia"],"game_id":440,"stv_port":27066,"stv_name":"Uncletopia | London | 6 | All Maps | STV","players":[{"user_id":334,"name":"Walle","steam_id":76561197995148937,"connected_time":625000000000,"state":"active","ping":75},{"user_id":254,"name":"Dangerous Man","steam_id":76561198986834496,"connected_time":5341000000000,"state":"active","ping":119},{"user_id":309,"name":"COTHuK","steam_id":76561198330633932,"connected_time":1877000000000,"state":"active","ping":86},{"user_id":337,"name":"msh","steam_id":76561198367669395,"connected_time":322000000000,"state":"active","ping":31},{"user_id":335,"name":"Tort","steam_id":76561198329646769,"connected_time":420000000000,"state":"active","ping":54},{"user_id":321,"name":"Kjat","steam_id":76561198839433592,"connected_time":1628000000000,"state":"active","ping":61},{"user_id":338,"name":"28ilija28","steam_id":76561198868993172,"connected_time":294000000000,"state":"active","ping":73},{"user_id":293,"name":"Cataleptic","steam_id":76561197997966949,"connected_time":2620000000000,"state":"active","ping":58},{"user_id":325,"name":"Spitfire","steam_id":76561197997121260,"connected_time":1565000000000,"state":"active","ping":44},{"user_id":339,"name":"D_Ink","steam_id":76561198267716662,"connected_time":261000000000,"state":"active","ping":40},{"user_id":340,"name":"Lessoz","steam_id":76561199211572036,"connected_time":240000000000,"state":"active","ping":77},{"user_id":341,"name":"CBT","steam_id":76561199439141531,"connected_time":231000000000,"state":"active","ping":56},{"user_id":298,"name":"Potshott","steam_id":76561198184014158,"connected_time":2513000000000,"state":"active","ping":49},{"user_id":342,"name":"DelaNo","steam_id":76561199125086655,"connected_time":85000000000,"state":"active","ping":42},{"user_id":323,"name":"breakfast bandit","steam_id":76561198013502376,"connected_time":1607000000000,"state":"active","ping":48},{"user_id":316,"name":"iWaterlyx","steam_id":76561198834321199,"connected_time":1766000000000,"state":"active","ping":51},{"user_id":343,"name":"Mboigaming","steam_id":76561199014253297,"connected_time":72000000000,"state":"spawning","ping":60},{"user_id":331,"name":"Alumento","steam_id":76561198043857441,"connected_time":1359000000000,"state":"active","ping":57},{"user_id":327,"name":"Drebin","steam_id":76561198027196777,"connected_time":1485000000000,"state":"active","ping":35},{"user_id":328,"name":"Sagzy","steam_id":76561198121010932,"connected_time":1437000000000,"state":"active","ping":43},{"user_id":300,"name":"Batch Number 443714","steam_id":76561197977497969,"connected_time":2480000000000,"state":"active","ping":46},{"user_id":329,"name":"Vika","steam_id":76561198014532457,"connected_time":1415000000000,"state":"active","ping":83},{"user_id":344,"name":"ZakyBoyzzz","steam_id":76561198346766430,"connected_time":27000000000,"state":"active","ping":113}]},{"server_id":40,"name":"Uncletopia | London | 7 | No Payload","name_short":"lon-7","host":"lon-1.uk.uncletopia.com","port":27075,"enabled":true,"region":"eu","cc":"gb","latitude":51.509865,"longitude":-0.118092,"reserved":0,"last_update":"0001-01-01T00:00:00Z","name_a2s":"Uncletopia | London | 7 | No Payload","protocol":17,"map":"koth_harvest_final","folder":"tf","game":"Team Fortress","app_id":440,"player_count":0,"max_players":24,"Bots":0,"server_type":"Dedicated","server_os":"Linux","password":true,"vac":true,"version":"7961495","steam_id":85568392924964314,"keywords":["cp","nocrits","nodmgspread","uncletopia"],"game_id":440,"stv_port":27076,"stv_name":"Uncletopia | London | 7 | No Payload | STV","players":null},{"server_id":41,"name":"Uncletopia | London | 8 | Community","name_short":"lon-8","host":"lon-1.uk.uncletopia.com","port":27085,"enabled":true,"region":"eu","cc":"gb","latitude":51.509865,"longitude":-0.118092,"reserved":0,"last_update":"0001-01-01T00:00:00Z","name_a2s":"Uncletopia | London | 8 | Community","protocol":17,"map":"workshop/pl_barnblitz_pro7.ugc582280235","folder":"tf","game":"Team Fortress","app_id":440,"player_count":3,"max_players":24,"Bots":0,"server_type":"Dedicated","server_os":"Linux","password":true,"vac":true,"version":"7961495","steam_id":85568392924964315,"keywords":["nocrits","nodmgspread","payload","uncletopia"],"game_id":440,"stv_port":27086,"stv_name":"Uncletopia | London | 8 | Community | STV","players":[{"user_id":15,"name":"ух Александр","steam_id":76561198995476261,"connected_time":2987000000000,"state":"active","ping":104},{"user_id":16,"name":"ух Никитка","steam_id":76561199227727933,"connected_time":2984000000000,"state":"active","ping":105},{"user_id":22,"name":"Ух Тимурка","steam_id":76561198203003862,"connected_time":375000000000,"state":"active","ping":113}]},{"server_id":300,"name":"Uncletopia | Montréal | 1 | All Maps","name_short":"mtl-1","host":"mtl-1.ca.uncletopia.com","port":27015,"enabled":true,"region":"us-east","cc":"ca","latitude":45.50889,"longitude":-73.56167,"reserved":0,"last_update":"0001-01-01T00:00:00Z","name_a2s":"","protocol":0,"map":"","folder":"","game":"","app_id":0,"player_count":9,"max_players":0,"Bots":0,"server_type":"","server_os":"","password":false,"vac":false,"version":"","steam_id":0,"keywords":null,"game_id":0,"stv_port":0,"stv_name":"","players":[{"user_id":158,"name":"BluCoffee","steam_id":76561198214995967,"connected_time":869000000000,"state":"active","ping":43},{"user_id":166,"name":"Navis","steam_id":76561198996230924,"connected_time":196000000000,"state":"active","ping":44},{"user_id":160,"name":"Deusaroni","steam_id":76561198061044052,"connected_time":770000000000,"state":"active","ping":58},{"user_id":163,"name":"lance armstrong fan","steam_id":76561198350747953,"connected_time":515000000000,"state":"active","ping":30},{"user_id":167,"name":"Cheesemelt","steam_id":76561198008221847,"connected_time":159000000000,"state":"active","ping":36},{"user_id":153,"name":"Danmar33","steam_id":76561198056453091,"connected_time":1747000000000,"state":"active","ping":60},{"user_id":168,"name":"Sneaky55","steam_id":76561199016166412,"connected_time":24000000000,"state":"spawning","ping":59},{"user_id":151,"name":"Roz257","steam_id":76561198842844532,"connected_time":2072000000000,"state":"active","ping":51},{"user_id":106,"name":"Hindmost","steam_id":76561199081837220,"connected_time":5115000000000,"state":"active","ping":106}]},{"server_id":301,"name":"Uncletopia | Montréal | 2 | All Maps","name_short":"mtl-2","host":"mtl-1.ca.uncletopia.com","port":27025,"enabled":true,"region":"us-east","cc":"ca","latitude":45.50889,"longitude":-73.56167,"reserved":0,"last_update":"0001-01-01T00:00:00Z","name_a2s":"","protocol":0,"map":"","folder":"","game":"","app_id":0,"player_count":0,"max_players":0,"Bots":0,"server_type":"","server_os":"","password":false,"vac":false,"version":"","steam_id":0,"keywords":null,"game_id":0,"stv_port":0,"stv_name":"","players":null},{"server_id":302,"name":"Uncletopia | Montréal | 3 | All Maps","name_short":"mtl-3","host":"mtl-1.ca.uncletopia.com","port":27035,"enabled":true,"region":"us-east","cc":"ca","latitude":45.50889,"longitude":-73.56167,"reserved":0,"last_update":"0001-01-01T00:00:00Z","name_a2s":"","protocol":0,"map":"","folder":"","game":"","app_id":0,"player_count":0,"max_players":0,"Bots":0,"server_type":"","server_os":"","password":false,"vac":false,"version":"","steam_id":0,"keywords":null,"game_id":0,"stv_port":0,"stv_name":"","players":null},{"server_id":303,"name":"Uncletopia | Montréal | 4 | No Payload","name_short":"mtl-4","host":"mtl-1.ca.uncletopia.com","port":27045,"enabled":true,"region":"us-east","cc":"ca","latitude":45.50889,"longitude":-73.56167,"reserved":0,"last_update":"0001-01-01T00:00:00Z","name_a2s":"","protocol":0,"map":"","folder":"","game":"","app_id":0,"player_count":0,"max_players":0,"Bots":0,"server_type":"","server_os":"","password":false,"vac":false,"version":"","steam_id":0,"keywords":null,"game_id":0,"stv_port":0,"stv_name":"","players":null},{"server_id":13,"name":"Uncletopia | New York City | 1 | All Maps","name_short":"nyc-1","host":"nyc-1.us.uncletopia.com","port":27015,"enabled":true,"region":"us-east","cc":"us","latitude":40.73061,"longitude":-73.93524,"reserved":0,"last_update":"0001-01-01T00:00:00Z","name_a2s":"Uncletopia | New York City | 1 | All Maps","protocol":17,"map":"cp_dustbowl","folder":"tf","game":"Team Fortress","app_id":440,"player_count":18,"max_players":24,"Bots":0,"server_type":"Dedicated","server_os":"Linux","password":true,"vac":true,"version":"7961495","steam_id":85568392924469993,"keywords":["cp","nocrits","nodmgspread","uncletopia"],"game_id":440,"stv_port":27016,"stv_name":"Uncletopia | New York City | 1 | All Maps | STV","players":[{"user_id":371,"name":"50 grams of whey protein","steam_id":76561198319442494,"connected_time":60000000000,"state":"active","ping":114},{"user_id":362,"name":"Griffin","steam_id":76561198159339442,"connected_time":1599000000000,"state":"active","ping":66},{"user_id":332,"name":"cyberas","steam_id":76561198257092290,"connected_time":3048000000000,"state":"active","ping":68},{"user_id":295,"name":"The Sinister Potion","steam_id":76561198131280715,"connected_time":5736000000000,"state":"active","ping":54},{"user_id":350,"name":"Masterchief","steam_id":76561198935642457,"connected_time":2063000000000,"state":"active","ping":75},{"user_id":373,"name":"MLWeegee","steam_id":76561198096399823,"connected_time":57000000000,"state":"active","ping":44},{"user_id":366,"name":"fi_ji","steam_id":76561198126087725,"connected_time":1174000000000,"state":"active","ping":56},{"user_id":365,"name":"Plieop","steam_id":76561198199493917,"connected_time":1323000000000,"state":"active","ping":40},{"user_id":356,"name":"Holdmymilk","steam_id":76561198047391409,"connected_time":1930000000000,"state":"active","ping":63},{"user_id":374,"name":"uheggwhite","steam_id":76561199199795741,"connected_time":53000000000,"state":"active","ping":90},{"user_id":275,"name":"Broadway Rose","steam_id":76561198046083342,"connected_time":6734000000000,"state":"active","ping":44},{"user_id":304,"name":"dcqwerty","steam_id":76561198964101426,"connected_time":4806000000000,"state":"active","ping":44},{"user_id":326,"name":"MILKY","steam_id":76561198073114061,"connected_time":3339000000000,"state":"active","ping":80},{"user_id":370,"name":"Indigolake","steam_id":76561198202215807,"connected_time":597000000000,"state":"active","ping":59},{"user_id":340,"name":"NYC APPA YIP YIP","steam_id":76561198112929942,"connected_time":2333000000000,"state":"active","ping":55},{"user_id":318,"name":"BeerPowder","steam_id":76561198058129400,"connected_time":3736000000000,"state":"active","ping":43},{"user_id":361,"name":"Stuff550","steam_id":76561198823316498,"connected_time":1684000000000,"state":"active","ping":84},{"user_id":346,"name":"Professor_Nut","steam_id":76561198272996830,"connected_time":2187000000000,"state":"active","ping":119}]},{"server_id":14,"name":"Uncletopia | New York City | 2 | All Maps","name_short":"nyc-2","host":"nyc-1.us.uncletopia.com","port":27025,"enabled":true,"region":"us-east","cc":"us","latitude":40.73061,"longitude":-73.93524,"reserved":0,"last_update":"0001-01-01T00:00:00Z","name_a2s":"Uncletopia | New York City | 2 | All Maps","protocol":17,"map":"plr_pipeline","folder":"tf","game":"Team Fortress","app_id":440,"player_count":24,"max_players":24,"Bots":0,"server_type":"Dedicated","server_os":"Linux","password":true,"vac":true,"version":"7961495","steam_id":85568392924469994,"keywords":["nocrits","nodmgspread","payload","uncletopia"],"game_id":440,"stv_port":27026,"stv_name":"Uncletopia | New York City | 2 | All Maps | STV","players":[{"user_id":252,"name":"transgender","steam_id":76561198036965113,"connected_time":438000000000,"state":"active","ping":53},{"user_id":250,"name":"my name jeff","steam_id":76561198179816898,"connected_time":499000000000,"state":"active","ping":83},{"user_id":99,"name":"My Form Empties","steam_id":76561197993777553,"connected_time":10840000000000,"state":"active","ping":111},{"user_id":251,"name":"Cellus","steam_id":76561198067204847,"connected_time":498000000000,"state":"active","ping":54},{"user_id":234,"name":"x","steam_id":76561198013735714,"connected_time":2048000000000,"state":"active","ping":64},{"user_id":181,"name":"PyroEagle","steam_id":76561198296434231,"connected_time":5126000000000,"state":"active","ping":86},{"user_id":200,"name":"vapid","steam_id":76561198077643349,"connected_time":3939000000000,"state":"active","ping":57},{"user_id":244,"name":"Lumi","steam_id":76561198089978036,"connected_time":659000000000,"state":"active","ping":58},{"user_id":245,"name":"Milk Curdle","steam_id":76561198305106477,"connected_time":631000000000,"state":"active","ping":49},{"user_id":243,"name":"THE LAW","steam_id":76561198085700801,"connected_time":704000000000,"state":"active","ping":81},{"user_id":204,"name":"Extro","steam_id":76561198178908694,"connected_time":3830000000000,"state":"active","ping":69},{"user_id":186,"name":"Virtual Zorua","steam_id":76561198196180302,"connected_time":4901000000000,"state":"active","ping":88},{"user_id":237,"name":"Charlie","steam_id":76561199098209171,"connected_time":1474000000000,"state":"active","ping":77},{"user_id":98,"name":"Schizophrenic Hallucination","steam_id":76561199489855499,"connected_time":10842000000000,"state":"active","ping":124},{"user_id":246,"name":"SLaPPy- oNaSiS","steam_id":76561198009286862,"connected_time":631000000000,"state":"active","ping":70},{"user_id":177,"name":"TheSnowGhost","steam_id":76561198271967286,"connected_time":5753000000000,"state":"active","ping":61},{"user_id":187,"name":"mountainkug","steam_id":76561199491802535,"connected_time":4887000000000,"state":"active","ping":66},{"user_id":236,"name":"Scooter O'Boyl","steam_id":76561197971687069,"connected_time":1842000000000,"state":"active","ping":55},{"user_id":227,"name":"Jm7437","steam_id":76561198150754161,"connected_time":2180000000000,"state":"active","ping":53},{"user_id":247,"name":"TechnoBear2099","steam_id":76561198238863596,"connected_time":612000000000,"state":"active","ping":103},{"user_id":248,"name":"Irritated Duck","steam_id":76561198247792076,"connected_time":599000000000,"state":"active","ping":139},{"user_id":249,"name":"Antwan","steam_id":76561198246200638,"connected_time":596000000000,"state":"active","ping":85},{"user_id":214,"name":"Broadsword #LGM","steam_id":76561198011160411,"connected_time":3602000000000,"state":"active","ping":85},{"user_id":226,"name":"g00bur","steam_id":76561197993622520,"connected_time":2248000000000,"state":"active","ping":60}]},{"server_id":15,"name":"Uncletopia | New York City | 3 | Stopwatch Beta","name_short":"nyc-3","host":"nyc-1.us.uncletopia.com","port":27035,"enabled":true,"region":"us-east","cc":"us","latitude":40.73061,"longitude":-73.93524,"reserved":0,"last_update":"0001-01-01T00:00:00Z","name_a2s":"Uncletopia | New York City | 3 | Stopwatch Beta","protocol":17,"map":"workshop/pl_badwater_pro_v12.ugc2142942074","folder":"tf","game":"Team Fortress","app_id":440,"player_count":0,"max_players":24,"Bots":0,"server_type":"Dedicated","server_os":"Linux","password":true,"vac":true,"version":"7961495","steam_id":85568392924742820,"keywords":["nocrits","nodmgspread","payload","uncletopia"],"game_id":440,"stv_port":27036,"stv_name":"Uncletopia | New York City | 3 | Stopwatch Beta | STV","players":null},{"server_id":16,"name":"Uncletopia | New York City | 4 | Community","name_short":"nyc-4","host":"nyc-1.us.uncletopia.com","port":27045,"enabled":true,"region":"us-east","cc":"us","latitude":40.73061,"longitude":-73.93524,"reserved":0,"last_update":"0001-01-01T00:00:00Z","name_a2s":"Uncletopia | New York City | 4 | Community","protocol":17,"map":"workshop/cp_logjam_rc12.ugc454812035","folder":"tf","game":"Team Fortress","app_id":440,"player_count":24,"max_players":24,"Bots":0,"server_type":"Dedicated","server_os":"Linux","password":true,"vac":true,"version":"7961495","steam_id":85568392924742821,"keywords":["cp","nocrits","nodmgspread","uncletopia"],"game_id":440,"stv_port":27046,"stv_name":"Uncletopia | New York City | 4 | Community | STV","players":[{"user_id":120,"name":"Madlag","steam_id":76561199481854201,"connected_time":1788000000000,"state":"active","ping":61},{"user_id":155,"name":"emineminoski8","steam_id":76561199489222769,"connected_time":45000000000,"state":"active","ping":206},{"user_id":143,"name":"Yellowtt","steam_id":76561198374834340,"connected_time":723000000000,"state":"active","ping":130},{"user_id":144,"name":"gaelaspuru","steam_id":76561198838235696,"connected_time":691000000000,"state":"active","ping":72},{"user_id":96,"name":"Donald","steam_id":76561198263909702,"connected_time":2692000000000,"state":"active","ping":55},{"user_id":140,"name":"PyroBurger","steam_id":76561198847213969,"connected_time":851000000000,"state":"active","ping":59},{"user_id":97,"name":"Crogun","steam_id":76561198056163737,"connected_time":2642000000000,"state":"active","ping":52},{"user_id":128,"name":"Kinda_Clownish","steam_id":76561198309111836,"connected_time":1455000000000,"state":"active","ping":112},{"user_id":148,"name":"how do i girl???","steam_id":76561198050290565,"connected_time":449000000000,"state":"active","ping":81},{"user_id":124,"name":"rupert","steam_id":76561198361825837,"connected_time":1666000000000,"state":"active","ping":100},{"user_id":99,"name":"Minefield Mike","steam_id":76561198111042556,"connected_time":2593000000000,"state":"active","ping":55},{"user_id":156,"name":"Tankless Water Heater","steam_id":76561198014574925,"connected_time":34000000000,"state":"active","ping":47},{"user_id":125,"name":"narcissist","steam_id":76561198406096320,"connected_time":1652000000000,"state":"active","ping":84},{"user_id":106,"name":"SentPie","steam_id":76561198796459932,"connected_time":2253000000000,"state":"active","ping":87},{"user_id":149,"name":"Bobby Liberty","steam_id":76561199082643794,"connected_time":292000000000,"state":"active","ping":46},{"user_id":157,"name":"cass","steam_id":76561198074502046,"connected_time":31000000000,"state":"spawning","ping":68},{"user_id":154,"name":"trobin120","steam_id":76561199122420273,"connected_time":87000000000,"state":"active","ping":53},{"user_id":134,"name":"artichoke","steam_id":76561198980994364,"connected_time":1120000000000,"state":"active","ping":86},{"user_id":113,"name":"dopamine enjoyer","steam_id":76561199140415814,"connected_time":1984000000000,"state":"active","ping":73},{"user_id":118,"name":"Deardrie","steam_id":76561198065973185,"connected_time":1896000000000,"state":"active","ping":61},{"user_id":115,"name":"TrueMimicryTTV","steam_id":76561198237691466,"connected_time":1943000000000,"state":"active","ping":128},{"user_id":151,"name":"Cjmanjanson","steam_id":76561198048553474,"connected_time":140000000000,"state":"active","ping":58},{"user_id":152,"name":"ARotisserieChicken","steam_id":76561199390395574,"connected_time":132000000000,"state":"active","ping":71},{"user_id":137,"name":"❤[S'more]❤","steam_id":76561198817361963,"connected_time":1050000000000,"state":"active","ping":162}]},{"server_id":142,"name":"Uncletopia | São Paulo | 1 | All Maps","name_short":"sao-1","host":"sao-1.br.uncletopia.com","port":27015,"enabled":true,"region":"sa","cc":"br","latitude":-23.533773,"longitude":-46.62529,"reserved":0,"last_update":"0001-01-01T00:00:00Z","name_a2s":"Uncletopia | São Paulo | 1 | All Maps","protocol":17,"map":"cp_altitude","folder":"tf","game":"Team Fortress","app_id":440,"player_count":19,"max_players":24,"Bots":0,"server_type":"Dedicated","server_os":"Linux","password":true,"vac":true,"version":"7961495","steam_id":85568392924469996,"keywords":["cp","nocrits","nodmgspread","uncletopia"],"game_id":440,"stv_port":27016,"stv_name":"Uncletopia | São Paulo | 1 | All Maps | STV","players":[{"user_id":132,"name":"SMILE :)","steam_id":76561199181311330,"connected_time":914000000000,"state":"active","ping":68},{"user_id":115,"name":"Stranger","steam_id":76561198065572546,"connected_time":1826000000000,"state":"active","ping":57},{"user_id":116,"name":"Tati","steam_id":76561198097756059,"connected_time":1794000000000,"state":"active","ping":77},{"user_id":146,"name":"Esqueleto anti otaku","steam_id":76561198374405794,"connected_time":312000000000,"state":"active","ping":32},{"user_id":117,"name":"The Enby Trans Rights Deity","steam_id":76561199000786065,"connected_time":1702000000000,"state":"active","ping":57},{"user_id":148,"name":"Marcelo","steam_id":76561199125014335,"connected_time":170000000000,"state":"active","ping":305},{"user_id":81,"name":"Fe^","steam_id":76561198067610246,"connected_time":4622000000000,"state":"active","ping":59},{"user_id":45,"name":"hadinode","steam_id":76561198191475573,"connected_time":9910000000000,"state":"active","ping":47},{"user_id":149,"name":"✓Rodrigo_hambúrguers✓","steam_id":76561199063941794,"connected_time":90000000000,"state":"active","ping":39},{"user_id":119,"name":"dog gamer","steam_id":76561199306090973,"connected_time":1575000000000,"state":"active","ping":64},{"user_id":150,"name":"²¹ ˢᵃᵛᵃᵍᵉ","steam_id":76561198130125392,"connected_time":34000000000,"state":"active","ping":73},{"user_id":151,"name":"Mathf.","steam_id":76561198385906522,"connected_time":21000000000,"state":"spawning","ping":59},{"user_id":134,"name":"matheus whatsapp","steam_id":76561199359501901,"connected_time":837000000000,"state":"active","ping":44},{"user_id":26,"name":"Aust","steam_id":76561198067966650,"connected_time":11316000000000,"state":"active","ping":47},{"user_id":129,"name":"AwakenFlame","steam_id":76561198209710303,"connected_time":1048000000000,"state":"active","ping":94},{"user_id":143,"name":"Cheese","steam_id":76561199403442345,"connected_time":441000000000,"state":"active","ping":101},{"user_id":136,"name":"Four879","steam_id":76561199119167073,"connected_time":770000000000,"state":"active","ping":65},{"user_id":145,"name":"JOOAOW","steam_id":76561198378600993,"connected_time":425000000000,"state":"active","ping":31},{"user_id":108,"name":"jr_","steam_id":76561198313937899,"connected_time":2662000000000,"state":"active","ping":52}]},{"server_id":143,"name":"Uncletopia | São Paulo | 2 | Community","name_short":"sao-2","host":"sao-2.br.uncletopia.com","port":27015,"enabled":true,"region":"sa","cc":"br","latitude":-23.533773,"longitude":-46.62529,"reserved":0,"last_update":"0001-01-01T00:00:00Z","name_a2s":"Uncletopia | São Paulo | 2 | Community","protocol":17,"map":"workshop/pl_vigil_rc9.ugc1266210012","folder":"tf","game":"Team Fortress","app_id":440,"player_count":0,"max_players":24,"Bots":0,"server_type":"Dedicated","server_os":"Linux","password":true,"vac":true,"version":"7961495","steam_id":85568392924485349,"keywords":["nocrits","nodmgspread","payload","uncletopia"],"game_id":440,"stv_port":27016,"stv_name":"Uncletopia | São Paulo | 2 | Community | STV","players":null},{"server_id":7,"name":"Uncletopia | Seattle | 1 | All Maps","name_short":"sea-1","host":"sea-1.us.uncletopia.com","port":27015,"enabled":true,"region":"us-west","cc":"us","latitude":47.608013,"longitude":-122.33517,"reserved":0,"last_update":"0001-01-01T00:00:00Z","name_a2s":"Uncletopia | Seattle | 1 | All Maps","protocol":17,"map":"pl_swiftwater_final1","folder":"tf","game":"Team Fortress","app_id":440,"player_count":24,"max_players":24,"Bots":0,"server_type":"Dedicated","server_os":"Linux","password":true,"vac":true,"version":"7961495","steam_id":85568392924469997,"keywords":["nocrits","nodmgspread","payload","uncletopia"],"game_id":440,"stv_port":27016,"stv_name":"Uncletopia | Seattle | 1 | All Maps | STV","players":[{"user_id":289,"name":"Tripll-L","steam_id":76561197998077437,"connected_time":1606000000000,"state":"active","ping":63},{"user_id":286,"name":"Meso","steam_id":76561199088153190,"connected_time":2155000000000,"state":"active","ping":60},{"user_id":303,"name":"ORANGE","steam_id":76561198000401769,"connected_time":975000000000,"state":"active","ping":47},{"user_id":323,"name":"Hellbound","steam_id":76561198319648930,"connected_time":432000000000,"state":"active","ping":99},{"user_id":288,"name":"human (real)","steam_id":76561199001855562,"connected_time":1622000000000,"state":"active","ping":52},{"user_id":311,"name":"tr","steam_id":76561198046944222,"connected_time":708000000000,"state":"active","ping":45},{"user_id":317,"name":"arborish","steam_id":76561198050249904,"connected_time":544000000000,"state":"active","ping":61},{"user_id":294,"name":"Gyr0sphere","steam_id":76561198183900735,"connected_time":1280000000000,"state":"active","ping":90},{"user_id":280,"name":"rune simpa","steam_id":76561198046174848,"connected_time":2415000000000,"state":"active","ping":115},{"user_id":279,"name":"onionman0106","steam_id":76561199067766868,"connected_time":2525000000000,"state":"active","ping":51},{"user_id":337,"name":"Bobby Ferg","steam_id":76561198145102826,"connected_time":162000000000,"state":"active","ping":92},{"user_id":239,"name":"juan.png","steam_id":76561199276894516,"connected_time":4417000000000,"state":"active","ping":55},{"user_id":320,"name":"Blubaeri","steam_id":76561198316131592,"connected_time":484000000000,"state":"active","ping":112},{"user_id":295,"name":"Nickel04","steam_id":76561199000214877,"connected_time":1272000000000,"state":"active","ping":65},{"user_id":321,"name":"Megumin The Queen of Explosion","steam_id":76561198078791160,"connected_time":482000000000,"state":"active","ping":162},{"user_id":284,"name":"Dip","steam_id":76561198119504730,"connected_time":2313000000000,"state":"active","ping":82},{"user_id":296,"name":"lynks disease no sound","steam_id":76561198043465434,"connected_time":1176000000000,"state":"active","ping":70},{"user_id":314,"name":"Cartwright","steam_id":76561197975491705,"connected_time":606000000000,"state":"active","ping":67},{"user_id":312,"name":"times table","steam_id":76561198341452558,"connected_time":699000000000,"state":"active","ping":105},{"user_id":322,"name":"Rumblebuffin","steam_id":76561198167934856,"connected_time":480000000000,"state":"active","ping":104},{"user_id":329,"name":"Sean","steam_id":76561199367470003,"connected_time":370000000000,"state":"active","ping":73},{"user_id":307,"name":"Fulani","steam_id":76561198035721716,"connected_time":821000000000,"state":"active","ping":88},{"user_id":273,"name":"Smug Pug","steam_id":76561198059423334,"connected_time":2906000000000,"state":"active","ping":94},{"user_id":325,"name":"Maxmind24","steam_id":76561198859888778,"connected_time":428000000000,"state":"active","ping":118}]},{"server_id":119,"name":"Uncletopia | Seattle | 2 | All Maps","name_short":"sea-2","host":"sea-1.us.uncletopia.com","port":27025,"enabled":true,"region":"us-west","cc":"us","latitude":47.608013,"longitude":-122.33517,"reserved":0,"last_update":"0001-01-01T00:00:00Z","name_a2s":"Uncletopia | Seattle | 2 | All Maps","protocol":17,"map":"koth_highpass","folder":"tf","game":"Team Fortress","app_id":440,"player_count":6,"max_players":24,"Bots":0,"server_type":"Dedicated","server_os":"Linux","password":true,"vac":true,"version":"7961495","steam_id":85568392924469998,"keywords":["cp","nocrits","nodmgspread","uncletopia"],"game_id":440,"stv_port":27026,"stv_name":"Uncletopia | Seattle | 2 | All Maps | STV","players":[{"user_id":36,"name":"MAGGOT!","steam_id":76561198213290696,"connected_time":581000000000,"state":"active","ping":40},{"user_id":37,"name":"FakeBot","steam_id":76561197961193303,"connected_time":384000000000,"state":"active","ping":85},{"user_id":29,"name":"Emerald0753","steam_id":76561199386528270,"connected_time":3374000000000,"state":"active","ping":109},{"user_id":38,"name":"Petrivus","steam_id":76561198202152453,"connected_time":251000000000,"state":"active","ping":44},{"user_id":39,"name":"ZOOM","steam_id":76561198968058652,"connected_time":40000000000,"state":"active","ping":46},{"user_id":30,"name":"Vagrant","steam_id":76561198242536886,"connected_time":3199000000000,"state":"active","ping":106}]},{"server_id":406,"name":"Uncletopia | Seattle | 3 | Stopwatch Beta","name_short":"sea-3","host":"sea-1.us.uncletopia.com","port":27035,"enabled":true,"region":"us-west","cc":"us","latitude":47.608013,"longitude":-122.33517,"reserved":0,"last_update":"0001-01-01T00:00:00Z","name_a2s":"Uncletopia | Seattle | 3 | Stopwatch Beta","protocol":17,"map":"koth_lakeside_final","folder":"tf","game":"Team Fortress","app_id":440,"player_count":0,"max_players":24,"Bots":0,"server_type":"Dedicated","server_os":"Linux","password":true,"vac":true,"version":"7961495","steam_id":85568392924515217,"keywords":["cp","nocrits","nodmgspread","uncletopia"],"game_id":440,"stv_port":27036,"stv_name":"Uncletopia | Seattle | 3 | Stopwatch Beta | STV","players":null},{"server_id":17,"name":"Uncletopia | San Francisco | 1 | All Maps","name_short":"sfo-1","host":"sfo-1.us.uncletopia.com","port":27015,"enabled":true,"region":"us-west","cc":"us","latitude":37.77397,"longitude":-122.4313,"reserved":0,"last_update":"0001-01-01T00:00:00Z","name_a2s":"Uncletopia | San Francisco | 1 | All Maps","protocol":17,"map":"koth_highpass","folder":"tf","game":"Team Fortress","app_id":440,"player_count":21,"max_players":24,"Bots":0,"server_type":"Dedicated","server_os":"Linux","password":true,"vac":true,"version":"7961495","steam_id":85568392924469999,"keywords":["cp","nocrits","nodmgspread","uncletopia"],"game_id":440,"stv_port":27016,"stv_name":"Uncletopia | San Francisco | 1 | All Maps | STV","players":[{"user_id":177,"name":"crowe","steam_id":76561198142185527,"connected_time":1095000000000,"state":"active","ping":57},{"user_id":171,"name":"dolphood","steam_id":76561198070478047,"connected_time":2035000000000,"state":"active","ping":105},{"user_id":176,"name":"Poopiecrap","steam_id":76561198353415107,"connected_time":1380000000000,"state":"active","ping":116},{"user_id":138,"name":"TrueGodOfBread","steam_id":76561198127577215,"connected_time":3644000000000,"state":"active","ping":48},{"user_id":185,"name":"Keamy","steam_id":76561199471434875,"connected_time":257000000000,"state":"active","ping":58},{"user_id":186,"name":"Russ_ty","steam_id":76561199420213343,"connected_time":188000000000,"state":"active","ping":85},{"user_id":142,"name":"no vc no c","steam_id":76561197989503095,"connected_time":3516000000000,"state":"active","ping":143},{"user_id":157,"name":"redbrite","steam_id":76561198389370871,"connected_time":2849000000000,"state":"active","ping":57},{"user_id":188,"name":"Kalir","steam_id":76561197996125658,"connected_time":164000000000,"state":"active","ping":71},{"user_id":164,"name":"Trousers","steam_id":76561198128158481,"connected_time":2397000000000,"state":"active","ping":55},{"user_id":187,"name":"legostevey","steam_id":76561198803087661,"connected_time":183000000000,"state":"active","ping":75},{"user_id":189,"name":"FiBr°_]","steam_id":76561197992776839,"connected_time":105000000000,"state":"active","ping":203},{"user_id":127,"name":"dare","steam_id":76561197960977496,"connected_time":4909000000000,"state":"active","ping":55},{"user_id":128,"name":"AntonioCarlosJobim","steam_id":76561199012731309,"connected_time":4905000000000,"state":"active","ping":105},{"user_id":148,"name":"jxh300","steam_id":76561199196579894,"connected_time":3285000000000,"state":"active","ping":103},{"user_id":190,"name":"Lyxbris","steam_id":76561198172294627,"connected_time":86000000000,"state":"active","ping":63},{"user_id":170,"name":"NyanHorses","steam_id":76561198161584966,"connected_time":2121000000000,"state":"active","ping":73},{"user_id":149,"name":"TYLER","steam_id":76561198841399048,"connected_time":3245000000000,"state":"active","ping":106},{"user_id":179,"name":"Frank Accardi","steam_id":76561198017275707,"connected_time":1037000000000,"state":"active","ping":74},{"user_id":191,"name":"Based","steam_id":76561199089316436,"connected_time":76000000000,"state":"active","ping":60},{"user_id":156,"name":"Rustys_Revenge","steam_id":76561198269414024,"connected_time":2859000000000,"state":"active","ping":55}]},{"server_id":18,"name":"Uncletopia | San Francisco | 2 | All Maps","name_short":"sfo-2","host":"sfo-1.us.uncletopia.com","port":27025,"enabled":true,"region":"us-west","cc":"us","latitude":37.77397,"longitude":-122.4313,"reserved":0,"last_update":"0001-01-01T00:00:00Z","name_a2s":"Uncletopia | San Francisco | 2 | All Maps","protocol":17,"map":"koth_highpass","folder":"tf","game":"Team Fortress","app_id":440,"player_count":0,"max_players":24,"Bots":0,"server_type":"Dedicated","server_os":"Linux","password":true,"vac":true,"version":"7961495","steam_id":85568392924470000,"keywords":["cp","nocrits","nodmgspread","uncletopia"],"game_id":440,"stv_port":27026,"stv_name":"Uncletopia | San Francisco | 2 | All Maps | STV","players":null},{"server_id":19,"name":"Uncletopia | San Francisco | 3 | Stopwatch Beta","name_short":"sfo-3","host":"sfo-1.us.uncletopia.com","port":27035,"enabled":true,"region":"us-west","cc":"us","latitude":37.77397,"longitude":-122.4313,"reserved":0,"last_update":"0001-01-01T00:00:00Z","name_a2s":"Uncletopia | San Francisco | 3 | Stopwatch Beta","protocol":17,"map":"pl_borneo","folder":"tf","game":"Team Fortress","app_id":440,"player_count":0,"max_players":24,"Bots":0,"server_type":"Dedicated","server_os":"Linux","password":true,"vac":true,"version":"7961495","steam_id":85568392924742824,"keywords":["nocrits","nodmgspread","payload","uncletopia"],"game_id":440,"stv_port":27036,"stv_name":"Uncletopia | San Francisco | 3 | Stopwatch Beta | STV","players":null},{"server_id":20,"name":"Uncletopia | San Francisco | 4 | Community","name_short":"sfo-4","host":"sfo-1.us.uncletopia.com","port":27045,"enabled":true,"region":"us-west","cc":"us","latitude":37.77397,"longitude":-122.4313,"reserved":0,"last_update":"0001-01-01T00:00:00Z","name_a2s":"Uncletopia | San Francisco | 4 | Community","protocol":17,"map":"koth_viaduct","folder":"tf","game":"Team Fortress","app_id":440,"player_count":0,"max_players":24,"Bots":0,"server_type":"Dedicated","server_os":"Linux","password":true,"vac":true,"version":"7961495","steam_id":85568392924742826,"keywords":["cp","nocrits","nodmgspread","uncletopia"],"game_id":440,"stv_port":27046,"stv_name":"Uncletopia | San Francisco | 4 | Community | STV","players":null},{"server_id":141,"name":"Uncletopia | Sydney | 1 | All Maps","name_short":"syd-1","host":"syd-1.au.uncletopia.com","port":27015,"enabled":true,"region":"au","cc":"au","latitude":-33.865143,"longitude":151.2099,"reserved":0,"last_update":"0001-01-01T00:00:00Z","name_a2s":"Uncletopia | Sydney | 1 | All Maps","protocol":17,"map":"cp_snakewater_final1","folder":"tf","game":"Team Fortress","app_id":440,"player_count":0,"max_players":24,"Bots":0,"server_type":"Dedicated","server_os":"Linux","password":true,"vac":true,"version":"7961495","steam_id":85568392924470001,"keywords":["cp","nocrits","nodmgspread","uncletopia"],"game_id":440,"stv_port":27016,"stv_name":"Uncletopia | Sydney | 1 | All Maps | STV","players":null},{"server_id":123,"name":"Uncletopia | Sydney | 2 | All Maps","name_short":"syd-2","host":"syd-1.au.uncletopia.com","port":27025,"enabled":true,"region":"au","cc":"au","latitude":-33.865143,"longitude":151.2099,"reserved":0,"last_update":"0001-01-01T00:00:00Z","name_a2s":"Uncletopia | Sydney | 2 | All Maps","protocol":17,"map":"pl_snowycoast","folder":"tf","game":"Team Fortress","app_id":440,"player_count":0,"max_players":24,"Bots":0,"server_type":"Dedicated","server_os":"Linux","password":true,"vac":true,"version":"7961495","steam_id":85568392924470002,"keywords":["nocrits","nodmgspread","payload","uncletopia"],"game_id":440,"stv_port":27026,"stv_name":"Uncletopia | Sydney | 2 | All Maps | STV","players":null},{"server_id":395,"name":"Uncletopia | Sydney | 3 | All Maps","name_short":"syd-3","host":"syd-1.au.uncletopia.com","port":27035,"enabled":true,"region":"au","cc":"au","latitude":-33.865143,"longitude":151.2099,"reserved":0,"last_update":"0001-01-01T00:00:00Z","name_a2s":"Uncletopia | Sydney | 3 | All Maps","protocol":17,"map":"cp_dustbowl","folder":"tf","game":"Team Fortress","app_id":440,"player_count":0,"max_players":24,"Bots":0,"server_type":"Dedicated","server_os":"Linux","password":true,"vac":true,"version":"7961495","steam_id":85568392925194467,"keywords":["cp","nocrits","nodmgspread","uncletopia"],"game_id":440,"stv_port":27036,"stv_name":"Uncletopia | Sydney | 3 | All Maps | STV","players":null},{"server_id":396,"name":"Uncletopia | Sydney | 4 | All Maps","name_short":"syd-4","host":"syd-1.au.uncletopia.com","port":27045,"enabled":true,"region":"au","cc":"au","latitude":-33.865143,"longitude":151.2099,"reserved":0,"last_update":"0001-01-01T00:00:00Z","name_a2s":"Uncletopia | Sydney | 4 | All Maps","protocol":17,"map":"koth_viaduct","folder":"tf","game":"Team Fortress","app_id":440,"player_count":0,"max_players":24,"Bots":0,"server_type":"Dedicated","server_os":"Linux","password":true,"vac":true,"version":"7961495","steam_id":85568392925397958,"keywords":["cp","nocrits","nodmgspread","uncletopia"],"game_id":440,"stv_port":27046,"stv_name":"Uncletopia | Sydney | 4 | All Maps | STV","players":null},{"server_id":58,"name":"Uncletopia | Sydney | 5 | Stopwatch Beta","name_short":"syd-5","host":"syd-1.au.uncletopia.com","port":27055,"enabled":true,"region":"au","cc":"au","latitude":-33.865143,"longitude":151.2099,"reserved":0,"last_update":"0001-01-01T00:00:00Z","name_a2s":"Uncletopia | Sydney | 5 | Stopwatch Beta","protocol":17,"map":"koth_viaduct","folder":"tf","game":"Team Fortress","app_id":440,"player_count":0,"max_players":24,"Bots":0,"server_type":"Dedicated","server_os":"Linux","password":true,"vac":true,"version":"7961495","steam_id":85568392925397959,"keywords":["cp","nocrits","nodmgspread","uncletopia"],"game_id":440,"stv_port":27056,"stv_name":"Uncletopia | Sydney | 5 | Stopwatch Beta | STV","players":null},{"server_id":59,"name":"Uncletopia | Sydney | 6 | Community","name_short":"syd-6","host":"syd-1.au.uncletopia.com","port":27065,"enabled":true,"region":"au","cc":"au","latitude":-33.865143,"longitude":151.2099,"reserved":0,"last_update":"0001-01-01T00:00:00Z","name_a2s":"Uncletopia | Sydney | 6 | Community","protocol":17,"map":"koth_cascade","folder":"tf","game":"Team Fortress","app_id":440,"player_count":0,"max_players":24,"Bots":0,"server_type":"Dedicated","server_os":"Linux","password":true,"vac":true,"version":"7961495","steam_id":85568392925397960,"keywords":["cp","nocrits","nodmgspread","uncletopia"],"game_id":440,"stv_port":27066,"stv_name":"Uncletopia | Sydney | 6 | Community | STV","players":null},{"server_id":49,"name":"Uncletopia | Warsaw | 1 | All Maps","name_short":"waw-1","host":"waw-1.pl.uncletopia.com","port":27015,"enabled":true,"region":"eu","cc":"pl","latitude":52.2297,"longitude":21.017532,"reserved":0,"last_update":"0001-01-01T00:00:00Z","name_a2s":"Uncletopia | Warsaw | 1 | All Maps","protocol":17,"map":"koth_highpass","folder":"tf","game":"Team Fortress","app_id":440,"player_count":0,"max_players":24,"Bots":0,"server_type":"Dedicated","server_os":"Linux","password":true,"vac":true,"version":"7961495","steam_id":85568392925397850,"keywords":["cp","nocrits","nodmgspread","uncletopia"],"game_id":440,"stv_port":27016,"stv_name":"Uncletopia | Warsaw | 1 | All Maps | STV","players":null},{"server_id":50,"name":"Uncletopia | Warsaw | 2 | All Maps","name_short":"waw-2","host":"waw-1.pl.uncletopia.com","port":27025,"enabled":true,"region":"eu","cc":"pl","latitude":52.2297,"longitude":21.017532,"reserved":0,"last_update":"0001-01-01T00:00:00Z","name_a2s":"Uncletopia | Warsaw | 2 | All Maps","protocol":17,"map":"koth_viaduct","folder":"tf","game":"Team Fortress","app_id":440,"player_count":0,"max_players":24,"Bots":0,"server_type":"Dedicated","server_os":"Linux","password":true,"vac":true,"version":"7961495","steam_id":85568392925397851,"keywords":["cp","nocrits","nodmgspread","uncletopia"],"game_id":440,"stv_port":27026,"stv_name":"Uncletopia | Warsaw | 2 | All Maps | STV","players":null},{"server_id":51,"name":"Uncletopia | Warsaw | 3 | All Maps","name_short":"waw-3","host":"waw-1.pl.uncletopia.com","port":27035,"enabled":true,"region":"eu","cc":"pl","latitude":52.2297,"longitude":21.017532,"reserved":0,"last_update":"0001-01-01T00:00:00Z","name_a2s":"Uncletopia | Warsaw | 3 | All Maps","protocol":17,"map":"pl_snowycoast","folder":"tf","game":"Team Fortress","app_id":440,"player_count":0,"max_players":24,"Bots":0,"server_type":"Dedicated","server_os":"Linux","password":true,"vac":true,"version":"7961495","steam_id":85568392925397852,"keywords":["nocrits","nodmgspread","payload","uncletopia"],"game_id":440,"stv_port":27036,"stv_name":"Uncletopia | Warsaw | 3 | All Maps | STV","players":null},{"server_id":52,"name":"Uncletopia | Warsaw | 4 | All Maps","name_short":"waw-4","host":"waw-1.pl.uncletopia.com","port":27045,"enabled":true,"region":"eu","cc":"pl","latitude":52.2297,"longitude":21.017532,"reserved":0,"last_update":"0001-01-01T00:00:00Z","name_a2s":"Uncletopia | Warsaw | 4 | All Maps","protocol":17,"map":"pl_swiftwater_final1","folder":"tf","game":"Team Fortress","app_id":440,"player_count":0,"max_players":24,"Bots":0,"server_type":"Dedicated","server_os":"Linux","password":true,"vac":true,"version":"7961495","steam_id":85568392925397853,"keywords":["nocrits","nodmgspread","payload","uncletopia"],"game_id":440,"stv_port":27046,"stv_name":"Uncletopia | Warsaw | 4 | All Maps | STV","players":null},{"server_id":53,"name":"Uncletopia | Warsaw | 5 | Stopwatch Beta","name_short":"waw-5","host":"waw-1.pl.uncletopia.com","port":27055,"enabled":true,"region":"eu","cc":"pl","latitude":52.2297,"longitude":21.017532,"reserved":0,"last_update":"0001-01-01T00:00:00Z","name_a2s":"Uncletopia | Warsaw | 5 | Stopwatch Beta","protocol":17,"map":"workshop/koth_ramjam_rc1.ugc459778887","folder":"tf","game":"Team Fortress","app_id":440,"player_count":0,"max_players":24,"Bots":0,"server_type":"Dedicated","server_os":"Linux","password":true,"vac":true,"version":"7961495","steam_id":85568392925397854,"keywords":["cp","nocrits","nodmgspread","uncletopia"],"game_id":440,"stv_port":27056,"stv_name":"Uncletopia | Warsaw | 5 | Stopwatch Beta | STV","players":null},{"server_id":54,"name":"Uncletopia | Warsaw | 6 | Community","name_short":"waw-6","host":"waw-1.pl.uncletopia.com","port":27065,"enabled":true,"region":"eu","cc":"pl","latitude":52.2297,"longitude":21.017532,"reserved":0,"last_update":"0001-01-01T00:00:00Z","name_a2s":"Uncletopia | Warsaw | 6 | Community","protocol":17,"map":"workshop/pl_vigil_rc9.ugc1266210012","folder":"tf","game":"Team Fortress","app_id":440,"player_count":0,"max_players":24,"Bots":0,"server_type":"Dedicated","server_os":"Linux","password":true,"vac":true,"version":"7961495","steam_id":85568392925397856,"keywords":["nocrits","nodmgspread","payload","uncletopia"],"game_id":440,"stv_port":27066,"stv_name":"Uncletopia | Warsaw | 6 | Community | STV","players":null}]}