{"status":true,"message":"","result":[{"server_id":9,"name":"Uncletopia | Atlanta | 1 | All Maps","name_short":"atl-1","host":"atl-1.us.uncletopia.com","port":27015,"enabled":true,"region":"us-east","cc":"us","latitude":33.753746,"longitude":-84.38633,"reserved":0,"last_update":"0001-01-01T00:00:00Z","name_a2s":"Uncletopia | Atlanta | 1 | All Maps","protocol":17,"map":"cp_mountainlab","folder":"tf","game":"Team Fortress","app_id":440,"player_count":0,"max_players":24,"Bots":0,"server_type":"Dedicated","server_os":"Linux","password":true,"vac":true,"version":"7961495","steam_id":85568392924469982,"keywords":["cp","nocrits","nodmgspread","uncletopia"],"game_id":440,"stv_port":27016,"stv_name":"Uncletopia | Atlanta | 1 | All Maps | STV","players":null},{"server_id":104,"name":"Uncletopia | Atlanta | 2 | All Maps","name_short":"atl-2","host":"atl-1.us.uncletopia.com","port":27025,"enabled":true,"region":"us-east","cc":"us","latitude":33.753746,"longitude":-84.38633,"reserved":0,"last_update":"0001-01-01T00:00:00Z","name_a2s":"Uncletopia | Atlanta | 2 | All Maps","protocol":17,"map":"pl_snowycoast","folder":"tf","game":"Team Fortress","app_id":440,"player_count":24,"max_players":24,"Bots":0,"server_type":"Dedicated","server_os":"Linux","password":true,"vac":true,"version":"7961495","steam_id":85568392924469983,"keywords":["nocrits","nodmgspread","payload","uncletopia"],"game_id":440,"stv_port":27026,"stv_name":"Uncletopia | Atlanta | 2 | All Maps | STV","players":null},{"server_id":400,"name":"Uncletopia | Atlanta | 3 | Stopwatch","name_short":"atl-3","host":"atl-1.us.uncletopia.com","port":27035,"enabled":true,"region":"us-east","cc":"us","latitude":33.753746,"longitude":-84.38633,"reserved":0,"last_update":"0001-01-01T00:00:00Z","name_a2s":"Uncletopia | Atlanta | 3 | Stopwatch","protocol":17,"map":"pl_badwater","folder":"tf","game":"Team Fortress","app_id":440,"player_count":0,"max_players":24,"Bots":0,"server_type":"Dedicated","server_os":"Linux","password":true,"vac":true,"version":"7961495","steam_id":85568392924515187,"keywords":["nocrits","nodmgspread","payload","uncletopia"],"game_id":440,"stv_port":27036,"stv_name":"Uncletopia | Atlanta | 3 | Stopwatch | STV","players":null},{"server_id":401,"name":"Uncletopia | Atlanta | 4 | Community","name_short":"atl-4","host":"atl-1.us.uncletopia.com","port":27045,"enabled":true,"region":"us-east","cc":"us","latitude":33.753746,"longitude":-84.38633,"reserved":0,"last_update":"0001-01-01T00:00:00Z","name_a2s":"Uncletopia | Atlanta | 4 | Community","protocol":17,"map":"cp_sunshine","folder":"tf","game":"Team Fortress","app_id":440,"player_count":0,"max_players":24,"Bots":0,"server_type":"Dedicated","server_os":"Linux","password":true,"vac":true,"version":"7961495","steam_id":85568392924515188,"keywords":["cp","nocrits","nodmgspread","uncletopia"],"game_id":440,"stv_port":27046,"stv_name":"Uncletopia | Atlanta | 4 | Community | STV","players":null},{"server_id":2,"name":"Uncletopia | Chicago | 1 | All Maps","name_short":"chi-1","host":"chi-1.us.uncletopia.com","port":27015,"enabled":true,"region":"us-central","cc":"us","latitude":41.881832,"longitude":-87.62318,"reserved":0,"last_update":"0001-01-01T00:00:00Z","name_a2s":"Uncletopia | Chicago | 1 | All Maps","protocol":17,"map":"pl_badwater","folder":"tf","game":"Team Fortress","app_id":440,"player_count":24,"max_players":24,"Bots":0,"server_type":"Dedicated","server_os":"Linux","password":true,"vac":true,"version":"7961495","steam_id":85568392924469984,"keywords":["nocrits","nodmgspread","payload","uncletopia"],"game_id":440,"stv_port":27016,"stv_name":"Uncletopia | Chicago | 1 | All Maps | STV","players":[{"user_id":221,"name":"The Gentrified Urge","steam_id":76561198073314154,"connected_time":1531000000000,"state":"active","ping":54},{"user_id":237,"name":"Neon","steam_id":76561198089067907,"connected_time":421000000000,"state":"active","ping":66},{"user_id":220,"name":"PowerGem3000","steam_id":76561198944644691,"connected_time":1906000000000,"state":"active","ping":104},{"user_id":229,"name":"Gobby Princess","steam_id":76561198051902438,"connected_time":1002000000000,"state":"active","ping":69},{"user_id":223,"name":"Doctor Emerald(Bison enjoyer)","steam_id":76561199123003872,"connected_time":1506000000000,"state":"active","ping":94},{"user_id":230,"name":"jorjor wells","steam_id":76561199073429082,"connected_time":840000000000,"state":"active","ping":61},{"user_id":233,"name":"Meh","steam_id":76561198078187920,"connected_time":596000000000,"state":"active","ping":78},{"user_id":211,"name":"Gobby's Knight","steam_id":76561198157260335,"connected_time":2327000000000,"state":"active","ping":47},{"user_id":216,"name":"Shaby_Frost","steam_id":76561198401334563,"connected_time":2214000000000,"state":"active","ping":45},{"user_id":175,"name":"Titus Tyrwitt","steam_id":76561197990779673,"connected_time":6075000000000,"state":"active","ping":74},{"user_id":239,"name":"DoubleX2000","steam_id":76561198164134387,"connected_time":308000000000,"state":"active","ping":108},{"user_id":201,"name":"Urist McDwarf","steam_id":76561198164004939,"connected_time":3901000000000,"state":"active","ping":110},{"user_id":210,"name":"unmitigated success","steam_id":76561197988234127,"connected_time":2547000000000,"state":"active","ping":68},{"user_id":199,"name":"Cursed Frog","steam_id":76561198090419068,"connected_time":3928000000000,"state":"active","ping":134},{"user_id":206,"name":"MILKY","steam_id":76561198073114061,"connected_time":3320000000000,"state":"active","ping":76},{"user_id":234,"name":"over thunk it","steam_id":76561198051881047,"connected_time":584000000000,"state":"active","ping":33},{"user_id":240,"name":"stupid ape","steam_id":76561198350027075,"connected_time":304000000000,"state":"active","ping":54},{"user_id":231,"name":"elso","steam_id":76561198058209902,"connected_time":641000000000,"state":"active","ping":80},{"user_id":182,"name":"Pneumo.","steam_id":76561197987911883,"connected_time":5503000000000,"state":"active","ping":125},{"user_id":228,"name":"La Tabda","steam_id":76561198120364620,"connected_time":1063000000000,"state":"active","ping":91},{"user_id":242,"name":"HummusAndGuac","steam_id":76561199129769262,"connected_time":37000000000,"state":"active","ping":88},{"user_id":225,"name":"Jesse","steam_id":76561198157305426,"connected_time":1467000000000,"state":"active","ping":61},{"user_id":174,"name":"TheDapperTaco","steam_id":76561199103076602,"connected_time":6111000000000,"state":"active","ping":120},{"user_id":226,"name":"Walt","steam_id":76561198964107245,"connected_time":1467000000000,"state":"active","ping":89}]},{"server_id":106,"name":"Uncletopia | Chicago | 2 | All Maps","name_short":"chi-2","host":"chi-1.us.uncletopia.com","port":27025,"enabled":true,"region":"us-central","cc":"us","latitude":41.881832,"longitude":-87.62318,"reserved":0,"last_update":"0001-01-01T00:00:00Z","name_a2s":"Uncletopia | Chicago | 2 | All Maps","protocol":17,"map":"cp_egypt_final","folder":"tf","game":"Team Fortress","app_id":440,"player_count":24,"max_players":24,"Bots":0,"server_type":"Dedicated","server_os":"Linux","password":true,"vac":true,"version":"7961495","steam_id":85568392924469985,"keywords":["cp","nocrits","nodmgspread","uncletopia"],"game_id":440,"stv_port":27026,"stv_name":"Uncletopia | Chicago | 2 | All Maps | STV","players":[{"user_id":345,"name":"Fiendish Frog","steam_id":76561198029478821,"connected_time":1227000000000,"state":"active","ping":75},{"user_id":337,"name":"Primal","steam_id":76561197983118203,"connected_time":1430000000000,"state":"active","ping":86},{"user_id":350,"name":"Zeodexic","steam_id":76561198055636655,"connected_time":935000000000,"state":"active","ping":84},{"user_id":355,"name":"Aiden O'Malley","steam_id":76561199030274508,"connected_time":470000000000,"state":"active","ping":90},{"user_id":242,"name":"The King","steam_id":76561198117344758,"connected_time":6327000000000,"state":"active","ping":89},{"user_id":339,"name":"JamBam","steam_id":76561199047384188,"connected_time":1399000000000,"state":"active","ping":98},{"user_id":362,"name":"ungureito „ÅÜ„Çì„Åê„Çå„ÅÑ„Å®","steam_id":76561198063521721,"connected_time":118000000000,"state":"active","ping":75},{"user_id":354,"name":"TruffShuff","steam_id":76561198055869160,"connected_time":654000000000,"state":"active","ping":53},{"user_id":165,"name":"Sunshine","steam_id":76561198885528098,"connected_time":10911000000000,"state":"active","ping":71},{"user_id":352,"name":"Placcid","steam_id":76561197996898905,"connected_time":744000000000,"state":"active","ping":84},{"user_id":356,"name":"Transbian mommy GF","steam_id":76561198153233822,"connected_time":427000000000,"state":"active","ping":64},{"user_id":223,"name":"r0ck","steam_id":76561198395892272,"connected_time":7675000000000,"state":"active","ping":82},{"user_id":326,"name":"Sylvaris","steam_id":76561198156678773,"connected_time":1880000000000,"state":"active","ping":71},{"user_id":363,"name":"Jmasters","steam_id":76561198059759997,"connected_time":85000000000,"state":"active","ping":65},{"user_id":323,"name":"genius of love","steam_id":76561198282764599,"connected_time":1912000000000,"state":"active","ping":46},{"user_id":277,"name":"Sergeant Snowflake","steam_id":76561198041474489,"connected_time":3004000000000,"state":"active","ping":65},{"user_id":357,"name":"O'brien","steam_id":76561198289339403,"connected_time":425000000000,"state":"active","ping":80},{"user_id":361,"name":"i want to die","steam_id":76561198178681366,"connected_time":239000000000,"state":"active","ping":58},{"user_id":349,"name":"Toest","steam_id":76561198076061844,"connected_time":1162000000000,"state":"active","ping":62},{"user_id":289,"name":"400mg or more","steam_id":76561198083091076,"connected_time":2457000000000,"state":"active","ping":91},{"user_id":358,"name":"Kace","steam_id":76561198847288697,"connected_time":393000000000,"state":"active","ping":60},{"user_id":359,"name":"need a dispenser here","steam_id":76561198060912995,"connected_time":382000000000,"state":"active","ping":53},{"user_id":266,"name":"LegendaryMister151","steam_id":76561198064890524,"connected_time":4571000000000,"state":"active","ping":82},{"user_id":360,"name":"BigNugs","steam_id":76561198056402610,"connected_time":289000000000,"state":"active","ping":71}]},{"server_id":402,"name":"Uncletopia | Chicago | 3 | All Maps","name_short":"chi-3","host":"chi-1.us.uncletopia.com","port":27035,"enabled":true,"region":"us-central","cc":"us","latitude":41.881832,"longitude":-87.62318,"reserved":0,"last_update":"0001-01-01T00:00:00Z","name_a2s":"Uncletopia | Chicago | 3 | All Maps","protocol":17,"map":"pl_borneo","folder":"tf","game":"Team Fortress","app_id":440,"player_count":0,"max_players":24,"Bots":0,"server_type":"Dedicated","server_os":"Linux","password":true,"vac":true,"version":"7961495","steam_id":85568392924515191,"keywords":["nocrits","nodmgspread","payload","uncletopia"],"game_id":440,"stv_port":27036,"stv_name":"Uncletopia | Chicago | 3 | All Maps | STV","players":null},{"server_id":403,"name":"Uncletopia | Chicago | 4 | All Maps","name_short":"chi-4","host":"chi-1.us.uncletopia.com","port":27045,"enabled":true,"region":"us-central","cc":"us","latitude":41.881832,"longitude":-87.62318,"reserved":0,"last_update":"0001-01-01T00:00:00Z","name_a2s":"Uncletopia | Chicago | 4 | All Maps","protocol":17,"map":"koth_cascade","folder":"tf","game":"Team Fortress","app_id":440,"player_count":0,"max_players":24,"Bots":0,"server_type":"Dedicated","server_os":"Linux","password":true,"vac":true,"version":"7961495","steam_id":85568392924515193,"keywords":["cp","nocrits","nodmgspread","uncletopia"],"game_id":440,"stv_port":27046,"stv_name":"Uncletopia | Chicago | 4 | All Maps | STV","players":null},{"server_id":36,"name":"Uncletopia | Chicago | 5 | All Maps","name_short":"chi-5","host":"chi-2.us.uncletopia.com","port":27015,"enabled":true,"region":"us-central","cc":"us","latitude":41.881832,"longitude":-87.62318,"reserved":0,"last_update":"0001-01-01T00:00:00Z","name_a2s":"Uncletopia | Chicago | 5 | All Maps","protocol":17,"map":"koth_viaduct","folder":"tf","game":"Team Fortress","app_id":440,"player_count":0,"max_players":24,"Bots":0,"server_type":"Dedicated","server_os":"Linux","password":true,"vac":true,"version":"7961495","steam_id":85568392924866362,"keywords":["cp","nocrits","nodmgspread","uncletopia"],"game_id":440,"stv_port":27016,"stv_name":"Uncletopia | Chicago | 5 | All Maps | STV","players":null},{"server_id":37,"name":"Uncletopia | Chicago | 6 | All Maps","name_short":"chi-6","host":"chi-2.us.uncletopia.com","port":27025,"enabled":true,"region":"us-central","cc":"us","latitude":41.881832,"longitude":-87.62318,"reserved":0,"last_update":"0001-01-01T00:00:00Z","name_a2s":"Uncletopia | Chicago | 6 | All Maps","protocol":17,"map":"pl_upward","folder":"tf","game":"Team Fortress","app_id":440,"player_count":24,"max_players":24,"Bots":0,"server_type":"Dedicated","server_os":"Linux","password":true,"vac":true,"version":"7961495","steam_id":85568392924866363,"keywords":["nocrits","nodmgspread","payload","uncletopia"],"game_id":440,"stv_port":27026,"stv_name":"Uncletopia | Chicago | 6 | All Maps | STV","players":[{"user_id":74,"name":"asbestos","steam_id":76561198079178866,"connected_time":934000000000,"state":"active","ping":63},{"user_id":20,"name":"hdee","steam_id":76561198288729718,"connected_time":3564000000000,"state":"active","ping":75},{"user_id":9,"name":"Carton","steam_id":76561198989473391,"connected_time":5119000000000,"state":"active","ping":69},{"user_id":83,"name":"Doggo225","steam_id":76561198166707002,"connected_time":73000000000,"state":"active","ping":121},{"user_id":77,"name":"jenn","steam_id":76561198078395002,"connected_time":871000000000,"state":"active","ping":78},{"user_id":76,"name":"finnster531","steam_id":76561198169047546,"connected_time":900000000000,"state":"active","ping":68},{"user_id":67,"name":"Pontifex","steam_id":76561198013016489,"connected_time":1589000000000,"state":"active","ping":70},{"user_id":84,"name":"M4 Sherman","steam_id":76561198126990820,"connected_time":58000000000,"state":"active","ping":90},{"user_id":62,"name":"Ziath","steam_id":76561198094009164,"connected_time":1914000000000,"state":"active","ping":59},{"user_id":63,"name":"boog","steam_id":76561197993699665,"connected_time":1900000000000,"state":"active","ping":70},{"user_id":78,"name":"Broken Watermelon","steam_id":76561198928684592,"connected_time":452000000000,"state":"active","ping":104},{"user_id":57,"name":"Kirby.exe","steam_id":76561198242714582,"connected_time":2155000000000,"state":"active","ping":63},{"user_id":51,"name":"Waffle Wannabe","steam_id":76561198064510650,"connected_time":2569000000000,"state":"active","ping":65},{"user_id":24,"name":"marshmellowguy","steam_id":76561199008710694,"connected_time":3478000000000,"state":"active","ping":86},{"user_id":52,"name":"Voodo133","steam_id":76561198042670351,"connected_time":2526000000000,"state":"active","ping":89},{"user_id":85,"name":"Still Grillby","steam_id":76561198161275243,"connected_time":30000000000,"state":"active","ping":76},{"user_id":66,"name":"stall","steam_id":76561199152861652,"connected_time":1744000000000,"state":"active","ping":46},{"user_id":80,"name":"galaxy_nova379","steam_id":76561199004274122,"connected_time":361000000000,"state":"active","ping":66},{"user_id":59,"name":"Bogey","steam_id":76561198096227944,"connected_time":2021000000000,"state":"active","ping":61},{"user_id":70,"name":"superx","steam_id":76561198044976613,"connected_time":1369000000000,"state":"active","ping":69},{"user_id":53,"name":"Rornir","steam_id":76561198081829615,"connected_time":2516000000000,"state":"active","ping":33},{"user_id":68,"name":"dignity","steam_id":76561198046417288,"connected_time":1503000000000,"state":"active","ping":109},{"user_id":82,"name":"‚ô• alixei! ‚ô•","steam_id":76561198014557455,"connected_time":103000000000,"state":"active","ping":60},{"user_id":72,"name":"guppy","steam_id":76561198041380190,"connected_time":1175000000000,"state":"active","ping":96}]},{"server_id":38,"name":"Uncletopia | Chicago | 7 | Stopwatch","name_short":"chi-7","host":"chi-2.us.uncletopia.com","port":27035,"enabled":true,"region":"us-central","cc":"us","latitude":41.881832,"longitude":-87.62318,"reserved":0,"last_update":"0001-01-01T00:00:00Z","name_a2s":"Uncletopia | Chicago | 7 | Stopwatch","protocol":17,"map":"cp_granary","folder":"tf","game":"Team Fortress","app_id":440,"player_count":0,"max_players":24,"Bots":0,"server_type":"Dedicated","server_os":"Linux","password":true,"vac":true,"version":"7961495","steam_id":85568392924866364,"keywords":["cp","nocrits","nodmgspread","uncletopia"],"game_id":440,"stv_port":27036,"stv_name":"Uncletopia | Chicago | 7 | Stopwatch | STV","players":null},{"server_id":39,"name":"Uncletopia | Chicago | 8 | Community","name_short":"chi-8","host":"chi-2.us.uncletopia.com","port":27045,"enabled":true,"region":"us-central","cc":"us","latitude":41.881832,"longitude":-87.62318,"reserved":0,"last_update":"0001-01-01T00:00:00Z","name_a2s":"Uncletopia | Chicago | 8 | Community","protocol":17,"map":"pl_pier","folder":"tf","game":"Team Fortress","app_id":440,"player_count":0,"max_players":24,"Bots":0,"server_type":"Dedicated","server_os":"Linux","password":true,"vac":true,"version":"7961495","steam_id":85568392924866365,"keywords":["nocrits","nodmgspread","payload","uncletopia"],"game_id":440,"stv_port":27046,"stv_name":"Uncletopia | Chicago | 8 | Community | STV","players":null},{"server_id":8,"name":"Uncletopia | Dallas | 1 | All Maps","name_short":"dal-1","host":"dal-1.us.uncletopia.com","port":27015,"enabled":true,"region":"us-central","cc":"us","latitude":32.779167,"longitude":-96.80889,"reserved":0,"last_update":"0001-01-01T00:00:00Z","name_a2s":"Uncletopia | Dallas | 1 | All Maps","protocol":17,"map":"pl_badwater","folder":"tf","game":"Team Fortress","app_id":440,"player_count":21,"max_players":24,"Bots":0,"server_type":"Dedicated","server_os":"Linux","password":true,"vac":true,"version":"7961495","steam_id":85568392924469986,"keywords":["nocrits","nodmgspread","payload","uncletopia"],"game_id":440,"stv_port":27016,"stv_name":"Uncletopia | Dallas | 1 | All Maps | STV","players":[{"user_id":54,"name":"FI LO","steam_id":76561198976530881,"connected_time":34000000000,"state":"active","ping":67},{"user_id":20,"name":"DrMisteryous2","steam_id":76561198336307012,"connected_time":2372000000000,"state":"active","ping":187},{"user_id":37,"name":"synapse","steam_id":76561199188851013,"connected_time":1080000000000,"state":"active","ping":69},{"user_id":27,"name":"artichoke","steam_id":76561198980994364,"connected_time":1596000000000,"state":"active","ping":97},{"user_id":28,"name":"Jckfrbn","steam_id":76561197997742994,"connected_time":1570000000000,"state":"active","ping":60},{"user_id":29,"name":"Thequirka (regular trackpad use","steam_id":76561198968058652,"connected_time":1561000000000,"state":"active","ping":100},{"user_id":31,"name":"Alkimia","steam_id":76561198385763137,"connected_time":1513000000000,"state":"active","ping":249},{"user_id":32,"name":"Tecumseh","steam_id":76561198395023947,"connected_time":1373000000000,"state":"active","ping":90},{"user_id":33,"name":"La-a","steam_id":76561198307818047,"connected_time":1358000000000,"state":"active","ping":121},{"user_id":35,"name":"Critical","steam_id":76561198123744966,"connected_time":1269000000000,"state":"active","ping":88},{"user_id":36,"name":"Rin \"Hindwing\" Redtail","steam_id":76561199074865638,"connected_time":1203000000000,"state":"active","ping":56},{"user_id":38,"name":"Hamfist","steam_id":76561197994333530,"connected_time":975000000000,"state":"active","ping":70},{"user_id":39,"name":"tooba","steam_id":76561198202589758,"connected_time":955000000000,"state":"active","ping":74},{"user_id":40,"name":"CantaloupeKing","steam_id":76561198041949472,"connected_time":891000000000,"state":"active","ping":97},{"user_id":53,"name":"Octo","steam_id":76561199056210895,"connected_time":89000000000,"state":"active","ping":94},{"user_id":55,"name":"Grandpa 1MinecraftEmpire","steam_id":76561198069046338,"connected_time":29000000000,"state":"active","ping":60},{"user_id":43,"name":"Herothroughtime","steam_id":76561198104355231,"connected_time":773000000000,"state":"active","ping":85},{"user_id":45,"name":"3/4'' x 18'' industrial pipe","steam_id":76561198094042613,"connected_time":604000000000,"state":"active","ping":96},{"user_id":48,"name":"Phoenixüå†","steam_id":76561198081109538,"connected_time":478000000000,"state":"active","ping":49},{"user_id":49,"name":"bobbymcbobington","steam_id":76561199089411172,"connected_time":382000000000,"state":"active","ping":130},{"user_id":51,"name":"Jpxfred","steam_id":76561199414783749,"connected_time":304000000000,"state":"active","ping":100}]},{"server_id":108,"name":"Uncletopia | Dallas | 2 | All Maps","name_short":"dal-2","host":"dal-1.us.uncletopia.com","port":27025,"enabled":true,"region":"us-central","cc":"us","latitude":32.779167,"longitude":-96.80889,"reserved":0,"last_update":"0001-01-01T00:00:00Z","name_a2s":"Uncletopia | Dallas | 2 | All Maps","protocol":17,"map":"koth_highpass","folder":"tf","game":"Team Fortress","app_id":440,"player_count":0,"max_players":24,"Bots":0,"server_type":"Dedicated","server_os":"Linux","password":true,"vac":true,"version":"7961495","steam_id":85568392924469988,"keywords":["cp","nocrits","nodmgspread","uncletopia"],"game_id":440,"stv_port":27026,"stv_name":"Uncletopia | Dallas | 2 | All Maps | STV","players":null},{"server_id":404,"name":"Uncletopia | Dallas | 3 | All Maps","name_short":"dal-3","host":"dal-1.us.uncletopia.com","port":27035,"enabled":true,"region":"us-central","cc":"us","latitude":32.779167,"longitude":-96.80889,"reserved":0,"last_update":"0001-01-01T00:00:00Z","name_a2s":"Uncletopia | Dallas | 3 | All Maps","protocol":17,"map":"pl_badwater","folder":"tf","game":"Team Fortress","app_id":440,"player_count":0,"max_players":24,"Bots":0,"server_type":"Dedicated","server_os":"Linux","password":true,"vac":true,"version":"7961495","steam_id":85568392924515219,"keywords":["nocrits","nodmgspread","payload","uncletopia"],"game_id":440,"stv_port":27036,"stv_name":"Uncletopia | Dallas | 3 | All Maps | STV","players":null},{"server_id":405,"name":"Uncletopia | Dallas | 4 | Community","name_short":"dal-4","host":"dal-1.us.uncletopia.com","port":27045,"enabled":true,"region":"us-central","cc":"us","latitude":32.779167,"longitude":-96.80889,"reserved":0,"last_update":"0001-01-01T00:00:00Z","name_a2s":"Uncletopia | Dallas | 4 | Community","protocol":17,"map":"pl_pier","folder":"tf","game":"Team Fortress","app_id":440,"player_count":0,"max_players":24,"Bots":0,"server_type":"Dedicated","server_os":"Linux","password":true,"vac":true,"version":"7961495","steam_id":85568392924515220,"keywords":["nocrits","nodmgspread","payload","uncletopia"],"game_id":440,"stv_port":27046,"stv_name":"Uncletopia | Dallas | 4 | Community | STV","players":null},{"server_id":5,"name":"Uncletopia | Frankfurt | 1 | All Maps","name_short":"frk-1","host":"frk-1.de.uncletopia.com","port":27015,"enabled":true,"region":"eu","cc":"de","latitude":50.110924,"longitude":8.682127,"reserved":0,"last_update":"0001-01-01T00:00:00Z","name_a2s":"Uncletopia | Frankfurt | 1 | All Maps","protocol":17,"map":"pl_frontier_final","folder":"tf","game":"Team Fortress","app_id":440,"player_count":24,"max_players":24,"Bots":0,"server_type":"Dedicated","server_os":"Linux","password":true,"vac":true,"version":"7961495","steam_id":85568392924469989,"keywords":["nocrits","nodmgspread","payload","uncletopia"],"game_id":440,"stv_port":27016,"stv_name":"Uncletopia | Frankfurt | 1 | All Maps | STV","players":[{"user_id":175,"name":"bread","steam_id":76561198077212595,"connected_time":1315000000000,"state":"active","ping":98},{"user_id":158,"name":"Pepegi","steam_id":76561198001230113,"connected_time":1817000000000,"state":"active","ping":70},{"user_id":140,"name":"EagleDeath","steam_id":76561198282441198,"connected_time":2876000000000,"state":"active","ping":71},{"user_id":183,"name":"Carl","steam_id":76561198045638738,"connected_time":941000000000,"state":"active","ping":71},{"user_id":182,"name":"KENZO","steam_id":76561197993520279,"connected_time":1128000000000,"state":"active","ping":58},{"user_id":168,"name":"Buddy","steam_id":76561198050185582,"connected_time":1376000000000,"state":"active","ping":75},{"user_id":156,"name":"The Jolly Hunting Man","steam_id":76561198343521899,"connected_time":2005000000000,"state":"active","ping":111},{"user_id":142,"name":"milan","steam_id":76561198858509678,"connected_time":2859000000000,"state":"active","ping":71},{"user_id":153,"name":"Veir≈´ Viseris","steam_id":76561197989857176,"connected_time":2408000000000,"state":"active","ping":65},{"user_id":180,"name":"Rezzarezz","steam_id":76561198092020043,"connected_time":1184000000000,"state":"active","ping":67},{"user_id":185,"name":"cheriberry","steam_id":76561198093577036,"connected_time":212000000000,"state":"active","ping":58},{"user_id":99,"name":"Mac Bean","steam_id":76561198133782205,"connected_time":5051000000000,"state":"active","ping":117},{"user_id":169,"name":"your_local_penguin","steam_id":76561199224954346,"connected_time":1370000000000,"state":"active","ping":97},{"user_id":160,"name":"Kestrel","steam_id":76561198144033005,"connected_time":1801000000000,"state":"active","ping":64},{"user_id":161,"name":"TheEventGuy","steam_id":76561197972797744,"connected_time":1703000000000,"state":"active","ping":68},{"user_id":162,"name":"now am laughin at you, stupid","steam_id":76561198277943630,"connected_time":1699000000000,"state":"active","ping":77},{"user_id":178,"name":"weed fairy","steam_id":76561197998843096,"connected_time":1293000000000,"state":"active","ping":75},{"user_id":184,"name":"Hubero","steam_id":76561198017053653,"connected_time":314000000000,"state":"active","ping":73},{"user_id":163,"name":"ghenios","steam_id":76561198030011207,"connected_time":1674000000000,"state":"active","ping":96},{"user_id":164,"name":"space dog","steam_id":76561198153384032,"connected_time":1646000000000,"state":"active","ping":189},{"user_id":165,"name":"Animatic","steam_id":76561198186421601,"connected_time":1481000000000,"state":"active","ping":185},{"user_id":147,"name":"corralled","steam_id":76561198028648627,"connected_time":2806000000000,"state":"active","ping":72},{"user_id":177,"name":"„ÅÇ„Å™„Åü„ÅÆÂèãÈÅî","steam_id":76561198248239796,"connected_time":1312000000000,"state":"active","ping":66},{"user_id":155,"name":"chili235","steam_id":76561198883935945,"connected_time":2210000000000,"state":"active","ping":63}]},{"server_id":110,"name":"Uncletopia | Frankfurt | 2 | All Maps","name_short":"frk-2","host":"frk-1.de.uncletopia.com","port":27025,"enabled":true,"region":"eu","cc":"de","latitude":50.110924,"longitude":8.682127,"reserved":0,"last_update":"0001-01-01T00:00:00Z","name_a2s":"Uncletopia | Frankfurt | 2 | All Maps","protocol":17,"map":"cp_sunshine","folder":"tf","game":"Team Fortress","app_id":440,"player_count":0,"max_players":24,"Bots":0,"server_type":"Dedicated","server_os":"Linux","password":true,"vac":true,"version":"7961495","steam_id":85568392924469990,"keywords":["cp","nocrits","nodmgspread","uncletopia"],"game_id":440,"stv_port":27026,"stv_name":"Uncletopia | Frankfurt | 2 | All Maps | STV","players":null},{"server_id":308,"name":"Uncletopia | Frankfurt | 3 | All Maps","name_short":"frk-3","host":"frk-1.de.uncletopia.com","port":27035,"enabled":true,"region":"eu","cc":"de","latitude":50.110924,"longitude":8.682127,"reserved":0,"last_update":"0001-01-01T00:00:00Z","name_a2s":"Uncletopia | Frankfurt | 3 | All Maps","protocol":17,"map":"koth_viaduct","folder":"tf","game":"Team Fortress","app_id":440,"player_count":24,"max_players":24,"Bots":0,"server_type":"Dedicated","server_os":"Linux","password":true,"vac":true,"version":"7961495","steam_id":85568392924504274,"keywords":["cp","nocrits","nodmgspread","uncletopia"],"game_id":440,"stv_port":27036,"stv_name":"Uncletopia | Frankfurt | 3 | All Maps | STV","players":[{"user_id":423,"name":"Kitei","steam_id":76561198142679482,"connected_time":216000000000,"state":"active","ping":103},{"user_id":401,"name":"Engie's best friend","steam_id":76561197961707932,"connected_time":1275000000000,"state":"active","ping":50},{"user_id":347,"name":"heal","steam_id":76561198046754534,"connected_time":6003000000000,"state":"active","ping":76},{"user_id":420,"name":"Coke Zero","steam_id":76561198158562873,"connected_time":444000000000,"state":"active","ping":55},{"user_id":419,"name":"–¥–∂–µ–≥–µ–º–∏ —Ö—ç–ø–∫–∏–Ω–≥—Å","steam_id":76561198131531394,"connected_time":596000000000,"state":"active","ping":89},{"user_id":355,"name":"Piteras","steam_id":76561198858532207,"connected_time":5524000000000,"state":"active","ping":67},{"user_id":403,"name":"Quartzy","steam_id":76561198313301520,"connected_time":1227000000000,"state":"active","ping":52},{"user_id":404,"name":"Cream","steam_id":76561198204266952,"connected_time":1217000000000,"state":"active","ping":111},{"user_id":390,"name":"Punker","steam_id":76561198255964089,"connected_time":2284000000000,"state":"active","ping":110},{"user_id":396,"name":"FilipeLuk","steam_id":76561198150675438,"connected_time":1532000000000,"state":"active","ping":71},{"user_id":406,"name":"Embrace the Radiation","steam_id":76561198343328308,"connected_time":1206000000000,"state":"active","ping":55},{"user_id":407,"name":"JayKey","steam_id":76561198008847925,"connected_time":1198000000000,"state":"active","ping":55},{"user_id":373,"name":"Makeways","steam_id":76561198274466477,"connected_time":3964000000000,"state":"active","ping":96},{"user_id":424,"name":"The Wolf Leader","steam_id":76561198038007462,"connected_time":71000000000,"state":"active","ping":86},{"user_id":399,"name":"Dominus Di Spiritus","steam_id":76561198200488383,"connected_time":1289000000000,"state":"active","ping":72},{"user_id":417,"name":"FrOGgY FrOg ‘Ö(‚äô–î‚äô)","steam_id":76561199008884088,"connected_time":875000000000,"state":"active","ping":148},{"user_id":409,"name":"Jeffacakes","steam_id":76561198280101970,"connected_time":1197000000000,"state":"active","ping":77},{"user_id":410,"name":"VEH-DEH-VEH","steam_id":76561198010978989,"connected_time":1177000000000,"state":"active","ping":63},{"user_id":421,"name":"Monkey","steam_id":76561199008411791,"connected_time":440000000000,"state":"active","ping":62},{"user_id":411,"name":"Popop","steam_id":76561198004793795,"connected_time":1173000000000,"state":"active","ping":76},{"user_id":422,"name":"RedMoose555","steam_id":76561198936369385,"connected_time":276000000000,"state":"active","ping":69},{"user_id":413,"name":"Koli","steam_id":76561197992428783,"connected_time":1140000000000,"state":"active","ping":52},{"user_id":414,"name":"ANGELFISH","steam_id":76561198027536466,"connected_time":1116000000000,"state":"active","ping":104},{"user_id":395,"name":"Nipa5000","steam_id":76561199027332005,"connected_time":1714000000000,"state":"active","ping":80}]},{"server_id":309,"name":"Uncletopia | Frankfurt | 4 | All Maps","name_short":"frk-4","host":"frk-1.de.uncletopia.com","port":27045,"enabled":true,"region":"eu","cc":"de","latitude":50.110924,"longitude":8.682127,"reserved":0,"last_update":"0001-01-01T00:00:00Z","name_a2s":"Uncletopia | Frankfurt | 4 | All Maps","protocol":17,"map":"koth_highpass","folder":"tf","game":"Team Fortress","app_id":440,"player_count":11,"max_players":24,"Bots":0,"server_type":"Dedicated","server_os":"Linux","password":true,"vac":true,"version":"7961495","steam_id":85568392924504275,"keywords":["cp","nocrits","nodmgspread","uncletopia"],"game_id":440,"stv_port":27046,"stv_name":"Uncletopia | Frankfurt | 4 | All Maps | STV","players":[{"user_id":22,"name":"pull up in the sri lanka","steam_id":76561199469369498,"connected_time":761000000000,"state":"active","ping":112},{"user_id":23,"name":"ran is running","steam_id":76561199443185667,"connected_time":730000000000,"state":"active","ping":104},{"user_id":26,"name":"Optimist 50","steam_id":76561198039631442,"connected_time":384000000000,"state":"active","ping":79},{"user_id":25,"name":"LivEssense","steam_id":76561198052476979,"connected_time":543000000000,"state":"active","ping":74},{"user_id":27,"name":"TheSafestFlyingWalrus","steam_id":76561199220308414,"connected_time":371000000000,"state":"active","ping":60},{"user_id":36,"name":"nevim","steam_id":76561199120843402,"connected_time":94000000000,"state":"active","ping":51},{"user_id":30,"name":"armadillo","steam_id":76561198324656652,"connected_time":232000000000,"state":"active","ping":60},{"user_id":31,"name":"CAR DOOR","steam_id":76561198055283295,"connected_time":222000000000,"state":"active","ping":43},{"user_id":32,"name":"rajAs | Aoeitalia.com","steam_id":76561198035928111,"connected_time":187000000000,"state":"active","ping":73},{"user_id":34,"name":"Marabosha","steam_id":76561198137599173,"connected_time":164000000000,"state":"active","ping":116},{"user_id":35,"name":"Charles Darwin","steam_id":76561197973496139,"connected_time":158000000000,"state":"active","ping":73}]},{"server_id":310,"name":"Uncletopia | Frankfurt | 5 | All Maps","name_short":"frk-5","host":"frk-1.de.uncletopia.com","port":27055,"enabled":true,"region":"eu","cc":"de","latitude":50.110924,"longitude":8.682127,"reserved":0,"last_update":"0001-01-01T00:00:00Z","name_a2s":"Uncletopia | Frankfurt | 5 | All Maps","protocol":17,"map":"cp_sunshine","folder":"tf","game":"Team Fortress","app_id":440,"player_count":1,"max_players":24,"Bots":0,"server_type":"Dedicated","server_os":"Linux","password":true,"vac":true,"version":"7961495","steam_id":85568392924504277,"keywords":["cp","nocrits","nodmgspread","uncletopia"],"game_id":440,"stv_port":27056,"stv_name":"Uncletopia | Frankfurt | 5 | All Maps | STV","players":[{"user_id":9,"name":"EtoGeek","steam_id":76561198020304242,"connected_time":51000000000,"state":"active","ping":61}]},{"server_id":311,"name":"Uncletopia | Frankfurt | 6 | All Maps","name_short":"frk-6","host":"frk-1.de.uncletopia.com","port":27065,"enabled":true,"region":"eu","cc":"de","latitude":50.110924,"longitude":8.682127,"reserved":0,"last_update":"0001-01-01T00:00:00Z","name_a2s":"Uncletopia | Frankfurt | 6 | All Maps","protocol":17,"map":"cp_dustbowl","folder":"tf","game":"Team Fortress","app_id":440,"player_count":0,"max_players":24,"Bots":0,"server_type":"Dedicated","server_os":"Linux","password":true,"vac":true,"version":"7961495","steam_id":85568392924504278,"keywords":["cp","nocrits","nodmgspread","uncletopia"],"game_id":440,"stv_port":27066,"stv_name":"Uncletopia | Frankfurt | 6 | All Maps | STV","players":null},{"server_id":23,"name":"Uncletopia | Frankfurt | 7 | Stopwatch","name_short":"frk-7","host":"frk-1.de.uncletopia.com","port":27075,"enabled":true,"region":"eu","cc":"de","latitude":50.110924,"longitude":8.682127,"reserved":0,"last_update":"0001-01-01T00:00:00Z","name_a2s":"Uncletopia | Frankfurt | 7 | Stopwatch","protocol":17,"map":"workshop/cp_process_f12.ugc2302948105","folder":"tf","game":"Team Fortress","app_id":440,"player_count":25,"max_players":24,"Bots":0,"server_type":"Dedicated","server_os":"Linux","password":true,"vac":true,"version":"7961495","steam_id":85568392924742827,"keywords":["cp","nocrits","nodmgspread","uncletopia"],"game_id":440,"stv_port":27076,"stv_name":"Uncletopia | Frankfurt | 7 | Stopwatch | STV","players":[{"user_id":545,"name":"wyro","steam_id":76561199176835169,"connected_time":2539000000000,"state":"active","ping":65},{"user_id":556,"name":"TroX","steam_id":76561197992862361,"connected_time":2040000000000,"state":"active","ping":75},{"user_id":572,"name":"Exee","steam_id":76561198139574633,"connected_time":791000000000,"state":"active","ping":66},{"user_id":546,"name":"Devin","steam_id":76561198079284381,"connected_time":2479000000000,"state":"active","ping":63},{"user_id":495,"name":"Fat Pigeon","steam_id":76561198817940142,"connected_time":5343000000000,"state":"active","ping":56},{"user_id":567,"name":"Jack","steam_id":76561198325505238,"connected_time":1153000000000,"state":"active","ping":73},{"user_id":552,"name":"Bajas","steam_id":76561198179339326,"connected_time":2365000000000,"state":"active","ping":76},{"user_id":504,"name":"JohnTraveltime","steam_id":76561199244281754,"connected_time":4965000000000,"state":"active","ping":65},{"user_id":577,"name":"pidgeonlord","steam_id":76561198297290160,"connected_time":540000000000,"state":"active","ping":66},{"user_id":562,"name":"‚òûLaZe‚òú","steam_id":76561198202191400,"connected_time":1641000000000,"state":"active","ping":60},{"user_id":580,"name":"Osman0","steam_id":76561198851527212,"connected_time":184000000000,"state":"active","ping":58},{"user_id":535,"name":"joachym","steam_id":76561198428579761,"connected_time":3168000000000,"state":"active","ping":56},{"user_id":576,"name":"wintrrs","steam_id":76561198803089656,"connected_time":607000000000,"state":"active","ping":68},{"user_id":542,"name":"Scipionemiliano","steam_id":76561198027646559,"connected_time":2802000000000,"state":"active","ping":100},{"user_id":555,"name":"Rez","steam_id":76561198410598772,"connected_time":2164000000000,"state":"active","ping":51},{"user_id":573,"name":"Luk","steam_id":76561198041341943,"connected_time":730000000000,"state":"active","ping":58},{"user_id":574,"name":"D0kai","steam_id":76561198389271720,"connected_time":721000000000,"state":"active","ping":71},{"user_id":557,"name":"Elliot","steam_id":76561199049205554,"connected_time":2006000000000,"state":"active","ping":74},{"user_id":536,"name":"Lyra","steam_id":76561198043601838,"connected_time":3114000000000,"state":"active","ping":60},{"user_id":584,"name":"MackerelMiguel246","steam_id":76561198089478290,"connected_time":54000000000,"state":"active","ping":51},{"user_id":582,"name":"Marabosha","steam_id":76561198137599173,"connected_time":167000000000,"state":"connecting","ping":0},{"user_id":578,"name":"T√° pr√°ta√≠ go maith","steam_id":76561198372536459,"connected_time":311000000000,"state":"active","ping":65},{"user_id":500,"name":"yup that extream78711","steam_id":76561198106049954,"connected_time":5164000000000,"state":"active","ping":158},{"user_id":579,"name":"Benzo Fury","steam_id":76561198025259336,"connected_time":211000000000,"state":"active","ping":54},{"user_id":583,"name":"Doctor Mobius","steam_id":76561197971281806,"connected_time":155000000000,"state":"active","ping":59}]},{"server_id":24,"name":"Uncletopia | Frankfurt | 8 | Community","name_short":"frk-8","host":"frk-1.de.uncletopia.com","port":27085,"enabled":true,"region":"eu","cc":"de","latitude":50.110924,"longitude":8.682127,"reserved":0,"last_update":"0001-01-01T00:00:00Z","name_a2s":"Uncletopia | Frankfurt | 8 | Community","protocol":17,"map":"workshop/pl_corrode_rc2.ugc546577989","folder":"tf","game":"Team Fortress","app_id":440,"player_count":16,"max_players":24,"Bots":0,"server_type":"Dedicated","server_os":"Linux","password":true,"vac":true,"version":"7961495","steam_id":85568392924742828,"keywords":["nocrits","nodmgspread","payload","uncletopia"],"game_id":440,"stv_port":27086,"stv_name":"Uncletopia | Frankfurt | 8 | Community | STV","players":[{"user_id":6,"name":"Tsumay≈çji","steam_id":76561198158709847,"connected_time":1543000000000,"state":"active","ping":70},{"user_id":7,"name":"Captain Pi√©kipu","steam_id":76561198249506350,"connected_time":1533000000000,"state":"active","ping":86},{"user_id":14,"name":"[V.G.T.41] Seva the Gnome","steam_id":76561198951268072,"connected_time":298000000000,"state":"active","ping":95},{"user_id":9,"name":"Sleepy Joe","steam_id":76561199121590005,"connected_time":1174000000000,"state":"active","ping":51},{"user_id":10,"name":"Pecka_knifman","steam_id":76561199121981645,"connected_time":976000000000,"state":"active","ping":99},{"user_id":11,"name":"Akkras","steam_id":76561198046004148,"connected_time":970000000000,"state":"active","ping":68},{"user_id":12,"name":"Mozzaza","steam_id":76561198156316111,"connected_time":891000000000,"state":"active","ping":116},{"user_id":15,"name":"63756d","steam_id":76561198808699024,"connected_time":181000000000,"state":"active","ping":59},{"user_id":16,"name":"Chicken pot pie","steam_id":76561198084997090,"connected_time":151000000000,"state":"active","ping":53},{"user_id":17,"name":"rolling_tim","steam_id":76561198373668332,"connected_time":128000000000,"state":"active","ping":55},{"user_id":18,"name":"Na z√°chodƒõ","steam_id":76561198383952144,"connected_time":108000000000,"state":"active","ping":134},{"user_id":19,"name":"cobblestone","steam_id":76561198079123043,"connected_time":93000000000,"state":"active","ping":71},{"user_id":21,"name":"le unfunny dog","steam_id":76561198415020571,"connected_time":61000000000,"state":"active","ping":60},{"user_id":22,"name":"breaT","steam_id":76561198091462641,"connected_time":57000000000,"state":"active","ping":73},{"user_id":24,"name":"PIZZAMAN","steam_id":76561198296484184,"connected_time":43000000000,"state":"active","ping":46},{"user_id":25,"name":"arhrhthur","steam_id":76561199199499453,"connected_time":14000000000,"state":"spawning","ping":212}]},{"server_id":202,"name":"Uncletopia | Hong Kong | 1 | All Maps","name_short":"hgk-1","host":"hgk-1.hk.uncletopia.com","port":27015,"enabled":true,"region":"asia","cc":"hk","latitude":22.302711,"longitude":114.177216,"reserved":0,"last_update":"0001-01-01T00:00:00Z","name_a2s":"Uncletopia | Hong Kong | 1 | All Maps","protocol":17,"map":"pl_badwater","folder":"tf","game":"Team Fortress","app_id":440,"player_count":16,"max_players":24,"Bots":0,"server_type":"Dedicated","server_os":"Linux","password":true,"vac":true,"version":"7961495","steam_id":85568392924494504,"keywords":["nocrits","nodmgspread","payload","uncletopia"],"game_id":440,"stv_port":27016,"stv_name":"Uncletopia | Hong Kong | 1 | All Maps | STV","players":[{"user_id":302,"name":"Stewb","steam_id":76561198131423270,"connected_time":12384000000000,"state":"active","ping":59},{"user_id":444,"name":"Battery","steam_id":76561198004583032,"connected_time":816000000000,"state":"active","ping":90},{"user_id":392,"name":"ÊØç„ÅÆËÇâÂõ£Â≠ê@hao123.com","steam_id":76561198069561896,"connected_time":5045000000000,"state":"active","ping":33},{"user_id":435,"name":"dax.","steam_id":76561198321885643,"connected_time":1168000000000,"state":"active","ping":39},{"user_id":448,"name":"Taz","steam_id":76561198093820473,"connected_time":380000000000,"state":"active","ping":59},{"user_id":398,"name":"Starry","steam_id":76561198329126870,"connected_time":4572000000000,"state":"active","ping":45},{"user_id":413,"name":"Beef Wellington","steam_id":76561197995635241,"connected_time":3867000000000,"state":"active","ping":113},{"user_id":442,"name":"mole","steam_id":76561198378829574,"connected_time":943000000000,"state":"active","ping":65},{"user_id":440,"name":"smoke house dedication","steam_id":76561198306834480,"connected_time":1024000000000,"state":"active","ping":75},{"user_id":422,"name":"14","steam_id":76561198113401862,"connected_time":3017000000000,"state":"active","ping":85},{"user_id":427,"name":"ComCy","steam_id":76561199068561251,"connected_time":2176000000000,"state":"active","ping":63},{"user_id":450,"name":"boon","steam_id":76561198181044570,"connected_time":179000000000,"state":"active","ping":52},{"user_id":423,"name":"Sarc","steam_id":76561198137454070,"connected_time":2979000000000,"state":"active","ping":70},{"user_id":403,"name":"tiden2000","steam_id":76561198092969425,"connected_time":4520000000000,"state":"active","ping":118},{"user_id":390,"name":"popin","steam_id":76561198065106212,"connected_time":5226000000000,"state":"active","ping":78},{"user_id":314,"name":"Ïø†ÌÇ§","steam_id":76561197997220367,"connected_time":12088000000000,"state":"active","ping":53}]},{"server_id":1,"name":"Uncletopia | Los Angeles | 1 | All Maps","name_short":"lax-1","host":"lax-1.us.uncletopia.com","port":27015,"enabled":true,"region":"us-west","cc":"us","latitude":33.94279,"longitude":-118.41004,"reserved":0,"last_update":"0001-01-01T00:00:00Z","name_a2s":"Uncletopia | Los Angeles | 1 | All Maps","protocol":17,"map":"pl_snowycoast","folder":"tf","game":"Team Fortress","app_id":440,"player_count":0,"max_players":24,"Bots":0,"server_type":"Dedicated","server_os":"Linux","password":true,"vac":true,"version":"7961495","steam_id":85568392924469991,"keywords":["nocrits","nodmgspread","payload","uncletopia"],"game_id":440,"stv_port":27016,"stv_name":"Uncletopia | Los Angeles | 1 | All Maps | STV","players":null},{"server_id":112,"name":"Uncletopia | Los Angeles | 2 | All Maps","name_short":"lax-2","host":"lax-1.us.uncletopia.com","port":27025,"enabled":true,"region":"us-west","cc":"us","latitude":33.94279,"longitude":-118.41004,"reserved":0,"last_update":"0001-01-01T00:00:00Z","name_a2s":"Uncletopia | Los Angeles | 2 | All Maps","protocol":17,"map":"koth_highpass","folder":"tf","game":"Team Fortress","app_id":440,"player_count":0,"max_players":24,"Bots":0,"server_type":"Dedicated","server_os":"Linux","password":true,"vac":true,"version":"7961495","steam_id":85568392924469992,"keywords":["cp","nocrits","nodmgspread","uncletopia"],"game_id":440,"stv_port":27026,"stv_name":"Uncletopia | Los Angeles | 2 | All Maps | STV","players":null},{"server_id":324,"name":"Uncletopia | Los Angeles | 3 | All Maps","name_short":"lax-3","host":"lax-1.us.uncletopia.com","port":27035,"enabled":true,"region":"us-west","cc":"us","latitude":33.94279,"longitude":-118.41004,"reserved":0,"last_update":"0001-01-01T00:00:00Z","name_a2s":"Uncletopia | Los Angeles | 3 | All Maps","protocol":17,"map":"pl_frontier_final","folder":"tf","game":"Team Fortress","app_id":440,"player_count":0,"max_players":24,"Bots":0,"server_type":"Dedicated","server_os":"Linux","password":true,"vac":true,"version":"7961495","steam_id":85568392924510198,"keywords":["nocrits","nodmgspread","payload","uncletopia"],"game_id":440,"stv_port":27036,"stv_name":"Uncletopia | Los Angeles | 3 | All Maps | STV","players":null},{"server_id":25,"name":"Uncletopia | Los Angeles | 4 | Stopwatch","name_short":"lax-4","host":"lax-1.us.uncletopia.com","port":27045,"enabled":true,"region":"us-west","cc":"us","latitude":33.94279,"longitude":-118.41004,"reserved":0,"last_update":"0001-01-01T00:00:00Z","name_a2s":"Uncletopia | Los Angeles | 4 | Stopwatch","protocol":17,"map":"workshop/koth_bagel_rc6.ugc2514036946","folder":"tf","game":"Team Fortress","app_id":440,"player_count":0,"max_players":24,"Bots":0,"server_type":"Dedicated","server_os":"Linux","password":true,"vac":true,"version":"7961495","steam_id":85568392924510199,"keywords":["cp","nocrits","nodmgspread","uncletopia"],"game_id":440,"stv_port":27046,"stv_name":"Uncletopia | Los Angeles | 4 | Stopwatch | STV","players":null},{"server_id":11,"name":"Uncletopia | London | 1 | All Maps","name_short":"lon-1","host":"lon-1.uk.uncletopia.com","port":27015,"enabled":true,"region":"eu","cc":"gb","latitude":51.509865,"longitude":-0.118092,"reserved":0,"last_update":"0001-01-01T00:00:00Z","name_a2s":"Uncletopia | London | 1 | All Maps","protocol":17,"map":"cp_egypt_final","folder":"tf","game":"Team Fortress","app_id":440,"player_count":24,"max_players":24,"Bots":0,"server_type":"Dedicated","server_os":"Linux","password":true,"vac":true,"version":"7961495","steam_id":85568392924367362,"keywords":["cp","nocrits","nodmgspread","uncletopia"],"game_id":440,"stv_port":27016,"stv_name":"Uncletopia | London | 1 | All Maps | STV","players":[{"user_id":466,"name":"(1)Archer","steam_id":76561197994239444,"connected_time":309000000000,"state":"active","ping":112},{"user_id":451,"name":"Mak≈Çowicz","steam_id":76561198281831506,"connected_time":686000000000,"state":"active","ping":85},{"user_id":450,"name":"BenteBent","steam_id":76561198297920637,"connected_time":881000000000,"state":"active","ping":28},{"user_id":440,"name":"Aspartus","steam_id":76561198101385763,"connected_time":1907000000000,"state":"active","ping":40},{"user_id":457,"name":"Largo","steam_id":76561198844368927,"connected_time":463000000000,"state":"active","ping":69},{"user_id":442,"name":"Archer","steam_id":76561198132860299,"connected_time":1241000000000,"state":"active","ping":57},{"user_id":435,"name":"madhead200","steam_id":76561198119498666,"connected_time":2084000000000,"state":"active","ping":70},{"user_id":395,"name":"DrFast","steam_id":76561198138637093,"connected_time":6734000000000,"state":"active","ping":53},{"user_id":458,"name":"M0l3$z","steam_id":76561198367667484,"connected_time":460000000000,"state":"active","ping":74},{"user_id":459,"name":"laza","steam_id":76561199074095198,"connected_time":394000000000,"state":"active","ping":131},{"user_id":390,"name":"Pork Soda","steam_id":76561198119575082,"connected_time":7130000000000,"state":"active","ping":132},{"user_id":444,"name":"Gyckelmakaren","steam_id":76561198273209384,"connected_time":1120000000000,"state":"active","ping":71},{"user_id":467,"name":"Vel0city","steam_id":76561198049687798,"connected_time":246000000000,"state":"active","ping":46},{"user_id":423,"name":"Alexandre","steam_id":76561198121784446,"connected_time":3743000000000,"state":"active","ping":38},{"user_id":454,"name":"filo","steam_id":76561198103633797,"connected_time":491000000000,"state":"active","ping":96},{"user_id":461,"name":"Solymr ibn Wali Barad","steam_id":76561198044008976,"connected_time":387000000000,"state":"active","ping":62},{"user_id":415,"name":"The Subway Scientist","steam_id":76561198193757646,"connected_time":5043000000000,"state":"active","ping":46},{"user_id":416,"name":"Bonkovich","steam_id":76561198256800084,"connected_time":5036000000000,"state":"active","ping":119},{"user_id":462,"name":"neet","steam_id":76561197968115168,"connected_time":379000000000,"state":"active","ping":121},{"user_id":448,"name":"KingPotatoChips","steam_id":76561198035156465,"connected_time":949000000000,"state":"active","ping":68},{"user_id":463,"name":"c4ctus","steam_id":76561198925655488,"connected_time":379000000000,"state":"active","ping":86},{"user_id":465,"name":"hectyrpotato","steam_id":76561198875018376,"connected_time":329000000000,"state":"active","ping":79},{"user_id":447,"name":"krayy (bl√•haj enjoyer)","steam_id":76561198035037830,"connected_time":1039000000000,"state":"active","ping":46},{"user_id":403,"name":"stroyo","steam_id":76561198409592046,"connected_time":5933000000000,"state":"active","ping":50}]},{"server_id":114,"name":"Uncletopia | London | 2 | All Maps","name_short":"lon-2","host":"lon-1.uk.uncletopia.com","port":27025,"enabled":true,"region":"eu","cc":"gb","latitude":51.509865,"longitude":-0.118092,"reserved":0,"last_update":"0001-01-01T00:00:00Z","name_a2s":"Uncletopia | London | 2 | All Maps","protocol":17,"map":"pl_thundermountain","folder":"tf","game":"Team Fortress","app_id":440,"player_count":24,"max_players":24,"Bots":0,"server_type":"Dedicated","server_os":"Linux","password":true,"vac":true,"version":"7961495","steam_id":85568392924470941,"keywords":["nocrits","nodmgspread","payload","uncletopia"],"game_id":440,"stv_port":27026,"stv_name":"Uncletopia | London | 2 | All Maps | STV","players":[{"user_id":273,"name":"Head Chef","steam_id":76561198133388826,"connected_time":3628000000000,"state":"active","ping":53},{"user_id":324,"name":"GIN-TAMA","steam_id":76561198093458326,"connected_time":488000000000,"state":"active","ping":60},{"user_id":237,"name":"Tekky‚òª","steam_id":76561197990987315,"connected_time":6027000000000,"state":"active","ping":39},{"user_id":284,"name":"Krucial","steam_id":76561198144464665,"connected_time":2696000000000,"state":"active","ping":68},{"user_id":294,"name":"Radigan-Flanders::","steam_id":76561198100439744,"connected_time":2241000000000,"state":"active","ping":31},{"user_id":318,"name":"WolfmanCZ","steam_id":76561199157141414,"connected_time":604000000000,"state":"active","ping":80},{"user_id":319,"name":"[„Ç™„Çø„ÇØ] HelFeaR","steam_id":76561198252281266,"connected_time":594000000000,"state":"active","ping":84},{"user_id":312,"name":"Packet","steam_id":76561199173195875,"connected_time":1400000000000,"state":"active","ping":100},{"user_id":278,"name":"GGabe","steam_id":76561198117199068,"connected_time":3234000000000,"state":"active","ping":75},{"user_id":295,"name":"After8","steam_id":76561198090750865,"connected_time":2208000000000,"state":"active","ping":74},{"user_id":320,"name":"MK-Ultra Violence","steam_id":76561198081328238,"connected_time":589000000000,"state":"active","ping":86},{"user_id":315,"name":"chillrend_morphs_high_lod6","steam_id":76561198452963141,"connected_time":940000000000,"state":"active","ping":79},{"user_id":325,"name":"minecrafter","steam_id":76561198797989834,"connected_time":377000000000,"state":"active","ping":44},{"user_id":297,"name":"Vesoljƒçek Dino","steam_id":76561198117141034,"connected_time":2186000000000,"state":"active","ping":89},{"user_id":299,"name":"MovingIsOverRated","steam_id":76561198385633292,"connected_time":1924000000000,"state":"active","ping":169},{"user_id":298,"name":"M√©bh √ìg MacT√≠re","steam_id":76561198346399624,"connected_time":1946000000000,"state":"active","ping":86},{"user_id":308,"name":"eMcP!","steam_id":76561198382509396,"connected_time":1670000000000,"state":"active","ping":57},{"user_id":286,"name":"what's cooking good looking","steam_id":76561199470354045,"connected_time":2677000000000,"state":"active","ping":163},{"user_id":289,"name":"Dirk.van.den.Broek 2008","steam_id":76561198124226614,"connected_time":2614000000000,"state":"active","ping":53},{"user_id":311,"name":"Moth","steam_id":76561198136370571,"connected_time":1643000000000,"state":"active","ping":53},{"user_id":314,"name":"Princess Peach","steam_id":76561198260272240,"connected_time":970000000000,"state":"active","ping":50},{"user_id":321,"name":"Slazaa","steam_id":76561197993252446,"connected_time":589000000000,"state":"active","ping":50},{"user_id":292,"name":"Diamhair","steam_id":76561198109020178,"connected_time":2542000000000,"state":"active","ping":65},{"user_id":272,"name":"Moobin","steam_id":76561198099999156,"connected_time":4051000000000,"state":"active","ping":70}]},{"server_id":320,"name":"Uncletopia | London | 3 | All Maps","name_short":"lon-3","host":"lon-1.uk.uncletopia.com","port":27035,"enabled":true,"region":"eu","cc":"gb","latitude":51.509865,"longitude":-0.118092,"reserved":0,"last_update":"0001-01-01T00:00:00Z","name_a2s":"Uncletopia | London | 3 | All Maps","protocol":17,"map":"pl_swiftwater_final1","folder":"tf","game":"Team Fortress","app_id":440,"player_count":24,"max_players":24,"Bots":0,"server_type":"Dedicated","server_os":"Linux","password":true,"vac":true,"version":"7961495","steam_id":85568392924510192,"keywords":["nocrits","nodmgspread","payload","uncletopia"],"game_id":440,"stv_port":27036,"stv_name":"Uncletopia | London | 3 | All Maps | STV","players":[{"user_id":171,"name":"Jeryx","steam_id":76561197995602803,"connected_time":4165000000000,"state":"active","ping":59},{"user_id":227,"name":"Soulman25 (FIN)","steam_id":76561198103611974,"connected_time":944000000000,"state":"active","ping":111},{"user_id":252,"name":"sui","steam_id":76561198185348855,"connected_time":61000000000,"state":"active","ping":63},{"user_id":228,"name":"4828","steam_id":76561198326153524,"connected_time":908000000000,"state":"active","ping":65},{"user_id":251,"name":"GoblinSoup","steam_id":76561198888203067,"connected_time":66000000000,"state":"active","ping":145},{"user_id":138,"name":"Vitun vittu","steam_id":76561198110679463,"connected_time":6343000000000,"state":"active","ping":75},{"user_id":247,"name":"Dakeyras","steam_id":76561198057069564,"connected_time":635000000000,"state":"active","ping":100},{"user_id":231,"name":"Wario","steam_id":76561198356089255,"connected_time":851000000000,"state":"active","ping":68},{"user_id":233,"name":"Spicy raccon","steam_id":76561198408560636,"connected_time":832000000000,"state":"active","ping":74},{"user_id":253,"name":"Edge","steam_id":76561198223956388,"connected_time":31000000000,"state":"active","ping":73},{"user_id":234,"name":"ScaryTree","steam_id":76561199384362833,"connected_time":822000000000,"state":"active","ping":51},{"user_id":250,"name":"pls watch puss in boots","steam_id":76561198046210501,"connected_time":70000000000,"state":"active","ping":79},{"user_id":225,"name":"CongleMeRats","steam_id":76561198336960085,"connected_time":1035000000000,"state":"active","ping":63},{"user_id":220,"name":"norespectforthedevil","steam_id":76561197998922218,"connected_time":1185000000000,"state":"active","ping":105},{"user_id":236,"name":"Ironnicall","steam_id":76561199060151538,"connected_time":817000000000,"state":"active","ping":128},{"user_id":237,"name":"TJ1212","steam_id":76561199013575313,"connected_time":817000000000,"state":"active","ping":76},{"user_id":216,"name":"Kokos","steam_id":76561198085501501,"connected_time":1219000000000,"state":"active","ping":90},{"user_id":238,"name":"panakid","steam_id":76561198364121077,"connected_time":813000000000,"state":"active","ping":100},{"user_id":239,"name":"degu","steam_id":76561198180823942,"connected_time":784000000000,"state":"active","ping":94},{"user_id":248,"name":"The Builder","steam_id":76561198403959663,"connected_time":408000000000,"state":"active","ping":92},{"user_id":249,"name":"peruna","steam_id":76561198000721196,"connected_time":80000000000,"state":"active","ping":89},{"user_id":242,"name":"ratsnrats","steam_id":76561199187258021,"connected_time":748000000000,"state":"active","ping":43},{"user_id":201,"name":"Chocolate Orange","steam_id":76561198134952872,"connected_time":2178000000000,"state":"active","ping":57},{"user_id":245,"name":"Solid","steam_id":76561198357049292,"connected_time":722000000000,"state":"active","ping":90}]},{"server_id":321,"name":"Uncletopia | London | 4 | All Maps","name_short":"lon-4","host":"lon-1.uk.uncletopia.com","port":27045,"enabled":true,"region":"eu","cc":"gb","latitude":51.509865,"longitude":-0.118092,"reserved":0,"last_update":"0001-01-01T00:00:00Z","name_a2s":"Uncletopia | London | 4 | All Maps","protocol":17,"map":"plr_hightower","folder":"tf","game":"Team Fortress","app_id":440,"player_count":24,"max_players":24,"Bots":0,"server_type":"Dedicated","server_os":"Linux","password":true,"vac":true,"version":"7961495","steam_id":85568392924510193,"keywords":["nocrits","nodmgspread","payload","uncletopia"],"game_id":440,"stv_port":27046,"stv_name":"Uncletopia | London | 4 | All Maps | STV","players":[{"user_id":343,"name":"Nozzo","steam_id":76561198012367783,"connected_time":549000000000,"state":"active","ping":75},{"user_id":331,"name":"biohazard","steam_id":76561198162873354,"connected_time":1097000000000,"state":"active","ping":95},{"user_id":251,"name":"Fr1Zer","steam_id":76561198357086270,"connected_time":5729000000000,"state":"active","ping":102},{"user_id":163,"name":"Rodak","steam_id":76561199135986344,"connected_time":9521000000000,"state":"active","ping":72},{"user_id":355,"name":"Krabs","steam_id":76561198161679477,"connected_time":111000000000,"state":"active","ping":45},{"user_id":286,"name":"Worms","steam_id":76561198040442214,"connected_time":3939000000000,"state":"active","ping":43},{"user_id":311,"name":"TomNoSocks","steam_id":76561198114071046,"connected_time":2048000000000,"state":"active","ping":67},{"user_id":350,"name":"\u003e:3","steam_id":76561198368312026,"connected_time":379000000000,"state":"active","ping":64},{"user_id":353,"name":"Pootis","steam_id":76561198823265247,"connected_time":193000000000,"state":"active","ping":80},{"user_id":314,"name":"waitrose gaming","steam_id":76561198011450253,"connected_time":1862000000000,"state":"active","ping":50},{"user_id":307,"name":"sBLOCKER  85","steam_id":76561198939078994,"connected_time":2600000000000,"state":"active","ping":144},{"user_id":356,"name":"luigibros644 #savetf2","steam_id":76561199087537182,"connected_time":81000000000,"state":"active","ping":84},{"user_id":328,"name":"Zhyvje Bjelarus'!","steam_id":76561199293036742,"connected_time":1228000000000,"state":"active","ping":70},{"user_id":351,"name":"Locke","steam_id":76561198339408300,"connected_time":371000000000,"state":"active","ping":65},{"user_id":316,"name":"TriR–ò–å","steam_id":76561198119622375,"connected_time":1842000000000,"state":"active","ping":89},{"user_id":334,"name":"gronk","steam_id":76561199031539961,"connected_time":812000000000,"state":"active","ping":60},{"user_id":349,"name":"Duxxy","steam_id":76561198086796116,"connected_time":468000000000,"state":"active","ping":83},{"user_id":317,"name":"JoFF","steam_id":76561198048623866,"connected_time":1828000000000,"state":"active","ping":87},{"user_id":260,"name":"The Rock","steam_id":76561198433328517,"connected_time":5260000000000,"state":"active","ping":157},{"user_id":326,"name":"Adin ross","steam_id":76561199000329493,"connected_time":1307000000000,"state":"active","ping":63},{"user_id":325,"name":"MostSereneDogeBestDoge","steam_id":76561198061196566,"connected_time":1368000000000,"state":"active","ping":61},{"user_id":327,"name":"nemelex","steam_id":76561198958005865,"connected_time":1306000000000,"state":"active","ping":59},{"user_id":341,"name":"JujuBalu","steam_id":76561198207253071,"connected_time":611000000000,"state":"active","ping":28},{"user_id":330,"name":"im tired","steam_id":76561198812159557,"connected_time":1154000000000,"state":"active","ping":84}]},{"server_id":21,"name":"Uncletopia | London | 5 | All Maps","name_short":"lon-5","host":"lon-1.uk.uncletopia.com","port":27055,"enabled":true,"region":"eu","cc":"gb","latitude":51.509865,"longitude":-0.118092,"reserved":0,"last_update":"0001-01-01T00:00:00Z","name_a2s":"Uncletopia | London | 5 | All Maps","protocol":17,"map":"pl_borneo","folder":"tf","game":"Team Fortress","app_id":440,"player_count":24,"max_players":24,"Bots":0,"server_type":"Dedicated","server_os":"Linux","password":true,"vac":true,"version":"7961495","steam_id":85568392924742829,"keywords":["nocrits","nodmgspread","payload","uncletopia"],"game_id":440,"stv_port":27056,"stv_name":"Uncletopia | London | 5 | All Maps | STV","players":[{"user_id":197,"name":"cock buzzler","steam_id":76561198015876799,"connected_time":1106000000000,"state":"active","ping":71},{"user_id":172,"name":"Kieranite","steam_id":76561198059607762,"connected_time":3239000000000,"state":"active","ping":42},{"user_id":210,"name":"Dolcelatte","steam_id":76561198038501770,"connected_time":640000000000,"state":"active","ping":60},{"user_id":106,"name":"d","steam_id":76561198165550964,"connected_time":7320000000000,"state":"active","ping":47},{"user_id":199,"name":"God","steam_id":76561199049925843,"connected_time":1091000000000,"state":"active","ping":112},{"user_id":177,"name":"DeterminedXD[HUN]","steam_id":76561199469006453,"connected_time":2963000000000,"state":"active","ping":101},{"user_id":207,"name":"baballe","steam_id":76561198302448192,"connected_time":719000000000,"state":"active","ping":23},{"user_id":184,"name":"King Goomba","steam_id":76561198146467813,"connected_time":2091000000000,"state":"active","ping":101},{"user_id":206,"name":"Thors","steam_id":76561197968739075,"connected_time":830000000000,"state":"active","ping":44},{"user_id":160,"name":"sneaky the cat","steam_id":76561198061233344,"connected_time":4538000000000,"state":"active","ping":46},{"user_id":178,"name":"scramble my ass","steam_id":76561198133901720,"connected_time":2709000000000,"state":"active","ping":78},{"user_id":208,"name":"Wyxling","steam_id":76561198879766175,"connected_time":695000000000,"state":"active","ping":46},{"user_id":191,"name":"GUSTAVO BING","steam_id":76561198080086744,"connected_time":1797000000000,"state":"active","ping":77},{"user_id":155,"name":"Penis Contortionist","steam_id":76561198073663784,"connected_time":4630000000000,"state":"active","ping":38},{"user_id":169,"name":"t.tv/soarfps","steam_id":76561198010662796,"connected_time":3948000000000,"state":"active","ping":52},{"user_id":201,"name":"golira","steam_id":76561198075968335,"connected_time":989000000000,"state":"active","ping":88},{"user_id":139,"name":"fence_","steam_id":76561198150386379,"connected_time":5968000000000,"state":"active","ping":45},{"user_id":212,"name":"lark","steam_id":76561199496179862,"connected_time":309000000000,"state":"active","ping":50},{"user_id":211,"name":"Kallen","steam_id":76561198079693305,"connected_time":339000000000,"state":"active","ping":59},{"user_id":189,"name":"thekoolest88","steam_id":76561199022415672,"connected_time":2000000000000,"state":"active","ping":136},{"user_id":203,"name":"xulera","steam_id":76561198080736030,"connected_time":967000000000,"state":"active","ping":63},{"user_id":196,"name":"Schmack","steam_id":76561198026535437,"connected_time":1144000000000,"state":"active","ping":60},{"user_id":215,"name":"H3O","steam_id":76561198274433723,"connected_time":107000000000,"state":"active","ping":61},{"user_id":205,"name":"tzlil","steam_id":76561198399916290,"connected_time":945000000000,"state":"active","ping":116}]},{"server_id":22,"name":"Uncletopia | London | 6 | All Maps","name_short":"lon-6","host":"lon-1.uk.uncletopia.com","port":27065,"enabled":true,"region":"eu","cc":"gb","latitude":51.509865,"longitude":-0.118092,"reserved":0,"last_update":"0001-01-01T00:00:00Z","name_a2s":"Uncletopia | London | 6 | All Maps","protocol":17,"map":"koth_highpass","folder":"tf","game":"Team Fortress","app_id":440,"player_count":0,"max_players":24,"Bots":0,"server_type":"Dedicated","server_os":"Linux","password":true,"vac":true,"version":"7961495","steam_id":85568392924742830,"keywords":["cp","nocrits","nodmgspread","uncletopia"],"game_id":440,"stv_port":27066,"stv_name":"Uncletopia | London | 6 | All Maps | STV","players":null},{"server_id":40,"name":"Uncletopia | London | 7 | Stopwatch","name_short":"lon-7","host":"lon-1.uk.uncletopia.com","port":27075,"enabled":true,"region":"eu","cc":"gb","latitude":51.509865,"longitude":-0.118092,"reserved":0,"last_update":"0001-01-01T00:00:00Z","name_a2s":"Uncletopia | London | 7 | Stopwatch","protocol":17,"map":"koth_lakeside_final","folder":"tf","game":"Team Fortress","app_id":440,"player_count":0,"max_players":24,"Bots":0,"server_type":"Dedicated","server_os":"Linux","password":true,"vac":true,"version":"7961495","steam_id":85568392924964314,"keywords":["cp","nocrits","nodmgspread","uncletopia"],"game_id":440,"stv_port":27076,"stv_name":"Uncletopia | London | 7 | Stopwatch | STV","players":null},{"server_id":41,"name":"Uncletopia | London | 8 | Community","name_short":"lon-8","host":"lon-1.uk.uncletopia.com","port":27085,"enabled":true,"region":"eu","cc":"gb","latitude":51.509865,"longitude":-0.118092,"reserved":0,"last_update":"0001-01-01T00:00:00Z","name_a2s":"Uncletopia | London | 8 | Community","protocol":17,"map":"workshop/cp_sulfur_rc2.ugc619869471","folder":"tf","game":"Team Fortress","app_id":440,"player_count":2,"max_players":24,"Bots":0,"server_type":"Dedicated","server_os":"Linux","password":true,"vac":true,"version":"7961495","steam_id":85568392924964315,"keywords":["cp","nocrits","nodmgspread","uncletopia"],"game_id":440,"stv_port":27086,"stv_name":"Uncletopia | London | 8 | Community | STV","players":[{"user_id":9,"name":"Pao_is_good","steam_id":76561199071206846,"connected_time":62000000000,"state":"spawning","ping":621},{"user_id":10,"name":"SausageRoll","steam_id":76561197994072622,"connected_time":49000000000,"state":"active","ping":50}]},{"server_id":300,"name":"Uncletopia | Montr√©al | 1 | All Maps","name_short":"mtl-1","host":"mtl-1.ca.uncletopia.com","port":27015,"enabled":true,"region":"us-east","cc":"ca","latitude":45.50889,"longitude":-73.56167,"reserved":0,"last_update":"0001-01-01T00:00:00Z","name_a2s":"","protocol":0,"map":"","folder":"","game":"","app_id":0,"player_count":4,"max_players":0,"Bots":0,"server_type":"","server_os":"","password":false,"vac":false,"version":"","steam_id":0,"keywords":null,"game_id":0,"stv_port":0,"stv_name":"","players":[{"user_id":4,"name":"plastic tub of sour cherry ball","steam_id":76561199390537886,"connected_time":998000000000,"state":"active","ping":88},{"user_id":5,"name":"Raed duudi","steam_id":76561199259741356,"connected_time":794000000000,"state":"active","ping":159},{"user_id":6,"name":"Joe Nathan","steam_id":76561198041030399,"connected_time":190000000000,"state":"active","ping":89},{"user_id":7,"name":"Dan","steam_id":76561199236719411,"connected_time":169000000000,"state":"active","ping":79}]},{"server_id":301,"name":"Uncletopia | Montr√©al | 2 | ???","name_short":"mtl-2","host":"mtl-1.ca.uncletopia.com","port":27025,"enabled":true,"region":"us-east","cc":"ca","latitude":45.50889,"longitude":-73.56167,"reserved":0,"last_update":"0001-01-01T00:00:00Z","name_a2s":"","protocol":0,"map":"","folder":"","game":"","app_id":0,"player_count":0,"max_players":0,"Bots":0,"server_type":"","server_os":"","password":false,"vac":false,"version":"","steam_id":0,"keywords":null,"game_id":0,"stv_port":0,"stv_name":"","players":null},{"server_id":302,"name":"Uncletopia | Montr√©al | 3 | All Maps","name_short":"mtl-3","host":"mtl-1.ca.uncletopia.com","port":27035,"enabled":true,"region":"us-east","cc":"ca","latitude":45.50889,"longitude":-73.56167,"reserved":0,"last_update":"0001-01-01T00:00:00Z","name_a2s":"","protocol":0,"map":"","folder":"","game":"","app_id":0,"player_count":0,"max_players":0,"Bots":0,"server_type":"","server_os":"","password":false,"vac":false,"version":"","steam_id":0,"keywords":null,"game_id":0,"stv_port":0,"stv_name":"","players":null},{"server_id":303,"name":"Uncletopia | Montr√©al | 4 | No Payload","name_short":"mtl-4","host":"mtl-1.ca.uncletopia.com","port":27045,"enabled":true,"region":"us-east","cc":"ca","latitude":45.50889,"longitude":-73.56167,"reserved":0,"last_update":"0001-01-01T00:00:00Z","name_a2s":"","protocol":0,"map":"","folder":"","game":"","app_id":0,"player_count":0,"max_players":0,"Bots":0,"server_type":"","server_os":"","password":false,"vac":false,"version":"","steam_id":0,"keywords":null,"game_id":0,"stv_port":0,"stv_name":"","players":null},{"server_id":13,"name":"Uncletopia | New York City | 1 | All Maps","name_short":"nyc-1","host":"nyc-1.us.uncletopia.com","port":27015,"enabled":true,"region":"us-east","cc":"us","latitude":40.73061,"longitude":-73.93524,"reserved":0,"last_update":"0001-01-01T00:00:00Z","name_a2s":"Uncletopia | New York City | 1 | All Maps","protocol":17,"map":"koth_cascade","folder":"tf","game":"Team Fortress","app_id":440,"player_count":0,"max_players":24,"Bots":0,"server_type":"Dedicated","server_os":"Linux","password":true,"vac":true,"version":"7961495","steam_id":85568392924469993,"keywords":["cp","nocrits","nodmgspread","uncletopia"],"game_id":440,"stv_port":27016,"stv_name":"Uncletopia | New York City | 1 | All Maps | STV","players":null},{"server_id":14,"name":"Uncletopia | New York City | 2 | All Maps","name_short":"nyc-2","host":"nyc-1.us.uncletopia.com","port":27025,"enabled":true,"region":"us-east","cc":"us","latitude":40.73061,"longitude":-73.93524,"reserved":0,"last_update":"0001-01-01T00:00:00Z","name_a2s":"Uncletopia | New York City | 2 | All Maps","protocol":17,"map":"pl_barnblitz","folder":"tf","game":"Team Fortress","app_id":440,"player_count":24,"max_players":24,"Bots":0,"server_type":"Dedicated","server_os":"Linux","password":true,"vac":true,"version":"7961495","steam_id":85568392924469994,"keywords":["nocrits","nodmgspread","payload","uncletopia"],"game_id":440,"stv_port":27026,"stv_name":"Uncletopia | New York City | 2 | All Maps | STV","players":[{"user_id":110,"name":"2fort lesbian","steam_id":76561198055490517,"connected_time":2897000000000,"state":"active","ping":59},{"user_id":127,"name":"MeatGrinderGuy(Vegans Beware)","steam_id":76561198833470398,"connected_time":1063000000000,"state":"active","ping":52},{"user_id":123,"name":"grand piano tuna","steam_id":76561198135137213,"connected_time":1345000000000,"state":"active","ping":76},{"user_id":120,"name":"acid","steam_id":76561198055855408,"connected_time":2175000000000,"state":"active","ping":56},{"user_id":111,"name":"Catarne","steam_id":76561198237919448,"connected_time":2861000000000,"state":"active","ping":54},{"user_id":126,"name":"Nightman","steam_id":76561198089513762,"connected_time":1084000000000,"state":"active","ping":69},{"user_id":93,"name":"Quilfus Scrofel","steam_id":76561198160308375,"connected_time":3693000000000,"state":"active","ping":77},{"user_id":128,"name":"LevelRaisin","steam_id":76561198082924440,"connected_time":1048000000000,"state":"active","ping":60},{"user_id":112,"name":"lbdigital.media","steam_id":76561199094348109,"connected_time":2853000000000,"state":"active","ping":168},{"user_id":114,"name":"MinusSoup918","steam_id":76561198060902773,"connected_time":2836000000000,"state":"active","ping":127},{"user_id":109,"name":"Discourse","steam_id":76561198984286678,"connected_time":2917000000000,"state":"active","ping":74},{"user_id":116,"name":"Fatal","steam_id":76561198061407587,"connected_time":2812000000000,"state":"active","ping":91},{"user_id":43,"name":"Crazyniss1","steam_id":76561198997194740,"connected_time":6885000000000,"state":"active","ping":89},{"user_id":105,"name":"AbbyRoads","steam_id":76561198868564212,"connected_time":3007000000000,"state":"active","ping":75},{"user_id":124,"name":"pea ttv/peabeanz","steam_id":76561198119551968,"connected_time":1154000000000,"state":"active","ping":60},{"user_id":129,"name":"Fat Kid In a Dragonball T-Shirt","steam_id":76561198182589975,"connected_time":1031000000000,"state":"active","ping":60},{"user_id":130,"name":"Sniper","steam_id":76561199215257553,"connected_time":1020000000000,"state":"active","ping":143},{"user_id":125,"name":"GigaPenguin","steam_id":76561198805906456,"connected_time":1154000000000,"state":"active","ping":46},{"user_id":134,"name":"Vin","steam_id":76561198043601929,"connected_time":443000000000,"state":"active","ping":121},{"user_id":131,"name":"Psychosis","steam_id":76561198078659070,"connected_time":1020000000000,"state":"active","ping":79},{"user_id":132,"name":"Duncan Idaho","steam_id":76561197988963861,"connected_time":977000000000,"state":"active","ping":98},{"user_id":117,"name":"capeeKo","steam_id":76561197970346623,"connected_time":2458000000000,"state":"active","ping":55},{"user_id":94,"name":"orbisg","steam_id":76561198004133638,"connected_time":3590000000000,"state":"active","ping":115},{"user_id":119,"name":"FieryRainbowDog","steam_id":76561199047810065,"connected_time":2287000000000,"state":"active","ping":81}]},{"server_id":15,"name":"Uncletopia | New York City | 3 | Stopwatch","name_short":"nyc-3","host":"nyc-1.us.uncletopia.com","port":27035,"enabled":true,"region":"us-east","cc":"us","latitude":40.73061,"longitude":-73.93524,"reserved":0,"last_update":"0001-01-01T00:00:00Z","name_a2s":"Uncletopia | New York City | 3 | Stopwatch","protocol":17,"map":"pl_snowycoast","folder":"tf","game":"Team Fortress","app_id":440,"player_count":0,"max_players":24,"Bots":0,"server_type":"Dedicated","server_os":"Linux","password":true,"vac":true,"version":"7961495","steam_id":85568392924742820,"keywords":["nocrits","nodmgspread","payload","uncletopia"],"game_id":440,"stv_port":27036,"stv_name":"Uncletopia | New York City | 3 | Stopwatch | STV","players":null},{"server_id":16,"name":"Uncletopia | New York City | 4 | Community","name_short":"nyc-4","host":"nyc-1.us.uncletopia.com","port":27045,"enabled":true,"region":"us-east","cc":"us","latitude":40.73061,"longitude":-73.93524,"reserved":0,"last_update":"0001-01-01T00:00:00Z","name_a2s":"Uncletopia | New York City | 4 | Community","protocol":17,"map":"workshop/cp_croissant_final.ugc458840209","folder":"tf","game":"Team Fortress","app_id":440,"player_count":0,"max_players":24,"Bots":0,"server_type":"Dedicated","server_os":"Linux","password":true,"vac":true,"version":"7961495","steam_id":85568392924742821,"keywords":["cp","nocrits","nodmgspread","uncletopia"],"game_id":440,"stv_port":27046,"stv_name":"Uncletopia | New York City | 4 | Community | STV","players":null},{"server_id":142,"name":"Uncletopia | S√£o Paulo | 1 | All Maps","name_short":"sao-1","host":"sao-1.br.uncletopia.com","port":27015,"enabled":true,"region":"sa","cc":"br","latitude":-23.533773,"longitude":-46.62529,"reserved":0,"last_update":"0001-01-01T00:00:00Z","name_a2s":"Uncletopia | S√£o Paulo | 1 | All Maps","protocol":17,"map":"cp_process_final","folder":"tf","game":"Team Fortress","app_id":440,"player_count":0,"max_players":24,"Bots":0,"server_type":"Dedicated","server_os":"Linux","password":true,"vac":true,"version":"7961495","steam_id":85568392924469996,"keywords":["cp","nocrits","nodmgspread","uncletopia"],"game_id":440,"stv_port":27016,"stv_name":"Uncletopia | S√£o Paulo | 1 | All Maps | STV","players":null},{"server_id":143,"name":"Uncletopia | S√£o Paulo | 2 | Community","name_short":"sao-2","host":"sao-2.br.uncletopia.com","port":27015,"enabled":true,"region":"sa","cc":"br","latitude":-23.533773,"longitude":-46.62529,"reserved":0,"last_update":"0001-01-01T00:00:00Z","name_a2s":"Uncletopia | S√£o Paulo | 2 | Community","protocol":17,"map":"workshop/koth_ramjam_rc1.ugc459778887","folder":"tf","game":"Team Fortress","app_id":440,"player_count":0,"max_players":24,"Bots":0,"server_type":"Dedicated","server_os":"Linux","password":true,"vac":true,"version":"7961495","steam_id":85568392924485349,"keywords":["cp","nocrits","nodmgspread","uncletopia"],"game_id":440,"stv_port":27016,"stv_name":"Uncletopia | S√£o Paulo | 2 | Community | STV","players":null},{"server_id":7,"name":"Uncletopia | Seattle | 1 | All Maps","name_short":"sea-1","host":"sea-1.us.uncletopia.com","port":27015,"enabled":true,"region":"us-west","cc":"us","latitude":47.608013,"longitude":-122.33517,"reserved":0,"last_update":"0001-01-01T00:00:00Z","name_a2s":"Uncletopia | Seattle | 1 | All Maps","protocol":17,"map":"cp_dustbowl","folder":"tf","game":"Team Fortress","app_id":440,"player_count":22,"max_players":24,"Bots":0,"server_type":"Dedicated","server_os":"Linux","password":true,"vac":true,"version":"7961495","steam_id":85568392924469997,"keywords":["cp","nocrits","nodmgspread","uncletopia"],"game_id":440,"stv_port":27016,"stv_name":"Uncletopia | Seattle | 1 | All Maps | STV","players":[{"user_id":55,"name":"adapt","steam_id":76561198156181017,"connected_time":11000000000,"state":"spawning","ping":74},{"user_id":47,"name":"The Roof Guy","steam_id":76561198963469265,"connected_time":354000000000,"state":"active","ping":87},{"user_id":8,"name":"Fenris","steam_id":76561198355460424,"connected_time":2486000000000,"state":"active","ping":37},{"user_id":7,"name":"SeeNik","steam_id":76561198149499817,"connected_time":2741000000000,"state":"active","ping":70},{"user_id":38,"name":"Oktayey","steam_id":76561198143213426,"connected_time":1395000000000,"state":"active","ping":61},{"user_id":14,"name":"Rustyorion","steam_id":76561198439186347,"connected_time":2021000000000,"state":"active","ping":57},{"user_id":46,"name":"RedCrimsons","steam_id":76561198446060671,"connected_time":770000000000,"state":"active","ping":88},{"user_id":29,"name":"jayeskae","steam_id":76561198144220801,"connected_time":1649000000000,"state":"active","ping":43},{"user_id":27,"name":"Howdee","steam_id":76561198081622174,"connected_time":1718000000000,"state":"active","ping":114},{"user_id":49,"name":"Xx_PercyTheSmallEngineGamer6_xX","steam_id":76561198842297041,"connected_time":296000000000,"state":"active","ping":113},{"user_id":18,"name":"Ja","steam_id":76561198396340174,"connected_time":1940000000000,"state":"active","ping":124},{"user_id":50,"name":"Konpachi-_-","steam_id":76561199068623664,"connected_time":249000000000,"state":"active","ping":64},{"user_id":22,"name":"Freedy","steam_id":76561199115274103,"connected_time":1909000000000,"state":"active","ping":77},{"user_id":30,"name":"ven","steam_id":76561199406261605,"connected_time":1581000000000,"state":"active","ping":105},{"user_id":54,"name":"yuki","steam_id":76561198088403016,"connected_time":28000000000,"state":"active","ping":151},{"user_id":25,"name":"SnipeDatPie","steam_id":76561198127387054,"connected_time":1798000000000,"state":"active","ping":103},{"user_id":31,"name":"Denzel McFlurry","steam_id":76561199231296521,"connected_time":1570000000000,"state":"active","ping":126},{"user_id":35,"name":"masterchiefvinesaucedoomguy985","steam_id":76561198339008585,"connected_time":1519000000000,"state":"active","ping":65},{"user_id":36,"name":"Tech Priest","steam_id":76561198958876163,"connected_time":1514000000000,"state":"active","ping":69},{"user_id":41,"name":"DragonJimmy","steam_id":76561198272966565,"connected_time":1278000000000,"state":"active","ping":88},{"user_id":42,"name":"FlamingManiac","steam_id":76561198361996837,"connected_time":1199000000000,"state":"active","ping":133},{"user_id":43,"name":"Cartmachine","steam_id":76561198060362323,"connected_time":1187000000000,"state":"active","ping":101}]},{"server_id":119,"name":"Uncletopia | Seattle | 2 | All Maps","name_short":"sea-2","host":"sea-1.us.uncletopia.com","port":27025,"enabled":true,"region":"us-west","cc":"us","latitude":47.608013,"longitude":-122.33517,"reserved":0,"last_update":"0001-01-01T00:00:00Z","name_a2s":"Uncletopia | Seattle | 2 | All Maps","protocol":17,"map":"pl_frontier_final","folder":"tf","game":"Team Fortress","app_id":440,"player_count":0,"max_players":24,"Bots":0,"server_type":"Dedicated","server_os":"Linux","password":true,"vac":true,"version":"7961495","steam_id":85568392924469998,"keywords":["nocrits","nodmgspread","payload","uncletopia"],"game_id":440,"stv_port":27026,"stv_name":"Uncletopia | Seattle | 2 | All Maps | STV","players":null},{"server_id":406,"name":"Uncletopia | Seattle | 3 | Stopwatch","name_short":"sea-3","host":"sea-1.us.uncletopia.com","port":27035,"enabled":true,"region":"us-west","cc":"us","latitude":47.608013,"longitude":-122.33517,"reserved":0,"last_update":"0001-01-01T00:00:00Z","name_a2s":"Uncletopia | Seattle | 3 | Stopwatch","protocol":17,"map":"workshop/cp_process_f12.ugc2302948105","folder":"tf","game":"Team Fortress","app_id":440,"player_count":0,"max_players":24,"Bots":0,"server_type":"Dedicated","server_os":"Linux","password":true,"vac":true,"version":"7961495","steam_id":85568392924515217,"keywords":["cp","nocrits","nodmgspread","uncletopia"],"game_id":440,"stv_port":27036,"stv_name":"Uncletopia | Seattle | 3 | Stopwatch | STV","players":null},{"server_id":17,"name":"Uncletopia | San Francisco | 1 | All Maps","name_short":"sfo-1","host":"sfo-1.us.uncletopia.com","port":27015,"enabled":true,"region":"us-west","cc":"us","latitude":37.77397,"longitude":-122.4313,"reserved":0,"last_update":"0001-01-01T00:00:00Z","name_a2s":"Uncletopia | San Francisco | 1 | All Maps","protocol":17,"map":"koth_cascade","folder":"tf","game":"Team Fortress","app_id":440,"player_count":0,"max_players":24,"Bots":0,"server_type":"Dedicated","server_os":"Linux","password":true,"vac":true,"version":"7961495","steam_id":85568392924469999,"keywords":["cp","nocrits","nodmgspread","uncletopia"],"game_id":440,"stv_port":27016,"stv_name":"Uncletopia | San Francisco | 1 | All Maps | STV","players":null},{"server_id":18,"name":"Uncletopia | San Francisco | 2 | All Maps","name_short":"sfo-2","host":"sfo-1.us.uncletopia.com","port":27025,"enabled":true,"region":"us-west","cc":"us","latitude":37.77397,"longitude":-122.4313,"reserved":0,"last_update":"0001-01-01T00:00:00Z","name_a2s":"Uncletopia | San Francisco | 2 | All Maps","protocol":17,"map":"pl_frontier_final","folder":"tf","game":"Team Fortress","app_id":440,"player_count":1,"max_players":24,"Bots":0,"server_type":"Dedicated","server_os":"Linux","password":true,"vac":true,"version":"7961495","steam_id":85568392924470000,"keywords":["nocrits","nodmgspread","payload","uncletopia"],"game_id":440,"stv_port":27026,"stv_name":"Uncletopia | San Francisco | 2 | All Maps | STV","players":[{"user_id":3,"name":"Dealer","steam_id":76561198801450794,"connected_time":64000000000,"state":"active","ping":103}]},{"server_id":19,"name":"Uncletopia | San Francisco | 3 | Stopwatch","name_short":"sfo-3","host":"sfo-1.us.uncletopia.com","port":27035,"enabled":true,"region":"us-west","cc":"us","latitude":37.77397,"longitude":-122.4313,"reserved":0,"last_update":"0001-01-01T00:00:00Z","name_a2s":"Uncletopia | San Francisco | 3 | Stopwatch","protocol":17,"map":"pl_pier","folder":"tf","game":"Team Fortress","app_id":440,"player_count":0,"max_players":24,"Bots":0,"server_type":"Dedicated","server_os":"Linux","password":true,"vac":true,"version":"7961495","steam_id":85568392924742824,"keywords":["nocrits","nodmgspread","payload","uncletopia"],"game_id":440,"stv_port":27036,"stv_name":"Uncletopia | San Francisco | 3 | Stopwatch | STV","players":null},{"server_id":20,"name":"Uncletopia | San Francisco | 4 | Community","name_short":"sfo-4","host":"sfo-1.us.uncletopia.com","port":27045,"enabled":true,"region":"us-west","cc":"us","latitude":37.77397,"longitude":-122.4313,"reserved":0,"last_update":"0001-01-01T00:00:00Z","name_a2s":"Uncletopia | San Francisco | 4 | Community","protocol":17,"map":"pl_pier","folder":"tf","game":"Team Fortress","app_id":440,"player_count":0,"max_players":24,"Bots":0,"server_type":"Dedicated","server_os":"Linux","password":true,"vac":true,"version":"7961495","steam_id":85568392924742826,"keywords":["nocrits","nodmgspread","payload","uncletopia"],"game_id":440,"stv_port":27046,"stv_name":"Uncletopia | San Francisco | 4 | Community | STV","players":null},{"server_id":141,"name":"Uncletopia | Sydney | 1 | All Maps","name_short":"syd-1","host":"syd-1.au.uncletopia.com","port":27015,"enabled":true,"region":"au","cc":"au","latitude":-33.865143,"longitude":151.2099,"reserved":0,"last_update":"0001-01-01T00:00:00Z","name_a2s":"Uncletopia | Sydney | 1 | All Maps","protocol":17,"map":"cp_snakewater_final1","folder":"tf","game":"Team Fortress","app_id":440,"player_count":0,"max_players":24,"Bots":0,"server_type":"Dedicated","server_os":"Linux","password":true,"vac":true,"version":"7961495","steam_id":85568392924470001,"keywords":["cp","nocrits","nodmgspread","uncletopia"],"game_id":440,"stv_port":27016,"stv_name":"Uncletopia | Sydney | 1 | All Maps | STV","players":null},{"server_id":123,"name":"Uncletopia | Sydney | 2 | All Maps","name_short":"syd-2","host":"syd-1.au.uncletopia.com","port":27025,"enabled":true,"region":"au","cc":"au","latitude":-33.865143,"longitude":151.2099,"reserved":0,"last_update":"0001-01-01T00:00:00Z","name_a2s":"Uncletopia | Sydney | 2 | All Maps","protocol":17,"map":"pl_barnblitz","folder":"tf","game":"Team Fortress","app_id":440,"player_count":0,"max_players":24,"Bots":0,"server_type":"Dedicated","server_os":"Linux","password":true,"vac":true,"version":"7961495","steam_id":85568392924470002,"keywords":["nocrits","nodmgspread","payload","uncletopia"],"game_id":440,"stv_port":27026,"stv_name":"Uncletopia | Sydney | 2 | All Maps | STV","players":null},{"server_id":395,"name":"Uncletopia | Sydney | 3 | All Maps","name_short":"syd-3","host":"syd-1.au.uncletopia.com","port":27035,"enabled":true,"region":"au","cc":"au","latitude":-33.865143,"longitude":151.2099,"reserved":0,"last_update":"0001-01-01T00:00:00Z","name_a2s":"Uncletopia | Sydney | 3 | All Maps","protocol":17,"map":"pl_borneo","folder":"tf","game":"Team Fortress","app_id":440,"player_count":0,"max_players":24,"Bots":0,"server_type":"Dedicated","server_os":"Linux","password":true,"vac":true,"version":"7961495","steam_id":85568392925194467,"keywords":["nocrits","nodmgspread","payload","uncletopia"],"game_id":440,"stv_port":27036,"stv_name":"Uncletopia | Sydney | 3 | All Maps | STV","players":null},{"server_id":396,"name":"Uncletopia | Sydney | 4 | All Maps","name_short":"syd-4","host":"syd-1.au.uncletopia.com","port":27045,"enabled":true,"region":"au","cc":"au","latitude":-33.865143,"longitude":151.2099,"reserved":0,"last_update":"0001-01-01T00:00:00Z","name_a2s":"Uncletopia | Sydney | 4 | All Maps","protocol":17,"map":"pl_snowycoast","folder":"tf","game":"Team Fortress","app_id":440,"player_count":0,"max_players":24,"Bots":0,"server_type":"Dedicated","server_os":"Linux","password":true,"vac":true,"version":"7961495","steam_id":85568392925397958,"keywords":["nocrits","nodmgspread","payload","uncletopia"],"game_id":440,"stv_port":27046,"stv_name":"Uncletopia | Sydney | 4 | All Maps | STV","players":null},{"server_id":58,"name":"Uncletopia | Sydney | 5 | Stopwatch","name_short":"syd-5","host":"syd-1.au.uncletopia.com","port":27055,"enabled":true,"region":"au","cc":"au","latitude":-33.865143,"longitude":151.2099,"reserved":0,"last_update":"0001-01-01T00:00:00Z","name_a2s":"Uncletopia | Sydney | 5 | Stopwatch","protocol":17,"map":"workshop/koth_clearcut_b15.ugc2107050255","folder":"tf","game":"Team Fortress","app_id":440,"player_count":0,"max_players":24,"Bots":0,"server_type":"Dedicated","server_os":"Linux","password":true,"vac":true,"version":"7961495","steam_id":85568392925397959,"keywords":["cp","nocrits","nodmgspread","uncletopia"],"game_id":440,"stv_port":27056,"stv_name":"Uncletopia | Sydney | 5 | Stopwatch | STV","players":null},{"server_id":59,"name":"Uncletopia | Sydney | 6 | Community","name_short":"syd-6","host":"syd-1.au.uncletopia.com","port":27065,"enabled":true,"region":"au","cc":"au","latitude":-33.865143,"longitude":151.2099,"reserved":0,"last_update":"0001-01-01T00:00:00Z","name_a2s":"Uncletopia | Sydney | 6 | Community","protocol":17,"map":"workshop/pl_corrode_rc2.ugc546577989","folder":"tf","game":"Team Fortress","app_id":440,"player_count":0,"max_players":24,"Bots":0,"server_type":"Dedicated","server_os":"Linux","password":true,"vac":true,"version":"7961495","steam_id":85568392925397960,"keywords":["nocrits","nodmgspread","payload","uncletopia"],"game_id":440,"stv_port":27066,"stv_name":"Uncletopia | Sydney | 6 | Community | STV","players":null},{"server_id":49,"name":"Uncletopia | Warsaw | 1 | All Maps","name_short":"waw-1","host":"waw-1.pl.uncletopia.com","port":27015,"enabled":true,"region":"eu","cc":"pl","latitude":52.2297,"longitude":21.017532,"reserved":0,"last_update":"0001-01-01T00:00:00Z","name_a2s":"Uncletopia | Warsaw | 1 | All Maps","protocol":17,"map":"koth_lakeside_final","folder":"tf","game":"Team Fortress","app_id":440,"player_count":0,"max_players":24,"Bots":0,"server_type":"Dedicated","server_os":"Linux","password":true,"vac":true,"version":"7961495","steam_id":85568392925397850,"keywords":["cp","nocrits","nodmgspread","uncletopia"],"game_id":440,"stv_port":27016,"stv_name":"Uncletopia | Warsaw | 1 | All Maps | STV","players":null},{"server_id":50,"name":"Uncletopia | Warsaw | 2 | All Maps","name_short":"waw-2","host":"waw-1.pl.uncletopia.com","port":27025,"enabled":true,"region":"eu","cc":"pl","latitude":52.2297,"longitude":21.017532,"reserved":0,"last_update":"0001-01-01T00:00:00Z","name_a2s":"Uncletopia | Warsaw | 2 | All Maps","protocol":17,"map":"koth_highpass","folder":"tf","game":"Team Fortress","app_id":440,"player_count":0,"max_players":24,"Bots":0,"server_type":"Dedicated","server_os":"Linux","password":true,"vac":true,"version":"7961495","steam_id":85568392925397851,"keywords":["cp","nocrits","nodmgspread","uncletopia"],"game_id":440,"stv_port":27026,"stv_name":"Uncletopia | Warsaw | 2 | All Maps | STV","players":null},{"server_id":51,"name":"Uncletopia | Warsaw | 3 | All Maps","name_short":"waw-3","host":"waw-1.pl.uncletopia.com","port":27035,"enabled":true,"region":"eu","cc":"pl","latitude":52.2297,"longitude":21.017532,"reserved":0,"last_update":"0001-01-01T00:00:00Z","name_a2s":"Uncletopia | Warsaw | 3 | All Maps","protocol":17,"map":"pl_frontier_final","folder":"tf","game":"Team Fortress","app_id":440,"player_count":0,"max_players":24,"Bots":0,"server_type":"Dedicated","server_os":"Linux","password":true,"vac":true,"version":"7961495","steam_id":85568392925397852,"keywords":["nocrits","nodmgspread","payload","uncletopia"],"game_id":440,"stv_port":27036,"stv_name":"Uncletopia | Warsaw | 3 | All Maps | STV","players":null},{"server_id":52,"name":"Uncletopia | Warsaw | 4 | All Maps","name_short":"waw-4","host":"waw-1.pl.uncletopia.com","port":27045,"enabled":true,"region":"eu","cc":"pl","latitude":52.2297,"longitude":21.017532,"reserved":0,"last_update":"0001-01-01T00:00:00Z","name_a2s":"Uncletopia | Warsaw | 4 | All Maps","protocol":17,"map":"cp_mountainlab","folder":"tf","game":"Team Fortress","app_id":440,"player_count":0,"max_players":24,"Bots":0,"server_type":"Dedicated","server_os":"Linux","password":true,"vac":true,"version":"7961495","steam_id":85568392925397853,"keywords":["cp","nocrits","nodmgspread","uncletopia"],"game_id":440,"stv_port":27046,"stv_name":"Uncletopia | Warsaw | 4 | All Maps | STV","players":null},{"server_id":53,"name":"Uncletopia | Warsaw | 5 | Stopwatch","name_short":"waw-5","host":"waw-1.pl.uncletopia.com","port":27055,"enabled":true,"region":"eu","cc":"pl","latitude":52.2297,"longitude":21.017532,"reserved":0,"last_update":"0001-01-01T00:00:00Z","name_a2s":"Uncletopia | Warsaw | 5 | Stopwatch","protocol":17,"map":"workshop/pl_badwater_pro_v12.ugc2142942074","folder":"tf","game":"Team Fortress","app_id":440,"player_count":0,"max_players":24,"Bots":0,"server_type":"Dedicated","server_os":"Linux","password":true,"vac":true,"version":"7961495","steam_id":85568392925397854,"keywords":["nocrits","nodmgspread","payload","uncletopia"],"game_id":440,"stv_port":27056,"stv_name":"Uncletopia | Warsaw | 5 | Stopwatch | STV","players":null},{"server_id":54,"name":"Uncletopia | Warsaw | 6 | Community","name_short":"waw-6","host":"waw-1.pl.uncletopia.com","port":27065,"enabled":true,"region":"eu","cc":"pl","latitude":52.2297,"longitude":21.017532,"reserved":0,"last_update":"0001-01-01T00:00:00Z","name_a2s":"Uncletopia | Warsaw | 6 | Community","protocol":17,"map":"workshop/koth_synthetic_rc6a.ugc1549817316","folder":"tf","game":"Team Fortress","app_id":440,"player_count":0,"max_players":24,"Bots":0,"server_type":"Dedicated","server_os":"Linux","password":true,"vac":true,"version":"7961495","steam_id":85568392925397856,"keywords":["cp","nocrits","nodmgspread","uncletopia"],"game_id":440,"stv_port":27066,"stv_name":"Uncletopia | Warsaw | 6 | Community | STV","players":null}]}