{"status":true,"message":"","result":[{"server_id":9,"name":"Uncletopia | Atlanta | 1 | All Maps","name_short":"atl-1","host":"atl-1.us.uncletopia.com","port":27015,"enabled":true,"region":"us-east","cc":"us","latitude":33.753746,"longitude":-84.38633,"reserved":0,"last_update":"0001-01-01T00:00:00Z","name_a2s":"Uncletopia | Atlanta | 1 | All Maps","protocol":17,"map":"pl_barnblitz","folder":"tf","game":"Team Fortress","app_id":440,"player_count":0,"max_players":24,"Bots":0,"server_type":"Dedicated","server_os":"Linux","password":true,"vac":true,"version":"7932396","steam_id":85568392924469982,"keywords":["nocrits","nodmgspread","payload","uncletopia"],"game_id":440,"stv_port":27016,"stv_name":"Uncletopia | Atlanta | 1 | All Maps | STV","players":null},{"server_id":104,"name":"Uncletopia | Atlanta | 2 | All Maps","name_short":"atl-2","host":"atl-1.us.uncletopia.com","port":27025,"enabled":true,"region":"us-east","cc":"us","latitude":33.753746,"longitude":-84.38633,"reserved":0,"last_update":"0001-01-01T00:00:00Z","name_a2s":"Uncletopia | Atlanta | 2 | All Maps","protocol":17,"map":"cp_process_final","folder":"tf","game":"Team Fortress","app_id":440,"player_count":0,"max_players":24,"Bots":0,"server_type":"Dedicated","server_os":"Linux","password":true,"vac":true,"version":"7932396","steam_id":85568392924469983,"keywords":["cp","nocrits","nodmgspread","uncletopia"],"game_id":440,"stv_port":27026,"stv_name":"Uncletopia | Atlanta | 2 | All Maps | STV","players":null},{"server_id":400,"name":"Uncletopia | Atlanta | 3 | Community","name_short":"atl-3","host":"atl-1.us.uncletopia.com","port":27035,"enabled":true,"region":"us-east","cc":"us","latitude":33.753746,"longitude":-84.38633,"reserved":0,"last_update":"0001-01-01T00:00:00Z","name_a2s":"Uncletopia | Atlanta | 3 | Community","protocol":17,"map":"pl_borneo","folder":"tf","game":"Team Fortress","app_id":440,"player_count":0,"max_players":24,"Bots":0,"server_type":"Dedicated","server_os":"Linux","password":true,"vac":true,"version":"7932396","steam_id":85568392924515187,"keywords":["nocrits","nodmgspread","payload","uncletopia"],"game_id":440,"stv_port":27036,"stv_name":"Uncletopia | Atlanta | 3 | Community | STV","players":null},{"server_id":401,"name":"Uncletopia | Atlanta | 4 | No Payload","name_short":"atl-4","host":"atl-1.us.uncletopia.com","port":27045,"enabled":true,"region":"us-east","cc":"us","latitude":33.753746,"longitude":-84.38633,"reserved":0,"last_update":"0001-01-01T00:00:00Z","name_a2s":"","protocol":0,"map":"","folder":"","game":"","app_id":0,"player_count":0,"max_players":0,"Bots":0,"server_type":"","server_os":"","password":false,"vac":false,"version":"","steam_id":0,"keywords":null,"game_id":0,"stv_port":0,"stv_name":"","players":null},{"server_id":2,"name":"Uncletopia | Chicago | 1 | All Maps","name_short":"chi-1","host":"chi-1.us.uncletopia.com","port":27015,"enabled":true,"region":"us-central","cc":"us","latitude":41.881832,"longitude":-87.62318,"reserved":0,"last_update":"0001-01-01T00:00:00Z","name_a2s":"Uncletopia | Chicago | 1 | All Maps","protocol":17,"map":"pl_borneo","folder":"tf","game":"Team Fortress","app_id":440,"player_count":0,"max_players":24,"Bots":0,"server_type":"Dedicated","server_os":"Linux","password":true,"vac":true,"version":"7932396","steam_id":85568392924469984,"keywords":["nocrits","nodmgspread","payload","uncletopia"],"game_id":440,"stv_port":27016,"stv_name":"Uncletopia | Chicago | 1 | All Maps | STV","players":null},{"server_id":106,"name":"Uncletopia | Chicago | 2 | All Maps","name_short":"chi-2","host":"chi-1.us.uncletopia.com","port":27025,"enabled":true,"region":"us-central","cc":"us","latitude":41.881832,"longitude":-87.62318,"reserved":0,"last_update":"0001-01-01T00:00:00Z","name_a2s":"Uncletopia | Chicago | 2 | All Maps","protocol":17,"map":"cp_dustbowl","folder":"tf","game":"Team Fortress","app_id":440,"player_count":0,"max_players":24,"Bots":0,"server_type":"Dedicated","server_os":"Linux","password":true,"vac":true,"version":"7932396","steam_id":85568392924469985,"keywords":["cp","nocrits","nodmgspread","uncletopia"],"game_id":440,"stv_port":27026,"stv_name":"Uncletopia | Chicago | 2 | All Maps | STV","players":null},{"server_id":402,"name":"Uncletopia | Chicago | 3 | All Maps","name_short":"chi-3","host":"chi-1.us.uncletopia.com","port":27035,"enabled":true,"region":"us-central","cc":"us","latitude":41.881832,"longitude":-87.62318,"reserved":0,"last_update":"0001-01-01T00:00:00Z","name_a2s":"Uncletopia | Chicago | 3 | All Maps","protocol":17,"map":"pl_badwater","folder":"tf","game":"Team Fortress","app_id":440,"player_count":0,"max_players":24,"Bots":0,"server_type":"Dedicated","server_os":"Linux","password":true,"vac":true,"version":"7932396","steam_id":85568392924515191,"keywords":["nocrits","nodmgspread","payload","uncletopia"],"game_id":440,"stv_port":27036,"stv_name":"Uncletopia | Chicago | 3 | All Maps | STV","players":null},{"server_id":403,"name":"Uncletopia | Chicago | 4 | All Maps","name_short":"chi-4","host":"chi-1.us.uncletopia.com","port":27045,"enabled":true,"region":"us-central","cc":"us","latitude":41.881832,"longitude":-87.62318,"reserved":0,"last_update":"0001-01-01T00:00:00Z","name_a2s":"Uncletopia | Chicago | 4 | All Maps","protocol":17,"map":"cp_dustbowl","folder":"tf","game":"Team Fortress","app_id":440,"player_count":22,"max_players":24,"Bots":0,"server_type":"Dedicated","server_os":"Linux","password":true,"vac":true,"version":"7932396","steam_id":85568392924515193,"keywords":["cp","nocrits","nodmgspread","uncletopia"],"game_id":440,"stv_port":27046,"stv_name":"Uncletopia | Chicago | 4 | All Maps | STV","players":[{"user_id":675,"name":"Satan-2","steam_id":76561199231742764,"connected_time":1090000000000,"state":"active","ping":70},{"user_id":672,"name":"Ginsai","steam_id":76561198107797443,"connected_time":1118000000000,"state":"active","ping":78},{"user_id":673,"name":"lazyhead","steam_id":76561198044358804,"connected_time":1118000000000,"state":"active","ping":56},{"user_id":681,"name":"Raphael","steam_id":76561198101425586,"connected_time":804000000000,"state":"active","ping":86},{"user_id":646,"name":"daemon","steam_id":76561198001541433,"connected_time":3530000000000,"state":"active","ping":59},{"user_id":676,"name":"NSTHBOI","steam_id":76561199254028301,"connected_time":954000000000,"state":"active","ping":149},{"user_id":680,"name":"Unwavering Flavor","steam_id":76561198053306065,"connected_time":818000000000,"state":"active","ping":72},{"user_id":678,"name":"filipinofriday","steam_id":76561198441805004,"connected_time":887000000000,"state":"active","ping":97},{"user_id":669,"name":"ihate you","steam_id":76561199428944551,"connected_time":1584000000000,"state":"active","ping":170},{"user_id":688,"name":"vyx","steam_id":76561198037205391,"connected_time":241000000000,"state":"active","ping":55},{"user_id":689,"name":"mashallah","steam_id":76561198075111427,"connected_time":86000000000,"state":"active","ping":67},{"user_id":679,"name":"Taterboy07","steam_id":76561199236691088,"connected_time":879000000000,"state":"active","ping":69},{"user_id":690,"name":"five-star viet nam","steam_id":76561198309823950,"connected_time":75000000000,"state":"active","ping":78},{"user_id":683,"name":"Shaunt","steam_id":76561198171551057,"connected_time":721000000000,"state":"active","ping":51},{"user_id":686,"name":"ScaryTree","steam_id":76561199384362833,"connected_time":596000000000,"state":"active","ping":141},{"user_id":660,"name":"ArkGotLazy","steam_id":76561199058318407,"connected_time":2572000000000,"state":"active","ping":81},{"user_id":684,"name":"HateIsOnSale","steam_id":76561199060968518,"connected_time":708000000000,"state":"active","ping":83},{"user_id":641,"name":"John \"Lincoln\" Xina","steam_id":76561198114939272,"connected_time":3988000000000,"state":"active","ping":90},{"user_id":661,"name":"Mank","steam_id":76561198189421005,"connected_time":2527000000000,"state":"active","ping":48},{"user_id":643,"name":"A mischievous Femboy","steam_id":76561198248239796,"connected_time":3889000000000,"state":"active","ping":150},{"user_id":685,"name":"Nobody","steam_id":76561198085808754,"connected_time":673000000000,"state":"active","ping":89},{"user_id":687,"name":"The Fiend","steam_id":76561199229771413,"connected_time":275000000000,"state":"active","ping":85}]},{"server_id":36,"name":"Uncletopia | Chicago | 5 | All Maps","name_short":"chi-5","host":"chi-2.us.uncletopia.com","port":27015,"enabled":true,"region":"us-central","cc":"us","latitude":41.881832,"longitude":-87.62318,"reserved":0,"last_update":"0001-01-01T00:00:00Z","name_a2s":"Uncletopia | Chicago | 5 | All Maps","protocol":17,"map":"cp_sunshine","folder":"tf","game":"Team Fortress","app_id":440,"player_count":0,"max_players":24,"Bots":0,"server_type":"Dedicated","server_os":"Linux","password":true,"vac":true,"version":"7932396","steam_id":85568392924866362,"keywords":["cp","nocrits","nodmgspread","uncletopia"],"game_id":440,"stv_port":27016,"stv_name":"Uncletopia | Chicago | 5 | All Maps | STV","players":null},{"server_id":37,"name":"Uncletopia | Chicago | 6 | All Maps","name_short":"chi-6","host":"chi-2.us.uncletopia.com","port":27025,"enabled":true,"region":"us-central","cc":"us","latitude":41.881832,"longitude":-87.62318,"reserved":0,"last_update":"0001-01-01T00:00:00Z","name_a2s":"Uncletopia | Chicago | 6 | All Maps","protocol":17,"map":"koth_highpass","folder":"tf","game":"Team Fortress","app_id":440,"player_count":0,"max_players":24,"Bots":0,"server_type":"Dedicated","server_os":"Linux","password":true,"vac":true,"version":"7932396","steam_id":85568392924866363,"keywords":["cp","nocrits","nodmgspread","uncletopia"],"game_id":440,"stv_port":27026,"stv_name":"Uncletopia | Chicago | 6 | All Maps | STV","players":null},{"server_id":38,"name":"Uncletopia | Chicago | 7 | Stopwatch Beta","name_short":"chi-7","host":"chi-2.us.uncletopia.com","port":27035,"enabled":true,"region":"us-central","cc":"us","latitude":41.881832,"longitude":-87.62318,"reserved":0,"last_update":"0001-01-01T00:00:00Z","name_a2s":"Uncletopia | Chicago | 7 | Stopwatch Beta","protocol":17,"map":"pl_borneo","folder":"tf","game":"Team Fortress","app_id":440,"player_count":0,"max_players":24,"Bots":0,"server_type":"Dedicated","server_os":"Linux","password":true,"vac":true,"version":"7932396","steam_id":85568392924866364,"keywords":["nocrits","nodmgspread","payload","uncletopia"],"game_id":440,"stv_port":27036,"stv_name":"Uncletopia | Chicago | 7 | Stopwatch Beta | STV","players":null},{"server_id":39,"name":"Uncletopia | Chicago | 8 | Community","name_short":"chi-8","host":"chi-2.us.uncletopia.com","port":27045,"enabled":true,"region":"us-central","cc":"us","latitude":41.881832,"longitude":-87.62318,"reserved":0,"last_update":"0001-01-01T00:00:00Z","name_a2s":"Uncletopia | Chicago | 8 | Community","protocol":17,"map":"workshop/pl_emerge_rc2.ugc888027758","folder":"tf","game":"Team Fortress","app_id":440,"player_count":0,"max_players":24,"Bots":0,"server_type":"Dedicated","server_os":"Linux","password":true,"vac":true,"version":"7932396","steam_id":85568392924866365,"keywords":["nocrits","nodmgspread","payload","uncletopia"],"game_id":440,"stv_port":27046,"stv_name":"Uncletopia | Chicago | 8 | Community | STV","players":null},{"server_id":8,"name":"Uncletopia | Dallas | 1 | All Maps","name_short":"dal-1","host":"dal-1.us.uncletopia.com","port":27015,"enabled":true,"region":"us-central","cc":"us","latitude":32.779167,"longitude":-96.80889,"reserved":0,"last_update":"0001-01-01T00:00:00Z","name_a2s":"Uncletopia | Dallas | 1 | All Maps","protocol":17,"map":"koth_cascade","folder":"tf","game":"Team Fortress","app_id":440,"player_count":0,"max_players":24,"Bots":0,"server_type":"Dedicated","server_os":"Linux","password":true,"vac":true,"version":"7932396","steam_id":85568392924469986,"keywords":["cp","nocrits","nodmgspread","uncletopia"],"game_id":440,"stv_port":27016,"stv_name":"Uncletopia | Dallas | 1 | All Maps | STV","players":null},{"server_id":108,"name":"Uncletopia | Dallas | 2 | All Maps","name_short":"dal-2","host":"dal-1.us.uncletopia.com","port":27025,"enabled":true,"region":"us-central","cc":"us","latitude":32.779167,"longitude":-96.80889,"reserved":0,"last_update":"0001-01-01T00:00:00Z","name_a2s":"Uncletopia | Dallas | 2 | All Maps","protocol":17,"map":"cp_egypt_final","folder":"tf","game":"Team Fortress","app_id":440,"player_count":19,"max_players":24,"Bots":0,"server_type":"Dedicated","server_os":"Linux","password":true,"vac":true,"version":"7932396","steam_id":85568392924469988,"keywords":["cp","nocrits","nodmgspread","uncletopia"],"game_id":440,"stv_port":27026,"stv_name":"Uncletopia | Dallas | 2 | All Maps | STV","players":[{"user_id":445,"name":"Clubs","steam_id":76561198271133942,"connected_time":3707000000000,"state":"active","ping":54},{"user_id":449,"name":"Saucy Boy","steam_id":76561198178332031,"connected_time":2753000000000,"state":"active","ping":97},{"user_id":467,"name":"BrainlezBrainiac","steam_id":76561199193942805,"connected_time":471000000000,"state":"active","ping":59},{"user_id":455,"name":"Dot.","steam_id":76561198149463984,"connected_time":2257000000000,"state":"active","ping":65},{"user_id":385,"name":"Rilshrink","steam_id":76561198202586792,"connected_time":9935000000000,"state":"active","ping":53},{"user_id":468,"name":"Post-It Paige","steam_id":76561198294059159,"connected_time":439000000000,"state":"active","ping":84},{"user_id":443,"name":"Batman","steam_id":76561199085516726,"connected_time":3793000000000,"state":"active","ping":62},{"user_id":469,"name":"goopgrabber","steam_id":76561199029951083,"connected_time":358000000000,"state":"active","ping":86},{"user_id":444,"name":"Contrasted Red","steam_id":76561198305271450,"connected_time":3789000000000,"state":"active","ping":60},{"user_id":392,"name":"Korporal_Kapuzen","steam_id":76561198281447704,"connected_time":8758000000000,"state":"active","ping":75},{"user_id":470,"name":"Shadowed Rogue","steam_id":76561198880498122,"connected_time":110000000000,"state":"active","ping":84},{"user_id":430,"name":"MONKE","steam_id":76561199211345801,"connected_time":5207000000000,"state":"active","ping":70},{"user_id":463,"name":"Bean Marrow","steam_id":76561198116650223,"connected_time":1630000000000,"state":"active","ping":63},{"user_id":454,"name":"FI LO","steam_id":76561198976530881,"connected_time":2320000000000,"state":"active","ping":71},{"user_id":464,"name":"Provocator","steam_id":76561197961830410,"connected_time":1358000000000,"state":"active","ping":88},{"user_id":458,"name":"BaconBacon","steam_id":76561198205211495,"connected_time":2221000000000,"state":"active","ping":56},{"user_id":433,"name":"JimPlatinum","steam_id":76561198950714198,"connected_time":4907000000000,"state":"active","ping":72},{"user_id":426,"name":"Khaicchi","steam_id":76561198104454754,"connected_time":5248000000000,"state":"active","ping":178},{"user_id":461,"name":"rontu","steam_id":76561199072955534,"connected_time":2088000000000,"state":"active","ping":73}]},{"server_id":5,"name":"Uncletopia | Frankfurt | 1 | All Maps","name_short":"frk-1","host":"frk-1.de.uncletopia.com","port":27015,"enabled":true,"region":"eu","cc":"de","latitude":50.110924,"longitude":8.682127,"reserved":0,"last_update":"0001-01-01T00:00:00Z","name_a2s":"Uncletopia | Frankfurt | 1 | All Maps","protocol":17,"map":"pl_borneo","folder":"tf","game":"Team Fortress","app_id":440,"player_count":0,"max_players":24,"Bots":0,"server_type":"Dedicated","server_os":"Linux","password":true,"vac":true,"version":"7932396","steam_id":85568392924469989,"keywords":["nocrits","nodmgspread","payload","uncletopia"],"game_id":440,"stv_port":27016,"stv_name":"Uncletopia | Frankfurt | 1 | All Maps | STV","players":null},{"server_id":110,"name":"Uncletopia | Frankfurt | 2 | All Maps","name_short":"frk-2","host":"frk-1.de.uncletopia.com","port":27025,"enabled":true,"region":"eu","cc":"de","latitude":50.110924,"longitude":8.682127,"reserved":0,"last_update":"0001-01-01T00:00:00Z","name_a2s":"Uncletopia | Frankfurt | 2 | All Maps","protocol":17,"map":"pl_swiftwater_final1","folder":"tf","game":"Team Fortress","app_id":440,"player_count":24,"max_players":24,"Bots":0,"server_type":"Dedicated","server_os":"Linux","password":true,"vac":true,"version":"7932396","steam_id":85568392924469990,"keywords":["nocrits","nodmgspread","payload","uncletopia"],"game_id":440,"stv_port":27026,"stv_name":"Uncletopia | Frankfurt | 2 | All Maps | STV","players":[{"user_id":6,"name":"Klifton","steam_id":76561198803743443,"connected_time":1178000000000,"state":"active","ping":75},{"user_id":7,"name":"The ADHD GUY","steam_id":76561198383864449,"connected_time":1095000000000,"state":"active","ping":73},{"user_id":8,"name":"stunzi","steam_id":76561198931091173,"connected_time":1079000000000,"state":"active","ping":155},{"user_id":9,"name":"beanie_snail","steam_id":76561199111476299,"connected_time":999000000000,"state":"active","ping":91},{"user_id":11,"name":"ZachyTurbo2010","steam_id":76561198341684327,"connected_time":681000000000,"state":"active","ping":73},{"user_id":12,"name":"strideΔ","steam_id":76561199007826093,"connected_time":602000000000,"state":"active","ping":80},{"user_id":13,"name":"tallen","steam_id":76561198061708595,"connected_time":601000000000,"state":"active","ping":77},{"user_id":14,"name":"Bayoyo","steam_id":76561199069591774,"connected_time":577000000000,"state":"active","ping":72},{"user_id":15,"name":"Crimson","steam_id":76561198154413600,"connected_time":540000000000,"state":"active","ping":68},{"user_id":16,"name":"Dragonfly","steam_id":76561198154350231,"connected_time":539000000000,"state":"active","ping":73},{"user_id":17,"name":"Zippy","steam_id":76561198279229422,"connected_time":499000000000,"state":"active","ping":168},{"user_id":18,"name":"Delab Le Fou","steam_id":76561198846356572,"connected_time":490000000000,"state":"active","ping":84},{"user_id":19,"name":"Wonkglorg","steam_id":76561198302060474,"connected_time":481000000000,"state":"active","ping":63},{"user_id":20,"name":"Arecibo","steam_id":76561198014359615,"connected_time":449000000000,"state":"active","ping":64},{"user_id":21,"name":"mikeoxmall","steam_id":76561198263233108,"connected_time":391000000000,"state":"active","ping":89},{"user_id":33,"name":"Purpurea","steam_id":76561198075376419,"connected_time":18000000000,"state":"spawning","ping":103},{"user_id":24,"name":"êdu","steam_id":76561198065355094,"connected_time":383000000000,"state":"active","ping":73},{"user_id":25,"name":"Mr. K2-Crabs","steam_id":76561199069296392,"connected_time":377000000000,"state":"active","ping":73},{"user_id":26,"name":"Dread","steam_id":76561198075420704,"connected_time":331000000000,"state":"active","ping":71},{"user_id":34,"name":"The Daniella","steam_id":76561198023075547,"connected_time":14000000000,"state":"active","ping":58},{"user_id":31,"name":"goblinninja110","steam_id":76561198269159354,"connected_time":228000000000,"state":"active","ping":70},{"user_id":29,"name":"black_Neko","steam_id":76561198090810084,"connected_time":284000000000,"state":"active","ping":50},{"user_id":30,"name":"mp1mp2mp3","steam_id":76561198088967665,"connected_time":259000000000,"state":"active","ping":120},{"user_id":32,"name":"Na'vi Misato (by popular demand","steam_id":76561198130860698,"connected_time":153000000000,"state":"active","ping":63}]},{"server_id":308,"name":"Uncletopia | Frankfurt | 3 | All Maps","name_short":"frk-3","host":"frk-1.de.uncletopia.com","port":27035,"enabled":true,"region":"eu","cc":"de","latitude":50.110924,"longitude":8.682127,"reserved":0,"last_update":"0001-01-01T00:00:00Z","name_a2s":"Uncletopia | Frankfurt | 3 | All Maps","protocol":17,"map":"pl_swiftwater_final1","folder":"tf","game":"Team Fortress","app_id":440,"player_count":0,"max_players":24,"Bots":0,"server_type":"Dedicated","server_os":"Linux","password":true,"vac":true,"version":"7932396","steam_id":85568392924504274,"keywords":["nocrits","nodmgspread","payload","uncletopia"],"game_id":440,"stv_port":27036,"stv_name":"Uncletopia | Frankfurt | 3 | All Maps | STV","players":null},{"server_id":309,"name":"Uncletopia | Frankfurt | 4 | All Maps","name_short":"frk-4","host":"frk-1.de.uncletopia.com","port":27045,"enabled":true,"region":"eu","cc":"de","latitude":50.110924,"longitude":8.682127,"reserved":0,"last_update":"0001-01-01T00:00:00Z","name_a2s":"Uncletopia | Frankfurt | 4 | All Maps","protocol":17,"map":"pl_pier","folder":"tf","game":"Team Fortress","app_id":440,"player_count":23,"max_players":24,"Bots":0,"server_type":"Dedicated","server_os":"Linux","password":true,"vac":true,"version":"7932396","steam_id":85568392924504275,"keywords":["nocrits","nodmgspread","payload","uncletopia"],"game_id":440,"stv_port":27046,"stv_name":"Uncletopia | Frankfurt | 4 | All Maps | STV","players":[{"user_id":71,"name":"KNNTX","steam_id":76561198161313074,"connected_time":1981000000000,"state":"active","ping":105},{"user_id":94,"name":"Peter","steam_id":76561198169169881,"connected_time":681000000000,"state":"active","ping":61},{"user_id":69,"name":"njits23","steam_id":76561198031194977,"connected_time":2298000000000,"state":"active","ping":55},{"user_id":82,"name":"NeFeedy","steam_id":76561198052912485,"connected_time":1647000000000,"state":"active","ping":125},{"user_id":97,"name":"Fedm","steam_id":76561199020090514,"connected_time":338000000000,"state":"active","ping":80},{"user_id":65,"name":"Zelascelar","steam_id":76561197974628666,"connected_time":2551000000000,"state":"active","ping":92},{"user_id":76,"name":"ジェネリク・タイガー","steam_id":76561197960283225,"connected_time":1713000000000,"state":"active","ping":167},{"user_id":89,"name":"Solid","steam_id":76561198357049292,"connected_time":1342000000000,"state":"active","ping":87},{"user_id":48,"name":"Itai","steam_id":76561198804555329,"connected_time":3594000000000,"state":"active","ping":112},{"user_id":34,"name":"XPullaHiiri","steam_id":76561198031652375,"connected_time":4591000000000,"state":"active","ping":89},{"user_id":80,"name":"TylowStar","steam_id":76561198357107806,"connected_time":1691000000000,"state":"active","ping":62},{"user_id":92,"name":"Dash","steam_id":76561198041329823,"connected_time":1176000000000,"state":"active","ping":80},{"user_id":25,"name":"kornetov.vitalya","steam_id":76561199286034833,"connected_time":4772000000000,"state":"active","ping":91},{"user_id":26,"name":"Therapissed","steam_id":76561198966634987,"connected_time":4759000000000,"state":"active","ping":115},{"user_id":90,"name":"󠀡󠀡","steam_id":76561198125381319,"connected_time":1267000000000,"state":"active","ping":54},{"user_id":88,"name":"。。。ミ(ﻭ \u003e‿‿˂)୨","steam_id":76561198254322995,"connected_time":1484000000000,"state":"active","ping":79},{"user_id":93,"name":"Unseen","steam_id":76561198154670360,"connected_time":948000000000,"state":"active","ping":80},{"user_id":84,"name":"Deleteanal","steam_id":76561199197830829,"connected_time":1630000000000,"state":"active","ping":99},{"user_id":91,"name":"Helon","steam_id":76561198050761682,"connected_time":1187000000000,"state":"active","ping":46},{"user_id":83,"name":"Hercules","steam_id":76561198041164170,"connected_time":1646000000000,"state":"active","ping":56},{"user_id":96,"name":"「◆Raku• 」","steam_id":76561198059283183,"connected_time":547000000000,"state":"active","ping":77},{"user_id":63,"name":"Marcos","steam_id":76561198798925721,"connected_time":2812000000000,"state":"active","ping":75},{"user_id":95,"name":"glow","steam_id":76561198086654069,"connected_time":674000000000,"state":"active","ping":66}]},{"server_id":310,"name":"Uncletopia | Frankfurt | 5 | All Maps","name_short":"frk-5","host":"frk-1.de.uncletopia.com","port":27055,"enabled":true,"region":"eu","cc":"de","latitude":50.110924,"longitude":8.682127,"reserved":0,"last_update":"0001-01-01T00:00:00Z","name_a2s":"Uncletopia | Frankfurt | 5 | All Maps","protocol":17,"map":"pl_barnblitz","folder":"tf","game":"Team Fortress","app_id":440,"player_count":24,"max_players":24,"Bots":0,"server_type":"Dedicated","server_os":"Linux","password":true,"vac":true,"version":"7932396","steam_id":85568392924504277,"keywords":["nocrits","nodmgspread","payload","uncletopia"],"game_id":440,"stv_port":27056,"stv_name":"Uncletopia | Frankfurt | 5 | All Maps | STV","players":[{"user_id":107,"name":"kreeekz","steam_id":76561198014431602,"connected_time":3214000000000,"state":"active","ping":61},{"user_id":139,"name":"majo84321","steam_id":76561198071336437,"connected_time":1141000000000,"state":"active","ping":63},{"user_id":140,"name":"Germanium_Ge","steam_id":76561198130561775,"connected_time":1105000000000,"state":"active","ping":60},{"user_id":126,"name":"WATANG!","steam_id":76561198040478926,"connected_time":2018000000000,"state":"active","ping":64},{"user_id":88,"name":"Spinya","steam_id":76561198086653667,"connected_time":4602000000000,"state":"active","ping":64},{"user_id":100,"name":"Deacon Dracul","steam_id":76561198046880663,"connected_time":3748000000000,"state":"active","ping":95},{"user_id":141,"name":"Lime","steam_id":76561198823445049,"connected_time":1098000000000,"state":"active","ping":63},{"user_id":149,"name":"skubri","steam_id":76561198044361926,"connected_time":628000000000,"state":"active","ping":80},{"user_id":151,"name":"Mal","steam_id":76561198262337669,"connected_time":604000000000,"state":"active","ping":70},{"user_id":108,"name":"KUMI","steam_id":76561198089207719,"connected_time":3132000000000,"state":"active","ping":84},{"user_id":146,"name":"HUGO","steam_id":76561198317134996,"connected_time":776000000000,"state":"active","ping":75},{"user_id":114,"name":"Max Power","steam_id":76561198019269089,"connected_time":2539000000000,"state":"active","ping":48},{"user_id":123,"name":"The Wolf Leader","steam_id":76561198038007462,"connected_time":2045000000000,"state":"active","ping":72},{"user_id":122,"name":"Koli","steam_id":76561197992428783,"connected_time":2114000000000,"state":"active","ping":47},{"user_id":130,"name":"snoop","steam_id":76561198015669667,"connected_time":1803000000000,"state":"active","ping":87},{"user_id":147,"name":"Cursed","steam_id":76561198381491880,"connected_time":740000000000,"state":"active","ping":96},{"user_id":120,"name":"skill based","steam_id":76561198341178432,"connected_time":2356000000000,"state":"active","ping":60},{"user_id":128,"name":"Consider Phlebas","steam_id":76561197980736364,"connected_time":1943000000000,"state":"active","ping":76},{"user_id":96,"name":"night.s","steam_id":76561198326287823,"connected_time":4132000000000,"state":"active","ping":75},{"user_id":138,"name":"swueuws","steam_id":76561198020716743,"connected_time":1239000000000,"state":"active","ping":50},{"user_id":153,"name":"Trevis","steam_id":76561198114516101,"connected_time":356000000000,"state":"active","ping":61},{"user_id":154,"name":"cat","steam_id":76561198832231975,"connected_time":343000000000,"state":"active","ping":90},{"user_id":152,"name":"LiptonIceTea","steam_id":76561198042418582,"connected_time":433000000000,"state":"active","ping":85},{"user_id":155,"name":"XuMuK","steam_id":76561198102102340,"connected_time":32000000000,"state":"active","ping":68}]},{"server_id":311,"name":"Uncletopia | Frankfurt | 6 | All Maps","name_short":"frk-6","host":"frk-1.de.uncletopia.com","port":27065,"enabled":true,"region":"eu","cc":"de","latitude":50.110924,"longitude":8.682127,"reserved":0,"last_update":"0001-01-01T00:00:00Z","name_a2s":"Uncletopia | Frankfurt | 6 | All Maps","protocol":17,"map":"koth_viaduct","folder":"tf","game":"Team Fortress","app_id":440,"player_count":3,"max_players":24,"Bots":0,"server_type":"Dedicated","server_os":"Linux","password":true,"vac":true,"version":"7932396","steam_id":85568392924504278,"keywords":["cp","nocrits","nodmgspread","uncletopia"],"game_id":440,"stv_port":27066,"stv_name":"Uncletopia | Frankfurt | 6 | All Maps | STV","players":[{"user_id":3,"name":"PopxCpe","steam_id":76561198365405733,"connected_time":159000000000,"state":"active","ping":110},{"user_id":7,"name":"SnipeX_PC","steam_id":76561199149331583,"connected_time":100000000000,"state":"active","ping":99},{"user_id":8,"name":"Jeerven","steam_id":76561198259189841,"connected_time":7000000000,"state":"spawning","ping":58}]},{"server_id":23,"name":"Uncletopia | Frankfurt | 7 | Stopwatch Beta","name_short":"frk-7","host":"frk-1.de.uncletopia.com","port":27075,"enabled":true,"region":"eu","cc":"de","latitude":50.110924,"longitude":8.682127,"reserved":0,"last_update":"0001-01-01T00:00:00Z","name_a2s":"Uncletopia | Frankfurt | 7 | Stopwatch Beta","protocol":17,"map":"pl_snowycoast","folder":"tf","game":"Team Fortress","app_id":440,"player_count":0,"max_players":24,"Bots":0,"server_type":"Dedicated","server_os":"Linux","password":true,"vac":true,"version":"7932396","steam_id":85568392924742827,"keywords":["nocrits","nodmgspread","payload","uncletopia"],"game_id":440,"stv_port":27076,"stv_name":"Uncletopia | Frankfurt | 7 | Stopwatch Beta | STV","players":null},{"server_id":24,"name":"Uncletopia | Frankfurt | 8 | Community","name_short":"frk-8","host":"frk-1.de.uncletopia.com","port":27085,"enabled":true,"region":"eu","cc":"de","latitude":50.110924,"longitude":8.682127,"reserved":0,"last_update":"0001-01-01T00:00:00Z","name_a2s":"Uncletopia | Frankfurt | 8 | Community","protocol":17,"map":"workshop/koth_trenchfoot_b1a.ugc731436616","folder":"tf","game":"Team Fortress","app_id":440,"player_count":0,"max_players":24,"Bots":0,"server_type":"Dedicated","server_os":"Linux","password":true,"vac":true,"version":"7932396","steam_id":85568392924742828,"keywords":["cp","nocrits","nodmgspread","uncletopia"],"game_id":440,"stv_port":27086,"stv_name":"Uncletopia | Frankfurt | 8 | Community | STV","players":null},{"server_id":202,"name":"Uncletopia | Hong Kong | 1 | All Maps","name_short":"hgk-1","host":"hgk-1.hk.uncletopia.com","port":27015,"enabled":true,"region":"asia","cc":"hk","latitude":22.302711,"longitude":114.177216,"reserved":0,"last_update":"0001-01-01T00:00:00Z","name_a2s":"Uncletopia | Hong Kong | 1 | All Maps","protocol":17,"map":"pl_pier","folder":"tf","game":"Team Fortress","app_id":440,"player_count":25,"max_players":24,"Bots":0,"server_type":"Dedicated","server_os":"Linux","password":true,"vac":true,"version":"7932396","steam_id":85568392924494504,"keywords":["nocrits","nodmgspread","payload","uncletopia"],"game_id":440,"stv_port":27016,"stv_name":"Uncletopia | Hong Kong | 1 | All Maps | STV","players":[{"user_id":267,"name":"Milf (The fan O'Milk)","steam_id":76561198213031155,"connected_time":3788000000000,"state":"active","ping":92},{"user_id":297,"name":"Smudge","steam_id":76561198167863840,"connected_time":1250000000000,"state":"active","ping":75},{"user_id":306,"name":"AL3X1180","steam_id":76561198827005954,"connected_time":435000000000,"state":"active","ping":84},{"user_id":300,"name":"ObscuroLucem","steam_id":76561198875037943,"connected_time":675000000000,"state":"active","ping":88},{"user_id":313,"name":"lsf","steam_id":76561198095278714,"connected_time":112000000000,"state":"active","ping":32},{"user_id":287,"name":"vansire","steam_id":76561198996517121,"connected_time":1855000000000,"state":"active","ping":66},{"user_id":241,"name":"Kurtie","steam_id":76561198144737876,"connected_time":7127000000000,"state":"active","ping":70},{"user_id":298,"name":"AmaiToxic","steam_id":76561199122491157,"connected_time":1155000000000,"state":"active","ping":141},{"user_id":318,"name":"trcs","steam_id":76561198125946388,"connected_time":4000000000,"state":"spawning","ping":89},{"user_id":264,"name":"bird","steam_id":76561199480939609,"connected_time":4418000000000,"state":"active","ping":75},{"user_id":272,"name":"Samoyed","steam_id":76561198299150410,"connected_time":3665000000000,"state":"active","ping":71},{"user_id":308,"name":"Hunter A.I","steam_id":76561198004992946,"connected_time":405000000000,"state":"active","ping":85},{"user_id":271,"name":"Hay","steam_id":76561199438952901,"connected_time":3671000000000,"state":"active","ping":43},{"user_id":279,"name":"Piezapan","steam_id":76561198877700372,"connected_time":2574000000000,"state":"active","ping":114},{"user_id":251,"name":"Drutzhfer","steam_id":76561198299948446,"connected_time":6047000000000,"state":"active","ping":99},{"user_id":291,"name":"Corn_Archer","steam_id":76561199185044554,"connected_time":1591000000000,"state":"active","ping":115},{"user_id":273,"name":"쿠키","steam_id":76561197997220367,"connected_time":3487000000000,"state":"active","ping":43},{"user_id":292,"name":"Green","steam_id":76561198391718463,"connected_time":1588000000000,"state":"active","ping":55},{"user_id":261,"name":"nanau","steam_id":76561199166938276,"connected_time":5024000000000,"state":"active","ping":62},{"user_id":282,"name":"meowsh","steam_id":76561198060448954,"connected_time":2304000000000,"state":"active","ping":73},{"user_id":294,"name":"善良の墨","steam_id":76561199102754539,"connected_time":1465000000000,"state":"active","ping":86},{"user_id":296,"name":"junbi OK","steam_id":76561198116387218,"connected_time":1337000000000,"state":"active","ping":89},{"user_id":254,"name":"Wx","steam_id":76561199217780897,"connected_time":5935000000000,"state":"active","ping":144},{"user_id":278,"name":"the NYN mass producer","steam_id":76561198214192048,"connected_time":2797000000000,"state":"active","ping":89},{"user_id":317,"name":"23rd","steam_id":76561199014675406,"connected_time":15000000000,"state":"active","ping":135}]},{"server_id":1,"name":"Uncletopia | Los Angeles | 1 | All Maps","name_short":"lax-1","host":"lax-1.us.uncletopia.com","port":27015,"enabled":true,"region":"us-west","cc":"us","latitude":33.94279,"longitude":-118.41004,"reserved":0,"last_update":"0001-01-01T00:00:00Z","name_a2s":"Uncletopia | Los Angeles | 1 | All Maps","protocol":17,"map":"pl_frontier_final","folder":"tf","game":"Team Fortress","app_id":440,"player_count":24,"max_players":24,"Bots":0,"server_type":"Dedicated","server_os":"Linux","password":true,"vac":true,"version":"7932396","steam_id":85568392924469991,"keywords":["nocrits","nodmgspread","payload","uncletopia"],"game_id":440,"stv_port":27016,"stv_name":"Uncletopia | Los Angeles | 1 | All Maps | STV","players":[{"user_id":466,"name":"Big Boy Beni","steam_id":76561197995469460,"connected_time":6521000000000,"state":"active","ping":45},{"user_id":529,"name":"ACK","steam_id":76561198130390689,"connected_time":2106000000000,"state":"active","ping":68},{"user_id":523,"name":"Nolan","steam_id":76561198169648081,"connected_time":2775000000000,"state":"active","ping":96},{"user_id":507,"name":"[ØWQJØ]chubacaalatake","steam_id":76561198136201697,"connected_time":3889000000000,"state":"active","ping":85},{"user_id":540,"name":"CheeseCake488","steam_id":76561199407617942,"connected_time":959000000000,"state":"active","ping":78},{"user_id":548,"name":"..flop","steam_id":76561197989058876,"connected_time":216000000000,"state":"active","ping":73},{"user_id":544,"name":"jugg messiah","steam_id":76561198143132686,"connected_time":347000000000,"state":"active","ping":80},{"user_id":532,"name":"Peri","steam_id":76561198255311543,"connected_time":1810000000000,"state":"active","ping":122},{"user_id":488,"name":"Fred","steam_id":76561197983870604,"connected_time":5591000000000,"state":"active","ping":54},{"user_id":546,"name":"zoiboi","steam_id":76561198069598590,"connected_time":286000000000,"state":"active","ping":57},{"user_id":541,"name":"vuldrin","steam_id":76561198383695069,"connected_time":746000000000,"state":"active","ping":94},{"user_id":545,"name":"mjr","steam_id":76561198148301033,"connected_time":310000000000,"state":"active","ping":83},{"user_id":547,"name":"Tim","steam_id":76561198126844549,"connected_time":284000000000,"state":"active","ping":50},{"user_id":533,"name":"this nincompoop so half-witted","steam_id":76561198187238110,"connected_time":1770000000000,"state":"active","ping":123},{"user_id":480,"name":"Talulah","steam_id":76561198348354629,"connected_time":5914000000000,"state":"active","ping":49},{"user_id":515,"name":"nakear","steam_id":76561198215437797,"connected_time":3458000000000,"state":"active","ping":62},{"user_id":518,"name":"you of the dark","steam_id":76561198798667624,"connected_time":3323000000000,"state":"active","ping":75},{"user_id":534,"name":"Yummy Kabobz","steam_id":76561198067661705,"connected_time":1739000000000,"state":"active","ping":104},{"user_id":549,"name":"kanurkin","steam_id":76561197999718740,"connected_time":125000000000,"state":"active","ping":462},{"user_id":527,"name":"THE FLUMPSTER","steam_id":76561198060911025,"connected_time":2327000000000,"state":"active","ping":102},{"user_id":505,"name":"Deluxe_Taco34","steam_id":76561199037653437,"connected_time":3951000000000,"state":"active","ping":149},{"user_id":536,"name":"❤[S'more]❤","steam_id":76561198817361963,"connected_time":1366000000000,"state":"active","ping":73},{"user_id":550,"name":"Faefanger","steam_id":76561198201871002,"connected_time":120000000000,"state":"active","ping":87},{"user_id":422,"name":"Born_In_Xixax","steam_id":76561197960464479,"connected_time":10356000000000,"state":"active","ping":92}]},{"server_id":112,"name":"Uncletopia | Los Angeles | 2 | All Maps","name_short":"lax-2","host":"lax-1.us.uncletopia.com","port":27025,"enabled":true,"region":"us-west","cc":"us","latitude":33.94279,"longitude":-118.41004,"reserved":0,"last_update":"0001-01-01T00:00:00Z","name_a2s":"Uncletopia | Los Angeles | 2 | All Maps","protocol":17,"map":"pl_snowycoast","folder":"tf","game":"Team Fortress","app_id":440,"player_count":0,"max_players":24,"Bots":0,"server_type":"Dedicated","server_os":"Linux","password":true,"vac":true,"version":"7932396","steam_id":85568392924469992,"keywords":["nocrits","nodmgspread","payload","uncletopia"],"game_id":440,"stv_port":27026,"stv_name":"Uncletopia | Los Angeles | 2 | All Maps | STV","players":null},{"server_id":324,"name":"Uncletopia | Los Angeles | 3 | All Maps","name_short":"lax-3","host":"lax-1.us.uncletopia.com","port":27035,"enabled":true,"region":"us-west","cc":"us","latitude":33.94279,"longitude":-118.41004,"reserved":0,"last_update":"0001-01-01T00:00:00Z","name_a2s":"Uncletopia | Los Angeles | 3 | All Maps","protocol":17,"map":"koth_viaduct","folder":"tf","game":"Team Fortress","app_id":440,"player_count":0,"max_players":24,"Bots":0,"server_type":"Dedicated","server_os":"Linux","password":true,"vac":true,"version":"7932396","steam_id":85568392924510198,"keywords":["cp","nocrits","nodmgspread","uncletopia"],"game_id":440,"stv_port":27036,"stv_name":"Uncletopia | Los Angeles | 3 | All Maps | STV","players":null},{"server_id":25,"name":"Uncletopia | Los Angeles | 4 | Stopwatch Beta","name_short":"lax-4","host":"lax-1.us.uncletopia.com","port":27045,"enabled":true,"region":"us-west","cc":"us","latitude":33.94279,"longitude":-118.41004,"reserved":0,"last_update":"0001-01-01T00:00:00Z","name_a2s":"Uncletopia | Los Angeles | 4 | Stopwatch Beta","protocol":17,"map":"workshop/koth_product_final.ugc454272353","folder":"tf","game":"Team Fortress","app_id":440,"player_count":0,"max_players":24,"Bots":0,"server_type":"Dedicated","server_os":"Linux","password":true,"vac":true,"version":"7932396","steam_id":85568392924510199,"keywords":["cp","nocrits","nodmgspread","uncletopia"],"game_id":440,"stv_port":27046,"stv_name":"Uncletopia | Los Angeles | 4 | Stopwatch Beta | STV","players":null},{"server_id":11,"name":"Uncletopia | London | 1 | All Maps","name_short":"lon-1","host":"lon-1.uk.uncletopia.com","port":27015,"enabled":true,"region":"eu","cc":"gb","latitude":51.509865,"longitude":-0.118092,"reserved":0,"last_update":"0001-01-01T00:00:00Z","name_a2s":"Uncletopia | London | 1 | All Maps","protocol":17,"map":"pl_borneo","folder":"tf","game":"Team Fortress","app_id":440,"player_count":24,"max_players":24,"Bots":0,"server_type":"Dedicated","server_os":"Linux","password":true,"vac":true,"version":"7932396","steam_id":85568392924367362,"keywords":["nocrits","nodmgspread","payload","uncletopia"],"game_id":440,"stv_port":27016,"stv_name":"Uncletopia | London | 1 | All Maps | STV","players":[{"user_id":205,"name":"wouris","steam_id":76561198876188003,"connected_time":46000000000,"state":"active","ping":60},{"user_id":191,"name":"LegoBoy","steam_id":76561197983095579,"connected_time":822000000000,"state":"active","ping":83},{"user_id":194,"name":"GMsU | DaLuigi","steam_id":76561198054486188,"connected_time":764000000000,"state":"active","ping":47},{"user_id":192,"name":"Foly","steam_id":76561198379383694,"connected_time":800000000000,"state":"active","ping":62},{"user_id":174,"name":"Silverstorm","steam_id":76561198118175267,"connected_time":2385000000000,"state":"active","ping":72},{"user_id":203,"name":"Steve Obi Wan Ben Larry Kenobi","steam_id":76561199154188122,"connected_time":165000000000,"state":"active","ping":140},{"user_id":165,"name":"Peanut","steam_id":76561198018865486,"connected_time":3048000000000,"state":"active","ping":67},{"user_id":187,"name":"jt7","steam_id":76561198073655162,"connected_time":1325000000000,"state":"active","ping":81},{"user_id":201,"name":"Pawoss","steam_id":76561198050416391,"connected_time":330000000000,"state":"active","ping":103},{"user_id":176,"name":"Dr.Livesey","steam_id":76561198405914700,"connected_time":2373000000000,"state":"active","ping":78},{"user_id":177,"name":"generic alias","steam_id":76561198271607226,"connected_time":2341000000000,"state":"active","ping":84},{"user_id":178,"name":"Captain Haddock","steam_id":76561199065597989,"connected_time":2311000000000,"state":"active","ping":87},{"user_id":198,"name":"MeBandae","steam_id":76561198910770432,"connected_time":572000000000,"state":"active","ping":69},{"user_id":207,"name":"Мамут_рахал256","steam_id":76561198129314304,"connected_time":0,"state":"connecting","ping":0},{"user_id":189,"name":"AWildTamim","steam_id":76561198048060652,"connected_time":1234000000000,"state":"active","ping":42},{"user_id":195,"name":"GMsU | Rebikas","steam_id":76561198077053764,"connected_time":761000000000,"state":"active","ping":52},{"user_id":140,"name":"pitagora","steam_id":76561198402335041,"connected_time":5301000000000,"state":"active","ping":69},{"user_id":199,"name":"CINE191","steam_id":76561198182777486,"connected_time":559000000000,"state":"active","ping":69},{"user_id":182,"name":"Victor","steam_id":76561198848984975,"connected_time":2002000000000,"state":"active","ping":155},{"user_id":206,"name":"Andrea","steam_id":76561199487380678,"connected_time":5000000000,"state":"spawning","ping":77},{"user_id":197,"name":"Maybe_Stunner","steam_id":76561199085822219,"connected_time":659000000000,"state":"active","ping":78},{"user_id":188,"name":"Emiri Uchi","steam_id":76561198119475305,"connected_time":1290000000000,"state":"active","ping":73},{"user_id":167,"name":"unconditional love","steam_id":76561199026097466,"connected_time":2864000000000,"state":"active","ping":88},{"user_id":130,"name":"Remi","steam_id":76561198860304357,"connected_time":5795000000000,"state":"active","ping":105}]},{"server_id":114,"name":"Uncletopia | London | 2 | All Maps","name_short":"lon-2","host":"lon-1.uk.uncletopia.com","port":27025,"enabled":true,"region":"eu","cc":"gb","latitude":51.509865,"longitude":-0.118092,"reserved":0,"last_update":"0001-01-01T00:00:00Z","name_a2s":"Uncletopia | London | 2 | All Maps","protocol":17,"map":"pl_barnblitz","folder":"tf","game":"Team Fortress","app_id":440,"player_count":23,"max_players":24,"Bots":0,"server_type":"Dedicated","server_os":"Linux","password":true,"vac":true,"version":"7932396","steam_id":85568392924470941,"keywords":["nocrits","nodmgspread","payload","uncletopia"],"game_id":440,"stv_port":27026,"stv_name":"Uncletopia | London | 2 | All Maps | STV","players":[{"user_id":31,"name":"Day 10","steam_id":76561198024438352,"connected_time":3309000000000,"state":"active","ping":44},{"user_id":81,"name":"aww yeah","steam_id":76561197992978878,"connected_time":318000000000,"state":"active","ping":73},{"user_id":58,"name":"Skittles","steam_id":76561198024077569,"connected_time":2293000000000,"state":"active","ping":56},{"user_id":83,"name":"Catsicle","steam_id":76561198054614761,"connected_time":112000000000,"state":"active","ping":56},{"user_id":63,"name":"Sylvanas","steam_id":76561198154904165,"connected_time":1544000000000,"state":"active","ping":114},{"user_id":79,"name":"Dkz","steam_id":76561197970673402,"connected_time":553000000000,"state":"active","ping":45},{"user_id":82,"name":"Mother Puncher","steam_id":76561198150448445,"connected_time":183000000000,"state":"active","ping":70},{"user_id":12,"name":"Worm","steam_id":76561198296497176,"connected_time":4087000000000,"state":"active","ping":47},{"user_id":74,"name":"Thobias18","steam_id":76561198232561380,"connected_time":1085000000000,"state":"active","ping":93},{"user_id":75,"name":"Pinochet","steam_id":76561198194042394,"connected_time":1078000000000,"state":"active","ping":152},{"user_id":15,"name":"stomping weebs","steam_id":76561198054521701,"connected_time":3955000000000,"state":"active","ping":71},{"user_id":57,"name":"shr1mple","steam_id":76561198173537027,"connected_time":2478000000000,"state":"active","ping":52},{"user_id":56,"name":"CampMaster49","steam_id":76561198353096926,"connected_time":2529000000000,"state":"active","ping":96},{"user_id":72,"name":"Spaenny","steam_id":76561198035850165,"connected_time":1180000000000,"state":"active","ping":67},{"user_id":73,"name":"marvs","steam_id":76561198851777617,"connected_time":1109000000000,"state":"active","ping":57},{"user_id":66,"name":"Pineappleman","steam_id":76561199074651648,"connected_time":1465000000000,"state":"active","ping":47},{"user_id":45,"name":"Piquesque","steam_id":76561198286763046,"connected_time":2756000000000,"state":"active","ping":112},{"user_id":84,"name":"Malorn Aetherius","steam_id":76561198068257989,"connected_time":109000000000,"state":"active","ping":50},{"user_id":47,"name":"veto vuyisio","steam_id":76561199101145470,"connected_time":2725000000000,"state":"active","ping":66},{"user_id":69,"name":"Old Boy Anter","steam_id":76561198153786963,"connected_time":1367000000000,"state":"active","ping":98},{"user_id":77,"name":"Peas4nt","steam_id":76561198287510052,"connected_time":1028000000000,"state":"active","ping":61},{"user_id":78,"name":"❤Femboy boy❤","steam_id":76561198977980700,"connected_time":1002000000000,"state":"active","ping":99},{"user_id":55,"name":"TheDripCollector","steam_id":76561198834945599,"connected_time":2547000000000,"state":"active","ping":56}]},{"server_id":320,"name":"Uncletopia | London | 3 | All Maps","name_short":"lon-3","host":"lon-1.uk.uncletopia.com","port":27035,"enabled":true,"region":"eu","cc":"gb","latitude":51.509865,"longitude":-0.118092,"reserved":0,"last_update":"0001-01-01T00:00:00Z","name_a2s":"Uncletopia | London | 3 | All Maps","protocol":17,"map":"cp_altitude","folder":"tf","game":"Team Fortress","app_id":440,"player_count":0,"max_players":24,"Bots":0,"server_type":"Dedicated","server_os":"Linux","password":true,"vac":true,"version":"7932396","steam_id":85568392924510192,"keywords":["cp","nocrits","nodmgspread","uncletopia"],"game_id":440,"stv_port":27036,"stv_name":"Uncletopia | London | 3 | All Maps | STV","players":null},{"server_id":321,"name":"Uncletopia | London | 4 | All Maps","name_short":"lon-4","host":"lon-1.uk.uncletopia.com","port":27045,"enabled":true,"region":"eu","cc":"gb","latitude":51.509865,"longitude":-0.118092,"reserved":0,"last_update":"0001-01-01T00:00:00Z","name_a2s":"Uncletopia | London | 4 | All Maps","protocol":17,"map":"cp_snakewater_final1","folder":"tf","game":"Team Fortress","app_id":440,"player_count":0,"max_players":24,"Bots":0,"server_type":"Dedicated","server_os":"Linux","password":true,"vac":true,"version":"7932396","steam_id":85568392924510193,"keywords":["cp","nocrits","nodmgspread","uncletopia"],"game_id":440,"stv_port":27046,"stv_name":"Uncletopia | London | 4 | All Maps | STV","players":null},{"server_id":21,"name":"Uncletopia | London | 5 | All Maps","name_short":"lon-5","host":"lon-1.uk.uncletopia.com","port":27055,"enabled":true,"region":"eu","cc":"gb","latitude":51.509865,"longitude":-0.118092,"reserved":0,"last_update":"0001-01-01T00:00:00Z","name_a2s":"Uncletopia | London | 5 | All Maps","protocol":17,"map":"koth_highpass","folder":"tf","game":"Team Fortress","app_id":440,"player_count":3,"max_players":24,"Bots":0,"server_type":"Dedicated","server_os":"Linux","password":true,"vac":true,"version":"7932396","steam_id":85568392924742829,"keywords":["cp","nocrits","nodmgspread","uncletopia"],"game_id":440,"stv_port":27056,"stv_name":"Uncletopia | London | 5 | All Maps | STV","players":[{"user_id":22,"name":"Andrei Bodi 1","steam_id":76561199018490738,"connected_time":1103000000000,"state":"active","ping":85},{"user_id":23,"name":"Fanta®","steam_id":76561198416458968,"connected_time":1099000000000,"state":"active","ping":43},{"user_id":25,"name":"Uncle Terry","steam_id":76561198396415736,"connected_time":535000000000,"state":"active","ping":70}]},{"server_id":22,"name":"Uncletopia | London | 6 | All Maps","name_short":"lon-6","host":"lon-1.uk.uncletopia.com","port":27065,"enabled":true,"region":"eu","cc":"gb","latitude":51.509865,"longitude":-0.118092,"reserved":0,"last_update":"0001-01-01T00:00:00Z","name_a2s":"Uncletopia | London | 6 | All Maps","protocol":17,"map":"pl_badwater","folder":"tf","game":"Team Fortress","app_id":440,"player_count":0,"max_players":24,"Bots":0,"server_type":"Dedicated","server_os":"Linux","password":true,"vac":true,"version":"7932396","steam_id":85568392924742830,"keywords":["nocrits","nodmgspread","payload","uncletopia"],"game_id":440,"stv_port":27066,"stv_name":"Uncletopia | London | 6 | All Maps | STV","players":null},{"server_id":40,"name":"Uncletopia | London | 7 | No Payload","name_short":"lon-7","host":"lon-1.uk.uncletopia.com","port":27075,"enabled":true,"region":"eu","cc":"gb","latitude":51.509865,"longitude":-0.118092,"reserved":0,"last_update":"0001-01-01T00:00:00Z","name_a2s":"Uncletopia | London | 7 | No Payload","protocol":17,"map":"pl_snowycoast","folder":"tf","game":"Team Fortress","app_id":440,"player_count":0,"max_players":24,"Bots":0,"server_type":"Dedicated","server_os":"Linux","password":true,"vac":true,"version":"7932396","steam_id":85568392924964314,"keywords":["nocrits","nodmgspread","payload","uncletopia"],"game_id":440,"stv_port":27076,"stv_name":"Uncletopia | London | 7 | No Payload | STV","players":null},{"server_id":41,"name":"Uncletopia | London | 8 | Community","name_short":"lon-8","host":"lon-1.uk.uncletopia.com","port":27085,"enabled":true,"region":"eu","cc":"gb","latitude":51.509865,"longitude":-0.118092,"reserved":0,"last_update":"0001-01-01T00:00:00Z","name_a2s":"Uncletopia | London | 8 | Community","protocol":17,"map":"workshop/koth_slaughter_rc1.ugc1712845210","folder":"tf","game":"Team Fortress","app_id":440,"player_count":0,"max_players":24,"Bots":0,"server_type":"Dedicated","server_os":"Linux","password":true,"vac":true,"version":"7932396","steam_id":85568392924964315,"keywords":["cp","nocrits","nodmgspread","uncletopia"],"game_id":440,"stv_port":27086,"stv_name":"Uncletopia | London | 8 | Community | STV","players":null},{"server_id":300,"name":"Uncletopia | Montréal | 1 | All Maps","name_short":"mtl-1","host":"mtl-1.ca.uncletopia.com","port":27015,"enabled":true,"region":"us-east","cc":"ca","latitude":45.50889,"longitude":-73.56167,"reserved":0,"last_update":"0001-01-01T00:00:00Z","name_a2s":"Uncletopia | Montréal | 1 | All Maps","protocol":17,"map":"cp_altitude","folder":"tf","game":"Team Fortress","app_id":440,"player_count":0,"max_players":24,"Bots":0,"server_type":"Dedicated","server_os":"Linux","password":true,"vac":true,"version":"7932396","steam_id":85568392924500087,"keywords":["cp","nocrits","nodmgspread","uncletopia"],"game_id":440,"stv_port":27016,"stv_name":"Uncletopia | Montréal | 1 | All Maps | STV","players":null},{"server_id":301,"name":"Uncletopia | Montréal | 2 | All Maps","name_short":"mtl-2","host":"mtl-1.ca.uncletopia.com","port":27025,"enabled":true,"region":"us-east","cc":"ca","latitude":45.50889,"longitude":-73.56167,"reserved":0,"last_update":"0001-01-01T00:00:00Z","name_a2s":"Uncletopia | Montréal | 2 | All Maps","protocol":17,"map":"koth_lakeside_final","folder":"tf","game":"Team Fortress","app_id":440,"player_count":0,"max_players":24,"Bots":0,"server_type":"Dedicated","server_os":"Linux","password":true,"vac":true,"version":"7932396","steam_id":85568392924500088,"keywords":["cp","nocrits","nodmgspread","uncletopia"],"game_id":440,"stv_port":27026,"stv_name":"Uncletopia | Montréal | 2 | All Maps | STV","players":null},{"server_id":302,"name":"Uncletopia | Montréal | 3 | All Maps","name_short":"mtl-3","host":"mtl-1.ca.uncletopia.com","port":27035,"enabled":true,"region":"us-east","cc":"ca","latitude":45.50889,"longitude":-73.56167,"reserved":0,"last_update":"0001-01-01T00:00:00Z","name_a2s":"Uncletopia | Montréal | 3 | All Maps","protocol":17,"map":"cp_process_final","folder":"tf","game":"Team Fortress","app_id":440,"player_count":0,"max_players":24,"Bots":0,"server_type":"Dedicated","server_os":"Linux","password":true,"vac":true,"version":"7932396","steam_id":85568392924500089,"keywords":["cp","nocrits","nodmgspread","uncletopia"],"game_id":440,"stv_port":27036,"stv_name":"Uncletopia | Montréal | 3 | All Maps | STV","players":null},{"server_id":303,"name":"Uncletopia | Montréal | 4 | No Payload","name_short":"mtl-4","host":"mtl-1.ca.uncletopia.com","port":27045,"enabled":true,"region":"us-east","cc":"ca","latitude":45.50889,"longitude":-73.56167,"reserved":0,"last_update":"0001-01-01T00:00:00Z","name_a2s":"Uncletopia | Montréal | 4 | No Payload","protocol":17,"map":"cp_snakewater_final1","folder":"tf","game":"Team Fortress","app_id":440,"player_count":0,"max_players":24,"Bots":0,"server_type":"Dedicated","server_os":"Linux","password":true,"vac":true,"version":"7932396","steam_id":85568392924500090,"keywords":["cp","nocrits","nodmgspread","uncletopia"],"game_id":440,"stv_port":27046,"stv_name":"Uncletopia | Montréal | 4 | No Payload | STV","players":null},{"server_id":13,"name":"Uncletopia | New York City | 1 | All Maps","name_short":"nyc-1","host":"nyc-1.us.uncletopia.com","port":27015,"enabled":true,"region":"us-east","cc":"us","latitude":40.73061,"longitude":-73.93524,"reserved":0,"last_update":"0001-01-01T00:00:00Z","name_a2s":"Uncletopia | New York City | 1 | All Maps","protocol":17,"map":"cp_dustbowl","folder":"tf","game":"Team Fortress","app_id":440,"player_count":0,"max_players":24,"Bots":0,"server_type":"Dedicated","server_os":"Linux","password":true,"vac":true,"version":"7932396","steam_id":85568392924469993,"keywords":["cp","nocrits","nodmgspread","uncletopia"],"game_id":440,"stv_port":27016,"stv_name":"Uncletopia | New York City | 1 | All Maps | STV","players":null},{"server_id":14,"name":"Uncletopia | New York City | 2 | All Maps","name_short":"nyc-2","host":"nyc-1.us.uncletopia.com","port":27025,"enabled":true,"region":"us-east","cc":"us","latitude":40.73061,"longitude":-73.93524,"reserved":0,"last_update":"0001-01-01T00:00:00Z","name_a2s":"Uncletopia | New York City | 2 | All Maps","protocol":17,"map":"koth_lakeside_final","folder":"tf","game":"Team Fortress","app_id":440,"player_count":0,"max_players":24,"Bots":0,"server_type":"Dedicated","server_os":"Linux","password":true,"vac":true,"version":"7932396","steam_id":85568392924469994,"keywords":["cp","nocrits","nodmgspread","uncletopia"],"game_id":440,"stv_port":27026,"stv_name":"Uncletopia | New York City | 2 | All Maps | STV","players":null},{"server_id":15,"name":"Uncletopia | New York City | 3 | Stopwatch Beta","name_short":"nyc-3","host":"nyc-1.us.uncletopia.com","port":27035,"enabled":true,"region":"us-east","cc":"us","latitude":40.73061,"longitude":-73.93524,"reserved":0,"last_update":"0001-01-01T00:00:00Z","name_a2s":"Uncletopia | New York City | 3 | Stopwatch Beta","protocol":17,"map":"cp_sunshine","folder":"tf","game":"Team Fortress","app_id":440,"player_count":0,"max_players":24,"Bots":0,"server_type":"Dedicated","server_os":"Linux","password":true,"vac":true,"version":"7932396","steam_id":85568392924742820,"keywords":["cp","nocrits","nodmgspread","uncletopia"],"game_id":440,"stv_port":27036,"stv_name":"Uncletopia | New York City | 3 | Stopwatch Beta | STV","players":null},{"server_id":16,"name":"Uncletopia | New York City | 4 | Community","name_short":"nyc-4","host":"nyc-1.us.uncletopia.com","port":27045,"enabled":true,"region":"us-east","cc":"us","latitude":40.73061,"longitude":-73.93524,"reserved":0,"last_update":"0001-01-01T00:00:00Z","name_a2s":"Uncletopia | New York City | 4 | Community","protocol":17,"map":"pl_barnblitz","folder":"tf","game":"Team Fortress","app_id":440,"player_count":0,"max_players":24,"Bots":0,"server_type":"Dedicated","server_os":"Linux","password":true,"vac":true,"version":"7932396","steam_id":85568392924742821,"keywords":["nocrits","nodmgspread","payload","uncletopia"],"game_id":440,"stv_port":27046,"stv_name":"Uncletopia | New York City | 4 | Community | STV","players":null},{"server_id":142,"name":"Uncletopia | São Paulo | 1 | All Maps","name_short":"sao-1","host":"sao-1.br.uncletopia.com","port":27015,"enabled":true,"region":"sa","cc":"br","latitude":-23.533773,"longitude":-46.62529,"reserved":0,"last_update":"0001-01-01T00:00:00Z","name_a2s":"Uncletopia | São Paulo | 1 | All Maps","protocol":17,"map":"cp_mountainlab","folder":"tf","game":"Team Fortress","app_id":440,"player_count":0,"max_players":24,"Bots":0,"server_type":"Dedicated","server_os":"Linux","password":true,"vac":true,"version":"7932396","steam_id":85568392924469996,"keywords":["cp","nocrits","nodmgspread","uncletopia"],"game_id":440,"stv_port":27016,"stv_name":"Uncletopia | São Paulo | 1 | All Maps | STV","players":null},{"server_id":143,"name":"Uncletopia | São Paulo | 2 | All Maps","name_short":"sao-2","host":"sao-2.br.uncletopia.com","port":27015,"enabled":true,"region":"sa","cc":"br","latitude":-23.533773,"longitude":-46.62529,"reserved":0,"last_update":"0001-01-01T00:00:00Z","name_a2s":"Uncletopia | São Paulo | 2 | All Maps","protocol":17,"map":"pl_swiftwater_final1","folder":"tf","game":"Team Fortress","app_id":440,"player_count":0,"max_players":24,"Bots":0,"server_type":"Dedicated","server_os":"Linux","password":true,"vac":true,"version":"7932396","steam_id":85568392924485349,"keywords":["nocrits","nodmgspread","payload","uncletopia"],"game_id":440,"stv_port":27016,"stv_name":"Uncletopia | São Paulo | 2 | All Maps | STV","players":null},{"server_id":7,"name":"Uncletopia | Seattle | 1 | All Maps","name_short":"sea-1","host":"sea-1.us.uncletopia.com","port":27015,"enabled":true,"region":"us-west","cc":"us","latitude":47.608013,"longitude":-122.33517,"reserved":0,"last_update":"0001-01-01T00:00:00Z","name_a2s":"Uncletopia | Seattle | 1 | All Maps","protocol":17,"map":"pl_upward","folder":"tf","game":"Team Fortress","app_id":440,"player_count":8,"max_players":24,"Bots":0,"server_type":"Dedicated","server_os":"Linux","password":true,"vac":true,"version":"7932396","steam_id":85568392924469997,"keywords":["nocrits","nodmgspread","payload","uncletopia"],"game_id":440,"stv_port":27016,"stv_name":"Uncletopia | Seattle | 1 | All Maps | STV","players":[{"user_id":614,"name":"ＣＨＡＭＰＩＯＮ","steam_id":76561198883157736,"connected_time":6800000000000,"state":"active","ping":53},{"user_id":677,"name":"black ops 3 guy","steam_id":76561198374769204,"connected_time":959000000000,"state":"active","ping":34},{"user_id":679,"name":"IcarusIsBestGirl","steam_id":76561198998625008,"connected_time":568000000000,"state":"active","ping":68},{"user_id":658,"name":"mn","steam_id":76561198042357436,"connected_time":2488000000000,"state":"active","ping":31},{"user_id":631,"name":"Donny Q","steam_id":76561198020901703,"connected_time":5479000000000,"state":"active","ping":55},{"user_id":632,"name":"unrealapex","steam_id":76561199024467448,"connected_time":5424000000000,"state":"active","ping":56},{"user_id":635,"name":"sissy fuckdoll $","steam_id":76561199064932372,"connected_time":5331000000000,"state":"active","ping":63},{"user_id":667,"name":"Xylemon","steam_id":76561197965297420,"connected_time":1870000000000,"state":"active","ping":56}]},{"server_id":119,"name":"Uncletopia | Seattle | 2 | All Maps","name_short":"sea-2","host":"sea-1.us.uncletopia.com","port":27025,"enabled":true,"region":"us-west","cc":"us","latitude":47.608013,"longitude":-122.33517,"reserved":0,"last_update":"0001-01-01T00:00:00Z","name_a2s":"Uncletopia | Seattle | 2 | All Maps","protocol":17,"map":"pl_borneo","folder":"tf","game":"Team Fortress","app_id":440,"player_count":24,"max_players":24,"Bots":0,"server_type":"Dedicated","server_os":"Linux","password":true,"vac":true,"version":"7932396","steam_id":85568392924469998,"keywords":["nocrits","nodmgspread","payload","uncletopia"],"game_id":440,"stv_port":27026,"stv_name":"Uncletopia | Seattle | 2 | All Maps | STV","players":[{"user_id":1007,"name":"lvl 99 bastard","steam_id":76561198044761617,"connected_time":849000000000,"state":"active","ping":134},{"user_id":1009,"name":"Astolfo","steam_id":76561198046524916,"connected_time":492000000000,"state":"active","ping":85},{"user_id":964,"name":"s420","steam_id":76561198065339248,"connected_time":5366000000000,"state":"active","ping":60},{"user_id":979,"name":"i need cock goku","steam_id":76561198154449875,"connected_time":2928000000000,"state":"active","ping":154},{"user_id":980,"name":"Toastee","steam_id":76561198085410969,"connected_time":2919000000000,"state":"active","ping":86},{"user_id":1001,"name":"KrylonHeretic","steam_id":76561198139811459,"connected_time":1102000000000,"state":"active","ping":85},{"user_id":994,"name":"Starkiller","steam_id":76561198101643120,"connected_time":1495000000000,"state":"active","ping":103},{"user_id":1006,"name":"T4T488","steam_id":76561198242633220,"connected_time":907000000000,"state":"active","ping":117},{"user_id":998,"name":"Alan","steam_id":76561198977083959,"connected_time":1235000000000,"state":"active","ping":60},{"user_id":1000,"name":"Save","steam_id":76561198032740584,"connected_time":1150000000000,"state":"active","ping":125},{"user_id":984,"name":"GodandTitans","steam_id":76561198070070155,"connected_time":2857000000000,"state":"active","ping":147},{"user_id":950,"name":"hotguy6pack","steam_id":76561198881665250,"connected_time":6742000000000,"state":"active","ping":44},{"user_id":1003,"name":"D0VE","steam_id":76561198151618566,"connected_time":1015000000000,"state":"active","ping":58},{"user_id":1004,"name":"rad killl raccoon","steam_id":76561198980975595,"connected_time":1003000000000,"state":"active","ping":65},{"user_id":953,"name":"Zee✞","steam_id":76561198274550638,"connected_time":6422000000000,"state":"active","ping":108},{"user_id":966,"name":"resh","steam_id":76561198239598834,"connected_time":5323000000000,"state":"active","ping":127},{"user_id":974,"name":"Optimore","steam_id":76561198047662990,"connected_time":4476000000000,"state":"active","ping":71},{"user_id":965,"name":"Smeagolhoss","steam_id":76561198361514063,"connected_time":5350000000000,"state":"active","ping":99},{"user_id":977,"name":"flouride","steam_id":76561198103189993,"connected_time":4309000000000,"state":"active","ping":75},{"user_id":963,"name":":3 beelthazus","steam_id":76561198127783432,"connected_time":5438000000000,"state":"active","ping":110},{"user_id":968,"name":"rorywashere /ᐠ - ˕ -マ Ⳋ","steam_id":76561198065825165,"connected_time":5106000000000,"state":"active","ping":108},{"user_id":896,"name":"jorts","steam_id":76561199041179985,"connected_time":12845000000000,"state":"active","ping":58},{"user_id":1008,"name":"sagej","steam_id":76561198118149530,"connected_time":818000000000,"state":"active","ping":118},{"user_id":1005,"name":"Aido","steam_id":76561198174032398,"connected_time":1001000000000,"state":"active","ping":68}]},{"server_id":406,"name":"Uncletopia | Seattle | 3 | Stopwatch Beta","name_short":"sea-3","host":"sea-1.us.uncletopia.com","port":27035,"enabled":true,"region":"us-west","cc":"us","latitude":47.608013,"longitude":-122.33517,"reserved":0,"last_update":"0001-01-01T00:00:00Z","name_a2s":"Uncletopia | Seattle | 3 | Stopwatch Beta","protocol":17,"map":"workshop/koth_bagel_rc6.ugc2514036946","folder":"tf","game":"Team Fortress","app_id":440,"player_count":0,"max_players":24,"Bots":0,"server_type":"Dedicated","server_os":"Linux","password":true,"vac":true,"version":"7932396","steam_id":85568392924515217,"keywords":["cp","nocrits","nodmgspread","uncletopia"],"game_id":440,"stv_port":27036,"stv_name":"Uncletopia | Seattle | 3 | Stopwatch Beta | STV","players":null},{"server_id":17,"name":"Uncletopia | San Francisco | 1 | All Maps","name_short":"sfo-1","host":"sfo-1.us.uncletopia.com","port":27015,"enabled":true,"region":"us-west","cc":"us","latitude":37.77397,"longitude":-122.4313,"reserved":0,"last_update":"0001-01-01T00:00:00Z","name_a2s":"Uncletopia | San Francisco | 1 | All Maps","protocol":17,"map":"pl_swiftwater_final1","folder":"tf","game":"Team Fortress","app_id":440,"player_count":0,"max_players":24,"Bots":0,"server_type":"Dedicated","server_os":"Linux","password":true,"vac":true,"version":"7932396","steam_id":85568392924469999,"keywords":["nocrits","nodmgspread","payload","uncletopia"],"game_id":440,"stv_port":27016,"stv_name":"Uncletopia | San Francisco | 1 | All Maps | STV","players":null},{"server_id":18,"name":"Uncletopia | San Francisco | 2 | All Maps","name_short":"sfo-2","host":"sfo-1.us.uncletopia.com","port":27025,"enabled":true,"region":"us-west","cc":"us","latitude":37.77397,"longitude":-122.4313,"reserved":0,"last_update":"0001-01-01T00:00:00Z","name_a2s":"Uncletopia | San Francisco | 2 | All Maps","protocol":17,"map":"koth_highpass","folder":"tf","game":"Team Fortress","app_id":440,"player_count":0,"max_players":24,"Bots":0,"server_type":"Dedicated","server_os":"Linux","password":true,"vac":true,"version":"7932396","steam_id":85568392924470000,"keywords":["cp","nocrits","nodmgspread","uncletopia"],"game_id":440,"stv_port":27026,"stv_name":"Uncletopia | San Francisco | 2 | All Maps | STV","players":null},{"server_id":19,"name":"Uncletopia | San Francisco | 3 | Stopwatch Beta","name_short":"sfo-3","host":"sfo-1.us.uncletopia.com","port":27035,"enabled":true,"region":"us-west","cc":"us","latitude":37.77397,"longitude":-122.4313,"reserved":0,"last_update":"0001-01-01T00:00:00Z","name_a2s":"Uncletopia | San Francisco | 3 | Stopwatch Beta","protocol":17,"map":"workshop/pl_vigil_rc9.ugc1266210012","folder":"tf","game":"Team Fortress","app_id":440,"player_count":0,"max_players":24,"Bots":0,"server_type":"Dedicated","server_os":"Linux","password":true,"vac":true,"version":"7932396","steam_id":85568392924742824,"keywords":["nocrits","nodmgspread","payload","uncletopia"],"game_id":440,"stv_port":27036,"stv_name":"Uncletopia | San Francisco | 3 | Stopwatch Beta | STV","players":null},{"server_id":20,"name":"Uncletopia | San Francisco | 4 | Community","name_short":"sfo-4","host":"sfo-1.us.uncletopia.com","port":27045,"enabled":true,"region":"us-west","cc":"us","latitude":37.77397,"longitude":-122.4313,"reserved":0,"last_update":"0001-01-01T00:00:00Z","name_a2s":"Uncletopia | San Francisco | 4 | Community","protocol":17,"map":"workshop/koth_kemptown_rc1.ugc767410655","folder":"tf","game":"Team Fortress","app_id":440,"player_count":0,"max_players":24,"Bots":0,"server_type":"Dedicated","server_os":"Linux","password":true,"vac":true,"version":"7932396","steam_id":85568392924742826,"keywords":["cp","nocrits","nodmgspread","uncletopia"],"game_id":440,"stv_port":27046,"stv_name":"Uncletopia | San Francisco | 4 | Community | STV","players":null},{"server_id":141,"name":"Uncletopia | Sydney | 1 | All Maps","name_short":"syd-1","host":"syd-1.au.uncletopia.com","port":27015,"enabled":true,"region":"au","cc":"au","latitude":-33.865143,"longitude":151.2099,"reserved":0,"last_update":"0001-01-01T00:00:00Z","name_a2s":"Uncletopia | Sydney | 1 | All Maps","protocol":17,"map":"pl_upward","folder":"tf","game":"Team Fortress","app_id":440,"player_count":24,"max_players":24,"Bots":0,"server_type":"Dedicated","server_os":"Linux","password":true,"vac":true,"version":"7932396","steam_id":85568392924470001,"keywords":["nocrits","nodmgspread","payload","uncletopia"],"game_id":440,"stv_port":27016,"stv_name":"Uncletopia | Sydney | 1 | All Maps | STV","players":[{"user_id":89,"name":"Hippity_Hoppity","steam_id":76561198861050395,"connected_time":1483000000000,"state":"active","ping":78},{"user_id":100,"name":"skyandsnow","steam_id":76561199088745933,"connected_time":93000000000,"state":"active","ping":57},{"user_id":53,"name":"Mups","steam_id":76561198344833209,"connected_time":3555000000000,"state":"active","ping":59},{"user_id":102,"name":"go crom","steam_id":76561198853357056,"connected_time":7000000000,"state":"active","ping":109},{"user_id":54,"name":"yilli_","steam_id":76561198210960700,"connected_time":3550000000000,"state":"active","ping":57},{"user_id":91,"name":"doctor morbin' (real)","steam_id":76561199365241695,"connected_time":1152000000000,"state":"active","ping":121},{"user_id":88,"name":"aoam","steam_id":76561198087803935,"connected_time":1517000000000,"state":"active","ping":46},{"user_id":59,"name":"Denszeal","steam_id":76561198313718095,"connected_time":2907000000000,"state":"active","ping":74},{"user_id":96,"name":"former romeo","steam_id":76561198031293430,"connected_time":741000000000,"state":"active","ping":91},{"user_id":64,"name":"toaster","steam_id":76561198858085224,"connected_time":2643000000000,"state":"active","ping":43},{"user_id":95,"name":"Snowy","steam_id":76561198255720598,"connected_time":757000000000,"state":"active","ping":45},{"user_id":101,"name":"horrid webbon ᘛ⁐̤ᕐᐷ","steam_id":76561198061998379,"connected_time":66000000000,"state":"active","ping":47},{"user_id":99,"name":"you will be boiled","steam_id":76561198079351541,"connected_time":437000000000,"state":"active","ping":44},{"user_id":78,"name":"ahfuq","steam_id":76561198255794152,"connected_time":2127000000000,"state":"active","ping":66},{"user_id":97,"name":"actions speak louder than Merv","steam_id":76561198301282416,"connected_time":739000000000,"state":"active","ping":56},{"user_id":98,"name":"Marzell","steam_id":76561198151276153,"connected_time":708000000000,"state":"active","ping":91},{"user_id":73,"name":"hxfm","steam_id":76561198392607727,"connected_time":2490000000000,"state":"active","ping":70},{"user_id":94,"name":"FrOStY","steam_id":76561198088155805,"connected_time":1055000000000,"state":"active","ping":77},{"user_id":90,"name":"splurboingus wazoogort","steam_id":76561198063481761,"connected_time":1356000000000,"state":"active","ping":42},{"user_id":84,"name":"Kumbya","steam_id":76561198117979249,"connected_time":1959000000000,"state":"active","ping":58},{"user_id":82,"name":"-Ech0-","steam_id":76561199121536801,"connected_time":2069000000000,"state":"active","ping":57},{"user_id":83,"name":"Jodelkönig Franzl Lang","steam_id":76561198007667830,"connected_time":2042000000000,"state":"active","ping":57},{"user_id":93,"name":"ibus","steam_id":76561199026701614,"connected_time":1139000000000,"state":"active","ping":63},{"user_id":86,"name":"stub","steam_id":76561198237014504,"connected_time":1781000000000,"state":"active","ping":56}]},{"server_id":123,"name":"Uncletopia | Sydney | 2 | All Maps","name_short":"syd-2","host":"syd-1.au.uncletopia.com","port":27025,"enabled":true,"region":"au","cc":"au","latitude":-33.865143,"longitude":151.2099,"reserved":0,"last_update":"0001-01-01T00:00:00Z","name_a2s":"Uncletopia | Sydney | 2 | All Maps","protocol":17,"map":"pl_upward","folder":"tf","game":"Team Fortress","app_id":440,"player_count":23,"max_players":24,"Bots":0,"server_type":"Dedicated","server_os":"Linux","password":true,"vac":true,"version":"7932396","steam_id":85568392924470002,"keywords":["nocrits","nodmgspread","payload","uncletopia"],"game_id":440,"stv_port":27026,"stv_name":"Uncletopia | Sydney | 2 | All Maps | STV","players":[{"user_id":586,"name":"That_Spooky_Dude","steam_id":76561198148488389,"connected_time":1944000000000,"state":"active","ping":53},{"user_id":602,"name":"Qwertles","steam_id":76561198033779273,"connected_time":941000000000,"state":"active","ping":60},{"user_id":603,"name":"kcajnosbod","steam_id":76561198400431574,"connected_time":925000000000,"state":"active","ping":68},{"user_id":588,"name":"Doctor Estonia","steam_id":76561198057365089,"connected_time":1678000000000,"state":"active","ping":89},{"user_id":581,"name":"Zieria","steam_id":76561199261811388,"connected_time":2281000000000,"state":"active","ping":42},{"user_id":587,"name":"MININinja1308","steam_id":76561199040303660,"connected_time":1791000000000,"state":"active","ping":56},{"user_id":604,"name":"Zeppy","steam_id":76561198074766231,"connected_time":773000000000,"state":"active","ping":73},{"user_id":573,"name":"miyamoto is daddy","steam_id":76561199483818230,"connected_time":3725000000000,"state":"active","ping":78},{"user_id":589,"name":"Caber_yop","steam_id":76561199045302481,"connected_time":1656000000000,"state":"active","ping":158},{"user_id":590,"name":"pilbo winkler","steam_id":76561198208966079,"connected_time":1629000000000,"state":"active","ping":46},{"user_id":591,"name":"s0lar","steam_id":76561198200896745,"connected_time":1627000000000,"state":"active","ping":44},{"user_id":619,"name":"dumbvent","steam_id":76561198190062810,"connected_time":120000000000,"state":"active","ping":60},{"user_id":580,"name":"tim88435","steam_id":76561198089653987,"connected_time":2289000000000,"state":"active","ping":57},{"user_id":613,"name":"2Frames","steam_id":76561199233498351,"connected_time":413000000000,"state":"active","ping":71},{"user_id":615,"name":"Atlas","steam_id":76561198069332870,"connected_time":356000000000,"state":"active","ping":57},{"user_id":608,"name":"jonneck","steam_id":76561198123019975,"connected_time":592000000000,"state":"active","ping":69},{"user_id":616,"name":"lego star war","steam_id":76561198052781893,"connected_time":334000000000,"state":"active","ping":68},{"user_id":599,"name":"Hungry for thumbtacks","steam_id":76561198059129270,"connected_time":1276000000000,"state":"active","ping":69},{"user_id":567,"name":"demoKe","steam_id":76561199081848498,"connected_time":4017000000000,"state":"active","ping":59},{"user_id":609,"name":"Person","steam_id":76561198053796020,"connected_time":578000000000,"state":"active","ping":45},{"user_id":611,"name":"ETHICAL CONSUMPTION","steam_id":76561198035066643,"connected_time":517000000000,"state":"active","ping":99},{"user_id":617,"name":"Vanessa","steam_id":76561198077728992,"connected_time":270000000000,"state":"active","ping":65},{"user_id":618,"name":"Lace","steam_id":76561198290993506,"connected_time":230000000000,"state":"active","ping":92}]},{"server_id":395,"name":"Uncletopia | Sydney | 3 | All Maps","name_short":"syd-3","host":"syd-1.au.uncletopia.com","port":27035,"enabled":true,"region":"au","cc":"au","latitude":-33.865143,"longitude":151.2099,"reserved":0,"last_update":"0001-01-01T00:00:00Z","name_a2s":"Uncletopia | Sydney | 3 | All Maps","protocol":17,"map":"pl_upward","folder":"tf","game":"Team Fortress","app_id":440,"player_count":3,"max_players":24,"Bots":0,"server_type":"Dedicated","server_os":"Linux","password":true,"vac":true,"version":"7932396","steam_id":85568392925194467,"keywords":["nocrits","nodmgspread","payload","uncletopia"],"game_id":440,"stv_port":27036,"stv_name":"Uncletopia | Sydney | 3 | All Maps | STV","players":[{"user_id":10,"name":"UrAvgDMG","steam_id":76561199214859141,"connected_time":597000000000,"state":"active","ping":142},{"user_id":11,"name":"ඞ","steam_id":76561199397915047,"connected_time":525000000000,"state":"active","ping":130},{"user_id":12,"name":"CardboardKing (no mic)","steam_id":76561199099769110,"connected_time":294000000000,"state":"active","ping":46}]},{"server_id":396,"name":"Uncletopia | Sydney | 4 | All Maps","name_short":"syd-4","host":"syd-1.au.uncletopia.com","port":27045,"enabled":true,"region":"au","cc":"au","latitude":-33.865143,"longitude":151.2099,"reserved":0,"last_update":"0001-01-01T00:00:00Z","name_a2s":"Uncletopia | Sydney | 4 | All Maps","protocol":17,"map":"pl_frontier_final","folder":"tf","game":"Team Fortress","app_id":440,"player_count":0,"max_players":24,"Bots":0,"server_type":"Dedicated","server_os":"Linux","password":true,"vac":true,"version":"7932396","steam_id":85568392925397958,"keywords":["nocrits","nodmgspread","payload","uncletopia"],"game_id":440,"stv_port":27046,"stv_name":"Uncletopia | Sydney | 4 | All Maps | STV","players":null},{"server_id":58,"name":"Uncletopia | Sydney | 5 | Stopwatch Beta","name_short":"syd-5","host":"syd-1.au.uncletopia.com","port":27055,"enabled":true,"region":"au","cc":"au","latitude":-33.865143,"longitude":151.2099,"reserved":0,"last_update":"0001-01-01T00:00:00Z","name_a2s":"Uncletopia | Sydney | 5 | Stopwatch Beta","protocol":17,"map":"pl_borneo","folder":"tf","game":"Team Fortress","app_id":440,"player_count":0,"max_players":24,"Bots":0,"server_type":"Dedicated","server_os":"Linux","password":true,"vac":true,"version":"7932396","steam_id":85568392925397959,"keywords":["nocrits","nodmgspread","payload","uncletopia"],"game_id":440,"stv_port":27056,"stv_name":"Uncletopia | Sydney | 5 | Stopwatch Beta | STV","players":null},{"server_id":59,"name":"Uncletopia | Sydney | 6 | Community","name_short":"syd-6","host":"syd-1.au.uncletopia.com","port":27065,"enabled":true,"region":"au","cc":"au","latitude":-33.865143,"longitude":151.2099,"reserved":0,"last_update":"0001-01-01T00:00:00Z","name_a2s":"Uncletopia | Sydney | 6 | Community","protocol":17,"map":"workshop/koth_product_final.ugc454272353","folder":"tf","game":"Team Fortress","app_id":440,"player_count":0,"max_players":24,"Bots":0,"server_type":"Dedicated","server_os":"Linux","password":true,"vac":true,"version":"7932396","steam_id":85568392925397960,"keywords":["cp","nocrits","nodmgspread","uncletopia"],"game_id":440,"stv_port":27066,"stv_name":"Uncletopia | Sydney | 6 | Community | STV","players":null},{"server_id":49,"name":"Uncletopia | Warsaw | 1 | All Maps","name_short":"waw-1","host":"waw-1.pl.uncletopia.com","port":27015,"enabled":true,"region":"eu","cc":"pl","latitude":52.2297,"longitude":21.017532,"reserved":0,"last_update":"0001-01-01T00:00:00Z","name_a2s":"","protocol":0,"map":"","folder":"","game":"","app_id":0,"player_count":0,"max_players":0,"Bots":0,"server_type":"","server_os":"","password":false,"vac":false,"version":"","steam_id":0,"keywords":null,"game_id":0,"stv_port":0,"stv_name":"","players":null},{"server_id":50,"name":"Uncletopia | Warsaw | 2 | All Maps","name_short":"waw-2","host":"waw-1.pl.uncletopia.com","port":27025,"enabled":true,"region":"eu","cc":"pl","latitude":52.2297,"longitude":21.017532,"reserved":0,"last_update":"0001-01-01T00:00:00Z","name_a2s":"Uncletopia | Warsaw | 2 | All Maps","protocol":17,"map":"pl_badwater","folder":"tf","game":"Team Fortress","app_id":440,"player_count":0,"max_players":24,"Bots":0,"server_type":"Dedicated","server_os":"Linux","password":true,"vac":true,"version":"7932396","steam_id":85568392925397851,"keywords":["nocrits","nodmgspread","payload","uncletopia"],"game_id":440,"stv_port":27026,"stv_name":"Uncletopia | Warsaw | 2 | All Maps | STV","players":null},{"server_id":51,"name":"Uncletopia | Warsaw | 3 | All Maps","name_short":"waw-3","host":"waw-1.pl.uncletopia.com","port":27035,"enabled":true,"region":"eu","cc":"pl","latitude":52.2297,"longitude":21.017532,"reserved":0,"last_update":"0001-01-01T00:00:00Z","name_a2s":"Uncletopia | Warsaw | 3 | All Maps","protocol":17,"map":"koth_lakeside_final","folder":"tf","game":"Team Fortress","app_id":440,"player_count":0,"max_players":24,"Bots":0,"server_type":"Dedicated","server_os":"Linux","password":true,"vac":true,"version":"7932396","steam_id":85568392925397852,"keywords":["cp","nocrits","nodmgspread","uncletopia"],"game_id":440,"stv_port":27036,"stv_name":"Uncletopia | Warsaw | 3 | All Maps | STV","players":null},{"server_id":52,"name":"Uncletopia | Warsaw | 4 | All Maps","name_short":"waw-4","host":"waw-1.pl.uncletopia.com","port":27045,"enabled":true,"region":"eu","cc":"pl","latitude":52.2297,"longitude":21.017532,"reserved":0,"last_update":"0001-01-01T00:00:00Z","name_a2s":"Uncletopia | Warsaw | 4 | All Maps","protocol":17,"map":"pl_swiftwater_final1","folder":"tf","game":"Team Fortress","app_id":440,"player_count":0,"max_players":24,"Bots":0,"server_type":"Dedicated","server_os":"Linux","password":true,"vac":true,"version":"7932396","steam_id":85568392925397853,"keywords":["nocrits","nodmgspread","payload","uncletopia"],"game_id":440,"stv_port":27046,"stv_name":"Uncletopia | Warsaw | 4 | All Maps | STV","players":null},{"server_id":53,"name":"Uncletopia | Warsaw | 5 | Stopwatch Beta","name_short":"waw-5","host":"waw-1.pl.uncletopia.com","port":27055,"enabled":true,"region":"eu","cc":"pl","latitude":52.2297,"longitude":21.017532,"reserved":0,"last_update":"0001-01-01T00:00:00Z","name_a2s":"Uncletopia | Warsaw | 5 | Stopwatch Beta","protocol":17,"map":"koth_highpass","folder":"tf","game":"Team Fortress","app_id":440,"player_count":0,"max_players":24,"Bots":0,"server_type":"Dedicated","server_os":"Linux","password":true,"vac":true,"version":"7932396","steam_id":85568392925397854,"keywords":["cp","nocrits","nodmgspread","uncletopia"],"game_id":440,"stv_port":27056,"stv_name":"Uncletopia | Warsaw | 5 | Stopwatch Beta | STV","players":null},{"server_id":54,"name":"Uncletopia | Warsaw | 6 | Community","name_short":"waw-6","host":"waw-1.pl.uncletopia.com","port":27065,"enabled":true,"region":"eu","cc":"pl","latitude":52.2297,"longitude":21.017532,"reserved":0,"last_update":"0001-01-01T00:00:00Z","name_a2s":"Uncletopia | Warsaw | 6 | Community","protocol":17,"map":"pl_upward","folder":"tf","game":"Team Fortress","app_id":440,"player_count":2,"max_players":24,"Bots":0,"server_type":"Dedicated","server_os":"Linux","password":true,"vac":true,"version":"7932396","steam_id":85568392925397856,"keywords":["nocrits","nodmgspread","payload","uncletopia"],"game_id":440,"stv_port":27066,"stv_name":"Uncletopia | Warsaw | 6 | Community | STV","players":[{"user_id":3,"name":"TWiNZY ツ","steam_id":76561198162833715,"connected_time":1188000000000,"state":"active","ping":113},{"user_id":4,"name":"PLaiღnex","steam_id":76561199175516566,"connected_time":1138000000000,"state":"active","ping":64}]}]}